{"status":true,"message":"","result":[{"server_id":9,"name":"Uncletopia | Atlanta | 1 | All Maps","name_short":"atl-1","host":"atl-1.us.uncletopia.com","port":27015,"enabled":true,"region":"us-east","cc":"us","latitude":33.753746,"longitude":-84.38633,"reserved":0,"last_update":"0001-01-01T00:00:00Z","name_a2s":"Uncletopia | Atlanta | 1 | All Maps","protocol":17,"map":"cp_sunshine","folder":"tf","game":"Team Fortress","app_id":440,"player_count":23,"max_players":24,"Bots":0,"server_type":"Dedicated","server_os":"Linux","password":true,"vac":true,"version":"7961495","steam_id":85568392924469982,"keywords":["cp","nocrits","nodmgspread","uncletopia"],"game_id":440,"stv_port":27016,"stv_name":"Uncletopia | Atlanta | 1 | All Maps | STV","players":[{"user_id":191,"name":"Gus Fring","steam_id":76561199022178492,"connected_time":1244000000000,"state":"active","ping":52},{"user_id":204,"name":"trianamarco780","steam_id":76561199084319677,"connected_time":74000000000,"state":"active","ping":100},{"user_id":119,"name":"Squanchy","steam_id":76561198036319676,"connected_time":7326000000000,"state":"active","ping":45},{"user_id":158,"name":"ATL1 | cola","steam_id":76561198374390458,"connected_time":4697000000000,"state":"active","ping":61},{"user_id":198,"name":"Vee (very cool)","steam_id":76561198330432889,"connected_time":122000000000,"state":"active","ping":62},{"user_id":130,"name":"BLOW UP NEW JERSEY","steam_id":76561198364439575,"connected_time":6753000000000,"state":"active","ping":60},{"user_id":160,"name":"Nyx","steam_id":76561198046768602,"connected_time":4156000000000,"state":"active","ping":70},{"user_id":207,"name":"big steve","steam_id":76561199037050183,"connected_time":44000000000,"state":"active","ping":120},{"user_id":195,"name":"Pango","steam_id":76561198069811545,"connected_time":292000000000,"state":"active","ping":45},{"user_id":202,"name":"Lancer Fan Club","steam_id":76561198355495948,"connected_time":100000000000,"state":"active","ping":50},{"user_id":197,"name":"IGOR","steam_id":76561199128786637,"connected_time":126000000000,"state":"active","ping":84},{"user_id":142,"name":"Gh0stz1","steam_id":76561198408804849,"connected_time":5608000000000,"state":"active","ping":79},{"user_id":199,"name":"Oddball","steam_id":76561198040440984,"connected_time":119000000000,"state":"active","ping":90},{"user_id":203,"name":"St. Michael","steam_id":76561198037611052,"connected_time":89000000000,"state":"active","ping":55},{"user_id":209,"name":"dam","steam_id":76561198991633113,"connected_time":23000000000,"state":"active","ping":106},{"user_id":200,"name":"Just PYE","steam_id":76561199439622967,"connected_time":115000000000,"state":"active","ping":71},{"user_id":175,"name":"tgirl swag","steam_id":76561198128164970,"connected_time":3083000000000,"state":"active","ping":100},{"user_id":171,"name":"Heathcliff","steam_id":76561198044288534,"connected_time":3697000000000,"state":"active","ping":71},{"user_id":188,"name":"Dr.Inkmix(femboy medic!)","steam_id":76561198854070384,"connected_time":1811000000000,"state":"active","ping":98},{"user_id":186,"name":"Okpar","steam_id":76561199221067945,"connected_time":1906000000000,"state":"active","ping":82},{"user_id":201,"name":"sleepy‚äπ","steam_id":76561199200969139,"connected_time":115000000000,"state":"active","ping":124},{"user_id":182,"name":"Uganda Knuckles lll","steam_id":76561199121276474,"connected_time":2217000000000,"state":"active","ping":80},{"user_id":193,"name":"Chernov","steam_id":76561198014463424,"connected_time":1024000000000,"state":"active","ping":59}]},{"server_id":104,"name":"Uncletopia | Atlanta | 2 | All Maps","name_short":"atl-2","host":"atl-1.us.uncletopia.com","port":27025,"enabled":true,"region":"us-east","cc":"us","latitude":33.753746,"longitude":-84.38633,"reserved":0,"last_update":"0001-01-01T00:00:00Z","name_a2s":"Uncletopia | Atlanta | 2 | All Maps","protocol":17,"map":"koth_cascade","folder":"tf","game":"Team Fortress","app_id":440,"player_count":0,"max_players":24,"Bots":0,"server_type":"Dedicated","server_os":"Linux","password":true,"vac":true,"version":"7961495","steam_id":85568392924469983,"keywords":["cp","nocrits","nodmgspread","uncletopia"],"game_id":440,"stv_port":27026,"stv_name":"Uncletopia | Atlanta | 2 | All Maps | STV","players":null},{"server_id":400,"name":"Uncletopia | Atlanta | 3 | Stopwatch","name_short":"atl-3","host":"atl-1.us.uncletopia.com","port":27035,"enabled":true,"region":"us-east","cc":"us","latitude":33.753746,"longitude":-84.38633,"reserved":0,"last_update":"0001-01-01T00:00:00Z","name_a2s":"Uncletopia | Atlanta | 3 | Stopwatch","protocol":17,"map":"workshop/koth_product_final.ugc454272353","folder":"tf","game":"Team Fortress","app_id":440,"player_count":14,"max_players":24,"Bots":0,"server_type":"Dedicated","server_os":"Linux","password":true,"vac":true,"version":"7961495","steam_id":85568392924515187,"keywords":["cp","nocrits","nodmgspread","uncletopia"],"game_id":440,"stv_port":27036,"stv_name":"Uncletopia | Atlanta | 3 | Stopwatch | STV","players":[{"user_id":7,"name":"YeeboBeebo","steam_id":76561198812879907,"connected_time":2915000000000,"state":"active","ping":74},{"user_id":8,"name":"Marrow \u003c3","steam_id":76561198930350337,"connected_time":2899000000000,"state":"active","ping":57},{"user_id":9,"name":"INFECT | A 2008 laptop","steam_id":76561198860068961,"connected_time":2461000000000,"state":"active","ping":60},{"user_id":23,"name":"Gobscilious Clown","steam_id":76561198974578120,"connected_time":798000000000,"state":"active","ping":91},{"user_id":24,"name":"Big Boi","steam_id":76561198117498461,"connected_time":783000000000,"state":"active","ping":76},{"user_id":19,"name":"beastmode","steam_id":76561199229507963,"connected_time":1527000000000,"state":"active","ping":91},{"user_id":13,"name":"m4xzo","steam_id":76561198073176682,"connected_time":2026000000000,"state":"active","ping":77},{"user_id":25,"name":"marinecpt","steam_id":76561198049741744,"connected_time":682000000000,"state":"active","ping":71},{"user_id":16,"name":"Heir","steam_id":76561198350772943,"connected_time":1913000000000,"state":"active","ping":51},{"user_id":31,"name":"Transfem Bumblebee","steam_id":76561198119393205,"connected_time":245000000000,"state":"active","ping":58},{"user_id":32,"name":"ashsillygoober","steam_id":76561199454622997,"connected_time":184000000000,"state":"active","ping":75},{"user_id":33,"name":"mastercoms ‚ô• alixei","steam_id":76561198046110893,"connected_time":180000000000,"state":"active","ping":43},{"user_id":34,"name":"Vetexpor","steam_id":76561199087480628,"connected_time":173000000000,"state":"active","ping":106},{"user_id":35,"name":"******RRRRRRRRRR","steam_id":76561198100174775,"connected_time":147000000000,"state":"active","ping":58}]},{"server_id":401,"name":"Uncletopia | Atlanta | 4 | Community","name_short":"atl-4","host":"atl-1.us.uncletopia.com","port":27045,"enabled":true,"region":"us-east","cc":"us","latitude":33.753746,"longitude":-84.38633,"reserved":0,"last_update":"0001-01-01T00:00:00Z","name_a2s":"Uncletopia | Atlanta | 4 | Community","protocol":17,"map":"workshop/koth_product_final.ugc454272353","folder":"tf","game":"Team Fortress","app_id":440,"player_count":0,"max_players":24,"Bots":0,"server_type":"Dedicated","server_os":"Linux","password":true,"vac":true,"version":"7961495","steam_id":85568392924515188,"keywords":["cp","nocrits","nodmgspread","uncletopia"],"game_id":440,"stv_port":27046,"stv_name":"Uncletopia | Atlanta | 4 | Community | STV","players":null},{"server_id":2,"name":"Uncletopia | Chicago | 1 | All Maps","name_short":"chi-1","host":"chi-1.us.uncletopia.com","port":27015,"enabled":true,"region":"us-central","cc":"us","latitude":41.881832,"longitude":-87.62318,"reserved":0,"last_update":"0001-01-01T00:00:00Z","name_a2s":"Uncletopia | Chicago | 1 | All Maps","protocol":17,"map":"pl_thundermountain","folder":"tf","game":"Team Fortress","app_id":440,"player_count":24,"max_players":24,"Bots":0,"server_type":"Dedicated","server_os":"Linux","password":true,"vac":true,"version":"7961495","steam_id":85568392924469984,"keywords":["nocrits","nodmgspread","payload","uncletopia"],"game_id":440,"stv_port":27016,"stv_name":"Uncletopia | Chicago | 1 | All Maps | STV","players":[{"user_id":340,"name":"Trolley","steam_id":76561198106695948,"connected_time":3273000000000,"state":"active","ping":91},{"user_id":360,"name":"Crimson","steam_id":76561198129326627,"connected_time":1980000000000,"state":"active","ping":81},{"user_id":394,"name":"yourlocalforecast","steam_id":76561198042243083,"connected_time":129000000000,"state":"active","ping":61},{"user_id":381,"name":"B.","steam_id":76561198040445907,"connected_time":864000000000,"state":"active","ping":72},{"user_id":361,"name":"Woody","steam_id":76561198020308956,"connected_time":1979000000000,"state":"active","ping":64},{"user_id":369,"name":"LOVEDRAGON","steam_id":76561198089908485,"connected_time":1349000000000,"state":"active","ping":95},{"user_id":396,"name":"LeTonzy","steam_id":76561198005806699,"connected_time":36000000000,"state":"spawning","ping":100},{"user_id":390,"name":"anonion","steam_id":76561198056477584,"connected_time":344000000000,"state":"active","ping":81},{"user_id":398,"name":"Grimm - (RIP Rick May/Kitty0706","steam_id":76561199050642411,"connected_time":15000000000,"state":"spawning","ping":67},{"user_id":378,"name":"Temujin","steam_id":76561198030936583,"connected_time":1068000000000,"state":"active","ping":53},{"user_id":343,"name":"Hipster_Giraffe","steam_id":76561198069701092,"connected_time":3208000000000,"state":"active","ping":85},{"user_id":395,"name":"Milkmur","steam_id":76561198210043821,"connected_time":43000000000,"state":"active","ping":68},{"user_id":392,"name":"J O S H¬≥¬≤","steam_id":76561198122603779,"connected_time":153000000000,"state":"active","ping":144},{"user_id":344,"name":"richard clock","steam_id":76561198048455671,"connected_time":2949000000000,"state":"active","ping":50},{"user_id":318,"name":"LULW WHAT IS HE DOING?","steam_id":76561198031675881,"connected_time":4787000000000,"state":"active","ping":45},{"user_id":365,"name":"Toottoot","steam_id":76561197992404836,"connected_time":1741000000000,"state":"active","ping":45},{"user_id":367,"name":"breakcore enjoyer","steam_id":76561198031400151,"connected_time":1426000000000,"state":"active","ping":60},{"user_id":364,"name":"krueger","steam_id":76561198268654031,"connected_time":1945000000000,"state":"active","ping":48},{"user_id":359,"name":"Lia_Rein","steam_id":76561198151569597,"connected_time":2156000000000,"state":"active","ping":136},{"user_id":393,"name":"Hylic","steam_id":76561199051314589,"connected_time":148000000000,"state":"active","ping":64},{"user_id":397,"name":"Patrick_Star","steam_id":76561198194381963,"connected_time":33000000000,"state":"active","ping":100},{"user_id":373,"name":"ùíØùíΩùíæùìáùìâùìé ùí©\ufffd\ufffd","steam_id":76561198111878431,"connected_time":1312000000000,"state":"active","ping":134},{"user_id":375,"name":"Drapph","steam_id":76561199384213314,"connected_time":1292000000000,"state":"active","ping":58},{"user_id":337,"name":"shellaa","steam_id":76561198044124102,"connected_time":3700000000000,"state":"active","ping":73}]},{"server_id":106,"name":"Uncletopia | Chicago | 2 | All Maps","name_short":"chi-2","host":"chi-1.us.uncletopia.com","port":27025,"enabled":true,"region":"us-central","cc":"us","latitude":41.881832,"longitude":-87.62318,"reserved":0,"last_update":"0001-01-01T00:00:00Z","name_a2s":"Uncletopia | Chicago | 2 | All Maps","protocol":17,"map":"pl_swiftwater_final1","folder":"tf","game":"Team Fortress","app_id":440,"player_count":24,"max_players":24,"Bots":0,"server_type":"Dedicated","server_os":"Linux","password":true,"vac":true,"version":"7961495","steam_id":85568392924469985,"keywords":["nocrits","nodmgspread","payload","uncletopia"],"game_id":440,"stv_port":27026,"stv_name":"Uncletopia | Chicago | 2 | All Maps | STV","players":[{"user_id":214,"name":"Clean Lines","steam_id":76561197960691518,"connected_time":3000000000000,"state":"active","ping":48},{"user_id":250,"name":"og biden pack cart","steam_id":76561198253731826,"connected_time":501000000000,"state":"active","ping":59},{"user_id":255,"name":"suns","steam_id":76561198079583278,"connected_time":70000000000,"state":"active","ping":42},{"user_id":257,"name":"bluliciouscow","steam_id":76561198839866507,"connected_time":38000000000,"state":"active","ping":89},{"user_id":208,"name":"The McObama","steam_id":76561198199720155,"connected_time":3282000000000,"state":"active","ping":93},{"user_id":221,"name":"Qui-Bong Jinn","steam_id":76561198077264112,"connected_time":2317000000000,"state":"active","ping":67},{"user_id":226,"name":"‚ôÇ boss of this gym ‚ôÇ","steam_id":76561198027102212,"connected_time":1997000000000,"state":"active","ping":66},{"user_id":239,"name":"jimmyfnaf172198yay","steam_id":76561198311446636,"connected_time":1656000000000,"state":"active","ping":59},{"user_id":238,"name":"‚ú®‚ú® BOILING PIZZA ‚ú®‚ú®","steam_id":76561198354108114,"connected_time":1682000000000,"state":"active","ping":81},{"user_id":233,"name":"Fredrick","steam_id":76561197981419964,"connected_time":1847000000000,"state":"active","ping":67},{"user_id":204,"name":"Kyle","steam_id":76561198150061073,"connected_time":3332000000000,"state":"active","ping":56},{"user_id":234,"name":"Sonic Mania 2 [100 Real Leaked","steam_id":76561198062764039,"connected_time":1841000000000,"state":"active","ping":47},{"user_id":248,"name":"Andallfor","steam_id":76561198350143349,"connected_time":690000000000,"state":"active","ping":75},{"user_id":244,"name":":)","steam_id":76561198982415497,"connected_time":1385000000000,"state":"active","ping":100},{"user_id":258,"name":"Rudy","steam_id":76561198013456828,"connected_time":24000000000,"state":"active","ping":62},{"user_id":245,"name":"drugger. (makster implant)","steam_id":76561198353463585,"connected_time":1254000000000,"state":"active","ping":62},{"user_id":253,"name":"Trapilicious","steam_id":76561198061430457,"connected_time":305000000000,"state":"active","ping":72},{"user_id":211,"name":"Dr.StrangeGlove","steam_id":76561198286114229,"connected_time":3241000000000,"state":"active","ping":60},{"user_id":240,"name":"Dr.Coomer PH.D","steam_id":76561198144558937,"connected_time":1636000000000,"state":"active","ping":82},{"user_id":252,"name":"Papa Beans","steam_id":76561198867358649,"connected_time":479000000000,"state":"active","ping":80},{"user_id":254,"name":"ÏÖÄÎ†àÎÇòÍ≥†Î©îÏ¶à","steam_id":76561197964720294,"connected_time":289000000000,"state":"active","ping":75},{"user_id":241,"name":"Zephyr","steam_id":76561198063155482,"connected_time":1634000000000,"state":"active","ping":61},{"user_id":242,"name":"Darkk","steam_id":76561198020460220,"connected_time":1622000000000,"state":"active","ping":65}]},{"server_id":402,"name":"Uncletopia | Chicago | 3 | All Maps","name_short":"chi-3","host":"chi-1.us.uncletopia.com","port":27035,"enabled":true,"region":"us-central","cc":"us","latitude":41.881832,"longitude":-87.62318,"reserved":0,"last_update":"0001-01-01T00:00:00Z","name_a2s":"Uncletopia | Chicago | 3 | All Maps","protocol":17,"map":"cp_sunshine","folder":"tf","game":"Team Fortress","app_id":440,"player_count":24,"max_players":24,"Bots":0,"server_type":"Dedicated","server_os":"Linux","password":true,"vac":true,"version":"7961495","steam_id":85568392924515191,"keywords":["cp","nocrits","nodmgspread","uncletopia"],"game_id":440,"stv_port":27036,"stv_name":"Uncletopia | Chicago | 3 | All Maps | STV","players":[{"user_id":191,"name":"Duncan","steam_id":76561198042148095,"connected_time":466000000000,"state":"active","ping":46},{"user_id":132,"name":"dank","steam_id":76561198157983180,"connected_time":4085000000000,"state":"active","ping":60},{"user_id":146,"name":"next thing you know","steam_id":76561198124069244,"connected_time":3693000000000,"state":"active","ping":65},{"user_id":192,"name":"rickyrickyricky","steam_id":76561198041765918,"connected_time":333000000000,"state":"active","ping":81},{"user_id":139,"name":"leonardo doujinshi","steam_id":76561198025810326,"connected_time":3880000000000,"state":"active","ping":75},{"user_id":160,"name":"gunna sayit","steam_id":76561198034339940,"connected_time":2909000000000,"state":"active","ping":56},{"user_id":195,"name":"ChebJeb","steam_id":76561198981377081,"connected_time":257000000000,"state":"active","ping":82},{"user_id":201,"name":"teamedward","steam_id":76561198072179483,"connected_time":20000000000,"state":"active","ping":91},{"user_id":142,"name":"Colossal Falafel","steam_id":76561198108086245,"connected_time":3859000000000,"state":"active","ping":56},{"user_id":194,"name":"Barbecue  Bacon Burger","steam_id":76561198981135699,"connected_time":274000000000,"state":"active","ping":80},{"user_id":190,"name":"peanut butter","steam_id":76561198117839474,"connected_time":578000000000,"state":"active","ping":59},{"user_id":176,"name":"The Nikocado Enjoyer","steam_id":76561198263154374,"connected_time":1365000000000,"state":"active","ping":58},{"user_id":163,"name":"dunk","steam_id":76561198132476501,"connected_time":2483000000000,"state":"active","ping":54},{"user_id":178,"name":"heck","steam_id":76561198308547958,"connected_time":1339000000000,"state":"active","ping":56},{"user_id":179,"name":"Supasorcerer","steam_id":76561198074150595,"connected_time":1298000000000,"state":"active","ping":62},{"user_id":196,"name":"Mick","steam_id":76561198972619900,"connected_time":237000000000,"state":"active","ping":87},{"user_id":202,"name":"Boot Mcstink","steam_id":76561199226873917,"connected_time":6000000000,"state":"spawning","ping":74},{"user_id":187,"name":"Hot Cheese Sundae","steam_id":76561198061189527,"connected_time":648000000000,"state":"active","ping":72},{"user_id":197,"name":"Mario","steam_id":76561198321794277,"connected_time":237000000000,"state":"active","ping":74},{"user_id":166,"name":"Vordt","steam_id":76561198040942866,"connected_time":2454000000000,"state":"active","ping":61},{"user_id":171,"name":"robe","steam_id":76561198238166694,"connected_time":1847000000000,"state":"active","ping":53},{"user_id":157,"name":"cotton candy fluff","steam_id":76561198058998371,"connected_time":3147000000000,"state":"active","ping":62},{"user_id":188,"name":"Dieu-Sama","steam_id":76561198002075862,"connected_time":634000000000,"state":"active","ping":85},{"user_id":200,"name":"4 life","steam_id":76561198175961598,"connected_time":132000000000,"state":"active","ping":105}]},{"server_id":403,"name":"Uncletopia | Chicago | 4 | All Maps","name_short":"chi-4","host":"chi-1.us.uncletopia.com","port":27045,"enabled":true,"region":"us-central","cc":"us","latitude":41.881832,"longitude":-87.62318,"reserved":0,"last_update":"0001-01-01T00:00:00Z","name_a2s":"Uncletopia | Chicago | 4 | All Maps","protocol":17,"map":"pl_upward","folder":"tf","game":"Team Fortress","app_id":440,"player_count":22,"max_players":24,"Bots":0,"server_type":"Dedicated","server_os":"Linux","password":true,"vac":true,"version":"7961495","steam_id":85568392924515193,"keywords":["nocrits","nodmgspread","payload","uncletopia"],"game_id":440,"stv_port":27046,"stv_name":"Uncletopia | Chicago | 4 | All Maps | STV","players":[{"user_id":71,"name":"moe","steam_id":76561198929586245,"connected_time":1215000000000,"state":"active","ping":101},{"user_id":49,"name":"Jpxfred","steam_id":76561199414783749,"connected_time":2143000000000,"state":"active","ping":109},{"user_id":69,"name":"mrappledumb","steam_id":76561199133590774,"connected_time":1337000000000,"state":"active","ping":71},{"user_id":84,"name":"Willham","steam_id":76561198065755781,"connected_time":740000000000,"state":"active","ping":86},{"user_id":34,"name":"MasterGeek.MX","steam_id":76561198063355220,"connected_time":2629000000000,"state":"active","ping":108},{"user_id":53,"name":"Gamering_funy","steam_id":76561199006503777,"connected_time":1918000000000,"state":"active","ping":57},{"user_id":90,"name":"Shrebbie","steam_id":76561198875230824,"connected_time":73000000000,"state":"active","ping":58},{"user_id":62,"name":"AWGER","steam_id":76561198284683624,"connected_time":1586000000000,"state":"active","ping":79},{"user_id":85,"name":"StudioMania (#SAVETF2)","steam_id":76561198211315795,"connected_time":734000000000,"state":"active","ping":67},{"user_id":91,"name":"Oberon","steam_id":76561199360964272,"connected_time":49000000000,"state":"active","ping":61},{"user_id":73,"name":"jan kili","steam_id":76561198289894834,"connected_time":1192000000000,"state":"active","ping":98},{"user_id":68,"name":"vivi","steam_id":76561198041548737,"connected_time":1418000000000,"state":"active","ping":69},{"user_id":25,"name":"Rat King Bodyguard","steam_id":76561198821774697,"connected_time":2777000000000,"state":"active","ping":51},{"user_id":94,"name":"NoobsSlayer","steam_id":76561199102765122,"connected_time":27000000000,"state":"active","ping":143},{"user_id":75,"name":"twitch.tv/axities","steam_id":76561198278008225,"connected_time":1167000000000,"state":"active","ping":82},{"user_id":82,"name":"Jerk Tryhard (roleplay)","steam_id":76561199470538309,"connected_time":946000000000,"state":"active","ping":59},{"user_id":86,"name":"[L33T] Roz257","steam_id":76561198842844532,"connected_time":565000000000,"state":"active","ping":53},{"user_id":89,"name":"‚ô°Ame‚ô°","steam_id":76561198071217748,"connected_time":124000000000,"state":"active","ping":50},{"user_id":81,"name":"Sharky","steam_id":76561198012238028,"connected_time":987000000000,"state":"active","ping":517},{"user_id":88,"name":"DrCrent","steam_id":76561198182204161,"connected_time":204000000000,"state":"active","ping":54},{"user_id":43,"name":":3c","steam_id":76561198449857428,"connected_time":2363000000000,"state":"active","ping":62},{"user_id":80,"name":"Captain Offencoch","steam_id":76561198121025705,"connected_time":1111000000000,"state":"active","ping":178}]},{"server_id":36,"name":"Uncletopia | Chicago | 5 | All Maps","name_short":"chi-5","host":"chi-2.us.uncletopia.com","port":27015,"enabled":true,"region":"us-central","cc":"us","latitude":41.881832,"longitude":-87.62318,"reserved":0,"last_update":"0001-01-01T00:00:00Z","name_a2s":"Uncletopia | Chicago | 5 | All Maps","protocol":17,"map":"pl_frontier_final","folder":"tf","game":"Team Fortress","app_id":440,"player_count":24,"max_players":24,"Bots":0,"server_type":"Dedicated","server_os":"Linux","password":true,"vac":true,"version":"7961495","steam_id":85568392924866362,"keywords":["nocrits","nodmgspread","payload","uncletopia"],"game_id":440,"stv_port":27016,"stv_name":"Uncletopia | Chicago | 5 | All Maps | STV","players":[{"user_id":91,"name":"gulch","steam_id":76561199227946025,"connected_time":1212000000000,"state":"active","ping":69},{"user_id":109,"name":"copper","steam_id":76561198146250533,"connected_time":55000000000,"state":"spawning","ping":87},{"user_id":84,"name":"Cervid√©","steam_id":76561198098579497,"connected_time":1928000000000,"state":"active","ping":70},{"user_id":57,"name":"mr poop","steam_id":76561199195196632,"connected_time":3308000000000,"state":"active","ping":76},{"user_id":100,"name":"styraxic","steam_id":76561198987579589,"connected_time":793000000000,"state":"active","ping":50},{"user_id":110,"name":"Huntpk","steam_id":76561198340591674,"connected_time":50000000000,"state":"active","ping":31},{"user_id":111,"name":"orangesuit1","steam_id":76561199020443017,"connected_time":35000000000,"state":"active","ping":111},{"user_id":72,"name":"Iamnotapotato","steam_id":76561198201436018,"connected_time":2749000000000,"state":"active","ping":164},{"user_id":105,"name":"Rowmaster","steam_id":76561198271659574,"connected_time":222000000000,"state":"active","ping":97},{"user_id":55,"name":"Windows Gangster Edition","steam_id":76561198166982558,"connected_time":3782000000000,"state":"active","ping":77},{"user_id":53,"name":"vcx","steam_id":76561198139371143,"connected_time":3999000000000,"state":"active","ping":72},{"user_id":60,"name":"Voodo133","steam_id":76561198042670351,"connected_time":3135000000000,"state":"active","ping":79},{"user_id":77,"name":"jjvthou(NOtdRuNkMeswEaRss)","steam_id":76561199403071554,"connected_time":2259000000000,"state":"active","ping":74},{"user_id":62,"name":"suger1316","steam_id":76561199079999423,"connected_time":3126000000000,"state":"active","ping":78},{"user_id":104,"name":"Nina","steam_id":76561198172481363,"connected_time":474000000000,"state":"active","ping":44},{"user_id":107,"name":"Tallboi","steam_id":76561198274286470,"connected_time":75000000000,"state":"active","ping":108},{"user_id":112,"name":"Alabit","steam_id":76561198065578560,"connected_time":25000000000,"state":"active","ping":86},{"user_id":113,"name":"Kurama","steam_id":76561198137649711,"connected_time":11000000000,"state":"spawning","ping":84},{"user_id":69,"name":"Stiffy Magnum","steam_id":76561198000036722,"connected_time":2784000000000,"state":"active","ping":99},{"user_id":106,"name":"popfulmail","steam_id":76561198865971290,"connected_time":136000000000,"state":"active","ping":79},{"user_id":93,"name":"TeatsMcghee #TummyTroubles","steam_id":76561198036483480,"connected_time":1125000000000,"state":"active","ping":75},{"user_id":81,"name":"Foxdevox","steam_id":76561198821180669,"connected_time":2037000000000,"state":"active","ping":74},{"user_id":90,"name":"Sloppy Hoes","steam_id":76561198114922735,"connected_time":1358000000000,"state":"active","ping":69},{"user_id":97,"name":"Swifgz","steam_id":76561198162875756,"connected_time":1024000000000,"state":"active","ping":61}]},{"server_id":37,"name":"Uncletopia | Chicago | 6 | All Maps","name_short":"chi-6","host":"chi-2.us.uncletopia.com","port":27025,"enabled":true,"region":"us-central","cc":"us","latitude":41.881832,"longitude":-87.62318,"reserved":0,"last_update":"0001-01-01T00:00:00Z","name_a2s":"Uncletopia | Chicago | 6 | All Maps","protocol":17,"map":"koth_nucleus","folder":"tf","game":"Team Fortress","app_id":440,"player_count":24,"max_players":24,"Bots":0,"server_type":"Dedicated","server_os":"Linux","password":true,"vac":true,"version":"7961495","steam_id":85568392924866363,"keywords":["cp","nocrits","nodmgspread","uncletopia"],"game_id":440,"stv_port":27026,"stv_name":"Uncletopia | Chicago | 6 | All Maps | STV","players":[{"user_id":101,"name":"Splnter","steam_id":76561198874186629,"connected_time":1112000000000,"state":"active","ping":72},{"user_id":109,"name":"Turtlin'","steam_id":76561198885096042,"connected_time":936000000000,"state":"active","ping":69},{"user_id":51,"name":"Lethal","steam_id":76561198055545714,"connected_time":4985000000000,"state":"active","ping":68},{"user_id":75,"name":"Beast_727","steam_id":76561198390289197,"connected_time":2402000000000,"state":"active","ping":51},{"user_id":103,"name":"Lemon","steam_id":76561199001451079,"connected_time":1066000000000,"state":"active","ping":75},{"user_id":119,"name":"Person","steam_id":76561198073885832,"connected_time":368000000000,"state":"active","ping":110},{"user_id":104,"name":"maS","steam_id":76561198033846407,"connected_time":1033000000000,"state":"active","ping":50},{"user_id":42,"name":"Impresio","steam_id":76561198129127347,"connected_time":5448000000000,"state":"active","ping":68},{"user_id":110,"name":"Sunbather","steam_id":76561197967230865,"connected_time":922000000000,"state":"active","ping":60},{"user_id":120,"name":"Gaiduk","steam_id":76561198112323877,"connected_time":366000000000,"state":"active","ping":76},{"user_id":121,"name":"nonagon infinity","steam_id":76561198397662124,"connected_time":347000000000,"state":"active","ping":87},{"user_id":114,"name":"har hahj hhahha","steam_id":76561198050149667,"connected_time":814000000000,"state":"active","ping":74},{"user_id":122,"name":"The Rambler","steam_id":76561198109648603,"connected_time":267000000000,"state":"active","ping":81},{"user_id":125,"name":"PumpkinThink","steam_id":76561198393830529,"connected_time":62000000000,"state":"active","ping":79},{"user_id":26,"name":"majorbobfunction","steam_id":76561198042464632,"connected_time":5770000000000,"state":"active","ping":59},{"user_id":56,"name":"A Puppy","steam_id":76561198828184456,"connected_time":3795000000000,"state":"active","ping":60},{"user_id":126,"name":"pinglefingle","steam_id":76561198216580197,"connected_time":19000000000,"state":"active","ping":73},{"user_id":111,"name":"kszn","steam_id":76561199068623664,"connected_time":907000000000,"state":"active","ping":103},{"user_id":95,"name":"Big Bill Haywood","steam_id":76561198142290733,"connected_time":1515000000000,"state":"active","ping":71},{"user_id":83,"name":"Fiendish Frog","steam_id":76561198029478821,"connected_time":2198000000000,"state":"active","ping":72},{"user_id":118,"name":"Bob D. Builder","steam_id":76561198257109863,"connected_time":462000000000,"state":"active","ping":67},{"user_id":124,"name":"Dad","steam_id":76561198089213897,"connected_time":158000000000,"state":"active","ping":101},{"user_id":116,"name":"doro","steam_id":76561198099041747,"connected_time":585000000000,"state":"active","ping":99},{"user_id":108,"name":"The local hobo","steam_id":76561198289650060,"connected_time":953000000000,"state":"active","ping":89}]},{"server_id":38,"name":"Uncletopia | Chicago | 7 | Stopwatch","name_short":"chi-7","host":"chi-2.us.uncletopia.com","port":27035,"enabled":true,"region":"us-central","cc":"us","latitude":41.881832,"longitude":-87.62318,"reserved":0,"last_update":"0001-01-01T00:00:00Z","name_a2s":"Uncletopia | Chicago | 7 | Stopwatch","protocol":17,"map":"workshop/koth_product_final.ugc454272353","folder":"tf","game":"Team Fortress","app_id":440,"player_count":0,"max_players":24,"Bots":0,"server_type":"Dedicated","server_os":"Linux","password":true,"vac":true,"version":"7961495","steam_id":85568392924866364,"keywords":["cp","nocrits","nodmgspread","uncletopia"],"game_id":440,"stv_port":27036,"stv_name":"Uncletopia | Chicago | 7 | Stopwatch | STV","players":null},{"server_id":39,"name":"Uncletopia | Chicago | 8 | Community","name_short":"chi-8","host":"chi-2.us.uncletopia.com","port":27045,"enabled":true,"region":"us-central","cc":"us","latitude":41.881832,"longitude":-87.62318,"reserved":0,"last_update":"0001-01-01T00:00:00Z","name_a2s":"Uncletopia | Chicago | 8 | Community","protocol":17,"map":"workshop/koth_ramjam_rc1.ugc459778887","folder":"tf","game":"Team Fortress","app_id":440,"player_count":2,"max_players":24,"Bots":0,"server_type":"Dedicated","server_os":"Linux","password":true,"vac":true,"version":"7961495","steam_id":85568392924866365,"keywords":["cp","nocrits","nodmgspread","uncletopia"],"game_id":440,"stv_port":27046,"stv_name":"Uncletopia | Chicago | 8 | Community | STV","players":[{"user_id":7,"name":"Mike1225","steam_id":76561198861615835,"connected_time":249000000000,"state":"active","ping":88},{"user_id":8,"name":"kirklandjacob01","steam_id":76561199258746330,"connected_time":211000000000,"state":"active","ping":82}]},{"server_id":8,"name":"Uncletopia | Dallas | 1 | All Maps","name_short":"dal-1","host":"dal-1.us.uncletopia.com","port":27015,"enabled":true,"region":"us-central","cc":"us","latitude":32.779167,"longitude":-96.80889,"reserved":0,"last_update":"0001-01-01T00:00:00Z","name_a2s":"Uncletopia | Dallas | 1 | All Maps","protocol":17,"map":"koth_highpass","folder":"tf","game":"Team Fortress","app_id":440,"player_count":24,"max_players":24,"Bots":0,"server_type":"Dedicated","server_os":"Linux","password":true,"vac":true,"version":"7961495","steam_id":85568392924469986,"keywords":["cp","nocrits","nodmgspread","uncletopia"],"game_id":440,"stv_port":27016,"stv_name":"Uncletopia | Dallas | 1 | All Maps | STV","players":[{"user_id":53,"name":"BOUZENZEL","steam_id":76561198095000722,"connected_time":703000000000,"state":"active","ping":38},{"user_id":64,"name":"allahsdroptop (Bag/Chaser)","steam_id":76561198133195238,"connected_time":325000000000,"state":"active","ping":95},{"user_id":68,"name":"Massive Fart","steam_id":76561198985501931,"connected_time":167000000000,"state":"active","ping":73},{"user_id":67,"name":"Ren O.R.","steam_id":76561198191114169,"connected_time":210000000000,"state":"active","ping":135},{"user_id":65,"name":"your moms car","steam_id":76561199389283507,"connected_time":234000000000,"state":"active","ping":100},{"user_id":31,"name":"soapboxracer360","steam_id":76561198316394688,"connected_time":1418000000000,"state":"active","ping":94},{"user_id":32,"name":"MoreRaptor360","steam_id":76561198318219638,"connected_time":1277000000000,"state":"active","ping":86},{"user_id":69,"name":"Scuba Steve","steam_id":76561198313018251,"connected_time":166000000000,"state":"active","ping":84},{"user_id":46,"name":"Azazellotl","steam_id":76561198824814392,"connected_time":828000000000,"state":"active","ping":85},{"user_id":35,"name":"VaL-ASROC","steam_id":76561198886493635,"connected_time":1064000000000,"state":"active","ping":74},{"user_id":70,"name":"Darling","steam_id":76561198127525888,"connected_time":153000000000,"state":"active","ping":49},{"user_id":71,"name":"Clownfucker","steam_id":76561198091713728,"connected_time":147000000000,"state":"active","ping":77},{"user_id":72,"name":"tek lintowe fan","steam_id":76561198206177593,"connected_time":146000000000,"state":"active","ping":75},{"user_id":73,"name":"V@nn1e","steam_id":76561199099194994,"connected_time":144000000000,"state":"active","ping":73},{"user_id":48,"name":"Jango","steam_id":76561198084589742,"connected_time":796000000000,"state":"active","ping":75},{"user_id":51,"name":"Zombee","steam_id":76561198105367546,"connected_time":751000000000,"state":"active","ping":77},{"user_id":57,"name":"pabbott123110","steam_id":76561199231739796,"connected_time":629000000000,"state":"active","ping":107},{"user_id":49,"name":"who ate the cheese","steam_id":76561198275408467,"connected_time":776000000000,"state":"active","ping":53},{"user_id":50,"name":"Unlimited_Trees","steam_id":76561198299141443,"connected_time":766000000000,"state":"active","ping":85},{"user_id":55,"name":"xbox record that","steam_id":76561198150117455,"connected_time":670000000000,"state":"active","ping":64},{"user_id":56,"name":"Rearranging furniture","steam_id":76561199054971009,"connected_time":665000000000,"state":"active","ping":47},{"user_id":63,"name":"M1C4A3L","steam_id":76561198009980085,"connected_time":447000000000,"state":"active","ping":80},{"user_id":59,"name":"catrinaisahuman","steam_id":76561198281355729,"connected_time":613000000000,"state":"active","ping":64},{"user_id":60,"name":"aisu","steam_id":76561198043768507,"connected_time":613000000000,"state":"active","ping":92}]},{"server_id":108,"name":"Uncletopia | Dallas | 2 | All Maps","name_short":"dal-2","host":"dal-1.us.uncletopia.com","port":27025,"enabled":true,"region":"us-central","cc":"us","latitude":32.779167,"longitude":-96.80889,"reserved":0,"last_update":"0001-01-01T00:00:00Z","name_a2s":"Uncletopia | Dallas | 2 | All Maps","protocol":17,"map":"cp_sunshine","folder":"tf","game":"Team Fortress","app_id":440,"player_count":24,"max_players":24,"Bots":0,"server_type":"Dedicated","server_os":"Linux","password":true,"vac":true,"version":"7961495","steam_id":85568392924469988,"keywords":["cp","nocrits","nodmgspread","uncletopia"],"game_id":440,"stv_port":27026,"stv_name":"Uncletopia | Dallas | 2 | All Maps | STV","players":[{"user_id":520,"name":"QuintupletPuppies","steam_id":76561198926124738,"connected_time":985000000000,"state":"active","ping":85},{"user_id":513,"name":"Brains . . .","steam_id":76561198100249037,"connected_time":1559000000000,"state":"active","ping":61},{"user_id":522,"name":"spitserberg","steam_id":76561198067579714,"connected_time":646000000000,"state":"active","ping":75},{"user_id":527,"name":"Blue Banana","steam_id":76561198100077411,"connected_time":495000000000,"state":"active","ping":76},{"user_id":488,"name":"mkl","steam_id":76561197986401685,"connected_time":3154000000000,"state":"active","ping":55},{"user_id":517,"name":"Hazeyboi","steam_id":76561198130687838,"connected_time":1211000000000,"state":"active","ping":60},{"user_id":495,"name":"cyborgjo2147","steam_id":76561199184761439,"connected_time":2847000000000,"state":"active","ping":81},{"user_id":524,"name":"Breezy","steam_id":76561199130895434,"connected_time":624000000000,"state":"active","ping":96},{"user_id":530,"name":"The Sydney Sleeper Itself","steam_id":76561198180251763,"connected_time":382000000000,"state":"active","ping":64},{"user_id":501,"name":"The Quadratic Formula‚Ñ¢","steam_id":76561198024345691,"connected_time":2237000000000,"state":"active","ping":84},{"user_id":531,"name":"Sky Tree","steam_id":76561198027103242,"connected_time":380000000000,"state":"active","ping":74},{"user_id":480,"name":"Joe Biden","steam_id":76561198056170906,"connected_time":4609000000000,"state":"active","ping":93},{"user_id":511,"name":"BananaMangoFestival2013","steam_id":76561198218558897,"connected_time":1608000000000,"state":"active","ping":143},{"user_id":521,"name":"weeb","steam_id":76561198106945226,"connected_time":795000000000,"state":"active","ping":97},{"user_id":529,"name":"Hanzo P.C.H.U","steam_id":76561199130917163,"connected_time":454000000000,"state":"active","ping":45},{"user_id":528,"name":"boo_thefeared","steam_id":76561198127967685,"connected_time":483000000000,"state":"active","ping":159},{"user_id":505,"name":"SrTurtle","steam_id":76561198804964984,"connected_time":2149000000000,"state":"active","ping":149},{"user_id":534,"name":"Melaza Madera","steam_id":76561199031977210,"connected_time":165000000000,"state":"active","ping":54},{"user_id":479,"name":"TheGFG","steam_id":76561198166150556,"connected_time":4956000000000,"state":"active","ping":66},{"user_id":491,"name":"Onyxia","steam_id":76561198247749308,"connected_time":3083000000000,"state":"active","ping":92},{"user_id":523,"name":"opamojab","steam_id":76561198284988954,"connected_time":642000000000,"state":"active","ping":81},{"user_id":533,"name":"CopperBox","steam_id":76561198068217248,"connected_time":323000000000,"state":"active","ping":73},{"user_id":525,"name":"Goldoche","steam_id":76561197995065045,"connected_time":622000000000,"state":"active","ping":109},{"user_id":515,"name":"Maximum Flame","steam_id":76561198073682529,"connected_time":1292000000000,"state":"active","ping":60}]},{"server_id":404,"name":"Uncletopia | Dallas | 3 | All Maps","name_short":"dal-3","host":"dal-1.us.uncletopia.com","port":27035,"enabled":true,"region":"us-central","cc":"us","latitude":32.779167,"longitude":-96.80889,"reserved":0,"last_update":"0001-01-01T00:00:00Z","name_a2s":"Uncletopia | Dallas | 3 | All Maps","protocol":17,"map":"pl_pier","folder":"tf","game":"Team Fortress","app_id":440,"player_count":0,"max_players":24,"Bots":0,"server_type":"Dedicated","server_os":"Linux","password":true,"vac":true,"version":"7961495","steam_id":85568392924515219,"keywords":["nocrits","nodmgspread","payload","uncletopia"],"game_id":440,"stv_port":27036,"stv_name":"Uncletopia | Dallas | 3 | All Maps | STV","players":null},{"server_id":405,"name":"Uncletopia | Dallas | 4 | Community","name_short":"dal-4","host":"dal-1.us.uncletopia.com","port":27045,"enabled":true,"region":"us-central","cc":"us","latitude":32.779167,"longitude":-96.80889,"reserved":0,"last_update":"0001-01-01T00:00:00Z","name_a2s":"Uncletopia | Dallas | 4 | Community","protocol":17,"map":"workshop/pl_cashworks_final1.ugc2904065412","folder":"tf","game":"Team Fortress","app_id":440,"player_count":0,"max_players":24,"Bots":0,"server_type":"Dedicated","server_os":"Linux","password":true,"vac":true,"version":"7961495","steam_id":85568392924515220,"keywords":["nocrits","nodmgspread","payload","uncletopia"],"game_id":440,"stv_port":27046,"stv_name":"Uncletopia | Dallas | 4 | Community | STV","players":null},{"server_id":5,"name":"Uncletopia | Frankfurt | 1 | All Maps","name_short":"frk-1","host":"frk-1.de.uncletopia.com","port":27015,"enabled":true,"region":"eu","cc":"de","latitude":50.110924,"longitude":8.682127,"reserved":0,"last_update":"0001-01-01T00:00:00Z","name_a2s":"Uncletopia | Frankfurt | 1 | All Maps","protocol":17,"map":"pl_borneo","folder":"tf","game":"Team Fortress","app_id":440,"player_count":15,"max_players":24,"Bots":0,"server_type":"Dedicated","server_os":"Linux","password":true,"vac":true,"version":"7961495","steam_id":85568392924469989,"keywords":["nocrits","nodmgspread","payload","uncletopia"],"game_id":440,"stv_port":27016,"stv_name":"Uncletopia | Frankfurt | 1 | All Maps | STV","players":[{"user_id":548,"name":"Temperance","steam_id":76561198446955878,"connected_time":207000000000,"state":"active","ping":79},{"user_id":549,"name":"Birchly","steam_id":76561198140011785,"connected_time":143000000000,"state":"active","ping":59},{"user_id":541,"name":"endlesshills","steam_id":76561198081908373,"connected_time":1274000000000,"state":"active","ping":50},{"user_id":550,"name":"Elizabeth","steam_id":76561198109727871,"connected_time":142000000000,"state":"active","ping":66},{"user_id":537,"name":"speedy-heavy","steam_id":76561198124991468,"connected_time":1476000000000,"state":"active","ping":58},{"user_id":551,"name":"-natalexei ‚ô•","steam_id":76561198100477765,"connected_time":135000000000,"state":"active","ping":146},{"user_id":539,"name":"cipherrephic","steam_id":76561198453630258,"connected_time":1296000000000,"state":"active","ping":83},{"user_id":552,"name":"henryl200","steam_id":76561198810332404,"connected_time":95000000000,"state":"active","ping":64},{"user_id":554,"name":"BELADIT","steam_id":76561198011911501,"connected_time":21000000000,"state":"active","ping":73},{"user_id":535,"name":"The2PLAYZ","steam_id":76561198352720404,"connected_time":1745000000000,"state":"active","ping":83},{"user_id":545,"name":"daxx","steam_id":76561197971296086,"connected_time":964000000000,"state":"active","ping":142},{"user_id":555,"name":"‚òÅ Lou1smeister ‚òÅ","steam_id":76561198004032968,"connected_time":16000000000,"state":"active","ping":86},{"user_id":509,"name":"D.T. Katze","steam_id":76561198002280813,"connected_time":3392000000000,"state":"active","ping":139},{"user_id":546,"name":"Imperial City Guard","steam_id":76561198083355845,"connected_time":945000000000,"state":"active","ping":55},{"user_id":534,"name":"doomer","steam_id":76561198977420882,"connected_time":1891000000000,"state":"active","ping":45}]},{"server_id":110,"name":"Uncletopia | Frankfurt | 2 | All Maps","name_short":"frk-2","host":"frk-1.de.uncletopia.com","port":27025,"enabled":true,"region":"eu","cc":"de","latitude":50.110924,"longitude":8.682127,"reserved":0,"last_update":"0001-01-01T00:00:00Z","name_a2s":"Uncletopia | Frankfurt | 2 | All Maps","protocol":17,"map":"cp_process_final","folder":"tf","game":"Team Fortress","app_id":440,"player_count":22,"max_players":24,"Bots":0,"server_type":"Dedicated","server_os":"Linux","password":true,"vac":true,"version":"7961495","steam_id":85568392924469990,"keywords":["cp","nocrits","nodmgspread","uncletopia"],"game_id":440,"stv_port":27026,"stv_name":"Uncletopia | Frankfurt | 2 | All Maps | STV","players":[{"user_id":403,"name":"armadillo","steam_id":76561198324656652,"connected_time":1834000000000,"state":"active","ping":63},{"user_id":356,"name":"Mm-pim-mM","steam_id":76561199003155022,"connected_time":4593000000000,"state":"active","ping":65},{"user_id":404,"name":"Abyssion","steam_id":76561198040246963,"connected_time":1823000000000,"state":"active","ping":56},{"user_id":405,"name":"Finem Belli","steam_id":76561198227177976,"connected_time":1815000000000,"state":"active","ping":47},{"user_id":427,"name":"Fishul","steam_id":76561198074001910,"connected_time":261000000000,"state":"active","ping":75},{"user_id":406,"name":"Fat","steam_id":76561198073325963,"connected_time":1726000000000,"state":"active","ping":46},{"user_id":411,"name":"Raivop","steam_id":76561197980854307,"connected_time":1595000000000,"state":"active","ping":93},{"user_id":428,"name":"r^f nyanezt","steam_id":76561198253734265,"connected_time":178000000000,"state":"active","ping":85},{"user_id":371,"name":"Joe","steam_id":76561198145639903,"connected_time":3481000000000,"state":"active","ping":95},{"user_id":407,"name":"that shit got me middle handed","steam_id":76561198010239925,"connected_time":1705000000000,"state":"active","ping":60},{"user_id":429,"name":"brew","steam_id":76561198836246326,"connected_time":178000000000,"state":"active","ping":71},{"user_id":430,"name":"goz","steam_id":76561198155229347,"connected_time":167000000000,"state":"active","ping":59},{"user_id":431,"name":"Biggest birrrd","steam_id":76561198069066522,"connected_time":144000000000,"state":"active","ping":72},{"user_id":435,"name":"Baba Sraka","steam_id":76561198128292318,"connected_time":26000000000,"state":"active","ping":113},{"user_id":423,"name":"Arc","steam_id":76561198805049375,"connected_time":1136000000000,"state":"active","ping":48},{"user_id":367,"name":"just a person","steam_id":76561198340369454,"connected_time":3733000000000,"state":"active","ping":84},{"user_id":390,"name":"kilo","steam_id":76561198015641339,"connected_time":2329000000000,"state":"active","ping":62},{"user_id":433,"name":"The Lady","steam_id":76561198029895809,"connected_time":80000000000,"state":"active","ping":69},{"user_id":412,"name":"Ross from F.R.I.E.N.D.S.","steam_id":76561198008511665,"connected_time":1572000000000,"state":"active","ping":59},{"user_id":424,"name":"Tom","steam_id":76561198005899912,"connected_time":1113000000000,"state":"active","ping":52},{"user_id":425,"name":"RKO!","steam_id":76561198084534426,"connected_time":1083000000000,"state":"active","ping":95},{"user_id":434,"name":"Xiphos","steam_id":76561198090118654,"connected_time":59000000000,"state":"spawning","ping":45}]},{"server_id":308,"name":"Uncletopia | Frankfurt | 3 | All Maps","name_short":"frk-3","host":"frk-1.de.uncletopia.com","port":27035,"enabled":true,"region":"eu","cc":"de","latitude":50.110924,"longitude":8.682127,"reserved":0,"last_update":"0001-01-01T00:00:00Z","name_a2s":"Uncletopia | Frankfurt | 3 | All Maps","protocol":17,"map":"koth_harvest_final","folder":"tf","game":"Team Fortress","app_id":440,"player_count":2,"max_players":24,"Bots":0,"server_type":"Dedicated","server_os":"Linux","password":true,"vac":true,"version":"7961495","steam_id":85568392924504274,"keywords":["cp","nocrits","nodmgspread","uncletopia"],"game_id":440,"stv_port":27036,"stv_name":"Uncletopia | Frankfurt | 3 | All Maps | STV","players":[{"user_id":413,"name":"Lord Chunk Ass","steam_id":76561198377576721,"connected_time":2457000000000,"state":"active","ping":88},{"user_id":420,"name":"Marker06","steam_id":76561198277310442,"connected_time":1553000000000,"state":"active","ping":60}]},{"server_id":309,"name":"Uncletopia | Frankfurt | 4 | All Maps","name_short":"frk-4","host":"frk-1.de.uncletopia.com","port":27045,"enabled":true,"region":"eu","cc":"de","latitude":50.110924,"longitude":8.682127,"reserved":0,"last_update":"0001-01-01T00:00:00Z","name_a2s":"Uncletopia | Frankfurt | 4 | All Maps","protocol":17,"map":"pl_upward","folder":"tf","game":"Team Fortress","app_id":440,"player_count":21,"max_players":24,"Bots":0,"server_type":"Dedicated","server_os":"Linux","password":true,"vac":true,"version":"7961495","steam_id":85568392924504275,"keywords":["nocrits","nodmgspread","payload","uncletopia"],"game_id":440,"stv_port":27046,"stv_name":"Uncletopia | Frankfurt | 4 | All Maps | STV","players":[{"user_id":600,"name":"carl","steam_id":76561198055827003,"connected_time":3707000000000,"state":"active","ping":80},{"user_id":644,"name":"Acanda","steam_id":76561198123246537,"connected_time":275000000000,"state":"active","ping":55},{"user_id":645,"name":"Kaschey","steam_id":76561198135452198,"connected_time":272000000000,"state":"active","ping":135},{"user_id":570,"name":"SWMG | Dober","steam_id":76561198215012216,"connected_time":6003000000000,"state":"active","ping":86},{"user_id":647,"name":"Noob_with_source","steam_id":76561198870362103,"connected_time":140000000000,"state":"active","ping":59},{"user_id":643,"name":"shjuttan","steam_id":76561198324413872,"connected_time":355000000000,"state":"active","ping":57},{"user_id":648,"name":"‚ôâ LEIGULAS ‚ôâ","steam_id":76561198006815007,"connected_time":113000000000,"state":"active","ping":76},{"user_id":597,"name":"his pyro (she/they)","steam_id":76561198046763539,"connected_time":4228000000000,"state":"active","ping":78},{"user_id":649,"name":"Truskawka","steam_id":76561198855163602,"connected_time":46000000000,"state":"active","ping":70},{"user_id":650,"name":"FoxyTheFish","steam_id":76561199074190919,"connected_time":25000000000,"state":"spawning","ping":54},{"user_id":651,"name":"Apox","steam_id":76561198008005377,"connected_time":20000000000,"state":"active","ping":57},{"user_id":634,"name":"BiffenB","steam_id":76561198137724840,"connected_time":1582000000000,"state":"active","ping":77},{"user_id":631,"name":"Weegee","steam_id":76561198150308523,"connected_time":1716000000000,"state":"active","ping":60},{"user_id":639,"name":"Retarded Asian Programmer","steam_id":76561198852826853,"connected_time":714000000000,"state":"active","ping":55},{"user_id":605,"name":"Kitetsu","steam_id":76561198391541690,"connected_time":3644000000000,"state":"active","ping":114},{"user_id":642,"name":"HIGHLY T‚ò¢XIC","steam_id":76561198519850324,"connected_time":534000000000,"state":"active","ping":57},{"user_id":635,"name":"tone","steam_id":76561197975301462,"connected_time":1093000000000,"state":"active","ping":76},{"user_id":609,"name":"WrathNSpeed","steam_id":76561198390944504,"connected_time":3232000000000,"state":"active","ping":109},{"user_id":598,"name":"Revolver TF2","steam_id":76561198968778310,"connected_time":3905000000000,"state":"active","ping":143},{"user_id":636,"name":"–Æ–†–ò–°–¢","steam_id":76561198130788058,"connected_time":1089000000000,"state":"active","ping":69},{"user_id":527,"name":"Caramel","steam_id":76561198021214844,"connected_time":7912000000000,"state":"active","ping":59}]},{"server_id":310,"name":"Uncletopia | Frankfurt | 5 | All Maps","name_short":"frk-5","host":"frk-1.de.uncletopia.com","port":27055,"enabled":true,"region":"eu","cc":"de","latitude":50.110924,"longitude":8.682127,"reserved":0,"last_update":"0001-01-01T00:00:00Z","name_a2s":"Uncletopia | Frankfurt | 5 | All Maps","protocol":17,"map":"pl_borneo","folder":"tf","game":"Team Fortress","app_id":440,"player_count":24,"max_players":24,"Bots":0,"server_type":"Dedicated","server_os":"Linux","password":true,"vac":true,"version":"7961495","steam_id":85568392924504277,"keywords":["nocrits","nodmgspread","payload","uncletopia"],"game_id":440,"stv_port":27056,"stv_name":"Uncletopia | Frankfurt | 5 | All Maps | STV","players":[{"user_id":738,"name":"BenteBent","steam_id":76561198297920637,"connected_time":1602000000000,"state":"active","ping":42},{"user_id":742,"name":"Bobo","steam_id":76561198052308399,"connected_time":968000000000,"state":"active","ping":60},{"user_id":754,"name":"È≠îË°ìÂ∏´","steam_id":76561198049639319,"connected_time":260000000000,"state":"active","ping":75},{"user_id":755,"name":"I sell exotic parrots","steam_id":76561199192434258,"connected_time":186000000000,"state":"active","ping":77},{"user_id":722,"name":"goop","steam_id":76561198190073005,"connected_time":2362000000000,"state":"active","ping":56},{"user_id":747,"name":"Happy Broccol","steam_id":76561198180667795,"connected_time":571000000000,"state":"active","ping":72},{"user_id":711,"name":"John Noob","steam_id":76561197999170026,"connected_time":3417000000000,"state":"active","ping":92},{"user_id":743,"name":"KsawiDemon","steam_id":76561198855789287,"connected_time":895000000000,"state":"active","ping":75},{"user_id":725,"name":"Luke SpyWalker","steam_id":76561198008643276,"connected_time":2092000000000,"state":"active","ping":68},{"user_id":718,"name":"Skyrider of Spaceways","steam_id":76561197991678236,"connected_time":2607000000000,"state":"active","ping":134},{"user_id":744,"name":"Elsuedi","steam_id":76561198074722832,"connected_time":780000000000,"state":"active","ping":57},{"user_id":732,"name":"Cirox","steam_id":76561198383142404,"connected_time":1856000000000,"state":"active","ping":88},{"user_id":706,"name":"Vershal Smershal","steam_id":76561198116223995,"connected_time":3476000000000,"state":"active","ping":58},{"user_id":716,"name":"Nittugai","steam_id":76561198067366462,"connected_time":2675000000000,"state":"active","ping":60},{"user_id":733,"name":"Drift7114","steam_id":76561199044419505,"connected_time":1804000000000,"state":"active","ping":73},{"user_id":684,"name":"Just Navlis","steam_id":76561198090479609,"connected_time":6575000000000,"state":"active","ping":46},{"user_id":750,"name":"‚ò≠King‚ò≠","steam_id":76561199214677088,"connected_time":362000000000,"state":"active","ping":62},{"user_id":673,"name":"azzy","steam_id":76561198061293740,"connected_time":6610000000000,"state":"active","ping":79},{"user_id":752,"name":"tm`","steam_id":76561197993580412,"connected_time":333000000000,"state":"active","ping":59},{"user_id":734,"name":"Joo ‚ô¶","steam_id":76561197987609203,"connected_time":1780000000000,"state":"active","ping":74},{"user_id":739,"name":"wvwaxhtp","steam_id":76561198237038646,"connected_time":1364000000000,"state":"active","ping":89},{"user_id":710,"name":"Monkey","steam_id":76561199008411791,"connected_time":3471000000000,"state":"active","ping":59},{"user_id":753,"name":"Greg","steam_id":76561198014131702,"connected_time":323000000000,"state":"active","ping":133},{"user_id":746,"name":"Cosmonaut","steam_id":76561198086803330,"connected_time":600000000000,"state":"active","ping":84}]},{"server_id":311,"name":"Uncletopia | Frankfurt | 6 | All Maps","name_short":"frk-6","host":"frk-1.de.uncletopia.com","port":27065,"enabled":true,"region":"eu","cc":"de","latitude":50.110924,"longitude":8.682127,"reserved":0,"last_update":"0001-01-01T00:00:00Z","name_a2s":"Uncletopia | Frankfurt | 6 | All Maps","protocol":17,"map":"koth_viaduct","folder":"tf","game":"Team Fortress","app_id":440,"player_count":4,"max_players":24,"Bots":0,"server_type":"Dedicated","server_os":"Linux","password":true,"vac":true,"version":"7961495","steam_id":85568392924504278,"keywords":["cp","nocrits","nodmgspread","uncletopia"],"game_id":440,"stv_port":27066,"stv_name":"Uncletopia | Frankfurt | 6 | All Maps | STV","players":[{"user_id":327,"name":"FB1_Destro","steam_id":76561199061003259,"connected_time":2938000000000,"state":"active","ping":168},{"user_id":328,"name":"Misty","steam_id":76561198863357531,"connected_time":2696000000000,"state":"active","ping":108},{"user_id":330,"name":"weeb machine","steam_id":76561198372699365,"connected_time":1248000000000,"state":"active","ping":73},{"user_id":331,"name":"Calsim","steam_id":76561198164877219,"connected_time":353000000000,"state":"active","ping":52}]},{"server_id":23,"name":"Uncletopia | Frankfurt | 7 | Stopwatch","name_short":"frk-7","host":"frk-1.de.uncletopia.com","port":27075,"enabled":true,"region":"eu","cc":"de","latitude":50.110924,"longitude":8.682127,"reserved":0,"last_update":"0001-01-01T00:00:00Z","name_a2s":"Uncletopia | Frankfurt | 7 | Stopwatch","protocol":17,"map":"workshop/pl_summercoast_rc8e.ugc1761528829","folder":"tf","game":"Team Fortress","app_id":440,"player_count":0,"max_players":24,"Bots":0,"server_type":"Dedicated","server_os":"Linux","password":true,"vac":true,"version":"7961495","steam_id":85568392924742827,"keywords":["nocrits","nodmgspread","payload","uncletopia"],"game_id":440,"stv_port":27076,"stv_name":"Uncletopia | Frankfurt | 7 | Stopwatch | STV","players":null},{"server_id":24,"name":"Uncletopia | Frankfurt | 8 | Community","name_short":"frk-8","host":"frk-1.de.uncletopia.com","port":27085,"enabled":true,"region":"eu","cc":"de","latitude":50.110924,"longitude":8.682127,"reserved":0,"last_update":"0001-01-01T00:00:00Z","name_a2s":"Uncletopia | Frankfurt | 8 | Community","protocol":17,"map":"workshop/koth_slaughter_rc1.ugc1712845210","folder":"tf","game":"Team Fortress","app_id":440,"player_count":0,"max_players":24,"Bots":0,"server_type":"Dedicated","server_os":"Linux","password":true,"vac":true,"version":"7961495","steam_id":85568392924742828,"keywords":["cp","nocrits","nodmgspread","uncletopia"],"game_id":440,"stv_port":27086,"stv_name":"Uncletopia | Frankfurt | 8 | Community | STV","players":null},{"server_id":202,"name":"Uncletopia | Hong Kong | 1 | All Maps","name_short":"hgk-1","host":"hgk-1.hk.uncletopia.com","port":27015,"enabled":true,"region":"asia","cc":"hk","latitude":22.302711,"longitude":114.177216,"reserved":0,"last_update":"0001-01-01T00:00:00Z","name_a2s":"Uncletopia | Hong Kong | 1 | All Maps","protocol":17,"map":"pl_frontier_final","folder":"tf","game":"Team Fortress","app_id":440,"player_count":0,"max_players":24,"Bots":0,"server_type":"Dedicated","server_os":"Linux","password":true,"vac":true,"version":"7961495","steam_id":85568392924494504,"keywords":["nocrits","nodmgspread","payload","uncletopia"],"game_id":440,"stv_port":27016,"stv_name":"Uncletopia | Hong Kong | 1 | All Maps | STV","players":null},{"server_id":1,"name":"Uncletopia | Los Angeles | 1 | All Maps","name_short":"lax-1","host":"lax-1.us.uncletopia.com","port":27015,"enabled":true,"region":"us-west","cc":"us","latitude":33.94279,"longitude":-118.41004,"reserved":0,"last_update":"0001-01-01T00:00:00Z","name_a2s":"Uncletopia | Los Angeles | 1 | All Maps","protocol":17,"map":"pl_borneo","folder":"tf","game":"Team Fortress","app_id":440,"player_count":0,"max_players":24,"Bots":0,"server_type":"Dedicated","server_os":"Linux","password":true,"vac":true,"version":"7961495","steam_id":85568392924469991,"keywords":["nocrits","nodmgspread","payload","uncletopia"],"game_id":440,"stv_port":27016,"stv_name":"Uncletopia | Los Angeles | 1 | All Maps | STV","players":null},{"server_id":112,"name":"Uncletopia | Los Angeles | 2 | All Maps","name_short":"lax-2","host":"lax-1.us.uncletopia.com","port":27025,"enabled":true,"region":"us-west","cc":"us","latitude":33.94279,"longitude":-118.41004,"reserved":0,"last_update":"0001-01-01T00:00:00Z","name_a2s":"Uncletopia | Los Angeles | 2 | All Maps","protocol":17,"map":"pl_snowycoast","folder":"tf","game":"Team Fortress","app_id":440,"player_count":24,"max_players":24,"Bots":0,"server_type":"Dedicated","server_os":"Linux","password":true,"vac":true,"version":"7961495","steam_id":85568392924469992,"keywords":["nocrits","nodmgspread","payload","uncletopia"],"game_id":440,"stv_port":27026,"stv_name":"Uncletopia | Los Angeles | 2 | All Maps | STV","players":[{"user_id":234,"name":"rat","steam_id":76561198130412963,"connected_time":5426000000000,"state":"active","ping":79},{"user_id":281,"name":"cielael","steam_id":76561198043971956,"connected_time":2323000000000,"state":"active","ping":52},{"user_id":311,"name":"Rat Smoking a big cigar","steam_id":76561198090419068,"connected_time":167000000000,"state":"active","ping":94},{"user_id":299,"name":"GardenOfStone","steam_id":76561199069870534,"connected_time":970000000000,"state":"active","ping":67},{"user_id":273,"name":"SanitysEdge","steam_id":76561198130732813,"connected_time":2993000000000,"state":"active","ping":47},{"user_id":296,"name":"Exidy","steam_id":76561198036216584,"connected_time":1523000000000,"state":"active","ping":102},{"user_id":308,"name":"CrimsonCharcoal","steam_id":76561198071618440,"connected_time":503000000000,"state":"active","ping":57},{"user_id":298,"name":"FellowAutist","steam_id":76561198053916629,"connected_time":998000000000,"state":"active","ping":55},{"user_id":247,"name":"Jeramosa","steam_id":76561198811000094,"connected_time":4312000000000,"state":"active","ping":95},{"user_id":309,"name":"perc 30 breakfeast","steam_id":76561198126050608,"connected_time":194000000000,"state":"active","ping":70},{"user_id":197,"name":"greenpeace","steam_id":76561197983221708,"connected_time":8047000000000,"state":"active","ping":60},{"user_id":265,"name":"John Calibur","steam_id":76561197999986606,"connected_time":3788000000000,"state":"active","ping":43},{"user_id":310,"name":"Kryptonite","steam_id":76561198048426432,"connected_time":192000000000,"state":"active","ping":62},{"user_id":272,"name":"Brody Yukin","steam_id":76561198084712019,"connected_time":3331000000000,"state":"active","ping":50},{"user_id":292,"name":"CaptDarnell","steam_id":76561198040090652,"connected_time":1802000000000,"state":"active","ping":63},{"user_id":300,"name":"Jaydyn","steam_id":76561198140326797,"connected_time":959000000000,"state":"active","ping":120},{"user_id":294,"name":"mew","steam_id":76561198118644686,"connected_time":1678000000000,"state":"active","ping":48},{"user_id":295,"name":"TheBrocklobster","steam_id":76561198039682984,"connected_time":1669000000000,"state":"active","ping":64},{"user_id":301,"name":"PageBoiSkull","steam_id":76561198237353578,"connected_time":944000000000,"state":"active","ping":85},{"user_id":258,"name":"tropis","steam_id":76561198067365603,"connected_time":4052000000000,"state":"active","ping":86},{"user_id":260,"name":"ramrod","steam_id":76561197972297003,"connected_time":4013000000000,"state":"active","ping":121},{"user_id":306,"name":"Bond","steam_id":76561198089262776,"connected_time":802000000000,"state":"active","ping":86},{"user_id":305,"name":"Agent Orange Soda","steam_id":76561198099296029,"connected_time":880000000000,"state":"active","ping":73},{"user_id":270,"name":"Lock'd","steam_id":76561198170108230,"connected_time":3568000000000,"state":"active","ping":71}]},{"server_id":324,"name":"Uncletopia | Los Angeles | 3 | All Maps","name_short":"lax-3","host":"lax-1.us.uncletopia.com","port":27035,"enabled":true,"region":"us-west","cc":"us","latitude":33.94279,"longitude":-118.41004,"reserved":0,"last_update":"0001-01-01T00:00:00Z","name_a2s":"Uncletopia | Los Angeles | 3 | All Maps","protocol":17,"map":"pl_frontier_final","folder":"tf","game":"Team Fortress","app_id":440,"player_count":0,"max_players":24,"Bots":0,"server_type":"Dedicated","server_os":"Linux","password":true,"vac":true,"version":"7961495","steam_id":85568392924510198,"keywords":["nocrits","nodmgspread","payload","uncletopia"],"game_id":440,"stv_port":27036,"stv_name":"Uncletopia | Los Angeles | 3 | All Maps | STV","players":null},{"server_id":25,"name":"Uncletopia | Los Angeles | 4 | Stopwatch","name_short":"lax-4","host":"lax-1.us.uncletopia.com","port":27045,"enabled":true,"region":"us-west","cc":"us","latitude":33.94279,"longitude":-118.41004,"reserved":0,"last_update":"0001-01-01T00:00:00Z","name_a2s":"Uncletopia | Los Angeles | 4 | Stopwatch","protocol":17,"map":"pl_barnblitz","folder":"tf","game":"Team Fortress","app_id":440,"player_count":0,"max_players":24,"Bots":0,"server_type":"Dedicated","server_os":"Linux","password":true,"vac":true,"version":"7961495","steam_id":85568392924510199,"keywords":["nocrits","nodmgspread","payload","uncletopia"],"game_id":440,"stv_port":27046,"stv_name":"Uncletopia | Los Angeles | 4 | Stopwatch | STV","players":null},{"server_id":11,"name":"Uncletopia | London | 1 | All Maps","name_short":"lon-1","host":"lon-1.uk.uncletopia.com","port":27015,"enabled":true,"region":"eu","cc":"gb","latitude":51.509865,"longitude":-0.118092,"reserved":0,"last_update":"0001-01-01T00:00:00Z","name_a2s":"Uncletopia | London | 1 | All Maps","protocol":17,"map":"pl_snowycoast","folder":"tf","game":"Team Fortress","app_id":440,"player_count":24,"max_players":24,"Bots":0,"server_type":"Dedicated","server_os":"Linux","password":true,"vac":true,"version":"7961495","steam_id":85568392924367362,"keywords":["nocrits","nodmgspread","payload","uncletopia"],"game_id":440,"stv_port":27016,"stv_name":"Uncletopia | London | 1 | All Maps | STV","players":[{"user_id":686,"name":"Monky","steam_id":76561198101083206,"connected_time":144000000000,"state":"active","ping":97},{"user_id":661,"name":"ExotiiC ‚òØ","steam_id":76561198046149866,"connected_time":2314000000000,"state":"active","ping":74},{"user_id":624,"name":"god's eepiest girl","steam_id":76561198128327529,"connected_time":4990000000000,"state":"active","ping":48},{"user_id":681,"name":"Jussukka","steam_id":76561198122894683,"connected_time":1121000000000,"state":"active","ping":88},{"user_id":625,"name":"impossible whopper eater","steam_id":76561198058641805,"connected_time":4987000000000,"state":"active","ping":47},{"user_id":646,"name":"MAWRK","steam_id":76561198985288329,"connected_time":3399000000000,"state":"active","ping":51},{"user_id":684,"name":"TheNotoriousAdri","steam_id":76561198329981998,"connected_time":443000000000,"state":"active","ping":89},{"user_id":628,"name":"SKY_","steam_id":76561198080980508,"connected_time":4221000000000,"state":"active","ping":65},{"user_id":570,"name":"Margarito_snake","steam_id":76561198132001394,"connected_time":12379000000000,"state":"active","ping":115},{"user_id":643,"name":"A Wild Ferrothorn","steam_id":76561198042261828,"connected_time":3453000000000,"state":"active","ping":61},{"user_id":669,"name":"Pats (Gifted items Collector)","steam_id":76561198418538887,"connected_time":1529000000000,"state":"active","ping":91},{"user_id":629,"name":"Velvet","steam_id":76561199394742012,"connected_time":3980000000000,"state":"active","ping":63},{"user_id":656,"name":"rigel_","steam_id":76561198148640847,"connected_time":2746000000000,"state":"active","ping":84},{"user_id":657,"name":"so valid queen slay","steam_id":76561198190583242,"connected_time":2733000000000,"state":"active","ping":80},{"user_id":649,"name":"Rx07","steam_id":76561199013720618,"connected_time":3210000000000,"state":"active","ping":89},{"user_id":652,"name":"fluffy gurl :3","steam_id":76561198139632682,"connected_time":2838000000000,"state":"active","ping":83},{"user_id":683,"name":"Czechmated","steam_id":76561198075648001,"connected_time":676000000000,"state":"active","ping":66},{"user_id":673,"name":"Tre3","steam_id":76561198054795379,"connected_time":1460000000000,"state":"active","ping":64},{"user_id":678,"name":"hichem","steam_id":76561198056197307,"connected_time":1159000000000,"state":"active","ping":60},{"user_id":685,"name":"Terminally Online Weeb [Dexgod]","steam_id":76561198017130786,"connected_time":359000000000,"state":"active","ping":141},{"user_id":672,"name":"MistrzPalc√≥wa","steam_id":76561199044887226,"connected_time":1483000000000,"state":"active","ping":62},{"user_id":676,"name":"pan gaming","steam_id":76561198065846882,"connected_time":1395000000000,"state":"active","ping":53},{"user_id":687,"name":"Mammut","steam_id":76561198056773933,"connected_time":87000000000,"state":"active","ping":62},{"user_id":653,"name":"stroyo","steam_id":76561198409592046,"connected_time":2838000000000,"state":"active","ping":44}]},{"server_id":114,"name":"Uncletopia | London | 2 | All Maps","name_short":"lon-2","host":"lon-1.uk.uncletopia.com","port":27025,"enabled":true,"region":"eu","cc":"gb","latitude":51.509865,"longitude":-0.118092,"reserved":0,"last_update":"0001-01-01T00:00:00Z","name_a2s":"Uncletopia | London | 2 | All Maps","protocol":17,"map":"pl_borneo","folder":"tf","game":"Team Fortress","app_id":440,"player_count":24,"max_players":24,"Bots":0,"server_type":"Dedicated","server_os":"Linux","password":true,"vac":true,"version":"7961495","steam_id":85568392924470941,"keywords":["nocrits","nodmgspread","payload","uncletopia"],"game_id":440,"stv_port":27026,"stv_name":"Uncletopia | London | 2 | All Maps | STV","players":[{"user_id":657,"name":"Gnarville","steam_id":76561198006373329,"connected_time":645000000000,"state":"active","ping":46},{"user_id":636,"name":"‚∏∏aura‚∏∏","steam_id":76561198066258544,"connected_time":3425000000000,"state":"active","ping":59},{"user_id":605,"name":"SuperBob103","steam_id":76561199175360012,"connected_time":7155000000000,"state":"active","ping":57},{"user_id":649,"name":"glue gunner","steam_id":76561198330025106,"connected_time":1400000000000,"state":"active","ping":34},{"user_id":648,"name":"Bobirulez","steam_id":76561198009125458,"connected_time":1457000000000,"state":"active","ping":75},{"user_id":659,"name":"Minus-Abinus","steam_id":76561199383437138,"connected_time":418000000000,"state":"active","ping":127},{"user_id":656,"name":"Tomboy Mold","steam_id":76561198106455841,"connected_time":945000000000,"state":"active","ping":79},{"user_id":652,"name":"QuimKong","steam_id":76561198176501842,"connected_time":1305000000000,"state":"active","ping":85},{"user_id":641,"name":"Hrrr","steam_id":76561198106920678,"connected_time":2291000000000,"state":"active","ping":44},{"user_id":620,"name":"Ziemniaczki","steam_id":76561198061866742,"connected_time":5610000000000,"state":"active","ping":84},{"user_id":630,"name":"Ullr","steam_id":76561198140547483,"connected_time":4791000000000,"state":"active","ping":43},{"user_id":645,"name":"BreadBubbles","steam_id":76561198174332826,"connected_time":1897000000000,"state":"active","ping":56},{"user_id":660,"name":"Fatmagic Mukbang ASMR","steam_id":76561198063492110,"connected_time":401000000000,"state":"active","ping":83},{"user_id":642,"name":"Kahvi","steam_id":76561198723244199,"connected_time":2280000000000,"state":"active","ping":75},{"user_id":643,"name":"SparkyDoodles - Artist","steam_id":76561198060128235,"connected_time":2255000000000,"state":"active","ping":60},{"user_id":661,"name":"H2n9","steam_id":76561198055811259,"connected_time":46000000000,"state":"active","ping":55},{"user_id":640,"name":"shooer!","steam_id":76561198110531281,"connected_time":2306000000000,"state":"active","ping":66},{"user_id":654,"name":"scramble","steam_id":76561197980736364,"connected_time":1107000000000,"state":"active","ping":89},{"user_id":658,"name":"Richard nixon roleplayer","steam_id":76561198236015392,"connected_time":593000000000,"state":"active","ping":124},{"user_id":552,"name":"asa004","steam_id":76561198160323444,"connected_time":10885000000000,"state":"active","ping":85},{"user_id":631,"name":"Pinkchup","steam_id":76561198106802803,"connected_time":4686000000000,"state":"active","ping":86},{"user_id":635,"name":"alfus","steam_id":76561198071003109,"connected_time":3598000000000,"state":"active","ping":61},{"user_id":637,"name":"KnugenIV","steam_id":76561198127091993,"connected_time":2829000000000,"state":"active","ping":61},{"user_id":647,"name":"Adwulf","steam_id":76561198045489942,"connected_time":1563000000000,"state":"active","ping":42}]},{"server_id":320,"name":"Uncletopia | London | 3 | All Maps","name_short":"lon-3","host":"lon-1.uk.uncletopia.com","port":27035,"enabled":true,"region":"eu","cc":"gb","latitude":51.509865,"longitude":-0.118092,"reserved":0,"last_update":"0001-01-01T00:00:00Z","name_a2s":"Uncletopia | London | 3 | All Maps","protocol":17,"map":"cp_junction_final","folder":"tf","game":"Team Fortress","app_id":440,"player_count":17,"max_players":24,"Bots":0,"server_type":"Dedicated","server_os":"Linux","password":true,"vac":true,"version":"7961495","steam_id":85568392924510192,"keywords":["cp","nocrits","nodmgspread","uncletopia"],"game_id":440,"stv_port":27036,"stv_name":"Uncletopia | London | 3 | All Maps | STV","players":[{"user_id":581,"name":"pyro gaming","steam_id":76561198087970118,"connected_time":607000000000,"state":"active","ping":70},{"user_id":582,"name":"VARY angry farmer","steam_id":76561199002245557,"connected_time":495000000000,"state":"active","ping":160},{"user_id":598,"name":"Sonnakai","steam_id":76561198051688749,"connected_time":76000000000,"state":"active","ping":42},{"user_id":583,"name":"Name","steam_id":76561197990757157,"connected_time":486000000000,"state":"active","ping":75},{"user_id":575,"name":"ack","steam_id":76561198139796077,"connected_time":805000000000,"state":"active","ping":52},{"user_id":576,"name":"Hank J Wimbleton","steam_id":76561198408623293,"connected_time":779000000000,"state":"active","ping":61},{"user_id":577,"name":"Boomer Shooter Consoomer","steam_id":76561198079752648,"connected_time":753000000000,"state":"active","ping":63},{"user_id":564,"name":"KarlRanzeier","steam_id":76561198066281337,"connected_time":1564000000000,"state":"active","ping":66},{"user_id":498,"name":"Duckguy","steam_id":76561199000967552,"connected_time":5234000000000,"state":"active","ping":118},{"user_id":542,"name":"emko√ß","steam_id":76561198846782346,"connected_time":2877000000000,"state":"active","ping":111},{"user_id":522,"name":"yuno appreciator","steam_id":76561198083286511,"connected_time":4114000000000,"state":"active","ping":50},{"user_id":544,"name":"Varsity Athlete","steam_id":76561198012296395,"connected_time":2832000000000,"state":"active","ping":68},{"user_id":585,"name":"Striker","steam_id":76561198100173021,"connected_time":432000000000,"state":"active","ping":60},{"user_id":588,"name":"megalx","steam_id":76561198195994883,"connected_time":355000000000,"state":"active","ping":90},{"user_id":578,"name":"Doctor Medic","steam_id":76561198100957443,"connected_time":741000000000,"state":"active","ping":75},{"user_id":589,"name":"my mom","steam_id":76561199225201569,"connected_time":336000000000,"state":"active","ping":104},{"user_id":592,"name":":3","steam_id":76561198169471853,"connected_time":282000000000,"state":"active","ping":38}]},{"server_id":321,"name":"Uncletopia | London | 4 | All Maps","name_short":"lon-4","host":"lon-1.uk.uncletopia.com","port":27045,"enabled":true,"region":"eu","cc":"gb","latitude":51.509865,"longitude":-0.118092,"reserved":0,"last_update":"0001-01-01T00:00:00Z","name_a2s":"Uncletopia | London | 4 | All Maps","protocol":17,"map":"pl_snowycoast","folder":"tf","game":"Team Fortress","app_id":440,"player_count":20,"max_players":24,"Bots":0,"server_type":"Dedicated","server_os":"Linux","password":true,"vac":true,"version":"7961495","steam_id":85568392924510193,"keywords":["nocrits","nodmgspread","payload","uncletopia"],"game_id":440,"stv_port":27046,"stv_name":"Uncletopia | London | 4 | All Maps | STV","players":[{"user_id":284,"name":"kinimon","steam_id":76561198178453270,"connected_time":2701000000000,"state":"active","ping":76},{"user_id":290,"name":"Jiant","steam_id":76561198374998274,"connected_time":2453000000000,"state":"active","ping":72},{"user_id":280,"name":"Soapy","steam_id":76561198111652667,"connected_time":3141000000000,"state":"active","ping":54},{"user_id":301,"name":"Skatnaset","steam_id":76561198298457353,"connected_time":1963000000000,"state":"active","ping":70},{"user_id":325,"name":"Weeeeeeev","steam_id":76561198051802036,"connected_time":117000000000,"state":"active","ping":45},{"user_id":302,"name":"raebbitos","steam_id":76561198167580006,"connected_time":1526000000000,"state":"active","ping":49},{"user_id":326,"name":"oozaru","steam_id":76561198236803694,"connected_time":15000000000,"state":"active","ping":66},{"user_id":314,"name":"Larry Penus","steam_id":76561198207546233,"connected_time":728000000000,"state":"active","ping":40},{"user_id":322,"name":"Collie","steam_id":76561198149072785,"connected_time":197000000000,"state":"active","ping":65},{"user_id":312,"name":"MuchoBroke","steam_id":76561199389474207,"connected_time":1085000000000,"state":"active","ping":47},{"user_id":320,"name":"Yoshi's Dad","steam_id":76561198066819216,"connected_time":364000000000,"state":"active","ping":58},{"user_id":313,"name":"CiVillain","steam_id":76561198059617732,"connected_time":1072000000000,"state":"active","ping":71},{"user_id":162,"name":"Wobblyboyz","steam_id":76561198289356209,"connected_time":13342000000000,"state":"active","ping":47},{"user_id":165,"name":"UltimateSlayer","steam_id":76561198384109309,"connected_time":13308000000000,"state":"active","ping":48},{"user_id":315,"name":"rory","steam_id":76561198062400295,"connected_time":634000000000,"state":"active","ping":60},{"user_id":317,"name":"iliekfrogs :)","steam_id":76561199501988715,"connected_time":547000000000,"state":"active","ping":71},{"user_id":310,"name":"Virgil","steam_id":76561198248786778,"connected_time":1310000000000,"state":"active","ping":117},{"user_id":293,"name":"ùïØùñÜùñìùñäùñëùñÜùñú","steam_id":76561198875073644,"connected_time":2441000000000,"state":"active","ping":73},{"user_id":319,"name":"godless animal","steam_id":76561199500049589,"connected_time":446000000000,"state":"active","ping":118},{"user_id":298,"name":"Fissure","steam_id":76561198272595481,"connected_time":2286000000000,"state":"active","ping":72}]},{"server_id":21,"name":"Uncletopia | London | 5 | All Maps","name_short":"lon-5","host":"lon-1.uk.uncletopia.com","port":27055,"enabled":true,"region":"eu","cc":"gb","latitude":51.509865,"longitude":-0.118092,"reserved":0,"last_update":"0001-01-01T00:00:00Z","name_a2s":"Uncletopia | London | 5 | All Maps","protocol":17,"map":"pl_goldrush","folder":"tf","game":"Team Fortress","app_id":440,"player_count":2,"max_players":24,"Bots":0,"server_type":"Dedicated","server_os":"Linux","password":true,"vac":true,"version":"7961495","steam_id":85568392924742829,"keywords":["nocrits","nodmgspread","payload","uncletopia"],"game_id":440,"stv_port":27056,"stv_name":"Uncletopia | London | 5 | All Maps | STV","players":[{"user_id":207,"name":"Jerry","steam_id":76561199025516691,"connected_time":2295000000000,"state":"active","ping":52},{"user_id":214,"name":"nakedpee","steam_id":76561198064345980,"connected_time":439000000000,"state":"active","ping":99}]},{"server_id":22,"name":"Uncletopia | London | 6 | All Maps","name_short":"lon-6","host":"lon-1.uk.uncletopia.com","port":27065,"enabled":true,"region":"eu","cc":"gb","latitude":51.509865,"longitude":-0.118092,"reserved":0,"last_update":"0001-01-01T00:00:00Z","name_a2s":"Uncletopia | London | 6 | All Maps","protocol":17,"map":"pl_swiftwater_final1","folder":"tf","game":"Team Fortress","app_id":440,"player_count":23,"max_players":24,"Bots":0,"server_type":"Dedicated","server_os":"Linux","password":true,"vac":true,"version":"7961495","steam_id":85568392924742830,"keywords":["nocrits","nodmgspread","payload","uncletopia"],"game_id":440,"stv_port":27066,"stv_name":"Uncletopia | London | 6 | All Maps | STV","players":[{"user_id":408,"name":"Redkiller","steam_id":76561199453655288,"connected_time":867000000000,"state":"active","ping":139},{"user_id":417,"name":"gaming (official)","steam_id":76561198106012909,"connected_time":408000000000,"state":"active","ping":82},{"user_id":405,"name":"Subutai","steam_id":76561198085860923,"connected_time":1058000000000,"state":"active","ping":79},{"user_id":385,"name":"TomNoSocks","steam_id":76561198114071046,"connected_time":2979000000000,"state":"active","ping":65},{"user_id":414,"name":"Burpman","steam_id":76561198022897937,"connected_time":584000000000,"state":"active","ping":46},{"user_id":407,"name":"Marl Karx","steam_id":76561198396797516,"connected_time":919000000000,"state":"active","ping":64},{"user_id":420,"name":"Stefman","steam_id":76561199025104038,"connected_time":313000000000,"state":"active","ping":40},{"user_id":390,"name":"Silverdarlin","steam_id":76561198118540970,"connected_time":2776000000000,"state":"active","ping":55},{"user_id":415,"name":"Greyhunter","steam_id":76561197960884202,"connected_time":540000000000,"state":"active","ping":33},{"user_id":397,"name":"Owaj","steam_id":76561198052638502,"connected_time":2469000000000,"state":"active","ping":60},{"user_id":416,"name":"Bill Carr","steam_id":76561198110033943,"connected_time":529000000000,"state":"active","ping":35},{"user_id":378,"name":"Squidiot","steam_id":76561198042754907,"connected_time":3865000000000,"state":"active","ping":56},{"user_id":383,"name":"Russenluster","steam_id":76561198118016220,"connected_time":3564000000000,"state":"active","ping":70},{"user_id":409,"name":"Soulhawk88","steam_id":76561198009712432,"connected_time":852000000000,"state":"active","ping":70},{"user_id":391,"name":"Grogon","steam_id":76561198203300218,"connected_time":2752000000000,"state":"active","ping":75},{"user_id":410,"name":"long crab","steam_id":76561198136239861,"connected_time":680000000000,"state":"active","ping":46},{"user_id":411,"name":"TrueMangoes","steam_id":76561198824872459,"connected_time":672000000000,"state":"active","ping":55},{"user_id":413,"name":"grimeborny","steam_id":76561199101823097,"connected_time":619000000000,"state":"active","ping":52},{"user_id":384,"name":"TheRizzlerOfRizzmass","steam_id":76561198162462063,"connected_time":3214000000000,"state":"active","ping":54},{"user_id":419,"name":"FireStorm","steam_id":76561198350478325,"connected_time":375000000000,"state":"active","ping":48},{"user_id":421,"name":"SoapDictator","steam_id":76561198010540358,"connected_time":300000000000,"state":"active","ping":104},{"user_id":422,"name":"Haha?","steam_id":76561198056882245,"connected_time":237000000000,"state":"active","ping":49},{"user_id":402,"name":"that fat croc from donkey kong","steam_id":76561198159172495,"connected_time":2286000000000,"state":"active","ping":79}]},{"server_id":40,"name":"Uncletopia | London | 7 | Stopwatch","name_short":"lon-7","host":"lon-1.uk.uncletopia.com","port":27075,"enabled":true,"region":"eu","cc":"gb","latitude":51.509865,"longitude":-0.118092,"reserved":0,"last_update":"0001-01-01T00:00:00Z","name_a2s":"Uncletopia | London | 7 | Stopwatch","protocol":17,"map":"workshop/koth_product_final.ugc454272353","folder":"tf","game":"Team Fortress","app_id":440,"player_count":0,"max_players":24,"Bots":0,"server_type":"Dedicated","server_os":"Linux","password":true,"vac":true,"version":"7961495","steam_id":85568392924964314,"keywords":["cp","nocrits","nodmgspread","uncletopia"],"game_id":440,"stv_port":27076,"stv_name":"Uncletopia | London | 7 | Stopwatch | STV","players":null},{"server_id":41,"name":"Uncletopia | London | 8 | Community","name_short":"lon-8","host":"lon-1.uk.uncletopia.com","port":27085,"enabled":true,"region":"eu","cc":"gb","latitude":51.509865,"longitude":-0.118092,"reserved":0,"last_update":"0001-01-01T00:00:00Z","name_a2s":"Uncletopia | London | 8 | Community","protocol":17,"map":"workshop/rd_asteroid_redux_b1.ugc2154902912","folder":"tf","game":"Team Fortress","app_id":440,"player_count":3,"max_players":24,"Bots":0,"server_type":"Dedicated","server_os":"Linux","password":true,"vac":true,"version":"7961495","steam_id":85568392924964315,"keywords":["beta","nocrits","nodmgspread","rd","uncletopia"],"game_id":440,"stv_port":27086,"stv_name":"Uncletopia | London | 8 | Community | STV","players":[{"user_id":132,"name":"JinxKinx","steam_id":76561198298055503,"connected_time":2170000000000,"state":"active","ping":44},{"user_id":141,"name":"just some guy being a girl","steam_id":76561198447813009,"connected_time":1594000000000,"state":"active","ping":66},{"user_id":139,"name":"Kaajmnyan","steam_id":76561198068247279,"connected_time":1862000000000,"state":"active","ping":54}]},{"server_id":300,"name":"Uncletopia | Montr√©al | 1 | One Thousand Uncles","name_short":"mtl-1","host":"mtl-1.ca.uncletopia.com","port":27015,"enabled":true,"region":"us-east","cc":"ca","latitude":45.50889,"longitude":-73.56167,"reserved":0,"last_update":"0001-01-01T00:00:00Z","name_a2s":"","protocol":0,"map":"","folder":"","game":"","app_id":0,"player_count":0,"max_players":0,"Bots":0,"server_type":"","server_os":"","password":false,"vac":false,"version":"","steam_id":0,"keywords":null,"game_id":0,"stv_port":0,"stv_name":"","players":null},{"server_id":301,"name":"Uncletopia | Montr√©al | 2 | One Thousand Uncles","name_short":"mtl-2","host":"mtl-1.ca.uncletopia.com","port":27025,"enabled":true,"region":"us-east","cc":"ca","latitude":45.50889,"longitude":-73.56167,"reserved":0,"last_update":"0001-01-01T00:00:00Z","name_a2s":"","protocol":0,"map":"","folder":"","game":"","app_id":0,"player_count":0,"max_players":0,"Bots":0,"server_type":"","server_os":"","password":false,"vac":false,"version":"","steam_id":0,"keywords":null,"game_id":0,"stv_port":0,"stv_name":"","players":null},{"server_id":302,"name":"Uncletopia | Montr√©al | 3 | One Thousand Uncles","name_short":"mtl-3","host":"mtl-1.ca.uncletopia.com","port":27035,"enabled":true,"region":"us-east","cc":"ca","latitude":45.50889,"longitude":-73.56167,"reserved":0,"last_update":"0001-01-01T00:00:00Z","name_a2s":"","protocol":0,"map":"","folder":"","game":"","app_id":0,"player_count":0,"max_players":0,"Bots":0,"server_type":"","server_os":"","password":false,"vac":false,"version":"","steam_id":0,"keywords":null,"game_id":0,"stv_port":0,"stv_name":"","players":null},{"server_id":13,"name":"Uncletopia | New York City | 1 | All Maps","name_short":"nyc-1","host":"nyc-1.us.uncletopia.com","port":27015,"enabled":true,"region":"us-east","cc":"us","latitude":40.73061,"longitude":-73.93524,"reserved":0,"last_update":"0001-01-01T00:00:00Z","name_a2s":"Uncletopia | New York City | 1 | All Maps","protocol":17,"map":"cp_mountainlab","folder":"tf","game":"Team Fortress","app_id":440,"player_count":25,"max_players":24,"Bots":0,"server_type":"Dedicated","server_os":"Linux","password":true,"vac":true,"version":"7961495","steam_id":85568392924469993,"keywords":["cp","nocrits","nodmgspread","uncletopia"],"game_id":440,"stv_port":27016,"stv_name":"Uncletopia | New York City | 1 | All Maps | STV","players":[{"user_id":266,"name":"AlmondMilk","steam_id":76561198151229725,"connected_time":3318000000000,"state":"active","ping":78},{"user_id":297,"name":"Sicko Mode (Chris Pratt Cover)","steam_id":76561198315786174,"connected_time":1204000000000,"state":"active","ping":60},{"user_id":296,"name":"Tokyo_Timeshift_","steam_id":76561198048677523,"connected_time":1225000000000,"state":"active","ping":61},{"user_id":286,"name":"Grandpapi Yolpapi","steam_id":76561198010748612,"connected_time":2428000000000,"state":"active","ping":77},{"user_id":282,"name":"H0wlr","steam_id":76561198012332824,"connected_time":2601000000000,"state":"active","ping":45},{"user_id":310,"name":"MilkToast","steam_id":76561198167959226,"connected_time":160000000000,"state":"active","ping":76},{"user_id":272,"name":"Shemply","steam_id":76561198193658910,"connected_time":3148000000000,"state":"active","ping":89},{"user_id":279,"name":"ndvr","steam_id":76561199379200102,"connected_time":2698000000000,"state":"active","ping":52},{"user_id":303,"name":"ItzPokemanz","steam_id":76561199379439074,"connected_time":838000000000,"state":"active","ping":89},{"user_id":295,"name":"GummybearKillr","steam_id":76561198031235750,"connected_time":1277000000000,"state":"active","ping":54},{"user_id":298,"name":"gIBBY","steam_id":76561198080099598,"connected_time":1183000000000,"state":"active","ping":44},{"user_id":311,"name":"rivera","steam_id":76561198051058706,"connected_time":148000000000,"state":"active","ping":38},{"user_id":302,"name":"[NAME-REDACTED]","steam_id":76561198035682975,"connected_time":896000000000,"state":"active","ping":58},{"user_id":287,"name":"Bee_Pirate","steam_id":76561199000599111,"connected_time":2045000000000,"state":"active","ping":56},{"user_id":301,"name":"custodian","steam_id":76561198058793778,"connected_time":932000000000,"state":"active","ping":59},{"user_id":299,"name":"The Horselords and Animal Gods","steam_id":76561197975094050,"connected_time":1170000000000,"state":"active","ping":121},{"user_id":194,"name":"boi15","steam_id":76561198410490773,"connected_time":8845000000000,"state":"active","ping":55},{"user_id":313,"name":"Hellmonger","steam_id":76561198016058155,"connected_time":2000000000,"state":"spawning","ping":56},{"user_id":306,"name":"Don't Fuckle with Shuckle","steam_id":76561199020102367,"connected_time":257000000000,"state":"active","ping":83},{"user_id":260,"name":"Fishandfish","steam_id":76561198298483804,"connected_time":4253000000000,"state":"active","ping":114},{"user_id":293,"name":"mostly ham","steam_id":76561199479937232,"connected_time":1345000000000,"state":"active","ping":76},{"user_id":270,"name":"BarrowBaron","steam_id":76561198013633236,"connected_time":3235000000000,"state":"active","ping":66},{"user_id":312,"name":"Candy Sparkles","steam_id":76561198126871264,"connected_time":122000000000,"state":"active","ping":77},{"user_id":292,"name":"BreadFish","steam_id":76561198834556559,"connected_time":1520000000000,"state":"active","ping":76},{"user_id":314,"name":"Jeffery Jitterson","steam_id":76561199021400714,"connected_time":2000000000,"state":"spawning","ping":30}]},{"server_id":14,"name":"Uncletopia | New York City | 2 | All Maps","name_short":"nyc-2","host":"nyc-1.us.uncletopia.com","port":27025,"enabled":true,"region":"us-east","cc":"us","latitude":40.73061,"longitude":-73.93524,"reserved":0,"last_update":"0001-01-01T00:00:00Z","name_a2s":"Uncletopia | New York City | 2 | All Maps","protocol":17,"map":"cp_mountainlab","folder":"tf","game":"Team Fortress","app_id":440,"player_count":23,"max_players":24,"Bots":0,"server_type":"Dedicated","server_os":"Linux","password":true,"vac":true,"version":"7961495","steam_id":85568392924469994,"keywords":["cp","nocrits","nodmgspread","uncletopia"],"game_id":440,"stv_port":27026,"stv_name":"Uncletopia | New York City | 2 | All Maps | STV","players":[{"user_id":187,"name":"ZeroFour","steam_id":76561198209641323,"connected_time":2540000000000,"state":"active","ping":70},{"user_id":207,"name":"attentiondeficit","steam_id":76561198129682583,"connected_time":1383000000000,"state":"active","ping":78},{"user_id":215,"name":"Xlander","steam_id":76561199345823430,"connected_time":542000000000,"state":"spawning","ping":61},{"user_id":177,"name":"Sir_Dounut_III","steam_id":76561198447537093,"connected_time":3672000000000,"state":"active","ping":60},{"user_id":192,"name":"kat","steam_id":76561198099191938,"connected_time":2445000000000,"state":"spawning","ping":56},{"user_id":212,"name":"Trash Eater","steam_id":76561199368799793,"connected_time":913000000000,"state":"spawning","ping":60},{"user_id":202,"name":"Orange Triangle","steam_id":76561198320498182,"connected_time":1666000000000,"state":"active","ping":83},{"user_id":203,"name":"High School Nudical","steam_id":76561198172120615,"connected_time":1584000000000,"state":"spawning","ping":48},{"user_id":214,"name":"BoxOfStaples","steam_id":76561198834773017,"connected_time":551000000000,"state":"active","ping":92},{"user_id":195,"name":"walrus","steam_id":76561198057853319,"connected_time":2064000000000,"state":"active","ping":52},{"user_id":213,"name":"Dareu","steam_id":76561198081781710,"connected_time":744000000000,"state":"active","ping":46},{"user_id":205,"name":"The jesus guy (FRNK)","steam_id":76561198237997622,"connected_time":1507000000000,"state":"active","ping":158},{"user_id":185,"name":"Not a Russian","steam_id":76561198880311217,"connected_time":2605000000000,"state":"active","ping":84},{"user_id":217,"name":"gamerboykeith","steam_id":76561198375390532,"connected_time":518000000000,"state":"active","ping":67},{"user_id":132,"name":"Gargathor the Entity Catcher","steam_id":76561198189429665,"connected_time":7193000000000,"state":"active","ping":74},{"user_id":211,"name":"ÔºîÔºê Ôº¶Ôº∞Ôº≥","steam_id":76561198272394965,"connected_time":1142000000000,"state":"active","ping":108},{"user_id":221,"name":"Action Bastard","steam_id":76561198059552170,"connected_time":203000000000,"state":"active","ping":49},{"user_id":222,"name":"L to the OG","steam_id":76561199215811448,"connected_time":187000000000,"state":"active","ping":72},{"user_id":169,"name":"isaiah","steam_id":76561197962607364,"connected_time":4443000000000,"state":"active","ping":71},{"user_id":223,"name":"Tingyun","steam_id":76561198295713840,"connected_time":48000000000,"state":"active","ping":81},{"user_id":218,"name":"halo","steam_id":76561198311004039,"connected_time":469000000000,"state":"active","ping":98},{"user_id":225,"name":"Crab","steam_id":76561198067628664,"connected_time":8000000000,"state":"spawning","ping":80},{"user_id":200,"name":"ether","steam_id":76561198064711665,"connected_time":1921000000000,"state":"active","ping":46}]},{"server_id":15,"name":"Uncletopia | New York City | 3 | Stopwatch","name_short":"nyc-3","host":"nyc-1.us.uncletopia.com","port":27035,"enabled":true,"region":"us-east","cc":"us","latitude":40.73061,"longitude":-73.93524,"reserved":0,"last_update":"0001-01-01T00:00:00Z","name_a2s":"Uncletopia | New York City | 3 | Stopwatch","protocol":17,"map":"workshop/pl_barnblitz_pro7.ugc582280235","folder":"tf","game":"Team Fortress","app_id":440,"player_count":0,"max_players":24,"Bots":0,"server_type":"Dedicated","server_os":"Linux","password":true,"vac":true,"version":"7961495","steam_id":85568392924742820,"keywords":["nocrits","nodmgspread","payload","uncletopia"],"game_id":440,"stv_port":27036,"stv_name":"Uncletopia | New York City | 3 | Stopwatch | STV","players":null},{"server_id":16,"name":"Uncletopia | New York City | 4 | Community","name_short":"nyc-4","host":"nyc-1.us.uncletopia.com","port":27045,"enabled":true,"region":"us-east","cc":"us","latitude":40.73061,"longitude":-73.93524,"reserved":0,"last_update":"0001-01-01T00:00:00Z","name_a2s":"Uncletopia | New York City | 4 | Community","protocol":17,"map":"workshop/rd_asteroid_redux_b1.ugc2154902912","folder":"tf","game":"Team Fortress","app_id":440,"player_count":0,"max_players":24,"Bots":0,"server_type":"Dedicated","server_os":"Linux","password":true,"vac":true,"version":"7961495","steam_id":85568392924742821,"keywords":["beta","nocrits","nodmgspread","rd","uncletopia"],"game_id":440,"stv_port":27046,"stv_name":"Uncletopia | New York City | 4 | Community | STV","players":null},{"server_id":142,"name":"Uncletopia | S√£o Paulo | 1 | All Maps","name_short":"sao-1","host":"sao-1.br.uncletopia.com","port":27015,"enabled":true,"region":"sa","cc":"br","latitude":-23.533773,"longitude":-46.62529,"reserved":0,"last_update":"0001-01-01T00:00:00Z","name_a2s":"Uncletopia | S√£o Paulo | 1 | All Maps","protocol":17,"map":"pl_frontier_final","folder":"tf","game":"Team Fortress","app_id":440,"player_count":0,"max_players":24,"Bots":0,"server_type":"Dedicated","server_os":"Linux","password":true,"vac":true,"version":"7961495","steam_id":85568392924469996,"keywords":["nocrits","nodmgspread","payload","uncletopia"],"game_id":440,"stv_port":27016,"stv_name":"Uncletopia | S√£o Paulo | 1 | All Maps | STV","players":null},{"server_id":143,"name":"Uncletopia | S√£o Paulo | 2 | Community","name_short":"sao-2","host":"sao-2.br.uncletopia.com","port":27015,"enabled":true,"region":"sa","cc":"br","latitude":-23.533773,"longitude":-46.62529,"reserved":0,"last_update":"0001-01-01T00:00:00Z","name_a2s":"Uncletopia | S√£o Paulo | 2 | Community","protocol":17,"map":"workshop/pl_divulgence_b4b.ugc2884808746","folder":"tf","game":"Team Fortress","app_id":440,"player_count":0,"max_players":24,"Bots":0,"server_type":"Dedicated","server_os":"Linux","password":true,"vac":true,"version":"7961495","steam_id":85568392924485349,"keywords":["nocrits","nodmgspread","payload","uncletopia"],"game_id":440,"stv_port":27016,"stv_name":"Uncletopia | S√£o Paulo | 2 | Community | STV","players":null},{"server_id":7,"name":"Uncletopia | Seattle | 1 | All Maps","name_short":"sea-1","host":"sea-1.us.uncletopia.com","port":27015,"enabled":true,"region":"us-west","cc":"us","latitude":47.608013,"longitude":-122.33517,"reserved":0,"last_update":"0001-01-01T00:00:00Z","name_a2s":"Uncletopia | Seattle | 1 | All Maps","protocol":17,"map":"pl_pier","folder":"tf","game":"Team Fortress","app_id":440,"player_count":24,"max_players":24,"Bots":0,"server_type":"Dedicated","server_os":"Linux","password":true,"vac":true,"version":"7961495","steam_id":85568392924469997,"keywords":["nocrits","nodmgspread","payload","uncletopia"],"game_id":440,"stv_port":27016,"stv_name":"Uncletopia | Seattle | 1 | All Maps | STV","players":[{"user_id":144,"name":"K-2","steam_id":76561198322606535,"connected_time":4315000000000,"state":"active","ping":93},{"user_id":183,"name":"comet sooicidy","steam_id":76561198025173479,"connected_time":684000000000,"state":"active","ping":131},{"user_id":163,"name":"GMFD! fungi","steam_id":76561198169755734,"connected_time":2025000000000,"state":"active","ping":65},{"user_id":182,"name":"chanoc","steam_id":76561198026734746,"connected_time":745000000000,"state":"active","ping":60},{"user_id":160,"name":"tass","steam_id":76561199254321874,"connected_time":2048000000000,"state":"active","ping":126},{"user_id":140,"name":"Apollo","steam_id":76561198162364702,"connected_time":4402000000000,"state":"active","ping":45},{"user_id":173,"name":"Kafka stan","steam_id":76561198127039453,"connected_time":1709000000000,"state":"active","ping":124},{"user_id":148,"name":"Kermit the Frog","steam_id":76561198314577996,"connected_time":3915000000000,"state":"active","ping":128},{"user_id":180,"name":"super shia","steam_id":76561198271939793,"connected_time":917000000000,"state":"active","ping":50},{"user_id":121,"name":"box","steam_id":76561198049531483,"connected_time":5584000000000,"state":"active","ping":126},{"user_id":128,"name":"woodpigeon","steam_id":76561199488457138,"connected_time":5196000000000,"state":"active","ping":58},{"user_id":175,"name":"McSpazatron","steam_id":76561198955942148,"connected_time":1132000000000,"state":"active","ping":56},{"user_id":152,"name":"lfk thunderous prophet","steam_id":76561198131166135,"connected_time":3187000000000,"state":"active","ping":39},{"user_id":181,"name":"pyrotechnic","steam_id":76561198043558709,"connected_time":802000000000,"state":"active","ping":45},{"user_id":130,"name":"Flavortown Thanos","steam_id":76561198004853966,"connected_time":4782000000000,"state":"active","ping":44},{"user_id":184,"name":"dree","steam_id":76561198079178866,"connected_time":76000000000,"state":"active","ping":116},{"user_id":161,"name":"BolognaWithOlives","steam_id":76561198101262668,"connected_time":2046000000000,"state":"active","ping":105},{"user_id":168,"name":"gn jorts","steam_id":76561199041179985,"connected_time":1964000000000,"state":"active","ping":59},{"user_id":155,"name":"Klone","steam_id":76561198854485605,"connected_time":2794000000000,"state":"active","ping":126},{"user_id":171,"name":"Sylain","steam_id":76561198043958855,"connected_time":1795000000000,"state":"active","ping":61},{"user_id":48,"name":"Imitation Caucasian","steam_id":76561198320536166,"connected_time":10386000000000,"state":"active","ping":87},{"user_id":169,"name":"Translucent‡´Æ‚Çç ‚Ä¢ ·¥• ‚Ä¢","steam_id":76561199212057076,"connected_time":1887000000000,"state":"active","ping":77},{"user_id":150,"name":"*forges your documents* :3","steam_id":76561198134309750,"connected_time":3833000000000,"state":"active","ping":99},{"user_id":172,"name":"collector's pest","steam_id":76561198170402666,"connected_time":1795000000000,"state":"active","ping":73}]},{"server_id":119,"name":"Uncletopia | Seattle | 2 | All Maps","name_short":"sea-2","host":"sea-1.us.uncletopia.com","port":27025,"enabled":true,"region":"us-west","cc":"us","latitude":47.608013,"longitude":-122.33517,"reserved":0,"last_update":"0001-01-01T00:00:00Z","name_a2s":"Uncletopia | Seattle | 2 | All Maps","protocol":17,"map":"cp_sunshine","folder":"tf","game":"Team Fortress","app_id":440,"player_count":0,"max_players":24,"Bots":0,"server_type":"Dedicated","server_os":"Linux","password":true,"vac":true,"version":"7961495","steam_id":85568392924469998,"keywords":["cp","nocrits","nodmgspread","uncletopia"],"game_id":440,"stv_port":27026,"stv_name":"Uncletopia | Seattle | 2 | All Maps | STV","players":null},{"server_id":406,"name":"Uncletopia | Seattle | 3 | Stopwatch","name_short":"sea-3","host":"sea-1.us.uncletopia.com","port":27035,"enabled":true,"region":"us-west","cc":"us","latitude":47.608013,"longitude":-122.33517,"reserved":0,"last_update":"0001-01-01T00:00:00Z","name_a2s":"Uncletopia | Seattle | 3 | Stopwatch","protocol":17,"map":"workshop/cp_process_f12.ugc2302948105","folder":"tf","game":"Team Fortress","app_id":440,"player_count":0,"max_players":24,"Bots":0,"server_type":"Dedicated","server_os":"Linux","password":true,"vac":true,"version":"7961495","steam_id":85568392924515217,"keywords":["cp","nocrits","nodmgspread","uncletopia"],"game_id":440,"stv_port":27036,"stv_name":"Uncletopia | Seattle | 3 | Stopwatch | STV","players":null},{"server_id":17,"name":"Uncletopia | San Francisco | 1 | All Maps","name_short":"sfo-1","host":"sfo-1.us.uncletopia.com","port":27015,"enabled":true,"region":"us-west","cc":"us","latitude":37.77397,"longitude":-122.4313,"reserved":0,"last_update":"0001-01-01T00:00:00Z","name_a2s":"Uncletopia | San Francisco | 1 | All Maps","protocol":17,"map":"koth_cascade","folder":"tf","game":"Team Fortress","app_id":440,"player_count":0,"max_players":24,"Bots":0,"server_type":"Dedicated","server_os":"Linux","password":true,"vac":true,"version":"7961495","steam_id":85568392924469999,"keywords":["cp","nocrits","nodmgspread","uncletopia"],"game_id":440,"stv_port":27016,"stv_name":"Uncletopia | San Francisco | 1 | All Maps | STV","players":null},{"server_id":18,"name":"Uncletopia | San Francisco | 2 | All Maps","name_short":"sfo-2","host":"sfo-1.us.uncletopia.com","port":27025,"enabled":true,"region":"us-west","cc":"us","latitude":37.77397,"longitude":-122.4313,"reserved":0,"last_update":"0001-01-01T00:00:00Z","name_a2s":"Uncletopia | San Francisco | 2 | All Maps","protocol":17,"map":"pl_frontier_final","folder":"tf","game":"Team Fortress","app_id":440,"player_count":0,"max_players":24,"Bots":0,"server_type":"Dedicated","server_os":"Linux","password":true,"vac":true,"version":"7961495","steam_id":85568392924470000,"keywords":["nocrits","nodmgspread","payload","uncletopia"],"game_id":440,"stv_port":27026,"stv_name":"Uncletopia | San Francisco | 2 | All Maps | STV","players":null},{"server_id":19,"name":"Uncletopia | San Francisco | 3 | Stopwatch","name_short":"sfo-3","host":"sfo-1.us.uncletopia.com","port":27035,"enabled":true,"region":"us-west","cc":"us","latitude":37.77397,"longitude":-122.4313,"reserved":0,"last_update":"0001-01-01T00:00:00Z","name_a2s":"Uncletopia | San Francisco | 3 | Stopwatch","protocol":17,"map":"pl_pier","folder":"tf","game":"Team Fortress","app_id":440,"player_count":0,"max_players":24,"Bots":0,"server_type":"Dedicated","server_os":"Linux","password":true,"vac":true,"version":"7961495","steam_id":85568392924742824,"keywords":["nocrits","nodmgspread","payload","uncletopia"],"game_id":440,"stv_port":27036,"stv_name":"Uncletopia | San Francisco | 3 | Stopwatch | STV","players":null},{"server_id":20,"name":"Uncletopia | San Francisco | 4 | Community","name_short":"sfo-4","host":"sfo-1.us.uncletopia.com","port":27045,"enabled":true,"region":"us-west","cc":"us","latitude":37.77397,"longitude":-122.4313,"reserved":0,"last_update":"0001-01-01T00:00:00Z","name_a2s":"Uncletopia | San Francisco | 4 | Community","protocol":17,"map":"pl_pier","folder":"tf","game":"Team Fortress","app_id":440,"player_count":0,"max_players":24,"Bots":0,"server_type":"Dedicated","server_os":"Linux","password":true,"vac":true,"version":"7961495","steam_id":85568392924742826,"keywords":["nocrits","nodmgspread","payload","uncletopia"],"game_id":440,"stv_port":27046,"stv_name":"Uncletopia | San Francisco | 4 | Community | STV","players":null},{"server_id":141,"name":"Uncletopia | Sydney | 1 | All Maps","name_short":"syd-1","host":"syd-1.au.uncletopia.com","port":27015,"enabled":true,"region":"au","cc":"au","latitude":-33.865143,"longitude":151.2099,"reserved":0,"last_update":"0001-01-01T00:00:00Z","name_a2s":"Uncletopia | Sydney | 1 | All Maps","protocol":17,"map":"koth_viaduct","folder":"tf","game":"Team Fortress","app_id":440,"player_count":0,"max_players":24,"Bots":0,"server_type":"Dedicated","server_os":"Linux","password":true,"vac":true,"version":"7961495","steam_id":85568392924470001,"keywords":["cp","nocrits","nodmgspread","uncletopia"],"game_id":440,"stv_port":27016,"stv_name":"Uncletopia | Sydney | 1 | All Maps | STV","players":null},{"server_id":123,"name":"Uncletopia | Sydney | 2 | All Maps","name_short":"syd-2","host":"syd-1.au.uncletopia.com","port":27025,"enabled":true,"region":"au","cc":"au","latitude":-33.865143,"longitude":151.2099,"reserved":0,"last_update":"0001-01-01T00:00:00Z","name_a2s":"Uncletopia | Sydney | 2 | All Maps","protocol":17,"map":"koth_lakeside_final","folder":"tf","game":"Team Fortress","app_id":440,"player_count":0,"max_players":24,"Bots":0,"server_type":"Dedicated","server_os":"Linux","password":true,"vac":true,"version":"7961495","steam_id":85568392924470002,"keywords":["cp","nocrits","nodmgspread","uncletopia"],"game_id":440,"stv_port":27026,"stv_name":"Uncletopia | Sydney | 2 | All Maps | STV","players":null},{"server_id":395,"name":"Uncletopia | Sydney | 3 | All Maps","name_short":"syd-3","host":"syd-1.au.uncletopia.com","port":27035,"enabled":true,"region":"au","cc":"au","latitude":-33.865143,"longitude":151.2099,"reserved":0,"last_update":"0001-01-01T00:00:00Z","name_a2s":"Uncletopia | Sydney | 3 | All Maps","protocol":17,"map":"pl_frontier_final","folder":"tf","game":"Team Fortress","app_id":440,"player_count":0,"max_players":24,"Bots":0,"server_type":"Dedicated","server_os":"Linux","password":true,"vac":true,"version":"7961495","steam_id":85568392925194467,"keywords":["nocrits","nodmgspread","payload","uncletopia"],"game_id":440,"stv_port":27036,"stv_name":"Uncletopia | Sydney | 3 | All Maps | STV","players":null},{"server_id":396,"name":"Uncletopia | Sydney | 4 | All Maps","name_short":"syd-4","host":"syd-1.au.uncletopia.com","port":27045,"enabled":true,"region":"au","cc":"au","latitude":-33.865143,"longitude":151.2099,"reserved":0,"last_update":"0001-01-01T00:00:00Z","name_a2s":"Uncletopia | Sydney | 4 | All Maps","protocol":17,"map":"cp_process_final","folder":"tf","game":"Team Fortress","app_id":440,"player_count":0,"max_players":24,"Bots":0,"server_type":"Dedicated","server_os":"Linux","password":true,"vac":true,"version":"7961495","steam_id":85568392925397958,"keywords":["cp","nocrits","nodmgspread","uncletopia"],"game_id":440,"stv_port":27046,"stv_name":"Uncletopia | Sydney | 4 | All Maps | STV","players":null},{"server_id":58,"name":"Uncletopia | Sydney | 5 | Stopwatch","name_short":"syd-5","host":"syd-1.au.uncletopia.com","port":27055,"enabled":true,"region":"au","cc":"au","latitude":-33.865143,"longitude":151.2099,"reserved":0,"last_update":"0001-01-01T00:00:00Z","name_a2s":"Uncletopia | Sydney | 5 | Stopwatch","protocol":17,"map":"pl_frontier_final","folder":"tf","game":"Team Fortress","app_id":440,"player_count":0,"max_players":24,"Bots":0,"server_type":"Dedicated","server_os":"Linux","password":true,"vac":true,"version":"7961495","steam_id":85568392925397959,"keywords":["nocrits","nodmgspread","payload","uncletopia"],"game_id":440,"stv_port":27056,"stv_name":"Uncletopia | Sydney | 5 | Stopwatch | STV","players":null},{"server_id":59,"name":"Uncletopia | Sydney | 6 | Community","name_short":"syd-6","host":"syd-1.au.uncletopia.com","port":27065,"enabled":true,"region":"au","cc":"au","latitude":-33.865143,"longitude":151.2099,"reserved":0,"last_update":"0001-01-01T00:00:00Z","name_a2s":"Uncletopia | Sydney | 6 | Community","protocol":17,"map":"cp_sunshine","folder":"tf","game":"Team Fortress","app_id":440,"player_count":0,"max_players":24,"Bots":0,"server_type":"Dedicated","server_os":"Linux","password":true,"vac":true,"version":"7961495","steam_id":85568392925397960,"keywords":["cp","nocrits","nodmgspread","uncletopia"],"game_id":440,"stv_port":27066,"stv_name":"Uncletopia | Sydney | 6 | Community | STV","players":null},{"server_id":49,"name":"Uncletopia | Warsaw | 1 | One Thousand Uncles","name_short":"waw-1","host":"waw-1.pl.uncletopia.com","port":27015,"enabled":true,"region":"eu","cc":"pl","latitude":52.2297,"longitude":21.017532,"reserved":0,"last_update":"0001-01-01T00:00:00Z","name_a2s":"Uncletopia | Warsaw | 1 | One Thousand Uncles","protocol":17,"map":"cp_mossrock","folder":"tf","game":"Team Fortress","app_id":440,"player_count":17,"max_players":32,"Bots":16,"server_type":"Dedicated","server_os":"Linux","password":true,"vac":true,"version":"7961495","steam_id":85568392925397850,"keywords":["alltalk","bots","cp","danepve","increased_maxplayers","nocrits","norespawntime","uncletopia"],"game_id":440,"stv_port":0,"stv_name":"","players":[{"user_id":467,"name":"Dimo","steam_id":76561199145809112,"connected_time":495000000000,"state":"active","ping":164}]},{"server_id":50,"name":"Uncletopia | Warsaw | 2 | One Thousand Uncles","name_short":"waw-2","host":"waw-1.pl.uncletopia.com","port":27025,"enabled":true,"region":"eu","cc":"pl","latitude":52.2297,"longitude":21.017532,"reserved":0,"last_update":"0001-01-01T00:00:00Z","name_a2s":"Uncletopia | Warsaw | 2 | One Thousand Uncles","protocol":17,"map":"pl_hoodoo_final","folder":"tf","game":"Team Fortress","app_id":440,"player_count":1,"max_players":32,"Bots":0,"server_type":"Dedicated","server_os":"Linux","password":true,"vac":true,"version":"7961495","steam_id":85568392925397851,"keywords":["alltalk","danepve","increased_maxplayers","nocrits","norespawntime","payload","uncletopia"],"game_id":440,"stv_port":0,"stv_name":"","players":[{"user_id":704,"name":"vera20162016k","steam_id":76561199501316818,"connected_time":64000000000,"state":"spawning","ping":45}]},{"server_id":51,"name":"Uncletopia | Warsaw | 3 | All Maps","name_short":"waw-3","host":"waw-1.pl.uncletopia.com","port":27035,"enabled":true,"region":"eu","cc":"pl","latitude":52.2297,"longitude":21.017532,"reserved":0,"last_update":"0001-01-01T00:00:00Z","name_a2s":"Uncletopia | Warsaw | 3 | All Maps","protocol":17,"map":"plr_pipeline","folder":"tf","game":"Team Fortress","app_id":440,"player_count":0,"max_players":24,"Bots":0,"server_type":"Dedicated","server_os":"Linux","password":true,"vac":true,"version":"7961495","steam_id":85568392925397852,"keywords":["nocrits","nodmgspread","payload","uncletopia"],"game_id":440,"stv_port":27036,"stv_name":"Uncletopia | Warsaw | 3 | All Maps | STV","players":null},{"server_id":52,"name":"Uncletopia | Warsaw | 4 | All Maps","name_short":"waw-4","host":"waw-1.pl.uncletopia.com","port":27045,"enabled":true,"region":"eu","cc":"pl","latitude":52.2297,"longitude":21.017532,"reserved":0,"last_update":"0001-01-01T00:00:00Z","name_a2s":"Uncletopia | Warsaw | 4 | All Maps","protocol":17,"map":"pl_frontier_final","folder":"tf","game":"Team Fortress","app_id":440,"player_count":2,"max_players":24,"Bots":0,"server_type":"Dedicated","server_os":"Linux","password":true,"vac":true,"version":"7961495","steam_id":85568392925397853,"keywords":["nocrits","nodmgspread","payload","uncletopia"],"game_id":440,"stv_port":27046,"stv_name":"Uncletopia | Warsaw | 4 | All Maps | STV","players":[{"user_id":32,"name":"Victor The Idiot","steam_id":76561199153803483,"connected_time":4228000000000,"state":"active","ping":39},{"user_id":38,"name":"Jakub","steam_id":76561199135511094,"connected_time":2730000000000,"state":"active","ping":36}]},{"server_id":53,"name":"Uncletopia | Warsaw | 5 | Stopwatch","name_short":"waw-5","host":"waw-1.pl.uncletopia.com","port":27055,"enabled":true,"region":"eu","cc":"pl","latitude":52.2297,"longitude":21.017532,"reserved":0,"last_update":"0001-01-01T00:00:00Z","name_a2s":"Uncletopia | Warsaw | 5 | Stopwatch","protocol":17,"map":"workshop/koth_ramjam_rc1.ugc459778887","folder":"tf","game":"Team Fortress","app_id":440,"player_count":0,"max_players":24,"Bots":0,"server_type":"Dedicated","server_os":"Linux","password":true,"vac":true,"version":"7961495","steam_id":85568392925397854,"keywords":["cp","nocrits","nodmgspread","uncletopia"],"game_id":440,"stv_port":27056,"stv_name":"Uncletopia | Warsaw | 5 | Stopwatch | STV","players":null},{"server_id":54,"name":"Uncletopia | Warsaw | 6 | Community","name_short":"waw-6","host":"waw-1.pl.uncletopia.com","port":27065,"enabled":true,"region":"eu","cc":"pl","latitude":52.2297,"longitude":21.017532,"reserved":0,"last_update":"0001-01-01T00:00:00Z","name_a2s":"Uncletopia | Warsaw | 6 | Community","protocol":17,"map":"workshop/koth_trenchfoot_ab1.ugc731436616","folder":"tf","game":"Team Fortress","app_id":440,"player_count":0,"max_players":24,"Bots":0,"server_type":"Dedicated","server_os":"Linux","password":true,"vac":true,"version":"7961495","steam_id":85568392925397856,"keywords":["cp","nocrits","nodmgspread","uncletopia"],"game_id":440,"stv_port":27066,"stv_name":"Uncletopia | Warsaw | 6 | Community | STV","players":null}]}