{"status":true,"message":"","result":[{"server_id":9,"name":"Uncletopia | Atlanta | 1 | All Maps","name_short":"atl-1","host":"atl-1.us.uncletopia.com","port":27015,"enabled":true,"region":"us-east","cc":"us","latitude":33.753746,"longitude":-84.38633,"reserved":0,"last_update":"0001-01-01T00:00:00Z","name_a2s":"Uncletopia | Atlanta | 1 | All Maps","protocol":17,"map":"koth_viaduct","folder":"tf","game":"Team Fortress","app_id":440,"player_count":24,"max_players":24,"Bots":0,"server_type":"Dedicated","server_os":"Linux","password":true,"vac":true,"version":"7708610","steam_id":85568392924469982,"keywords":["cp","nocrits","nodmgspread","uncletopia"],"game_id":440,"stv_port":27016,"stv_name":"Uncletopia | Atlanta | 1 | All Maps | STV","players":[{"user_id":493,"name":"A Very Angry Heavy","steam_id":76561198122634602,"connected_time":1744000000000,"state":"active","ping":62},{"user_id":384,"name":"cola","steam_id":76561198374390458,"connected_time":9451000000000,"state":"active","ping":59},{"user_id":495,"name":"ATL0 Dedi Le4n!!!","steam_id":76561198045522596,"connected_time":1410000000000,"state":"active","ping":70},{"user_id":307,"name":"Ether","steam_id":76561198054806528,"connected_time":16751000000000,"state":"active","ping":66},{"user_id":476,"name":"Aniz","steam_id":76561199226665024,"connected_time":3387000000000,"state":"active","ping":164},{"user_id":497,"name":"ATL1 | Vee (very holly \u0026 jolly)","steam_id":76561198330432889,"connected_time":1389000000000,"state":"active","ping":63},{"user_id":449,"name":"ATL1 | a very merry ma0re","steam_id":76561199231971506,"connected_time":6114000000000,"state":"active","ping":56},{"user_id":454,"name":"ATL1 | Phestive Phango","steam_id":76561198069811545,"connected_time":5238000000000,"state":"active","ping":47},{"user_id":464,"name":"BotchyAlarm8","steam_id":76561198092682129,"connected_time":4434000000000,"state":"active","ping":46},{"user_id":492,"name":"Oak","steam_id":76561198092135570,"connected_time":1783000000000,"state":"active","ping":61},{"user_id":472,"name":"Bunt","steam_id":76561198124477567,"connected_time":3695000000000,"state":"active","ping":43},{"user_id":468,"name":"Zal","steam_id":76561199061086990,"connected_time":4344000000000,"state":"active","ping":160},{"user_id":500,"name":"BERBBLES","steam_id":76561198815107994,"connected_time":1233000000000,"state":"active","ping":100},{"user_id":504,"name":"Dreszerg","steam_id":76561198838757422,"connected_time":434000000000,"state":"active","ping":77},{"user_id":352,"name":"blob","steam_id":76561198122375328,"connected_time":11725000000000,"state":"active","ping":64},{"user_id":490,"name":"ATL1 | eish","steam_id":76561198089463603,"connected_time":1901000000000,"state":"active","ping":119},{"user_id":503,"name":"solar_dude","steam_id":76561198086429076,"connected_time":709000000000,"state":"active","ping":56},{"user_id":473,"name":"Mage","steam_id":76561198285026879,"connected_time":3467000000000,"state":"active","ping":77},{"user_id":494,"name":"melancholy","steam_id":76561198024301465,"connected_time":1473000000000,"state":"active","ping":47},{"user_id":498,"name":"ATL1 | Psionic Present","steam_id":76561198151019322,"connected_time":1388000000000,"state":"active","ping":78},{"user_id":483,"name":"GraNolanBar","steam_id":76561199184696910,"connected_time":2691000000000,"state":"active","ping":64},{"user_id":499,"name":"SnowStorm","steam_id":76561198095817025,"connected_time":1388000000000,"state":"active","ping":45},{"user_id":455,"name":"ATL1 | Dec the halls","steam_id":76561199045608372,"connected_time":4894000000000,"state":"active","ping":72},{"user_id":502,"name":"ATL6 Deez Noel","steam_id":76561198246700372,"connected_time":819000000000,"state":"active","ping":61}]},{"server_id":400,"name":"Uncletopia | Atlanta | 3 | All Maps","name_short":"atl-3","host":"atl-1.us.uncletopia.com","port":27035,"enabled":true,"region":"us-east","cc":"us","latitude":33.753746,"longitude":-84.38633,"reserved":0,"last_update":"0001-01-01T00:00:00Z","name_a2s":"Uncletopia | Atlanta | 3 | All Maps","protocol":17,"map":"koth_lakeside_final","folder":"tf","game":"Team Fortress","app_id":440,"player_count":0,"max_players":24,"Bots":0,"server_type":"Dedicated","server_os":"Linux","password":true,"vac":true,"version":"7708610","steam_id":85568392924515187,"keywords":["cp","nocrits","nodmgspread","uncletopia"],"game_id":440,"stv_port":27036,"stv_name":"Uncletopia | Atlanta | 3 | All Maps | STV","players":null},{"server_id":401,"name":"Uncletopia | Atlanta | 4 | No Payload","name_short":"atl-4","host":"atl-1.us.uncletopia.com","port":27045,"enabled":true,"region":"us-east","cc":"us","latitude":33.753746,"longitude":-84.38633,"reserved":0,"last_update":"0001-01-01T00:00:00Z","name_a2s":"Uncletopia | Atlanta | 4 | No Payload","protocol":17,"map":"koth_viaduct","folder":"tf","game":"Team Fortress","app_id":440,"player_count":24,"max_players":24,"Bots":0,"server_type":"Dedicated","server_os":"Linux","password":true,"vac":true,"version":"7708610","steam_id":85568392924515188,"keywords":["cp","nocrits","nodmgspread","uncletopia"],"game_id":440,"stv_port":27046,"stv_name":"Uncletopia | Atlanta | 4 | No Payload | STV","players":[{"user_id":6,"name":"Evan","steam_id":76561197972292926,"connected_time":2881000000000,"state":"active","ping":73},{"user_id":7,"name":"Yeti","steam_id":76561198035450920,"connected_time":2871000000000,"state":"active","ping":77},{"user_id":8,"name":"fudo myoo","steam_id":76561198456258164,"connected_time":2780000000000,"state":"active","ping":56},{"user_id":36,"name":"MisterDanny8","steam_id":76561198048847182,"connected_time":1726000000000,"state":"active","ping":60},{"user_id":44,"name":"BB Lorexav","steam_id":76561198207565988,"connected_time":1561000000000,"state":"active","ping":57},{"user_id":43,"name":"coolkid #sextf2","steam_id":76561198072600034,"connected_time":1600000000000,"state":"active","ping":100},{"user_id":13,"name":"MeKaso TropStar","steam_id":76561199109895840,"connected_time":2101000000000,"state":"active","ping":65},{"user_id":60,"name":"BOB","steam_id":76561198282965733,"connected_time":84000000000,"state":"active","ping":61},{"user_id":61,"name":"obbeymaster19","steam_id":76561199197244143,"connected_time":72000000000,"state":"active","ping":71},{"user_id":55,"name":"amity‚úø","steam_id":76561198039506482,"connected_time":664000000000,"state":"active","ping":59},{"user_id":62,"name":"yawn","steam_id":76561198067753179,"connected_time":71000000000,"state":"active","ping":110},{"user_id":21,"name":"XX_gamer2001_XxX","steam_id":76561198105405869,"connected_time":1977000000000,"state":"active","ping":81},{"user_id":20,"name":"MadMoonKing","steam_id":76561198145791683,"connected_time":1989000000000,"state":"active","ping":74},{"user_id":52,"name":"jeansg","steam_id":76561199040569812,"connected_time":1045000000000,"state":"active","ping":101},{"user_id":53,"name":"Fausto Murillo","steam_id":76561198936120487,"connected_time":943000000000,"state":"active","ping":120},{"user_id":63,"name":"SeaBass","steam_id":76561198278914206,"connected_time":71000000000,"state":"active","ping":71},{"user_id":64,"name":"mechiimi","steam_id":76561198321627268,"connected_time":57000000000,"state":"active","ping":131},{"user_id":34,"name":"McNamJam","steam_id":76561198028128686,"connected_time":1763000000000,"state":"active","ping":106},{"user_id":54,"name":"le fromage","steam_id":76561198084230569,"connected_time":696000000000,"state":"active","ping":73},{"user_id":29,"name":"Wyre","steam_id":76561198133390421,"connected_time":1861000000000,"state":"active","ping":171},{"user_id":56,"name":"FestivisedPomsonPug","steam_id":76561198049093575,"connected_time":243000000000,"state":"active","ping":80},{"user_id":58,"name":"Sir Hinga Da Dingy Dinky","steam_id":76561198255787237,"connected_time":229000000000,"state":"active","ping":84},{"user_id":32,"name":"America's 302nd best American","steam_id":76561199118942369,"connected_time":1853000000000,"state":"active","ping":105},{"user_id":65,"name":"chexo4","steam_id":76561198150532531,"connected_time":53000000000,"state":"active","ping":55}]},{"server_id":2,"name":"Uncletopia | Chicago | 1 | All Maps","name_short":"chi-1","host":"chi-1.us.uncletopia.com","port":27015,"enabled":true,"region":"us-central","cc":"us","latitude":41.881832,"longitude":-87.62318,"reserved":0,"last_update":"0001-01-01T00:00:00Z","name_a2s":"Uncletopia | Chicago | 1 | All Maps","protocol":17,"map":"pl_upward","folder":"tf","game":"Team Fortress","app_id":440,"player_count":24,"max_players":24,"Bots":0,"server_type":"Dedicated","server_os":"Linux","password":true,"vac":true,"version":"7708610","steam_id":85568392924469984,"keywords":["nocrits","nodmgspread","payload","uncletopia"],"game_id":440,"stv_port":27016,"stv_name":"Uncletopia | Chicago | 1 | All Maps | STV","players":[{"user_id":344,"name":"DipnRipnPotatoChipn","steam_id":76561198059749125,"connected_time":1809000000000,"state":"active","ping":79},{"user_id":354,"name":"Wild_Rumpus","steam_id":76561198066393719,"connected_time":1364000000000,"state":"active","ping":71},{"user_id":325,"name":"Eviscerator","steam_id":76561197980073637,"connected_time":3584000000000,"state":"active","ping":64},{"user_id":356,"name":"bane","steam_id":76561198196769297,"connected_time":948000000000,"state":"active","ping":59},{"user_id":342,"name":"festive hooters","steam_id":76561198068022595,"connected_time":1888000000000,"state":"active","ping":60},{"user_id":341,"name":"[slug]","steam_id":76561197989592178,"connected_time":1902000000000,"state":"active","ping":60},{"user_id":332,"name":"fold","steam_id":76561198376063080,"connected_time":2735000000000,"state":"active","ping":65},{"user_id":365,"name":"Ripheart","steam_id":76561198089661561,"connected_time":67000000000,"state":"active","ping":44},{"user_id":353,"name":"Anshin","steam_id":76561198018803214,"connected_time":1674000000000,"state":"active","ping":75},{"user_id":366,"name":"Kronosaurus12","steam_id":76561198034215528,"connected_time":54000000000,"state":"active","ping":72},{"user_id":350,"name":"AncientBag","steam_id":76561198349204830,"connected_time":1680000000000,"state":"active","ping":55},{"user_id":364,"name":"lamadre07","steam_id":76561198067337453,"connected_time":154000000000,"state":"active","ping":98},{"user_id":362,"name":"chen","steam_id":76561198064872330,"connected_time":317000000000,"state":"active","ping":65},{"user_id":358,"name":"Aspxts","steam_id":76561199125254746,"connected_time":650000000000,"state":"active","ping":61},{"user_id":343,"name":"Pitch Stick","steam_id":76561198800287853,"connected_time":1887000000000,"state":"active","ping":123},{"user_id":367,"name":"Technomancer","steam_id":76561198137758683,"connected_time":50000000000,"state":"active","ping":84},{"user_id":349,"name":"Ser-Doughnuts","steam_id":76561198285459398,"connected_time":1687000000000,"state":"active","ping":80},{"user_id":351,"name":"pelicAn","steam_id":76561197963422599,"connected_time":1680000000000,"state":"active","ping":69},{"user_id":355,"name":"DavyC ‚ôî","steam_id":76561197988901502,"connected_time":1150000000000,"state":"active","ping":64},{"user_id":360,"name":"{ {Night-Wing3000/CrimsonCowboy","steam_id":76561198064316018,"connected_time":502000000000,"state":"active","ping":56},{"user_id":320,"name":"Kitt(eh) ‚àë:3","steam_id":76561198110858518,"connected_time":3812000000000,"state":"active","ping":54},{"user_id":324,"name":"Godmode","steam_id":76561198076240365,"connected_time":3591000000000,"state":"active","ping":61},{"user_id":363,"name":"CreeperCatBengal","steam_id":76561198213193221,"connected_time":171000000000,"state":"active","ping":75},{"user_id":267,"name":"Ras","steam_id":76561198123546775,"connected_time":7679000000000,"state":"active","ping":67}]},{"server_id":106,"name":"Uncletopia | Chicago | 2 | All Maps","name_short":"chi-2","host":"chi-1.us.uncletopia.com","port":27025,"enabled":true,"region":"us-central","cc":"us","latitude":41.881832,"longitude":-87.62318,"reserved":0,"last_update":"0001-01-01T00:00:00Z","name_a2s":"Uncletopia | Chicago | 2 | All Maps","protocol":17,"map":"pl_pier","folder":"tf","game":"Team Fortress","app_id":440,"player_count":24,"max_players":24,"Bots":0,"server_type":"Dedicated","server_os":"Linux","password":true,"vac":true,"version":"7708610","steam_id":85568392924469985,"keywords":["nocrits","nodmgspread","payload","uncletopia"],"game_id":440,"stv_port":27026,"stv_name":"Uncletopia | Chicago | 2 | All Maps | STV","players":[{"user_id":459,"name":"D3AC0N 44","steam_id":76561198115695203,"connected_time":861000000000,"state":"active","ping":45},{"user_id":385,"name":"Medic","steam_id":76561198067869016,"connected_time":6752000000000,"state":"active","ping":46},{"user_id":465,"name":"STrong Bomber","steam_id":76561198805051139,"connected_time":380000000000,"state":"active","ping":66},{"user_id":446,"name":"SomeRandomPerson (F2p)","steam_id":76561198977045933,"connected_time":2577000000000,"state":"active","ping":75},{"user_id":423,"name":"Fishstall","steam_id":76561198038126034,"connected_time":3925000000000,"state":"active","ping":87},{"user_id":471,"name":"Erick","steam_id":76561198176406475,"connected_time":121000000000,"state":"active","ping":94},{"user_id":458,"name":"DJ Chalice","steam_id":76561197974872458,"connected_time":1086000000000,"state":"active","ping":67},{"user_id":474,"name":"silentpieceofbacon","steam_id":76561198869323351,"connected_time":3000000000,"state":"spawning","ping":70},{"user_id":377,"name":"La Tabda","steam_id":76561198120364620,"connected_time":7682000000000,"state":"active","ping":96},{"user_id":443,"name":"Atlas","steam_id":76561199071658126,"connected_time":2698000000000,"state":"active","ping":95},{"user_id":247,"name":"katryna","steam_id":76561198023440304,"connected_time":12533000000000,"state":"active","ping":59},{"user_id":463,"name":"¬øskitt1eS?","steam_id":76561198330093211,"connected_time":492000000000,"state":"active","ping":62},{"user_id":455,"name":"Ping","steam_id":76561199206514106,"connected_time":1536000000000,"state":"active","ping":48},{"user_id":450,"name":"Pink","steam_id":76561198042140694,"connected_time":2512000000000,"state":"active","ping":62},{"user_id":453,"name":"Spirit of Smissmass' Past","steam_id":76561198096306325,"connected_time":1777000000000,"state":"active","ping":94},{"user_id":461,"name":"ScottishScott","steam_id":76561198388864694,"connected_time":849000000000,"state":"active","ping":61},{"user_id":470,"name":"Oakspace_","steam_id":76561198132487015,"connected_time":236000000000,"state":"active","ping":76},{"user_id":442,"name":"his flatulence","steam_id":76561198799404824,"connected_time":2895000000000,"state":"active","ping":70},{"user_id":472,"name":"sioti","steam_id":76561198128796649,"connected_time":110000000000,"state":"active","ping":72},{"user_id":464,"name":"Pierce","steam_id":76561198043747953,"connected_time":426000000000,"state":"active","ping":60},{"user_id":473,"name":"Sicko Mode (Chris Pratt Cover)","steam_id":76561198315786174,"connected_time":110000000000,"state":"active","ping":77},{"user_id":468,"name":"lemon","steam_id":76561198329179651,"connected_time":329000000000,"state":"active","ping":108},{"user_id":439,"name":"TheGrassMan (He/Him)","steam_id":76561198118984048,"connected_time":3031000000000,"state":"active","ping":56},{"user_id":380,"name":"Fitts1099","steam_id":76561198044986906,"connected_time":7193000000000,"state":"active","ping":50}]},{"server_id":402,"name":"Uncletopia | Chicago | 3 | All Maps","name_short":"chi-3","host":"chi-1.us.uncletopia.com","port":27035,"enabled":true,"region":"us-central","cc":"us","latitude":41.881832,"longitude":-87.62318,"reserved":0,"last_update":"0001-01-01T00:00:00Z","name_a2s":"Uncletopia | Chicago | 3 | All Maps","protocol":17,"map":"pl_frontier_final","folder":"tf","game":"Team Fortress","app_id":440,"player_count":24,"max_players":24,"Bots":0,"server_type":"Dedicated","server_os":"Linux","password":true,"vac":true,"version":"7708610","steam_id":85568392924515191,"keywords":["nocrits","nodmgspread","payload","uncletopia"],"game_id":440,"stv_port":27036,"stv_name":"Uncletopia | Chicago | 3 | All Maps | STV","players":[{"user_id":577,"name":"bender","steam_id":76561199148977621,"connected_time":1577000000000,"state":"active","ping":60},{"user_id":607,"name":"Terrafryer","steam_id":76561198211738732,"connected_time":493000000000,"state":"active","ping":74},{"user_id":612,"name":"no vc no c","steam_id":76561197989503095,"connected_time":38000000000,"state":"active","ping":201},{"user_id":534,"name":"Bread Baker","steam_id":76561198185335103,"connected_time":3930000000000,"state":"active","ping":57},{"user_id":611,"name":"vortexgamer","steam_id":76561197999435527,"connected_time":131000000000,"state":"active","ping":67},{"user_id":522,"name":"sentient soup","steam_id":76561198887503216,"connected_time":4979000000000,"state":"active","ping":67},{"user_id":599,"name":"a baby","steam_id":76561198008662184,"connected_time":885000000000,"state":"active","ping":61},{"user_id":600,"name":"ly","steam_id":76561198062922146,"connected_time":885000000000,"state":"active","ping":75},{"user_id":449,"name":"5$ sushi","steam_id":76561198026589960,"connected_time":9837000000000,"state":"active","ping":46},{"user_id":593,"name":"Buppy","steam_id":76561198167723623,"connected_time":975000000000,"state":"active","ping":86},{"user_id":552,"name":"cosmik","steam_id":76561198071193180,"connected_time":3593000000000,"state":"active","ping":64},{"user_id":579,"name":"valtiel","steam_id":76561198165212575,"connected_time":1498000000000,"state":"active","ping":75},{"user_id":594,"name":"K2f","steam_id":76561198049600563,"connected_time":972000000000,"state":"active","ping":98},{"user_id":598,"name":"guh","steam_id":76561197972342286,"connected_time":907000000000,"state":"active","ping":74},{"user_id":603,"name":"microwavable football","steam_id":76561198260688856,"connected_time":624000000000,"state":"active","ping":69},{"user_id":602,"name":"leonardo doujinshi","steam_id":76561198025810326,"connected_time":703000000000,"state":"active","ping":79},{"user_id":589,"name":"beetroot powder","steam_id":76561198035730098,"connected_time":1097000000000,"state":"active","ping":55},{"user_id":596,"name":"NoU(f2p)","steam_id":76561198973344727,"connected_time":963000000000,"state":"active","ping":62},{"user_id":581,"name":"Trusty","steam_id":76561198035444237,"connected_time":1392000000000,"state":"active","ping":73},{"user_id":587,"name":"SandysBox","steam_id":76561198106474244,"connected_time":1195000000000,"state":"active","ping":87},{"user_id":610,"name":"MR.Badatgames","steam_id":76561198820423721,"connected_time":209000000000,"state":"active","ping":55},{"user_id":517,"name":"goblino","steam_id":76561198068260422,"connected_time":5206000000000,"state":"active","ping":47},{"user_id":532,"name":"Ahzain","steam_id":76561198035894333,"connected_time":4310000000000,"state":"active","ping":139},{"user_id":563,"name":"Dumpy","steam_id":76561198067167895,"connected_time":2725000000000,"state":"active","ping":66}]},{"server_id":403,"name":"Uncletopia | Chicago | 4 | All Maps","name_short":"chi-4","host":"chi-1.us.uncletopia.com","port":27045,"enabled":true,"region":"us-central","cc":"us","latitude":41.881832,"longitude":-87.62318,"reserved":0,"last_update":"0001-01-01T00:00:00Z","name_a2s":"Uncletopia | Chicago | 4 | All Maps","protocol":17,"map":"pl_badwater","folder":"tf","game":"Team Fortress","app_id":440,"player_count":23,"max_players":24,"Bots":0,"server_type":"Dedicated","server_os":"Linux","password":true,"vac":true,"version":"7708610","steam_id":85568392924515193,"keywords":["nocrits","nodmgspread","payload","uncletopia"],"game_id":440,"stv_port":27046,"stv_name":"Uncletopia | Chicago | 4 | All Maps | STV","players":[{"user_id":256,"name":"Lunean","steam_id":76561198106546230,"connected_time":453000000000,"state":"active","ping":62},{"user_id":207,"name":"Spoonastic","steam_id":76561198343838009,"connected_time":3478000000000,"state":"active","ping":109},{"user_id":209,"name":"Quavo_YRN","steam_id":76561198070630154,"connected_time":3437000000000,"state":"active","ping":84},{"user_id":248,"name":"swozzel","steam_id":76561198079285108,"connected_time":1039000000000,"state":"active","ping":48},{"user_id":251,"name":"Average 5‚Äô11 man","steam_id":76561199236177480,"connected_time":944000000000,"state":"active","ping":47},{"user_id":259,"name":"JEFROOO","steam_id":76561198146970071,"connected_time":6000000000,"state":"spawning","ping":78},{"user_id":242,"name":"creeeeeee","steam_id":76561198392539722,"connected_time":1590000000000,"state":"active","ping":80},{"user_id":214,"name":"gorf?","steam_id":76561198142286417,"connected_time":3293000000000,"state":"active","ping":57},{"user_id":243,"name":"Ursus Ludius","steam_id":76561198025470722,"connected_time":1537000000000,"state":"active","ping":81},{"user_id":255,"name":"Simply G","steam_id":76561199221934609,"connected_time":721000000000,"state":"active","ping":112},{"user_id":253,"name":"dan","steam_id":76561198061589465,"connected_time":923000000000,"state":"active","ping":61},{"user_id":237,"name":"Taltos","steam_id":76561198215070291,"connected_time":1842000000000,"state":"active","ping":61},{"user_id":195,"name":"Young-OG","steam_id":76561198058800479,"connected_time":4391000000000,"state":"active","ping":84},{"user_id":238,"name":"Hideous Kojima","steam_id":76561198145430036,"connected_time":1828000000000,"state":"active","ping":94},{"user_id":231,"name":"Nodspine","steam_id":76561198253579994,"connected_time":1908000000000,"state":"active","ping":132},{"user_id":229,"name":"Ben","steam_id":76561198129254533,"connected_time":2160000000000,"state":"active","ping":91},{"user_id":247,"name":"al haitham balls real","steam_id":76561198368345693,"connected_time":1186000000000,"state":"active","ping":61},{"user_id":249,"name":"Oddball","steam_id":76561198040440984,"connected_time":980000000000,"state":"active","ping":70},{"user_id":244,"name":"Dr Oshawott","steam_id":76561198042021629,"connected_time":1254000000000,"state":"active","ping":63},{"user_id":239,"name":"leumas","steam_id":76561198240408540,"connected_time":1779000000000,"state":"active","ping":61},{"user_id":257,"name":"pablo.gonzales.2004","steam_id":76561199217620385,"connected_time":98000000000,"state":"active","ping":67},{"user_id":217,"name":"bladeefan17","steam_id":76561198239286750,"connected_time":3073000000000,"state":"active","ping":64},{"user_id":258,"name":"OFF DA GLOOP!!","steam_id":76561198126549311,"connected_time":98000000000,"state":"active","ping":69}]},{"server_id":36,"name":"Uncletopia | Chicago | 5 | All Maps","name_short":"chi-5","host":"chi-2.us.uncletopia.com","port":27015,"enabled":true,"region":"us-central","cc":"us","latitude":41.881832,"longitude":-87.62318,"reserved":0,"last_update":"0001-01-01T00:00:00Z","name_a2s":"Uncletopia | Chicago | 5 | All Maps","protocol":17,"map":"pl_upward","folder":"tf","game":"Team Fortress","app_id":440,"player_count":24,"max_players":24,"Bots":0,"server_type":"Dedicated","server_os":"Linux","password":true,"vac":true,"version":"7708610","steam_id":85568392924866362,"keywords":["nocrits","nodmgspread","payload","uncletopia"],"game_id":440,"stv_port":27016,"stv_name":"Uncletopia | Chicago | 5 | All Maps | STV","players":[{"user_id":70,"name":"Toygar","steam_id":76561198023679830,"connected_time":3863000000000,"state":"active","ping":55},{"user_id":40,"name":"Berries","steam_id":76561198109312962,"connected_time":6105000000000,"state":"active","ping":79},{"user_id":56,"name":"fewny","steam_id":76561198225977000,"connected_time":5012000000000,"state":"active","ping":77},{"user_id":100,"name":"Johnny Lawrence #JohnnyMaxxing","steam_id":76561199367141671,"connected_time":1510000000000,"state":"active","ping":59},{"user_id":83,"name":"jerma enthusiast","steam_id":76561198359466264,"connected_time":2917000000000,"state":"active","ping":67},{"user_id":30,"name":"Totouri","steam_id":76561198004229789,"connected_time":6417000000000,"state":"active","ping":61},{"user_id":92,"name":"Pan","steam_id":76561199122755987,"connected_time":2634000000000,"state":"active","ping":86},{"user_id":114,"name":"sawrik","steam_id":76561198018808213,"connected_time":382000000000,"state":"active","ping":61},{"user_id":97,"name":"Fudgely","steam_id":76561198039425862,"connected_time":2000000000000,"state":"active","ping":75},{"user_id":105,"name":"a crazy hobo","steam_id":76561198289650060,"connected_time":989000000000,"state":"active","ping":82},{"user_id":81,"name":"Saristan","steam_id":76561198093346048,"connected_time":2949000000000,"state":"active","ping":69},{"user_id":109,"name":"shredded cheese","steam_id":76561198825214098,"connected_time":828000000000,"state":"active","ping":108},{"user_id":73,"name":"MFB","steam_id":76561198170923095,"connected_time":3551000000000,"state":"active","ping":68},{"user_id":113,"name":"Qrow","steam_id":76561198355935693,"connected_time":456000000000,"state":"active","ping":48},{"user_id":95,"name":"kiwiichie ‚Çç·ê¢·ê¢‚Çé","steam_id":76561198315449521,"connected_time":2206000000000,"state":"active","ping":82},{"user_id":112,"name":"Smet19","steam_id":76561198118455606,"connected_time":537000000000,"state":"active","ping":63},{"user_id":107,"name":"eli","steam_id":76561198253198869,"connected_time":951000000000,"state":"active","ping":75},{"user_id":80,"name":"nhbiker","steam_id":76561198081277675,"connected_time":2955000000000,"state":"active","ping":59},{"user_id":103,"name":"Rein","steam_id":76561198300340427,"connected_time":1041000000000,"state":"active","ping":63},{"user_id":108,"name":"ÁÅ´Êòü | Marsy","steam_id":76561198014979892,"connected_time":933000000000,"state":"active","ping":78},{"user_id":86,"name":"6t26j","steam_id":76561198278282836,"connected_time":2887000000000,"state":"active","ping":54},{"user_id":87,"name":"OrcaGuy","steam_id":76561198327009488,"connected_time":2881000000000,"state":"active","ping":66},{"user_id":110,"name":"kb","steam_id":76561198115914109,"connected_time":600000000000,"state":"active","ping":71},{"user_id":79,"name":"KingToaster","steam_id":76561198007903802,"connected_time":3089000000000,"state":"active","ping":84}]},{"server_id":37,"name":"Uncletopia | Chicago | 6 | All Maps","name_short":"chi-6","host":"chi-2.us.uncletopia.com","port":27025,"enabled":true,"region":"us-central","cc":"us","latitude":41.881832,"longitude":-87.62318,"reserved":0,"last_update":"0001-01-01T00:00:00Z","name_a2s":"Uncletopia | Chicago | 6 | All Maps","protocol":17,"map":"koth_viaduct","folder":"tf","game":"Team Fortress","app_id":440,"player_count":0,"max_players":24,"Bots":0,"server_type":"Dedicated","server_os":"Linux","password":true,"vac":true,"version":"7708610","steam_id":85568392924866363,"keywords":["cp","nocrits","nodmgspread","uncletopia"],"game_id":440,"stv_port":27026,"stv_name":"Uncletopia | Chicago | 6 | All Maps | STV","players":null},{"server_id":38,"name":"Uncletopia | Chicago | 7 | Stopwatch (test)","name_short":"chi-7","host":"chi-2.us.uncletopia.com","port":27035,"enabled":true,"region":"us-central","cc":"us","latitude":41.881832,"longitude":-87.62318,"reserved":0,"last_update":"0001-01-01T00:00:00Z","name_a2s":"Uncletopia | Chicago | 7 | Stopwatch (test)","protocol":17,"map":"pl_swiftwater_final1","folder":"tf","game":"Team Fortress","app_id":440,"player_count":0,"max_players":24,"Bots":0,"server_type":"Dedicated","server_os":"Linux","password":true,"vac":true,"version":"7708610","steam_id":85568392924866364,"keywords":["nocrits","nodmgspread","payload","uncletopia"],"game_id":440,"stv_port":27036,"stv_name":"Uncletopia | Chicago | 7 | Stopwatch (test) | STV","players":null},{"server_id":39,"name":"Uncletopia | Chicago | 8 | Community","name_short":"chi-8","host":"chi-2.us.uncletopia.com","port":27045,"enabled":true,"region":"us-central","cc":"us","latitude":41.881832,"longitude":-87.62318,"reserved":0,"last_update":"0001-01-01T00:00:00Z","name_a2s":"Uncletopia | Chicago | 8 | Community","protocol":17,"map":"pl_barnblitz","folder":"tf","game":"Team Fortress","app_id":440,"player_count":0,"max_players":24,"Bots":0,"server_type":"Dedicated","server_os":"Linux","password":true,"vac":true,"version":"7708610","steam_id":85568392924866365,"keywords":["nocrits","nodmgspread","payload","uncletopia"],"game_id":440,"stv_port":27046,"stv_name":"Uncletopia | Chicago | 8 | Community | STV","players":null},{"server_id":8,"name":"Uncletopia | Dallas | 1 | All Maps","name_short":"dal-1","host":"dal-1.us.uncletopia.com","port":27015,"enabled":true,"region":"us-central","cc":"us","latitude":32.779167,"longitude":-96.80889,"reserved":0,"last_update":"0001-01-01T00:00:00Z","name_a2s":"Uncletopia | Dallas | 1 | All Maps","protocol":17,"map":"pl_upward","folder":"tf","game":"Team Fortress","app_id":440,"player_count":24,"max_players":24,"Bots":0,"server_type":"Dedicated","server_os":"Linux","password":true,"vac":true,"version":"7708610","steam_id":85568392924469986,"keywords":["nocrits","nodmgspread","payload","uncletopia"],"game_id":440,"stv_port":27016,"stv_name":"Uncletopia | Dallas | 1 | All Maps | STV","players":[{"user_id":56,"name":"nick00k","steam_id":76561198313631242,"connected_time":320000000000,"state":"active","ping":67},{"user_id":60,"name":"corviraptor (\u003c-- awesome)","steam_id":76561198058284392,"connected_time":46000000000,"state":"active","ping":47},{"user_id":58,"name":"1444","steam_id":76561199409264244,"connected_time":313000000000,"state":"active","ping":79},{"user_id":22,"name":"Scrumpy Main","steam_id":76561198146302597,"connected_time":1581000000000,"state":"active","ping":65},{"user_id":53,"name":"kier","steam_id":76561198018564445,"connected_time":421000000000,"state":"active","ping":59},{"user_id":61,"name":"Mr.CheesyFondue","steam_id":76561198011489694,"connected_time":18000000000,"state":"spawning","ping":96},{"user_id":33,"name":"Devoid","steam_id":76561198254039012,"connected_time":1313000000000,"state":"active","ping":69},{"user_id":54,"name":"fac","steam_id":76561198009818412,"connected_time":364000000000,"state":"active","ping":62},{"user_id":62,"name":"Steiner","steam_id":76561198030457066,"connected_time":13000000000,"state":"spawning","ping":61},{"user_id":28,"name":"Bomb Squirtle‚Ñ¢","steam_id":76561197998931145,"connected_time":1420000000000,"state":"active","ping":104},{"user_id":29,"name":"locosteve4526","steam_id":76561198360162643,"connected_time":1398000000000,"state":"active","ping":125},{"user_id":30,"name":"E4Estrogen","steam_id":76561198085813708,"connected_time":1393000000000,"state":"spawning","ping":61},{"user_id":31,"name":"ish","steam_id":76561198280800679,"connected_time":1384000000000,"state":"active","ping":76},{"user_id":48,"name":"A Bit Of Everything","steam_id":76561198389177376,"connected_time":1015000000000,"state":"active","ping":65},{"user_id":34,"name":"Van","steam_id":76561198073518712,"connected_time":1293000000000,"state":"active","ping":103},{"user_id":38,"name":"Dino Dude","steam_id":76561198799270016,"connected_time":1215000000000,"state":"active","ping":68},{"user_id":59,"name":"rainey","steam_id":76561198972341355,"connected_time":249000000000,"state":"active","ping":93},{"user_id":37,"name":"-*+Angel+*-","steam_id":76561199229447760,"connected_time":1240000000000,"state":"active","ping":81},{"user_id":41,"name":"rakƒ±_hall","steam_id":76561198152818418,"connected_time":1164000000000,"state":"active","ping":46},{"user_id":44,"name":"Jackass in a box","steam_id":76561198355268305,"connected_time":1116000000000,"state":"spawning","ping":301},{"user_id":50,"name":"Darcha01","steam_id":76561198365284550,"connected_time":912000000000,"state":"active","ping":64},{"user_id":45,"name":"Huggernaut","steam_id":76561198043998084,"connected_time":1093000000000,"state":"active","ping":51},{"user_id":51,"name":"InkKnight","steam_id":76561198927983566,"connected_time":624000000000,"state":"spawning","ping":171},{"user_id":63,"name":"eryn üó∫","steam_id":76561198004433070,"connected_time":12000000000,"state":"spawning","ping":153}]},{"server_id":108,"name":"Uncletopia | Dallas | 2 | All Maps","name_short":"dal-2","host":"dal-1.us.uncletopia.com","port":27025,"enabled":true,"region":"us-central","cc":"us","latitude":32.779167,"longitude":-96.80889,"reserved":0,"last_update":"0001-01-01T00:00:00Z","name_a2s":"Uncletopia | Dallas | 2 | All Maps","protocol":17,"map":"koth_highpass","folder":"tf","game":"Team Fortress","app_id":440,"player_count":24,"max_players":24,"Bots":0,"server_type":"Dedicated","server_os":"Linux","password":true,"vac":true,"version":"7708610","steam_id":85568392924469988,"keywords":["cp","nocrits","nodmgspread","uncletopia"],"game_id":440,"stv_port":27026,"stv_name":"Uncletopia | Dallas | 2 | All Maps | STV","players":[{"user_id":20,"name":"lmlg.qro","steam_id":76561198172061671,"connected_time":969000000000,"state":"active","ping":55},{"user_id":33,"name":"InstantSnowcone","steam_id":76561198067556825,"connected_time":501000000000,"state":"active","ping":85},{"user_id":22,"name":"Tommy Provolone","steam_id":76561198170062377,"connected_time":790000000000,"state":"active","ping":66},{"user_id":24,"name":"The Figgler","steam_id":76561198168295944,"connected_time":759000000000,"state":"active","ping":87},{"user_id":28,"name":"Wetman","steam_id":76561197998443325,"connected_time":578000000000,"state":"active","ping":199},{"user_id":26,"name":"kbharcher","steam_id":76561198200138614,"connected_time":618000000000,"state":"active","ping":112},{"user_id":27,"name":"Birdhorse Of Course","steam_id":76561198038997485,"connected_time":616000000000,"state":"active","ping":83},{"user_id":29,"name":"navarretegustavo480","steam_id":76561199444256853,"connected_time":575000000000,"state":"active","ping":72},{"user_id":52,"name":"kate‚òÜÂΩ°","steam_id":76561198069744362,"connected_time":98000000000,"state":"active","ping":41},{"user_id":31,"name":"Kamin","steam_id":76561198255299559,"connected_time":546000000000,"state":"active","ping":69},{"user_id":32,"name":"10 INCH TGIRL SCHLONG","steam_id":76561198122059018,"connected_time":504000000000,"state":"active","ping":84},{"user_id":44,"name":"Heida","steam_id":76561198298468550,"connected_time":277000000000,"state":"spawning","ping":77},{"user_id":39,"name":"Lazy","steam_id":76561198340850295,"connected_time":412000000000,"state":"active","ping":92},{"user_id":40,"name":"troylcarter","steam_id":76561197984065094,"connected_time":347000000000,"state":"active","ping":62},{"user_id":37,"name":"xenolith","steam_id":76561198041496496,"connected_time":467000000000,"state":"active","ping":90},{"user_id":38,"name":"Cheeseburger","steam_id":76561199041672952,"connected_time":437000000000,"state":"active","ping":100},{"user_id":41,"name":"give me your baby faces blaster","steam_id":76561199013442982,"connected_time":338000000000,"state":"active","ping":88},{"user_id":45,"name":"rubb3r","steam_id":76561198096874230,"connected_time":264000000000,"state":"active","ping":64},{"user_id":43,"name":"Ch4rl33","steam_id":76561198037008621,"connected_time":302000000000,"state":"active","ping":76},{"user_id":46,"name":"kibsta","steam_id":76561198991982630,"connected_time":259000000000,"state":"active","ping":76},{"user_id":47,"name":"newboi (F2P)","steam_id":76561199273882768,"connected_time":258000000000,"state":"active","ping":73},{"user_id":51,"name":"dobby","steam_id":76561198012274834,"connected_time":184000000000,"state":"active","ping":62},{"user_id":49,"name":"Ros","steam_id":76561199055963822,"connected_time":251000000000,"state":"active","ping":76},{"user_id":50,"name":"ObiWonJacobi","steam_id":76561198041921071,"connected_time":238000000000,"state":"active","ping":41}]},{"server_id":5,"name":"Uncletopia | Frankfurt | 1 | All Maps","name_short":"frk-1","host":"frk-1.de.uncletopia.com","port":27015,"enabled":true,"region":"eu","cc":"de","latitude":50.110924,"longitude":8.682127,"reserved":0,"last_update":"0001-01-01T00:00:00Z","name_a2s":"Uncletopia | Frankfurt | 1 | All Maps","protocol":17,"map":"ctf_doublecross","folder":"tf","game":"Team Fortress","app_id":440,"player_count":22,"max_players":24,"Bots":0,"server_type":"Dedicated","server_os":"Linux","password":true,"vac":true,"version":"7708610","steam_id":85568392924469989,"keywords":["ctf","nocrits","nodmgspread","uncletopia"],"game_id":440,"stv_port":27016,"stv_name":"Uncletopia | Frankfurt | 1 | All Maps | STV","players":[{"user_id":610,"name":"Giraffe Bazooka","steam_id":76561198070907200,"connected_time":786000000000,"state":"active","ping":82},{"user_id":618,"name":"Chicanery","steam_id":76561198068213670,"connected_time":110000000000,"state":"active","ping":47},{"user_id":520,"name":"Umme","steam_id":76561198053809566,"connected_time":5890000000000,"state":"active","ping":79},{"user_id":590,"name":"PierraNova","steam_id":76561198145686102,"connected_time":1454000000000,"state":"active","ping":60},{"user_id":598,"name":"avnya","steam_id":76561198863728032,"connected_time":1074000000000,"state":"active","ping":88},{"user_id":619,"name":"little koala","steam_id":76561198074176732,"connected_time":14000000000,"state":"spawning","ping":88},{"user_id":604,"name":"markus","steam_id":76561198186791643,"connected_time":845000000000,"state":"active","ping":74},{"user_id":523,"name":"ethan","steam_id":76561198119495513,"connected_time":5733000000000,"state":"active","ping":54},{"user_id":596,"name":"Gurgula","steam_id":76561198021253678,"connected_time":1207000000000,"state":"active","ping":73},{"user_id":555,"name":"Such XD","steam_id":76561198129454909,"connected_time":3807000000000,"state":"active","ping":78},{"user_id":577,"name":"mordecai.nmc","steam_id":76561197997223851,"connected_time":2553000000000,"state":"active","ping":58},{"user_id":524,"name":"BONA FIDE PISS","steam_id":76561198130020929,"connected_time":5647000000000,"state":"active","ping":56},{"user_id":594,"name":"OpaiGoof","steam_id":76561199444687855,"connected_time":1344000000000,"state":"active","ping":63},{"user_id":606,"name":"ANGR","steam_id":76561198050647646,"connected_time":824000000000,"state":"active","ping":60},{"user_id":608,"name":"Dehkx","steam_id":76561198074565885,"connected_time":808000000000,"state":"active","ping":51},{"user_id":573,"name":"Mannifest Destiny","steam_id":76561198253006719,"connected_time":2868000000000,"state":"active","ping":76},{"user_id":557,"name":"boymilk","steam_id":76561199074208922,"connected_time":3743000000000,"state":"active","ping":63},{"user_id":611,"name":"sandro the necromancer","steam_id":76561197988986250,"connected_time":779000000000,"state":"active","ping":73},{"user_id":597,"name":"President013","steam_id":76561198107233527,"connected_time":1175000000000,"state":"active","ping":83},{"user_id":579,"name":"Gety0","steam_id":76561198044387185,"connected_time":2494000000000,"state":"active","ping":79},{"user_id":571,"name":"Avsky","steam_id":76561198048870734,"connected_time":2930000000000,"state":"active","ping":75},{"user_id":612,"name":"ozs","steam_id":76561198049396143,"connected_time":776000000000,"state":"active","ping":73}]},{"server_id":110,"name":"Uncletopia | Frankfurt | 2 | All Maps","name_short":"frk-2","host":"frk-1.de.uncletopia.com","port":27025,"enabled":true,"region":"eu","cc":"de","latitude":50.110924,"longitude":8.682127,"reserved":0,"last_update":"0001-01-01T00:00:00Z","name_a2s":"Uncletopia | Frankfurt | 2 | All Maps","protocol":17,"map":"cp_sunshine","folder":"tf","game":"Team Fortress","app_id":440,"player_count":0,"max_players":24,"Bots":0,"server_type":"Dedicated","server_os":"Linux","password":true,"vac":true,"version":"7708610","steam_id":85568392924469990,"keywords":["cp","nocrits","nodmgspread","uncletopia"],"game_id":440,"stv_port":27026,"stv_name":"Uncletopia | Frankfurt | 2 | All Maps | STV","players":null},{"server_id":308,"name":"Uncletopia | Frankfurt | 3 | All Maps","name_short":"frk-3","host":"frk-1.de.uncletopia.com","port":27035,"enabled":true,"region":"eu","cc":"de","latitude":50.110924,"longitude":8.682127,"reserved":0,"last_update":"0001-01-01T00:00:00Z","name_a2s":"Uncletopia | Frankfurt | 3 | All Maps","protocol":17,"map":"pl_badwater","folder":"tf","game":"Team Fortress","app_id":440,"player_count":24,"max_players":24,"Bots":0,"server_type":"Dedicated","server_os":"Linux","password":true,"vac":true,"version":"7708610","steam_id":85568392924504274,"keywords":["nocrits","nodmgspread","payload","uncletopia"],"game_id":440,"stv_port":27036,"stv_name":"Uncletopia | Frankfurt | 3 | All Maps | STV","players":[{"user_id":457,"name":"Fales","steam_id":76561198126124929,"connected_time":803000000000,"state":"active","ping":58},{"user_id":421,"name":"zero","steam_id":76561198055365234,"connected_time":2329000000000,"state":"active","ping":69},{"user_id":428,"name":"DIDE","steam_id":76561198211013187,"connected_time":2178000000000,"state":"active","ping":56},{"user_id":461,"name":"Miles","steam_id":76561198044377714,"connected_time":544000000000,"state":"active","ping":75},{"user_id":377,"name":"Ar|es","steam_id":76561198819160313,"connected_time":5097000000000,"state":"active","ping":77},{"user_id":431,"name":"Bazza9876","steam_id":76561199057561003,"connected_time":2063000000000,"state":"active","ping":60},{"user_id":458,"name":"(1)Zero","steam_id":76561199383267408,"connected_time":728000000000,"state":"active","ping":162},{"user_id":439,"name":"Coffee","steam_id":76561198833315038,"connected_time":1684000000000,"state":"active","ping":50},{"user_id":434,"name":"CloutyiliaS","steam_id":76561198868490066,"connected_time":1937000000000,"state":"active","ping":74},{"user_id":462,"name":"YEEET","steam_id":76561198914938199,"connected_time":201000000000,"state":"active","ping":87},{"user_id":380,"name":"Br√Üd","steam_id":76561198088554053,"connected_time":5020000000000,"state":"active","ping":64},{"user_id":453,"name":"guarda-chuva","steam_id":76561198078694330,"connected_time":978000000000,"state":"active","ping":53},{"user_id":429,"name":"Kevin","steam_id":76561198035625423,"connected_time":2109000000000,"state":"active","ping":78},{"user_id":446,"name":"assuy","steam_id":76561198046816573,"connected_time":1421000000000,"state":"active","ping":75},{"user_id":463,"name":"Adrian Pimento","steam_id":76561197996149548,"connected_time":98000000000,"state":"active","ping":66},{"user_id":464,"name":"business man","steam_id":76561198048250715,"connected_time":85000000000,"state":"active","ping":48},{"user_id":455,"name":"Deeopp","steam_id":76561198313418623,"connected_time":904000000000,"state":"active","ping":77},{"user_id":442,"name":"papa pyro","steam_id":76561197961707932,"connected_time":1634000000000,"state":"active","ping":46},{"user_id":372,"name":"Tonne","steam_id":76561197970856766,"connected_time":5368000000000,"state":"active","ping":50},{"user_id":460,"name":"Buried Alive","steam_id":76561198367800260,"connected_time":647000000000,"state":"active","ping":58},{"user_id":414,"name":"mohemmedmokhter2005","steam_id":76561199197650506,"connected_time":2943000000000,"state":"active","ping":109},{"user_id":450,"name":"f√©nix","steam_id":76561198083199151,"connected_time":1112000000000,"state":"active","ping":61},{"user_id":436,"name":"Sdude123 #SaveTF2","steam_id":76561198302325770,"connected_time":1903000000000,"state":"active","ping":116},{"user_id":456,"name":"rajAs","steam_id":76561198035928111,"connected_time":899000000000,"state":"active","ping":73}]},{"server_id":309,"name":"Uncletopia | Frankfurt | 4 | All Maps","name_short":"frk-4","host":"frk-1.de.uncletopia.com","port":27045,"enabled":true,"region":"eu","cc":"de","latitude":50.110924,"longitude":8.682127,"reserved":0,"last_update":"0001-01-01T00:00:00Z","name_a2s":"Uncletopia | Frankfurt | 4 | All Maps","protocol":17,"map":"ctf_2fort","folder":"tf","game":"Team Fortress","app_id":440,"player_count":0,"max_players":24,"Bots":0,"server_type":"Dedicated","server_os":"Linux","password":true,"vac":true,"version":"7708610","steam_id":85568392924504275,"keywords":["ctf","nocrits","nodmgspread","uncletopia"],"game_id":440,"stv_port":27046,"stv_name":"Uncletopia | Frankfurt | 4 | All Maps | STV","players":null},{"server_id":310,"name":"Uncletopia | Frankfurt | 5 | All Maps","name_short":"frk-5","host":"frk-1.de.uncletopia.com","port":27055,"enabled":true,"region":"eu","cc":"de","latitude":50.110924,"longitude":8.682127,"reserved":0,"last_update":"0001-01-01T00:00:00Z","name_a2s":"Uncletopia | Frankfurt | 5 | All Maps","protocol":17,"map":"pl_upward","folder":"tf","game":"Team Fortress","app_id":440,"player_count":9,"max_players":24,"Bots":0,"server_type":"Dedicated","server_os":"Linux","password":true,"vac":true,"version":"7708610","steam_id":85568392924504277,"keywords":["nocrits","nodmgspread","payload","uncletopia"],"game_id":440,"stv_port":27056,"stv_name":"Uncletopia | Frankfurt | 5 | All Maps | STV","players":[{"user_id":341,"name":"Pancreas Enjoyer","steam_id":76561199438598904,"connected_time":4213000000000,"state":"active","ping":180},{"user_id":372,"name":"C16","steam_id":76561199064002462,"connected_time":1108000000000,"state":"active","ping":55},{"user_id":378,"name":"Rat head","steam_id":76561198184360615,"connected_time":256000000000,"state":"active","ping":102},{"user_id":362,"name":"Disasterday","steam_id":76561198044767090,"connected_time":2324000000000,"state":"active","ping":60},{"user_id":354,"name":"PhantomBoy","steam_id":76561199195113687,"connected_time":2695000000000,"state":"active","ping":142},{"user_id":366,"name":"Phalcon","steam_id":76561197987051394,"connected_time":2204000000000,"state":"active","ping":74},{"user_id":367,"name":"DarthMurloc","steam_id":76561198075577711,"connected_time":2148000000000,"state":"active","ping":75},{"user_id":319,"name":"_Starlight_","steam_id":76561197993885738,"connected_time":5655000000000,"state":"active","ping":79},{"user_id":330,"name":"DM_Tiz","steam_id":76561198061478257,"connected_time":4948000000000,"state":"active","ping":41}]},{"server_id":311,"name":"Uncletopia | Frankfurt | 6 | All Maps","name_short":"frk-6","host":"frk-1.de.uncletopia.com","port":27065,"enabled":true,"region":"eu","cc":"de","latitude":50.110924,"longitude":8.682127,"reserved":0,"last_update":"0001-01-01T00:00:00Z","name_a2s":"Uncletopia | Frankfurt | 6 | All Maps","protocol":17,"map":"koth_highpass","folder":"tf","game":"Team Fortress","app_id":440,"player_count":0,"max_players":24,"Bots":0,"server_type":"Dedicated","server_os":"Linux","password":true,"vac":true,"version":"7708610","steam_id":85568392924504278,"keywords":["cp","nocrits","nodmgspread","uncletopia"],"game_id":440,"stv_port":27066,"stv_name":"Uncletopia | Frankfurt | 6 | All Maps | STV","players":null},{"server_id":23,"name":"Uncletopia | Frankfurt | 7 | No Payload","name_short":"frk-7","host":"frk-1.de.uncletopia.com","port":27075,"enabled":true,"region":"eu","cc":"de","latitude":50.110924,"longitude":8.682127,"reserved":0,"last_update":"0001-01-01T00:00:00Z","name_a2s":"Uncletopia | Frankfurt | 7 | No Payload","protocol":17,"map":"koth_viaduct","folder":"tf","game":"Team Fortress","app_id":440,"player_count":0,"max_players":24,"Bots":0,"server_type":"Dedicated","server_os":"Linux","password":true,"vac":true,"version":"7708610","steam_id":85568392924742827,"keywords":["cp","nocrits","nodmgspread","uncletopia"],"game_id":440,"stv_port":27076,"stv_name":"Uncletopia | Frankfurt | 7 | No Payload | STV","players":null},{"server_id":24,"name":"Uncletopia | Frankfurt | 8 | Community","name_short":"frk-8","host":"frk-1.de.uncletopia.com","port":27085,"enabled":true,"region":"eu","cc":"de","latitude":50.110924,"longitude":8.682127,"reserved":0,"last_update":"0001-01-01T00:00:00Z","name_a2s":"Uncletopia | Frankfurt | 8 | Community","protocol":17,"map":"workshop/pl_fifthcurve_rc1.ugc648227046","folder":"tf","game":"Team Fortress","app_id":440,"player_count":0,"max_players":24,"Bots":0,"server_type":"Dedicated","server_os":"Linux","password":true,"vac":true,"version":"7708610","steam_id":85568392924742828,"keywords":["nocrits","nodmgspread","payload","uncletopia"],"game_id":440,"stv_port":27086,"stv_name":"Uncletopia | Frankfurt | 8 | Community | STV","players":null},{"server_id":202,"name":"Uncletopia | Hong Kong | 1 | All Maps","name_short":"hgk-1","host":"hgk-1.hk.uncletopia.com","port":27015,"enabled":true,"region":"asia","cc":"hk","latitude":22.302711,"longitude":114.177216,"reserved":0,"last_update":"0001-01-01T00:00:00Z","name_a2s":"Uncletopia | Hong Kong | 1 | All Maps","protocol":17,"map":"cp_mountainlab","folder":"tf","game":"Team Fortress","app_id":440,"player_count":0,"max_players":24,"Bots":0,"server_type":"Dedicated","server_os":"Linux","password":true,"vac":true,"version":"7708610","steam_id":85568392924494504,"keywords":["cp","nocrits","nodmgspread","uncletopia"],"game_id":440,"stv_port":27016,"stv_name":"Uncletopia | Hong Kong | 1 | All Maps | STV","players":null},{"server_id":1,"name":"Uncletopia | Los Angeles | 1 | All Maps","name_short":"lax-1","host":"lax-1.us.uncletopia.com","port":27015,"enabled":true,"region":"us-west","cc":"us","latitude":33.94279,"longitude":-118.41004,"reserved":0,"last_update":"0001-01-01T00:00:00Z","name_a2s":"Uncletopia | Los Angeles | 1 | All Maps","protocol":17,"map":"pl_barnblitz","folder":"tf","game":"Team Fortress","app_id":440,"player_count":24,"max_players":24,"Bots":0,"server_type":"Dedicated","server_os":"Linux","password":true,"vac":true,"version":"7708610","steam_id":85568392924469991,"keywords":["nocrits","nodmgspread","payload","uncletopia"],"game_id":440,"stv_port":27016,"stv_name":"Uncletopia | Los Angeles | 1 | All Maps | STV","players":[{"user_id":268,"name":"Parauder","steam_id":76561198131593741,"connected_time":6038000000000,"state":"active","ping":117},{"user_id":266,"name":"Bigby","steam_id":76561199056842761,"connected_time":6116000000000,"state":"active","ping":60},{"user_id":338,"name":"macaroli","steam_id":76561198969523979,"connected_time":1902000000000,"state":"active","ping":59},{"user_id":339,"name":"dazogog","steam_id":76561198018808160,"connected_time":1888000000000,"state":"active","ping":58},{"user_id":269,"name":"dex","steam_id":76561198202575667,"connected_time":6035000000000,"state":"active","ping":171},{"user_id":349,"name":"gamer girl looking for a bf","steam_id":76561198279901162,"connected_time":1058000000000,"state":"active","ping":124},{"user_id":335,"name":"caribou","steam_id":76561198137197751,"connected_time":1990000000000,"state":"active","ping":83},{"user_id":333,"name":"McSpazatron","steam_id":76561198955942148,"connected_time":2326000000000,"state":"active","ping":95},{"user_id":340,"name":"dunnydunjo","steam_id":76561198069605283,"connected_time":1880000000000,"state":"active","ping":54},{"user_id":317,"name":"June","steam_id":76561198141803658,"connected_time":3807000000000,"state":"active","ping":47},{"user_id":328,"name":"God's Drunkest Warrior","steam_id":76561198057569298,"connected_time":2912000000000,"state":"active","ping":129},{"user_id":318,"name":"Spain Without The N","steam_id":76561198851536991,"connected_time":3801000000000,"state":"active","ping":91},{"user_id":178,"name":"super autism girl","steam_id":76561198008908085,"connected_time":12988000000000,"state":"active","ping":39},{"user_id":347,"name":"MintyPawz","steam_id":76561198111430103,"connected_time":1185000000000,"state":"active","ping":91},{"user_id":279,"name":"QuickToTheBatCave","steam_id":76561198060762959,"connected_time":5701000000000,"state":"active","ping":104},{"user_id":350,"name":"Speedycat","steam_id":76561198024821259,"connected_time":1020000000000,"state":"active","ping":47},{"user_id":283,"name":"IncogNeeto","steam_id":76561199091278006,"connected_time":5660000000000,"state":"active","ping":80},{"user_id":351,"name":"Wolbey","steam_id":76561198042148095,"connected_time":333000000000,"state":"active","ping":95},{"user_id":341,"name":"Big tiddy goth medic gf","steam_id":76561198836316052,"connected_time":1876000000000,"state":"active","ping":52},{"user_id":331,"name":"◊ï◊ô◊î◊ô ◊ê◊ï◊®","steam_id":76561198212421513,"connected_time":2693000000000,"state":"active","ping":57},{"user_id":337,"name":"Bevan(The Manager)","steam_id":76561198073890273,"connected_time":1942000000000,"state":"active","ping":77},{"user_id":348,"name":"Federico","steam_id":76561198411873065,"connected_time":1154000000000,"state":"active","ping":76},{"user_id":344,"name":"Whistlepig","steam_id":76561198030622803,"connected_time":1843000000000,"state":"active","ping":106},{"user_id":346,"name":"ccog","steam_id":76561198009314845,"connected_time":1658000000000,"state":"active","ping":67}]},{"server_id":112,"name":"Uncletopia | Los Angeles | 2 | All Maps","name_short":"lax-2","host":"lax-1.us.uncletopia.com","port":27025,"enabled":true,"region":"us-west","cc":"us","latitude":33.94279,"longitude":-118.41004,"reserved":0,"last_update":"0001-01-01T00:00:00Z","name_a2s":"Uncletopia | Los Angeles | 2 | All Maps","protocol":17,"map":"cp_egypt_final","folder":"tf","game":"Team Fortress","app_id":440,"player_count":0,"max_players":24,"Bots":0,"server_type":"Dedicated","server_os":"Linux","password":true,"vac":true,"version":"7708610","steam_id":85568392924469992,"keywords":["cp","nocrits","nodmgspread","uncletopia"],"game_id":440,"stv_port":27026,"stv_name":"Uncletopia | Los Angeles | 2 | All Maps | STV","players":null},{"server_id":324,"name":"Uncletopia | Los Angeles | 3 | All Maps","name_short":"lax-3","host":"lax-1.us.uncletopia.com","port":27035,"enabled":true,"region":"us-west","cc":"us","latitude":33.94279,"longitude":-118.41004,"reserved":0,"last_update":"0001-01-01T00:00:00Z","name_a2s":"Uncletopia | Los Angeles | 3 | All Maps","protocol":17,"map":"pl_snowycoast","folder":"tf","game":"Team Fortress","app_id":440,"player_count":24,"max_players":24,"Bots":0,"server_type":"Dedicated","server_os":"Linux","password":true,"vac":true,"version":"7708610","steam_id":85568392924510198,"keywords":["nocrits","nodmgspread","payload","uncletopia"],"game_id":440,"stv_port":27036,"stv_name":"Uncletopia | Los Angeles | 3 | All Maps | STV","players":[{"user_id":73,"name":"Uncle","steam_id":76561197988647705,"connected_time":3434000000000,"state":"active","ping":99},{"user_id":126,"name":"Level 1 Crook","steam_id":76561198441098132,"connected_time":213000000000,"state":"active","ping":105},{"user_id":108,"name":"ItzNotJimmy","steam_id":76561199272622957,"connected_time":1661000000000,"state":"active","ping":34},{"user_id":128,"name":"Senitor Armstrong","steam_id":76561199087215814,"connected_time":102000000000,"state":"active","ping":66},{"user_id":112,"name":"Absalutegod@demo","steam_id":76561199226558231,"connected_time":1182000000000,"state":"active","ping":52},{"user_id":124,"name":"dodecadron","steam_id":76561198027397222,"connected_time":297000000000,"state":"active","ping":90},{"user_id":121,"name":"Gh0stlight","steam_id":76561199138042008,"connected_time":701000000000,"state":"active","ping":49},{"user_id":110,"name":"Local Idiot","steam_id":76561198331179461,"connected_time":1218000000000,"state":"active","ping":49},{"user_id":98,"name":"greens beans","steam_id":76561198153611491,"connected_time":1806000000000,"state":"active","ping":68},{"user_id":55,"name":"{[G.E.W.P]} benglengler","steam_id":76561198150137369,"connected_time":5275000000000,"state":"active","ping":49},{"user_id":122,"name":"Dog","steam_id":76561198450992953,"connected_time":603000000000,"state":"active","ping":61},{"user_id":99,"name":"Nez","steam_id":76561197963109059,"connected_time":1802000000000,"state":"active","ping":58},{"user_id":123,"name":"runthatback gaming","steam_id":76561198984131011,"connected_time":573000000000,"state":"active","ping":116},{"user_id":82,"name":"4thDimensionalGaySpaceAnarchist","steam_id":76561198098380399,"connected_time":2956000000000,"state":"active","ping":75},{"user_id":119,"name":"The Squid Gamer‚Ñ¢","steam_id":76561198340621517,"connected_time":818000000000,"state":"active","ping":75},{"user_id":94,"name":"Bowl of Soup","steam_id":76561198114255273,"connected_time":2005000000000,"state":"active","ping":78},{"user_id":105,"name":"chiasaurus","steam_id":76561198108685037,"connected_time":1684000000000,"state":"active","ping":83},{"user_id":106,"name":"the italian concrete mafia","steam_id":76561198042678503,"connected_time":1681000000000,"state":"active","ping":60},{"user_id":114,"name":"ProduceSektion","steam_id":76561199078152905,"connected_time":1144000000000,"state":"active","ping":112},{"user_id":115,"name":"Overture","steam_id":76561198364564873,"connected_time":1131000000000,"state":"active","ping":122},{"user_id":125,"name":"ReformedOrthodoxRabbiBillClinto","steam_id":76561198401455467,"connected_time":277000000000,"state":"active","ping":61},{"user_id":87,"name":"THE NUT","steam_id":76561198067813626,"connected_time":2753000000000,"state":"active","ping":77},{"user_id":93,"name":"Chrisscar","steam_id":76561198086298130,"connected_time":2028000000000,"state":"active","ping":50},{"user_id":95,"name":"Soap Man","steam_id":76561198000490235,"connected_time":2004000000000,"state":"active","ping":92}]},{"server_id":25,"name":"Uncletopia | Los Angeles | 4 | No Payload","name_short":"lax-4","host":"lax-1.us.uncletopia.com","port":27045,"enabled":true,"region":"us-west","cc":"us","latitude":33.94279,"longitude":-118.41004,"reserved":0,"last_update":"0001-01-01T00:00:00Z","name_a2s":"Uncletopia | Los Angeles | 4 | No Payload","protocol":17,"map":"cp_mountainlab","folder":"tf","game":"Team Fortress","app_id":440,"player_count":0,"max_players":24,"Bots":0,"server_type":"Dedicated","server_os":"Linux","password":true,"vac":true,"version":"7708610","steam_id":85568392924510199,"keywords":["cp","nocrits","nodmgspread","uncletopia"],"game_id":440,"stv_port":27046,"stv_name":"Uncletopia | Los Angeles | 4 | No Payload | STV","players":null},{"server_id":11,"name":"Uncletopia | London | 1 | All Maps","name_short":"lon-1","host":"lon-1.uk.uncletopia.com","port":27015,"enabled":true,"region":"eu","cc":"gb","latitude":51.509865,"longitude":-0.118092,"reserved":0,"last_update":"0001-01-01T00:00:00Z","name_a2s":"Uncletopia | London | 1 | All Maps","protocol":17,"map":"pl_pier","folder":"tf","game":"Team Fortress","app_id":440,"player_count":24,"max_players":24,"Bots":0,"server_type":"Dedicated","server_os":"Linux","password":true,"vac":true,"version":"7708610","steam_id":85568392924367362,"keywords":["nocrits","nodmgspread","payload","uncletopia"],"game_id":440,"stv_port":27016,"stv_name":"Uncletopia | London | 1 | All Maps | STV","players":[{"user_id":464,"name":"|20BB)\u003eMach","steam_id":76561198952487564,"connected_time":5342000000000,"state":"active","ping":73},{"user_id":473,"name":"festive jones","steam_id":76561198073975078,"connected_time":4829000000000,"state":"active","ping":42},{"user_id":528,"name":"Jag √§r ett anka","steam_id":76561198059978438,"connected_time":385000000000,"state":"active","ping":60},{"user_id":511,"name":"goblin","steam_id":76561199010825303,"connected_time":2357000000000,"state":"active","ping":73},{"user_id":525,"name":"HonoredOgre","steam_id":76561198353496638,"connected_time":509000000000,"state":"active","ping":148},{"user_id":526,"name":"gnarly business","steam_id":76561198832688767,"connected_time":494000000000,"state":"active","ping":47},{"user_id":529,"name":"Saddest Wettest Eyes","steam_id":76561198000369215,"connected_time":339000000000,"state":"active","ping":48},{"user_id":466,"name":"Eui","steam_id":76561198080355745,"connected_time":5300000000000,"state":"active","ping":63},{"user_id":512,"name":"Lapin","steam_id":76561198077325571,"connected_time":2339000000000,"state":"active","ping":45},{"user_id":509,"name":"notes of iodine and campfire","steam_id":76561198239265962,"connected_time":2643000000000,"state":"active","ping":68},{"user_id":516,"name":"bruhemian but festive","steam_id":76561198191854931,"connected_time":1771000000000,"state":"active","ping":48},{"user_id":533,"name":"rmz.ssj","steam_id":76561198329613930,"connected_time":25000000000,"state":"active","ping":55},{"user_id":485,"name":"Mari_Kross","steam_id":76561198130863086,"connected_time":3778000000000,"state":"active","ping":77},{"user_id":486,"name":"‚ú™ J","steam_id":76561198094911581,"connected_time":3747000000000,"state":"active","ping":48},{"user_id":506,"name":"shr1mple","steam_id":76561198173537027,"connected_time":2823000000000,"state":"active","ping":54},{"user_id":523,"name":"C1nnamon_cookie","steam_id":76561199155374388,"connected_time":1307000000000,"state":"active","ping":85},{"user_id":520,"name":"Videogamer","steam_id":76561198106012909,"connected_time":1618000000000,"state":"active","ping":64},{"user_id":524,"name":"Linus Mudrocket","steam_id":76561197979606110,"connected_time":924000000000,"state":"active","ping":54},{"user_id":496,"name":"Knoxx","steam_id":76561198260692541,"connected_time":3488000000000,"state":"active","ping":54},{"user_id":510,"name":"SOPHIIEE","steam_id":76561198443798981,"connected_time":2453000000000,"state":"active","ping":56},{"user_id":471,"name":"rosepinkyfuzz","steam_id":76561198018546334,"connected_time":5056000000000,"state":"active","ping":76},{"user_id":530,"name":"Kimtripul","steam_id":76561198063247535,"connected_time":332000000000,"state":"active","ping":82},{"user_id":521,"name":"no more fucks to give","steam_id":76561199129974320,"connected_time":1608000000000,"state":"active","ping":46},{"user_id":501,"name":"Lemmy.","steam_id":76561199038870751,"connected_time":3315000000000,"state":"active","ping":57}]},{"server_id":114,"name":"Uncletopia | London | 2 | All Maps","name_short":"lon-2","host":"lon-1.uk.uncletopia.com","port":27025,"enabled":true,"region":"eu","cc":"gb","latitude":51.509865,"longitude":-0.118092,"reserved":0,"last_update":"0001-01-01T00:00:00Z","name_a2s":"Uncletopia | London | 2 | All Maps","protocol":17,"map":"cp_sunshine","folder":"tf","game":"Team Fortress","app_id":440,"player_count":24,"max_players":24,"Bots":0,"server_type":"Dedicated","server_os":"Linux","password":true,"vac":true,"version":"7708610","steam_id":85568392924470941,"keywords":["cp","nocrits","nodmgspread","uncletopia"],"game_id":440,"stv_port":27026,"stv_name":"Uncletopia | London | 2 | All Maps | STV","players":[{"user_id":239,"name":"Spam \u0026 Heals Inc.","steam_id":76561198317165644,"connected_time":2427000000000,"state":"active","ping":48},{"user_id":238,"name":"Dominus.","steam_id":76561199065917088,"connected_time":2647000000000,"state":"active","ping":66},{"user_id":240,"name":"Loot.exe","steam_id":76561198124087437,"connected_time":2415000000000,"state":"active","ping":75},{"user_id":277,"name":"Unsinn","steam_id":76561198301141748,"connected_time":230000000000,"state":"active","ping":76},{"user_id":214,"name":"kaelan!","steam_id":76561198001425310,"connected_time":4342000000000,"state":"active","ping":74},{"user_id":278,"name":"yosh","steam_id":76561199316310715,"connected_time":165000000000,"state":"active","ping":91},{"user_id":279,"name":"xavier :)","steam_id":76561198076494034,"connected_time":147000000000,"state":"active","ping":50},{"user_id":280,"name":"coach","steam_id":76561198064775867,"connected_time":68000000000,"state":"active","ping":75},{"user_id":262,"name":"SimplePig","steam_id":76561198071862153,"connected_time":1417000000000,"state":"active","ping":103},{"user_id":272,"name":"biohazard.pt","steam_id":76561198088367808,"connected_time":837000000000,"state":"active","ping":102},{"user_id":252,"name":"bucket hat larry","steam_id":76561198136511793,"connected_time":1581000000000,"state":"active","ping":60},{"user_id":249,"name":"I cant aim","steam_id":76561199053338374,"connected_time":1967000000000,"state":"active","ping":75},{"user_id":275,"name":"Burpman","steam_id":76561198022897937,"connected_time":307000000000,"state":"active","ping":49},{"user_id":281,"name":"Vince","steam_id":76561199103000131,"connected_time":60000000000,"state":"active","ping":47},{"user_id":219,"name":"Spanns","steam_id":76561197998349793,"connected_time":4197000000000,"state":"active","ping":66},{"user_id":263,"name":"Angelo254","steam_id":76561198327226011,"connected_time":1344000000000,"state":"active","ping":71},{"user_id":251,"name":"Caruzon - Obismal","steam_id":76561198036211170,"connected_time":1819000000000,"state":"active","ping":74},{"user_id":268,"name":"shit is gruesome!","steam_id":76561198080034976,"connected_time":1151000000000,"state":"active","ping":64},{"user_id":282,"name":"Give me not used stuff","steam_id":76561199065452899,"connected_time":13000000000,"state":"spawning","ping":93},{"user_id":269,"name":"BurritoCake_","steam_id":76561198124018697,"connected_time":1144000000000,"state":"active","ping":90},{"user_id":265,"name":"Graham Crackers","steam_id":76561198089314125,"connected_time":1338000000000,"state":"active","ping":134},{"user_id":256,"name":"Yeagle","steam_id":76561199086620299,"connected_time":1497000000000,"state":"active","ping":154},{"user_id":266,"name":"Ostarr","steam_id":76561198200054489,"connected_time":1337000000000,"state":"active","ping":45},{"user_id":267,"name":"Evil weed wizard","steam_id":76561198076137526,"connected_time":1276000000000,"state":"active","ping":51}]},{"server_id":320,"name":"Uncletopia | London | 3 | All Maps","name_short":"lon-3","host":"lon-1.uk.uncletopia.com","port":27035,"enabled":true,"region":"eu","cc":"gb","latitude":51.509865,"longitude":-0.118092,"reserved":0,"last_update":"0001-01-01T00:00:00Z","name_a2s":"Uncletopia | London | 3 | All Maps","protocol":17,"map":"pl_borneo","folder":"tf","game":"Team Fortress","app_id":440,"player_count":24,"max_players":24,"Bots":0,"server_type":"Dedicated","server_os":"Linux","password":true,"vac":true,"version":"7708610","steam_id":85568392924510192,"keywords":["nocrits","nodmgspread","payload","uncletopia"],"game_id":440,"stv_port":27036,"stv_name":"Uncletopia | London | 3 | All Maps | STV","players":[{"user_id":631,"name":"Posture Check","steam_id":76561198053897197,"connected_time":1540000000000,"state":"active","ping":45},{"user_id":653,"name":"Mor'du","steam_id":76561198274105878,"connected_time":504000000000,"state":"active","ping":92},{"user_id":601,"name":"your local rule34 artist","steam_id":76561199236179641,"connected_time":3481000000000,"state":"active","ping":89},{"user_id":625,"name":"effort","steam_id":76561198198581079,"connected_time":2125000000000,"state":"active","ping":67},{"user_id":626,"name":"Cement (Real)","steam_id":76561198051925782,"connected_time":2004000000000,"state":"active","ping":76},{"user_id":637,"name":"Uncle Ben's Pilau Rice","steam_id":76561198064795519,"connected_time":1089000000000,"state":"active","ping":46},{"user_id":598,"name":"round object","steam_id":76561198136239861,"connected_time":3625000000000,"state":"active","ping":49},{"user_id":638,"name":"Dotpoint","steam_id":76561198026814012,"connected_time":1055000000000,"state":"active","ping":77},{"user_id":650,"name":"Prox","steam_id":76561198351490981,"connected_time":708000000000,"state":"active","ping":39},{"user_id":655,"name":"Continue?]","steam_id":76561199174579733,"connected_time":111000000000,"state":"active","ping":158},{"user_id":632,"name":"Odoacre","steam_id":76561198110772276,"connected_time":1515000000000,"state":"active","ping":51},{"user_id":617,"name":"idkmaniexist","steam_id":76561199009335687,"connected_time":2525000000000,"state":"active","ping":115},{"user_id":627,"name":"Wulpenstein","steam_id":76561198060873866,"connected_time":1998000000000,"state":"active","ping":60},{"user_id":649,"name":"Consuo","steam_id":76561198868720856,"connected_time":753000000000,"state":"active","ping":148},{"user_id":652,"name":"SpyCrab  Erik Twice","steam_id":76561198009710309,"connected_time":623000000000,"state":"active","ping":56},{"user_id":645,"name":"ƒåika Kure","steam_id":76561199002244505,"connected_time":918000000000,"state":"active","ping":66},{"user_id":643,"name":"clams casino","steam_id":76561198269154534,"connected_time":967000000000,"state":"active","ping":52},{"user_id":654,"name":"Welder","steam_id":76561198355300561,"connected_time":470000000000,"state":"active","ping":72},{"user_id":618,"name":"TheUndeadMage","steam_id":76561198068074285,"connected_time":2514000000000,"state":"active","ping":161},{"user_id":608,"name":"Max Andrew","steam_id":76561198158955194,"connected_time":3232000000000,"state":"active","ping":63},{"user_id":646,"name":"Felix has warts","steam_id":76561198864117496,"connected_time":905000000000,"state":"active","ping":46},{"user_id":651,"name":"Gaming123","steam_id":76561198801780168,"connected_time":639000000000,"state":"active","ping":118},{"user_id":634,"name":"shithead gaming","steam_id":76561198019065232,"connected_time":1395000000000,"state":"active","ping":44},{"user_id":648,"name":"Tibbs","steam_id":76561197987980406,"connected_time":872000000000,"state":"active","ping":62}]},{"server_id":321,"name":"Uncletopia | London | 4 | All Maps","name_short":"lon-4","host":"lon-1.uk.uncletopia.com","port":27045,"enabled":true,"region":"eu","cc":"gb","latitude":51.509865,"longitude":-0.118092,"reserved":0,"last_update":"0001-01-01T00:00:00Z","name_a2s":"Uncletopia | London | 4 | All Maps","protocol":17,"map":"cp_process_final","folder":"tf","game":"Team Fortress","app_id":440,"player_count":17,"max_players":24,"Bots":0,"server_type":"Dedicated","server_os":"Linux","password":true,"vac":true,"version":"7708610","steam_id":85568392924510193,"keywords":["cp","nocrits","nodmgspread","uncletopia"],"game_id":440,"stv_port":27046,"stv_name":"Uncletopia | London | 4 | All Maps | STV","players":[{"user_id":850,"name":"SuntanPikachu","steam_id":76561198121242476,"connected_time":4062000000000,"state":"active","ping":46},{"user_id":875,"name":".vibe","steam_id":76561199334880197,"connected_time":1080000000000,"state":"active","ping":59},{"user_id":874,"name":"mimi","steam_id":76561198060648946,"connected_time":1131000000000,"state":"active","ping":74},{"user_id":869,"name":"Mau","steam_id":76561198003382595,"connected_time":1647000000000,"state":"active","ping":47},{"user_id":868,"name":"casual zyzz praiser","steam_id":76561198022382969,"connected_time":1706000000000,"state":"active","ping":75},{"user_id":866,"name":"r0la","steam_id":76561198128315340,"connected_time":2056000000000,"state":"active","ping":74},{"user_id":870,"name":"vince","steam_id":76561198144563055,"connected_time":1639000000000,"state":"active","ping":60},{"user_id":851,"name":"Adam Sandler","steam_id":76561198310408309,"connected_time":3861000000000,"state":"active","ping":54},{"user_id":817,"name":"ExplosiveMychler","steam_id":76561198055565524,"connected_time":5955000000000,"state":"active","ping":68},{"user_id":801,"name":"sugo","steam_id":76561198129319394,"connected_time":6971000000000,"state":"active","ping":118},{"user_id":770,"name":"nedilya","steam_id":76561198039692077,"connected_time":10243000000000,"state":"active","ping":61},{"user_id":772,"name":"Mari Christmas","steam_id":76561197997020707,"connected_time":10135000000000,"state":"active","ping":49},{"user_id":865,"name":"Sir_LewdCow","steam_id":76561198200079686,"connected_time":2375000000000,"state":"active","ping":46},{"user_id":871,"name":"Tonguetyd","steam_id":76561198078034842,"connected_time":1590000000000,"state":"active","ping":79},{"user_id":845,"name":"Alibi","steam_id":76561198061845595,"connected_time":4381000000000,"state":"active","ping":46},{"user_id":799,"name":"georgiboy111","steam_id":76561198093018761,"connected_time":6984000000000,"state":"active","ping":74},{"user_id":846,"name":"zoinks!","steam_id":76561198068645362,"connected_time":4364000000000,"state":"active","ping":41}]},{"server_id":21,"name":"Uncletopia | London | 5 | All Maps","name_short":"lon-5","host":"lon-1.uk.uncletopia.com","port":27055,"enabled":true,"region":"eu","cc":"gb","latitude":51.509865,"longitude":-0.118092,"reserved":0,"last_update":"0001-01-01T00:00:00Z","name_a2s":"Uncletopia | London | 5 | All Maps","protocol":17,"map":"pl_badwater","folder":"tf","game":"Team Fortress","app_id":440,"player_count":13,"max_players":24,"Bots":0,"server_type":"Dedicated","server_os":"Linux","password":true,"vac":true,"version":"7708610","steam_id":85568392924742829,"keywords":["nocrits","nodmgspread","payload","uncletopia"],"game_id":440,"stv_port":27056,"stv_name":"Uncletopia | London | 5 | All Maps | STV","players":[{"user_id":832,"name":"Pinroe","steam_id":76561198968160899,"connected_time":793000000000,"state":"active","ping":59},{"user_id":823,"name":"Clitorina","steam_id":76561198077570815,"connected_time":1452000000000,"state":"active","ping":56},{"user_id":791,"name":"Poor Fucking Infantry","steam_id":76561198055978522,"connected_time":3265000000000,"state":"active","ping":46},{"user_id":833,"name":"Kyeel_Smeel","steam_id":76561199164471622,"connected_time":704000000000,"state":"active","ping":64},{"user_id":830,"name":"Yennefer of Vengerberg","steam_id":76561198239517620,"connected_time":861000000000,"state":"active","ping":45},{"user_id":834,"name":"TW1STaL1CKY","steam_id":76561198026479532,"connected_time":697000000000,"state":"active","ping":30},{"user_id":846,"name":"Mug Wump","steam_id":76561198353201957,"connected_time":420000000000,"state":"active","ping":135},{"user_id":845,"name":"penis haver","steam_id":76561198230735156,"connected_time":494000000000,"state":"active","ping":41},{"user_id":847,"name":"FattyBomalatty","steam_id":76561198435295702,"connected_time":82000000000,"state":"active","ping":40},{"user_id":843,"name":"jtnrif8dVITifirD8","steam_id":76561198057833760,"connected_time":529000000000,"state":"active","ping":75},{"user_id":812,"name":"Estamie","steam_id":76561198058527691,"connected_time":2402000000000,"state":"active","ping":75},{"user_id":844,"name":"Denialman (Muted)","steam_id":76561198309182092,"connected_time":523000000000,"state":"active","ping":68},{"user_id":825,"name":"TaroPlant","steam_id":76561198122927374,"connected_time":1240000000000,"state":"active","ping":66}]},{"server_id":22,"name":"Uncletopia | London | 6 | All Maps","name_short":"lon-6","host":"lon-1.uk.uncletopia.com","port":27065,"enabled":true,"region":"eu","cc":"gb","latitude":51.509865,"longitude":-0.118092,"reserved":0,"last_update":"0001-01-01T00:00:00Z","name_a2s":"Uncletopia | London | 6 | All Maps","protocol":17,"map":"koth_viaduct","folder":"tf","game":"Team Fortress","app_id":440,"player_count":2,"max_players":24,"Bots":0,"server_type":"Dedicated","server_os":"Linux","password":true,"vac":true,"version":"7708610","steam_id":85568392924742830,"keywords":["cp","nocrits","nodmgspread","uncletopia"],"game_id":440,"stv_port":27066,"stv_name":"Uncletopia | London | 6 | All Maps | STV","players":[{"user_id":9,"name":"titicost2200","steam_id":76561198826858059,"connected_time":5606000000000,"state":"active","ping":100},{"user_id":10,"name":"Jotap√™","steam_id":76561198325543532,"connected_time":5586000000000,"state":"active","ping":84}]},{"server_id":40,"name":"Uncletopia | London | 7 | No Payload","name_short":"lon-7","host":"lon-1.uk.uncletopia.com","port":27075,"enabled":true,"region":"eu","cc":"gb","latitude":51.509865,"longitude":-0.118092,"reserved":0,"last_update":"0001-01-01T00:00:00Z","name_a2s":"Uncletopia | London | 7 | No Payload","protocol":17,"map":"koth_lakeside_final","folder":"tf","game":"Team Fortress","app_id":440,"player_count":0,"max_players":24,"Bots":0,"server_type":"Dedicated","server_os":"Linux","password":true,"vac":true,"version":"7708610","steam_id":85568392924964314,"keywords":["cp","nocrits","nodmgspread","uncletopia"],"game_id":440,"stv_port":27076,"stv_name":"Uncletopia | London | 7 | No Payload | STV","players":null},{"server_id":41,"name":"Uncletopia | London | 8 | Community","name_short":"lon-8","host":"lon-1.uk.uncletopia.com","port":27085,"enabled":true,"region":"eu","cc":"gb","latitude":51.509865,"longitude":-0.118092,"reserved":0,"last_update":"0001-01-01T00:00:00Z","name_a2s":"Uncletopia | London | 8 | Community","protocol":17,"map":"workshop/koth_ashville_final.ugc2130459942","folder":"tf","game":"Team Fortress","app_id":440,"player_count":0,"max_players":24,"Bots":0,"server_type":"Dedicated","server_os":"Linux","password":true,"vac":true,"version":"7708610","steam_id":85568392924964315,"keywords":["cp","nocrits","nodmgspread","uncletopia"],"game_id":440,"stv_port":27086,"stv_name":"Uncletopia | London | 8 | Community | STV","players":null},{"server_id":300,"name":"Uncletopia | Montr√©al | 1 | All Maps","name_short":"mtl-1","host":"mtl-1.ca.uncletopia.com","port":27015,"enabled":true,"region":"us-east","cc":"ca","latitude":45.50889,"longitude":-73.56167,"reserved":0,"last_update":"0001-01-01T00:00:00Z","name_a2s":"Uncletopia | Montr√©al | 1 | All Maps","protocol":17,"map":"pl_frontier_final","folder":"tf","game":"Team Fortress","app_id":440,"player_count":0,"max_players":24,"Bots":0,"server_type":"Dedicated","server_os":"Linux","password":true,"vac":true,"version":"7708610","steam_id":85568392924500087,"keywords":["nocrits","nodmgspread","payload","uncletopia"],"game_id":440,"stv_port":27016,"stv_name":"Uncletopia | Montr√©al | 1 | All Maps | STV","players":null},{"server_id":301,"name":"Uncletopia | Montr√©al | 2 | All Maps","name_short":"mtl-2","host":"mtl-1.ca.uncletopia.com","port":27025,"enabled":true,"region":"us-east","cc":"ca","latitude":45.50889,"longitude":-73.56167,"reserved":0,"last_update":"0001-01-01T00:00:00Z","name_a2s":"Uncletopia | Montr√©al | 2 | All Maps","protocol":17,"map":"koth_viaduct","folder":"tf","game":"Team Fortress","app_id":440,"player_count":0,"max_players":24,"Bots":0,"server_type":"Dedicated","server_os":"Linux","password":true,"vac":true,"version":"7708610","steam_id":85568392924500088,"keywords":["cp","nocrits","nodmgspread","uncletopia"],"game_id":440,"stv_port":27026,"stv_name":"Uncletopia | Montr√©al | 2 | All Maps | STV","players":null},{"server_id":302,"name":"Uncletopia | Montr√©al | 3 | All Maps","name_short":"mtl-3","host":"mtl-1.ca.uncletopia.com","port":27035,"enabled":true,"region":"us-east","cc":"ca","latitude":45.50889,"longitude":-73.56167,"reserved":0,"last_update":"0001-01-01T00:00:00Z","name_a2s":"Uncletopia | Montr√©al | 3 | All Maps","protocol":17,"map":"cp_snakewater_final1","folder":"tf","game":"Team Fortress","app_id":440,"player_count":0,"max_players":24,"Bots":0,"server_type":"Dedicated","server_os":"Linux","password":true,"vac":true,"version":"7708610","steam_id":85568392924500089,"keywords":["cp","nocrits","nodmgspread","uncletopia"],"game_id":440,"stv_port":27036,"stv_name":"Uncletopia | Montr√©al | 3 | All Maps | STV","players":null},{"server_id":303,"name":"Uncletopia | Montr√©al | 4 | No Payload","name_short":"mtl-4","host":"mtl-1.ca.uncletopia.com","port":27045,"enabled":true,"region":"us-east","cc":"ca","latitude":45.50889,"longitude":-73.56167,"reserved":0,"last_update":"0001-01-01T00:00:00Z","name_a2s":"Uncletopia | Montr√©al | 4 | No Payload","protocol":17,"map":"cp_snakewater_final1","folder":"tf","game":"Team Fortress","app_id":440,"player_count":0,"max_players":24,"Bots":0,"server_type":"Dedicated","server_os":"Linux","password":true,"vac":true,"version":"7708610","steam_id":85568392924500090,"keywords":["cp","nocrits","nodmgspread","uncletopia"],"game_id":440,"stv_port":27046,"stv_name":"Uncletopia | Montr√©al | 4 | No Payload | STV","players":null},{"server_id":13,"name":"Uncletopia | New York City | 1 | All Maps","name_short":"nyc-1","host":"nyc-1.us.uncletopia.com","port":27015,"enabled":true,"region":"us-east","cc":"us","latitude":40.73061,"longitude":-73.93524,"reserved":0,"last_update":"0001-01-01T00:00:00Z","name_a2s":"Uncletopia | New York City | 1 | All Maps","protocol":17,"map":"koth_viaduct","folder":"tf","game":"Team Fortress","app_id":440,"player_count":0,"max_players":24,"Bots":0,"server_type":"Dedicated","server_os":"Linux","password":true,"vac":true,"version":"7708610","steam_id":85568392924469993,"keywords":["cp","nocrits","nodmgspread","uncletopia"],"game_id":440,"stv_port":27016,"stv_name":"Uncletopia | New York City | 1 | All Maps | STV","players":null},{"server_id":14,"name":"Uncletopia | New York City | 2 | All Maps","name_short":"nyc-2","host":"nyc-1.us.uncletopia.com","port":27025,"enabled":true,"region":"us-east","cc":"us","latitude":40.73061,"longitude":-73.93524,"reserved":0,"last_update":"0001-01-01T00:00:00Z","name_a2s":"Uncletopia | New York City | 2 | All Maps","protocol":17,"map":"pl_thundermountain","folder":"tf","game":"Team Fortress","app_id":440,"player_count":24,"max_players":24,"Bots":0,"server_type":"Dedicated","server_os":"Linux","password":true,"vac":true,"version":"7708610","steam_id":85568392924469994,"keywords":["nocrits","nodmgspread","payload","uncletopia"],"game_id":440,"stv_port":27026,"stv_name":"Uncletopia | New York City | 2 | All Maps | STV","players":[{"user_id":153,"name":"PinkLemonade","steam_id":76561198799286228,"connected_time":2657000000000,"state":"active","ping":45},{"user_id":177,"name":"big guapo","steam_id":76561198103228695,"connected_time":540000000000,"state":"active","ping":53},{"user_id":175,"name":"little_sergeant","steam_id":76561199081927823,"connected_time":554000000000,"state":"active","ping":68},{"user_id":154,"name":"carrion goat","steam_id":76561198262064871,"connected_time":2650000000000,"state":"active","ping":53},{"user_id":185,"name":"Pal","steam_id":76561198079657093,"connected_time":45000000000,"state":"active","ping":76},{"user_id":166,"name":"Sergeant Joker #savetf2","steam_id":76561198854616604,"connected_time":1738000000000,"state":"active","ping":57},{"user_id":158,"name":"‚òòÔ∏èNACHO_üçÄ","steam_id":76561198076618089,"connected_time":2294000000000,"state":"active","ping":48},{"user_id":174,"name":"Piper0007","steam_id":76561199056222868,"connected_time":626000000000,"state":"active","ping":60},{"user_id":172,"name":"yougotsauled","steam_id":76561198880754695,"connected_time":965000000000,"state":"active","ping":50},{"user_id":186,"name":"gigantic_johnathan1350","steam_id":76561198147746558,"connected_time":42000000000,"state":"active","ping":80},{"user_id":157,"name":"I'M SO FULL OF CIGARETTES, YUM!","steam_id":76561198294013916,"connected_time":2300000000000,"state":"active","ping":46},{"user_id":119,"name":"liamishere","steam_id":76561199036719261,"connected_time":4516000000000,"state":"active","ping":50},{"user_id":178,"name":"Sky (Festive)","steam_id":76561198853245153,"connected_time":524000000000,"state":"active","ping":112},{"user_id":184,"name":"Emka","steam_id":76561198203357580,"connected_time":95000000000,"state":"active","ping":83},{"user_id":183,"name":"spherewithahat","steam_id":76561199122192660,"connected_time":210000000000,"state":"active","ping":51},{"user_id":187,"name":"tinkercrab11","steam_id":76561198881792140,"connected_time":36000000000,"state":"active","ping":65},{"user_id":167,"name":"Boot","steam_id":76561198423162555,"connected_time":1691000000000,"state":"active","ping":49},{"user_id":162,"name":"I want Bionicles for Smissmas","steam_id":76561198056496183,"connected_time":2043000000000,"state":"active","ping":82},{"user_id":163,"name":"im bladee! drain gang!","steam_id":76561198042600523,"connected_time":1925000000000,"state":"active","ping":91},{"user_id":176,"name":"MrGuy","steam_id":76561198273687872,"connected_time":550000000000,"state":"active","ping":72},{"user_id":181,"name":"a shrieking cloud of bats","steam_id":76561198151363063,"connected_time":315000000000,"state":"active","ping":77},{"user_id":168,"name":"gnome \"kooky ass mf\" fan","steam_id":76561198148199120,"connected_time":1673000000000,"state":"active","ping":79},{"user_id":165,"name":"Yukon Cornelius","steam_id":76561198261512781,"connected_time":1864000000000,"state":"active","ping":62},{"user_id":182,"name":"superatonto123","steam_id":76561198424363858,"connected_time":264000000000,"state":"active","ping":149}]},{"server_id":15,"name":"Uncletopia | New York City | 3 | All Maps","name_short":"nyc-3","host":"nyc-1.us.uncletopia.com","port":27035,"enabled":true,"region":"us-east","cc":"us","latitude":40.73061,"longitude":-73.93524,"reserved":0,"last_update":"0001-01-01T00:00:00Z","name_a2s":"Uncletopia | New York City | 3 | All Maps","protocol":17,"map":"koth_viaduct","folder":"tf","game":"Team Fortress","app_id":440,"player_count":0,"max_players":24,"Bots":0,"server_type":"Dedicated","server_os":"Linux","password":true,"vac":true,"version":"7708610","steam_id":85568392924742820,"keywords":["cp","nocrits","nodmgspread","uncletopia"],"game_id":440,"stv_port":27036,"stv_name":"Uncletopia | New York City | 3 | All Maps | STV","players":null},{"server_id":16,"name":"Uncletopia | New York City | 4 | Community","name_short":"nyc-4","host":"nyc-1.us.uncletopia.com","port":27045,"enabled":true,"region":"us-east","cc":"us","latitude":40.73061,"longitude":-73.93524,"reserved":0,"last_update":"0001-01-01T00:00:00Z","name_a2s":"Uncletopia | New York City | 4 | Community","protocol":17,"map":"pl_barnblitz","folder":"tf","game":"Team Fortress","app_id":440,"player_count":1,"max_players":24,"Bots":0,"server_type":"Dedicated","server_os":"Linux","password":true,"vac":true,"version":"7708610","steam_id":85568392924742821,"keywords":["nocrits","nodmgspread","payload","uncletopia"],"game_id":440,"stv_port":27046,"stv_name":"Uncletopia | New York City | 4 | Community | STV","players":[{"user_id":20,"name":"Chaos","steam_id":76561199145831752,"connected_time":17000000000,"state":"active","ping":109}]},{"server_id":142,"name":"Uncletopia | S√£o Paulo | 1 | All Maps","name_short":"sao-1","host":"sao-1.br.uncletopia.com","port":27015,"enabled":true,"region":"sa","cc":"br","latitude":-23.533773,"longitude":-46.62529,"reserved":0,"last_update":"0001-01-01T00:00:00Z","name_a2s":"Uncletopia | S√£o Paulo | 1 | All Maps","protocol":17,"map":"cp_mountainlab","folder":"tf","game":"Team Fortress","app_id":440,"player_count":0,"max_players":24,"Bots":0,"server_type":"Dedicated","server_os":"Linux","password":true,"vac":true,"version":"7708610","steam_id":85568392924469996,"keywords":["cp","nocrits","nodmgspread","uncletopia"],"game_id":440,"stv_port":27016,"stv_name":"Uncletopia | S√£o Paulo | 1 | All Maps | STV","players":null},{"server_id":143,"name":"Uncletopia | S√£o Paulo | 2 | All Maps","name_short":"sao-2","host":"sao-2.br.uncletopia.com","port":27015,"enabled":true,"region":"sa","cc":"br","latitude":-23.533773,"longitude":-46.62529,"reserved":0,"last_update":"0001-01-01T00:00:00Z","name_a2s":"Uncletopia | S√£o Paulo | 2 | All Maps","protocol":17,"map":"koth_lakeside_final","folder":"tf","game":"Team Fortress","app_id":440,"player_count":1,"max_players":24,"Bots":0,"server_type":"Dedicated","server_os":"Linux","password":true,"vac":true,"version":"7708610","steam_id":85568392924485349,"keywords":["cp","nocrits","nodmgspread","uncletopia"],"game_id":440,"stv_port":27016,"stv_name":"Uncletopia | S√£o Paulo | 2 | All Maps | STV","players":[{"user_id":11,"name":"CJAIME01345","steam_id":76561199091599141,"connected_time":6000000000,"state":"spawning","ping":113}]},{"server_id":7,"name":"Uncletopia | Seattle | 1 | All Maps","name_short":"sea-1","host":"sea-1.us.uncletopia.com","port":27015,"enabled":true,"region":"us-west","cc":"us","latitude":47.608013,"longitude":-122.33517,"reserved":0,"last_update":"0001-01-01T00:00:00Z","name_a2s":"Uncletopia | Seattle | 1 | All Maps","protocol":17,"map":"pl_frontier_final","folder":"tf","game":"Team Fortress","app_id":440,"player_count":24,"max_players":24,"Bots":0,"server_type":"Dedicated","server_os":"Linux","password":true,"vac":true,"version":"7708610","steam_id":85568392924469997,"keywords":["nocrits","nodmgspread","payload","uncletopia"],"game_id":440,"stv_port":27016,"stv_name":"Uncletopia | Seattle | 1 | All Maps | STV","players":[{"user_id":112,"name":"Swamp Fever","steam_id":76561198096836451,"connected_time":1351000000000,"state":"active","ping":60},{"user_id":135,"name":"Sweatpants","steam_id":76561198097188001,"connected_time":268000000000,"state":"active","ping":47},{"user_id":26,"name":"far1ne","steam_id":76561198418853168,"connected_time":7792000000000,"state":"active","ping":75},{"user_id":140,"name":"Klone","steam_id":76561198854485605,"connected_time":117000000000,"state":"active","ping":107},{"user_id":108,"name":"Santa after 9 Glasses of Eggnog","steam_id":76561198137242573,"connected_time":1663000000000,"state":"active","ping":50},{"user_id":138,"name":"sleepy","steam_id":76561198288663776,"connected_time":206000000000,"state":"active","ping":54},{"user_id":128,"name":"Erk-Kirk","steam_id":76561198288954914,"connected_time":892000000000,"state":"active","ping":91},{"user_id":109,"name":"üå∏Redüå∏","steam_id":76561198037346199,"connected_time":1390000000000,"state":"active","ping":90},{"user_id":107,"name":"keffers | Chrimbus Time","steam_id":76561198202338796,"connected_time":2319000000000,"state":"active","ping":107},{"user_id":126,"name":"JDizzle","steam_id":76561199122696841,"connected_time":919000000000,"state":"active","ping":93},{"user_id":101,"name":"self sufficient kitten","steam_id":76561197960592612,"connected_time":2446000000000,"state":"active","ping":46},{"user_id":99,"name":"Snale","steam_id":76561198039517965,"connected_time":2596000000000,"state":"active","ping":60},{"user_id":131,"name":"SL1T","steam_id":76561198069380992,"connected_time":646000000000,"state":"active","ping":110},{"user_id":37,"name":"Oomitch","steam_id":76561198071702759,"connected_time":7359000000000,"state":"active","ping":47},{"user_id":88,"name":"Level 99 Mudcrab","steam_id":76561198077452771,"connected_time":3887000000000,"state":"active","ping":60},{"user_id":110,"name":"{ST} Pip","steam_id":76561198200365894,"connected_time":1387000000000,"state":"active","ping":92},{"user_id":133,"name":"urine trouble","steam_id":76561199013266640,"connected_time":550000000000,"state":"active","ping":129},{"user_id":106,"name":"Shah","steam_id":76561198047508851,"connected_time":2340000000000,"state":"active","ping":61},{"user_id":124,"name":"wes","steam_id":76561198273536400,"connected_time":920000000000,"state":"active","ping":132},{"user_id":125,"name":"litroolay","steam_id":76561197995226856,"connected_time":919000000000,"state":"active","ping":33},{"user_id":117,"name":"CrazyKermitRubes","steam_id":76561198009065204,"connected_time":1260000000000,"state":"active","ping":126},{"user_id":122,"name":"Lo-Pan","steam_id":76561198085670133,"connected_time":1148000000000,"state":"active","ping":108},{"user_id":98,"name":"thrustmaster3legs","steam_id":76561198068672882,"connected_time":2951000000000,"state":"active","ping":63},{"user_id":137,"name":"Strikerbolt","steam_id":76561199095622897,"connected_time":243000000000,"state":"active","ping":90}]},{"server_id":119,"name":"Uncletopia | Seattle | 2 | All Maps","name_short":"sea-2","host":"sea-1.us.uncletopia.com","port":27025,"enabled":true,"region":"us-west","cc":"us","latitude":47.608013,"longitude":-122.33517,"reserved":0,"last_update":"0001-01-01T00:00:00Z","name_a2s":"Uncletopia | Seattle | 2 | All Maps","protocol":17,"map":"cp_process_final","folder":"tf","game":"Team Fortress","app_id":440,"player_count":3,"max_players":24,"Bots":0,"server_type":"Dedicated","server_os":"Linux","password":true,"vac":true,"version":"7708610","steam_id":85568392924469998,"keywords":["cp","nocrits","nodmgspread","uncletopia"],"game_id":440,"stv_port":27026,"stv_name":"Uncletopia | Seattle | 2 | All Maps | STV","players":[{"user_id":15,"name":"TinyGayGuitar","steam_id":76561198130737316,"connected_time":207000000000,"state":"active","ping":55},{"user_id":16,"name":"noodle gordon freeman","steam_id":76561198823069546,"connected_time":195000000000,"state":"active","ping":65},{"user_id":17,"name":"J_TEC","steam_id":76561198250015924,"connected_time":175000000000,"state":"active","ping":132}]},{"server_id":17,"name":"Uncletopia | San Francisco | 1 | All Maps","name_short":"sfo-1","host":"sfo-1.us.uncletopia.com","port":27015,"enabled":true,"region":"us-west","cc":"us","latitude":37.77397,"longitude":-122.4313,"reserved":0,"last_update":"0001-01-01T00:00:00Z","name_a2s":"Uncletopia | San Francisco | 1 | All Maps","protocol":17,"map":"koth_lakeside_final","folder":"tf","game":"Team Fortress","app_id":440,"player_count":0,"max_players":24,"Bots":0,"server_type":"Dedicated","server_os":"Linux","password":true,"vac":true,"version":"7708610","steam_id":85568392924469999,"keywords":["cp","nocrits","nodmgspread","uncletopia"],"game_id":440,"stv_port":27016,"stv_name":"Uncletopia | San Francisco | 1 | All Maps | STV","players":null},{"server_id":18,"name":"Uncletopia | San Francisco | 2 | All Maps","name_short":"sfo-2","host":"sfo-1.us.uncletopia.com","port":27025,"enabled":true,"region":"us-west","cc":"us","latitude":37.77397,"longitude":-122.4313,"reserved":0,"last_update":"0001-01-01T00:00:00Z","name_a2s":"Uncletopia | San Francisco | 2 | All Maps","protocol":17,"map":"pl_barnblitz","folder":"tf","game":"Team Fortress","app_id":440,"player_count":0,"max_players":24,"Bots":0,"server_type":"Dedicated","server_os":"Linux","password":true,"vac":true,"version":"7708610","steam_id":85568392924470000,"keywords":["nocrits","nodmgspread","payload","uncletopia"],"game_id":440,"stv_port":27026,"stv_name":"Uncletopia | San Francisco | 2 | All Maps | STV","players":null},{"server_id":19,"name":"Uncletopia | San Francisco | 3 | No Payload","name_short":"sfo-3","host":"sfo-1.us.uncletopia.com","port":27035,"enabled":true,"region":"us-west","cc":"us","latitude":37.77397,"longitude":-122.4313,"reserved":0,"last_update":"0001-01-01T00:00:00Z","name_a2s":"Uncletopia | San Francisco | 3 | No Payload","protocol":17,"map":"pl_borneo","folder":"tf","game":"Team Fortress","app_id":440,"player_count":0,"max_players":24,"Bots":0,"server_type":"Dedicated","server_os":"Linux","password":true,"vac":true,"version":"7708610","steam_id":85568392924742824,"keywords":["nocrits","nodmgspread","payload","uncletopia"],"game_id":440,"stv_port":27036,"stv_name":"Uncletopia | San Francisco | 3 | No Payload | STV","players":null},{"server_id":20,"name":"Uncletopia | San Francisco | 4 | Community","name_short":"sfo-4","host":"sfo-1.us.uncletopia.com","port":27045,"enabled":true,"region":"us-west","cc":"us","latitude":37.77397,"longitude":-122.4313,"reserved":0,"last_update":"0001-01-01T00:00:00Z","name_a2s":"Uncletopia | San Francisco | 4 | Community","protocol":17,"map":"pl_frontier_final","folder":"tf","game":"Team Fortress","app_id":440,"player_count":0,"max_players":24,"Bots":0,"server_type":"Dedicated","server_os":"Linux","password":true,"vac":true,"version":"7708610","steam_id":85568392924742826,"keywords":["nocrits","nodmgspread","payload","uncletopia"],"game_id":440,"stv_port":27046,"stv_name":"Uncletopia | San Francisco | 4 | Community | STV","players":null},{"server_id":141,"name":"Uncletopia | Sydney | 1 | All Maps","name_short":"syd-1","host":"syd-1.au.uncletopia.com","port":27015,"enabled":true,"region":"au","cc":"au","latitude":-33.865143,"longitude":151.2099,"reserved":0,"last_update":"0001-01-01T00:00:00Z","name_a2s":"Uncletopia | Sydney | 1 | All Maps","protocol":17,"map":"koth_lakeside_final","folder":"tf","game":"Team Fortress","app_id":440,"player_count":0,"max_players":24,"Bots":0,"server_type":"Dedicated","server_os":"Linux","password":true,"vac":true,"version":"7708610","steam_id":85568392924470001,"keywords":["cp","nocrits","nodmgspread","uncletopia"],"game_id":440,"stv_port":27016,"stv_name":"Uncletopia | Sydney | 1 | All Maps | STV","players":null},{"server_id":123,"name":"Uncletopia | Sydney | 2 | All Maps","name_short":"syd-2","host":"syd-1.au.uncletopia.com","port":27025,"enabled":true,"region":"au","cc":"au","latitude":-33.865143,"longitude":151.2099,"reserved":0,"last_update":"0001-01-01T00:00:00Z","name_a2s":"Uncletopia | Sydney | 2 | All Maps","protocol":17,"map":"pl_barnblitz","folder":"tf","game":"Team Fortress","app_id":440,"player_count":0,"max_players":24,"Bots":0,"server_type":"Dedicated","server_os":"Linux","password":true,"vac":true,"version":"7708610","steam_id":85568392924470002,"keywords":["nocrits","nodmgspread","payload","uncletopia"],"game_id":440,"stv_port":27026,"stv_name":"Uncletopia | Sydney | 2 | All Maps | STV","players":null},{"server_id":395,"name":"Uncletopia | Sydney | 3 | All Maps","name_short":"syd-3","host":"syd-1.au.uncletopia.com","port":27035,"enabled":true,"region":"au","cc":"au","latitude":-33.865143,"longitude":151.2099,"reserved":0,"last_update":"0001-01-01T00:00:00Z","name_a2s":"Uncletopia | Sydney | 3 | All Maps","protocol":17,"map":"koth_viaduct","folder":"tf","game":"Team Fortress","app_id":440,"player_count":1,"max_players":24,"Bots":0,"server_type":"Dedicated","server_os":"Linux","password":true,"vac":true,"version":"7708610","steam_id":85568392925194467,"keywords":["cp","nocrits","nodmgspread","uncletopia"],"game_id":440,"stv_port":27036,"stv_name":"Uncletopia | Sydney | 3 | All Maps | STV","players":[{"user_id":3,"name":"seizurekid69","steam_id":76561199189995074,"connected_time":1263000000000,"state":"active","ping":46}]},{"server_id":396,"name":"Uncletopia | Sydney | 4 | All Maps","name_short":"syd-4","host":"syd-1.au.uncletopia.com","port":27045,"enabled":true,"region":"au","cc":"au","latitude":-33.865143,"longitude":151.2099,"reserved":0,"last_update":"0001-01-01T00:00:00Z","name_a2s":"Uncletopia | Sydney | 4 | All Maps","protocol":17,"map":"koth_cascade","folder":"tf","game":"Team Fortress","app_id":440,"player_count":0,"max_players":24,"Bots":0,"server_type":"Dedicated","server_os":"Linux","password":true,"vac":true,"version":"7708610","steam_id":85568392925397958,"keywords":["cp","nocrits","nodmgspread","uncletopia"],"game_id":440,"stv_port":27046,"stv_name":"Uncletopia | Sydney | 4 | All Maps | STV","players":null},{"server_id":58,"name":"Uncletopia | Sydney | 5 | No Payload","name_short":"syd-5","host":"syd-1.au.uncletopia.com","port":27055,"enabled":true,"region":"au","cc":"au","latitude":-33.865143,"longitude":151.2099,"reserved":0,"last_update":"0001-01-01T00:00:00Z","name_a2s":"Uncletopia | Sydney | 5 | No Payload","protocol":17,"map":"koth_sawmill","folder":"tf","game":"Team Fortress","app_id":440,"player_count":0,"max_players":24,"Bots":0,"server_type":"Dedicated","server_os":"Linux","password":true,"vac":true,"version":"7708610","steam_id":85568392925397959,"keywords":["cp","nocrits","nodmgspread","uncletopia"],"game_id":440,"stv_port":27056,"stv_name":"Uncletopia | Sydney | 5 | No Payload | STV","players":null},{"server_id":59,"name":"Uncletopia | Sydney | 6 | Community","name_short":"syd-6","host":"syd-1.au.uncletopia.com","port":27065,"enabled":true,"region":"au","cc":"au","latitude":-33.865143,"longitude":151.2099,"reserved":0,"last_update":"0001-01-01T00:00:00Z","name_a2s":"Uncletopia | Sydney | 6 | Community","protocol":17,"map":"pl_badwater","folder":"tf","game":"Team Fortress","app_id":440,"player_count":0,"max_players":24,"Bots":0,"server_type":"Dedicated","server_os":"Linux","password":true,"vac":true,"version":"7708610","steam_id":85568392925397960,"keywords":["nocrits","nodmgspread","payload","uncletopia"],"game_id":440,"stv_port":27066,"stv_name":"Uncletopia | Sydney | 6 | Community | STV","players":null},{"server_id":49,"name":"Uncletopia | Warsaw | 1 | All Maps","name_short":"waw-1","host":"waw-1.pl.uncletopia.com","port":27015,"enabled":true,"region":"eu","cc":"pl","latitude":52.2297,"longitude":21.017532,"reserved":0,"last_update":"0001-01-01T00:00:00Z","name_a2s":"Uncletopia | Warsaw | 1 | All Maps","protocol":17,"map":"koth_lakeside_final","folder":"tf","game":"Team Fortress","app_id":440,"player_count":0,"max_players":24,"Bots":0,"server_type":"Dedicated","server_os":"Linux","password":true,"vac":true,"version":"7708610","steam_id":85568392925397850,"keywords":["cp","nocrits","nodmgspread","uncletopia"],"game_id":440,"stv_port":27016,"stv_name":"Uncletopia | Warsaw | 1 | All Maps | STV","players":null},{"server_id":50,"name":"Uncletopia | Warsaw | 2 | All Maps","name_short":"waw-2","host":"waw-1.pl.uncletopia.com","port":27025,"enabled":true,"region":"eu","cc":"pl","latitude":52.2297,"longitude":21.017532,"reserved":0,"last_update":"0001-01-01T00:00:00Z","name_a2s":"Uncletopia | Warsaw | 2 | All Maps","protocol":17,"map":"koth_cascade","folder":"tf","game":"Team Fortress","app_id":440,"player_count":0,"max_players":24,"Bots":0,"server_type":"Dedicated","server_os":"Linux","password":true,"vac":true,"version":"7708610","steam_id":85568392925397851,"keywords":["cp","nocrits","nodmgspread","uncletopia"],"game_id":440,"stv_port":27026,"stv_name":"Uncletopia | Warsaw | 2 | All Maps | STV","players":null},{"server_id":51,"name":"Uncletopia | Warsaw | 3 | All Maps","name_short":"waw-3","host":"waw-1.pl.uncletopia.com","port":27035,"enabled":true,"region":"eu","cc":"pl","latitude":52.2297,"longitude":21.017532,"reserved":0,"last_update":"0001-01-01T00:00:00Z","name_a2s":"Uncletopia | Warsaw | 3 | All Maps","protocol":17,"map":"koth_highpass","folder":"tf","game":"Team Fortress","app_id":440,"player_count":0,"max_players":24,"Bots":0,"server_type":"Dedicated","server_os":"Linux","password":true,"vac":true,"version":"7708610","steam_id":85568392925397852,"keywords":["cp","nocrits","nodmgspread","uncletopia"],"game_id":440,"stv_port":27036,"stv_name":"Uncletopia | Warsaw | 3 | All Maps | STV","players":null},{"server_id":52,"name":"Uncletopia | Warsaw | 4 | All Maps","name_short":"waw-4","host":"waw-1.pl.uncletopia.com","port":27045,"enabled":true,"region":"eu","cc":"pl","latitude":52.2297,"longitude":21.017532,"reserved":0,"last_update":"0001-01-01T00:00:00Z","name_a2s":"Uncletopia | Warsaw | 4 | All Maps","protocol":17,"map":"koth_cascade","folder":"tf","game":"Team Fortress","app_id":440,"player_count":0,"max_players":24,"Bots":0,"server_type":"Dedicated","server_os":"Linux","password":true,"vac":true,"version":"7708610","steam_id":85568392925397853,"keywords":["cp","nocrits","nodmgspread","uncletopia"],"game_id":440,"stv_port":27046,"stv_name":"Uncletopia | Warsaw | 4 | All Maps | STV","players":null},{"server_id":53,"name":"Uncletopia | Warsaw | 5 | No Payload","name_short":"waw-5","host":"waw-1.pl.uncletopia.com","port":27055,"enabled":true,"region":"eu","cc":"pl","latitude":52.2297,"longitude":21.017532,"reserved":0,"last_update":"0001-01-01T00:00:00Z","name_a2s":"Uncletopia | Warsaw | 5 | No Payload","protocol":17,"map":"koth_suijin","folder":"tf","game":"Team Fortress","app_id":440,"player_count":0,"max_players":24,"Bots":0,"server_type":"Dedicated","server_os":"Linux","password":true,"vac":true,"version":"7708610","steam_id":85568392925397854,"keywords":["cp","nocrits","nodmgspread","uncletopia"],"game_id":440,"stv_port":27056,"stv_name":"Uncletopia | Warsaw | 5 | No Payload | STV","players":null},{"server_id":54,"name":"Uncletopia | Warsaw | 6 | Community","name_short":"waw-6","host":"waw-1.pl.uncletopia.com","port":27065,"enabled":true,"region":"eu","cc":"pl","latitude":52.2297,"longitude":21.017532,"reserved":0,"last_update":"0001-01-01T00:00:00Z","name_a2s":"Uncletopia | Warsaw | 6 | Community","protocol":17,"map":"pl_swiftwater_final1","folder":"tf","game":"Team Fortress","app_id":440,"player_count":0,"max_players":24,"Bots":0,"server_type":"Dedicated","server_os":"Linux","password":true,"vac":true,"version":"7708610","steam_id":85568392925397856,"keywords":["nocrits","nodmgspread","payload","uncletopia"],"game_id":440,"stv_port":27066,"stv_name":"Uncletopia | Warsaw | 6 | Community | STV","players":null}]}