{"status":true,"message":"","result":[{"server_id":9,"name":"Uncletopia | Atlanta | 1 | All Maps","name_short":"atl-1","host":"atl-1.us.uncletopia.com","port":27015,"enabled":true,"region":"us-east","cc":"us","latitude":33.753746,"longitude":-84.38633,"reserved":0,"last_update":"0001-01-01T00:00:00Z","name_a2s":"Uncletopia | Atlanta | 1 | All Maps","protocol":17,"map":"cp_dustbowl","folder":"tf","game":"Team Fortress","app_id":440,"player_count":24,"max_players":24,"Bots":0,"server_type":"Dedicated","server_os":"Linux","password":true,"vac":true,"version":"7961495","steam_id":85568392924469982,"keywords":["cp","nocrits","nodmgspread","uncletopia"],"game_id":440,"stv_port":27016,"stv_name":"Uncletopia | Atlanta | 1 | All Maps | STV","players":null},{"server_id":104,"name":"Uncletopia | Atlanta | 2 | All Maps","name_short":"atl-2","host":"atl-1.us.uncletopia.com","port":27025,"enabled":true,"region":"us-east","cc":"us","latitude":33.753746,"longitude":-84.38633,"reserved":0,"last_update":"0001-01-01T00:00:00Z","name_a2s":"Uncletopia | Atlanta | 2 | All Maps","protocol":17,"map":"pl_barnblitz","folder":"tf","game":"Team Fortress","app_id":440,"player_count":18,"max_players":24,"Bots":0,"server_type":"Dedicated","server_os":"Linux","password":true,"vac":true,"version":"7961495","steam_id":85568392924469983,"keywords":["nocrits","nodmgspread","payload","uncletopia"],"game_id":440,"stv_port":27026,"stv_name":"Uncletopia | Atlanta | 2 | All Maps | STV","players":null},{"server_id":400,"name":"Uncletopia | Atlanta | 3 | Stopwatch","name_short":"atl-3","host":"atl-1.us.uncletopia.com","port":27035,"enabled":true,"region":"us-east","cc":"us","latitude":33.753746,"longitude":-84.38633,"reserved":0,"last_update":"0001-01-01T00:00:00Z","name_a2s":"Uncletopia | Atlanta | 3 | Stopwatch","protocol":17,"map":"koth_highpass","folder":"tf","game":"Team Fortress","app_id":440,"player_count":0,"max_players":24,"Bots":0,"server_type":"Dedicated","server_os":"Linux","password":true,"vac":true,"version":"7961495","steam_id":85568392924515187,"keywords":["cp","nocrits","nodmgspread","uncletopia"],"game_id":440,"stv_port":27036,"stv_name":"Uncletopia | Atlanta | 3 | Stopwatch | STV","players":null},{"server_id":401,"name":"Uncletopia | Atlanta | 4 | Community","name_short":"atl-4","host":"atl-1.us.uncletopia.com","port":27045,"enabled":true,"region":"us-east","cc":"us","latitude":33.753746,"longitude":-84.38633,"reserved":0,"last_update":"0001-01-01T00:00:00Z","name_a2s":"Uncletopia | Atlanta | 4 | Community","protocol":17,"map":"koth_kemptown_rc1","folder":"tf","game":"Team Fortress","app_id":440,"player_count":0,"max_players":24,"Bots":0,"server_type":"Dedicated","server_os":"Linux","password":true,"vac":true,"version":"7961495","steam_id":85568392924515188,"keywords":["cp","nocrits","nodmgspread","uncletopia"],"game_id":440,"stv_port":27046,"stv_name":"Uncletopia | Atlanta | 4 | Community | STV","players":null},{"server_id":2,"name":"Uncletopia | Chicago | 1 | All Maps","name_short":"chi-1","host":"chi-1.us.uncletopia.com","port":27015,"enabled":true,"region":"us-central","cc":"us","latitude":41.881832,"longitude":-87.62318,"reserved":0,"last_update":"0001-01-01T00:00:00Z","name_a2s":"Uncletopia | Chicago | 1 | All Maps","protocol":17,"map":"pl_barnblitz","folder":"tf","game":"Team Fortress","app_id":440,"player_count":24,"max_players":24,"Bots":0,"server_type":"Dedicated","server_os":"Linux","password":true,"vac":true,"version":"7961495","steam_id":85568392924469984,"keywords":["nocrits","nodmgspread","payload","uncletopia"],"game_id":440,"stv_port":27016,"stv_name":"Uncletopia | Chicago | 1 | All Maps | STV","players":[{"user_id":816,"name":"e doctor","steam_id":76561198081851446,"connected_time":766000000000,"state":"active","ping":45},{"user_id":817,"name":"Muffin","steam_id":76561198111403028,"connected_time":697000000000,"state":"active","ping":43},{"user_id":834,"name":"f","steam_id":76561198215559840,"connected_time":330000000000,"state":"active","ping":67},{"user_id":832,"name":"Distraction","steam_id":76561199445895882,"connected_time":464000000000,"state":"active","ping":69},{"user_id":767,"name":"Jag","steam_id":76561198001220471,"connected_time":4404000000000,"state":"active","ping":60},{"user_id":835,"name":"Weeajoo Bones","steam_id":76561198133878301,"connected_time":324000000000,"state":"active","ping":59},{"user_id":820,"name":"b","steam_id":76561198156336213,"connected_time":637000000000,"state":"active","ping":75},{"user_id":822,"name":"Ӿ₳VłɆⱤ","steam_id":76561198093034965,"connected_time":604000000000,"state":"active","ping":66},{"user_id":807,"name":"Rein | Comms Open","steam_id":76561198300340427,"connected_time":1867000000000,"state":"active","ping":59},{"user_id":771,"name":"sleepy","steam_id":76561198255015060,"connected_time":4291000000000,"state":"active","ping":103},{"user_id":827,"name":"Coco5737","steam_id":76561198122558423,"connected_time":541000000000,"state":"active","ping":60},{"user_id":823,"name":"Violet!!","steam_id":76561198133948121,"connected_time":599000000000,"state":"active","ping":51},{"user_id":810,"name":"viagra addict","steam_id":76561198017705248,"connected_time":1381000000000,"state":"active","ping":45},{"user_id":833,"name":"mwee machine","steam_id":76561198047126327,"connected_time":463000000000,"state":"active","ping":75},{"user_id":799,"name":"BradB.","steam_id":76561199163905036,"connected_time":2481000000000,"state":"active","ping":80},{"user_id":824,"name":"Kushy","steam_id":76561198045290635,"connected_time":586000000000,"state":"active","ping":88},{"user_id":774,"name":"Fruity","steam_id":76561198999674564,"connected_time":4242000000000,"state":"active","ping":69},{"user_id":825,"name":"BurnN8or101","steam_id":76561198132668224,"connected_time":575000000000,"state":"active","ping":67},{"user_id":815,"name":"k8o","steam_id":76561198042481882,"connected_time":896000000000,"state":"active","ping":51},{"user_id":826,"name":"Melody","steam_id":76561198407789232,"connected_time":575000000000,"state":"active","ping":116},{"user_id":803,"name":"Filthy Acts at Reasonable Price","steam_id":76561198354615890,"connected_time":2227000000000,"state":"active","ping":57},{"user_id":778,"name":"HatTrik69","steam_id":76561199022103806,"connected_time":4083000000000,"state":"active","ping":83},{"user_id":836,"name":"exten-z","steam_id":76561198004359190,"connected_time":274000000000,"state":"active","ping":59},{"user_id":837,"name":"SteveC","steam_id":76561197994786195,"connected_time":266000000000,"state":"active","ping":68}]},{"server_id":106,"name":"Uncletopia | Chicago | 2 | All Maps","name_short":"chi-2","host":"chi-1.us.uncletopia.com","port":27025,"enabled":true,"region":"us-central","cc":"us","latitude":41.881832,"longitude":-87.62318,"reserved":0,"last_update":"0001-01-01T00:00:00Z","name_a2s":"Uncletopia | Chicago | 2 | All Maps","protocol":17,"map":"pl_frontier_final","folder":"tf","game":"Team Fortress","app_id":440,"player_count":24,"max_players":24,"Bots":0,"server_type":"Dedicated","server_os":"Linux","password":true,"vac":true,"version":"7961495","steam_id":85568392924469985,"keywords":["nocrits","nodmgspread","payload","uncletopia"],"game_id":440,"stv_port":27026,"stv_name":"Uncletopia | Chicago | 2 | All Maps | STV","players":[{"user_id":773,"name":"loco503","steam_id":76561198827495121,"connected_time":3062000000000,"state":"active","ping":109},{"user_id":757,"name":"njoku","steam_id":76561199061380038,"connected_time":4715000000000,"state":"active","ping":75},{"user_id":799,"name":"Fargo","steam_id":76561198044703931,"connected_time":880000000000,"state":"active","ping":73},{"user_id":792,"name":"Frank Horrigan","steam_id":76561198066504831,"connected_time":2314000000000,"state":"active","ping":111},{"user_id":800,"name":"Gunboats Reliant Subhuman","steam_id":76561198046526036,"connected_time":791000000000,"state":"active","ping":101},{"user_id":785,"name":"Ceige LFT","steam_id":76561198068538473,"connected_time":2372000000000,"state":"active","ping":80},{"user_id":801,"name":"GEMINI HOME ENTERTAINMENT","steam_id":76561198110057765,"connected_time":775000000000,"state":"active","ping":60},{"user_id":780,"name":"Lunartik","steam_id":76561199004827382,"connected_time":2511000000000,"state":"active","ping":60},{"user_id":787,"name":"eat Pant","steam_id":76561197974965536,"connected_time":2367000000000,"state":"active","ping":59},{"user_id":779,"name":"El Gato Paranoico","steam_id":76561198116567116,"connected_time":2535000000000,"state":"active","ping":91},{"user_id":802,"name":"uufyfuu","steam_id":76561198142787212,"connected_time":736000000000,"state":"active","ping":76},{"user_id":781,"name":"feudal","steam_id":76561198057374871,"connected_time":2499000000000,"state":"active","ping":62},{"user_id":756,"name":"Type-Lectu","steam_id":76561199062620920,"connected_time":4742000000000,"state":"active","ping":58},{"user_id":810,"name":"Ghost Lord","steam_id":76561198088956723,"connected_time":313000000000,"state":"active","ping":101},{"user_id":794,"name":"Epic_XD93","steam_id":76561199114289516,"connected_time":1683000000000,"state":"active","ping":74},{"user_id":809,"name":"Veirū Viseris","steam_id":76561197989857176,"connected_time":461000000000,"state":"active","ping":166},{"user_id":793,"name":"Fluffeline","steam_id":76561198352909489,"connected_time":2055000000000,"state":"active","ping":140},{"user_id":811,"name":"The Spanish Inquisition","steam_id":76561198109322171,"connected_time":237000000000,"state":"active","ping":54},{"user_id":762,"name":"Who loves orange soda?","steam_id":76561198059808982,"connected_time":4339000000000,"state":"active","ping":65},{"user_id":806,"name":"LVL","steam_id":76561198334403617,"connected_time":574000000000,"state":"active","ping":59},{"user_id":667,"name":"Ms Twig","steam_id":76561198144111736,"connected_time":12850000000000,"state":"active","ping":58},{"user_id":807,"name":"I LOVE DONALD TRUMP #MAGA #2024","steam_id":76561197969386201,"connected_time":573000000000,"state":"active","ping":46},{"user_id":783,"name":"Len","steam_id":76561199141913673,"connected_time":2491000000000,"state":"active","ping":59},{"user_id":791,"name":"Cargo","steam_id":76561198065535025,"connected_time":2335000000000,"state":"active","ping":103}]},{"server_id":402,"name":"Uncletopia | Chicago | 3 | All Maps","name_short":"chi-3","host":"chi-1.us.uncletopia.com","port":27035,"enabled":true,"region":"us-central","cc":"us","latitude":41.881832,"longitude":-87.62318,"reserved":0,"last_update":"0001-01-01T00:00:00Z","name_a2s":"Uncletopia | Chicago | 3 | All Maps","protocol":17,"map":"cp_dustbowl","folder":"tf","game":"Team Fortress","app_id":440,"player_count":24,"max_players":24,"Bots":0,"server_type":"Dedicated","server_os":"Linux","password":true,"vac":true,"version":"7961495","steam_id":85568392924515191,"keywords":["cp","nocrits","nodmgspread","uncletopia"],"game_id":440,"stv_port":27036,"stv_name":"Uncletopia | Chicago | 3 | All Maps | STV","players":[{"user_id":660,"name":"Tommy Pickles (Very Cool)","steam_id":76561198391261463,"connected_time":6297000000000,"state":"active","ping":71},{"user_id":689,"name":"Featherless Biped","steam_id":76561198034171721,"connected_time":4199000000000,"state":"active","ping":61},{"user_id":725,"name":"Truck-kun2107","steam_id":76561199161417910,"connected_time":734000000000,"state":"active","ping":86},{"user_id":734,"name":"Loogey03","steam_id":76561198155483586,"connected_time":160000000000,"state":"active","ping":57},{"user_id":723,"name":"rudy","steam_id":76561198088712799,"connected_time":1239000000000,"state":"active","ping":80},{"user_id":710,"name":"Mario9501","steam_id":76561198121046345,"connected_time":1929000000000,"state":"active","ping":82},{"user_id":691,"name":"ThenuttcrackerYT","steam_id":76561198106460064,"connected_time":4171000000000,"state":"active","ping":100},{"user_id":654,"name":"Vaun","steam_id":76561198034075317,"connected_time":6806000000000,"state":"active","ping":81},{"user_id":726,"name":"TJMaVerick","steam_id":76561198049724348,"connected_time":580000000000,"state":"active","ping":75},{"user_id":727,"name":"weed lesbian","steam_id":76561198042263805,"connected_time":504000000000,"state":"active","ping":90},{"user_id":728,"name":"Shrimp Bizkit (Speed Weed)","steam_id":76561198171077434,"connected_time":407000000000,"state":"active","ping":126},{"user_id":677,"name":"Holiday Fartcruise","steam_id":76561198043851584,"connected_time":5433000000000,"state":"active","ping":109},{"user_id":729,"name":"oomper","steam_id":76561199189982701,"connected_time":394000000000,"state":"active","ping":53},{"user_id":730,"name":"DamienB","steam_id":76561198014923455,"connected_time":334000000000,"state":"active","ping":67},{"user_id":731,"name":"Poyo","steam_id":76561198280424107,"connected_time":323000000000,"state":"active","ping":70},{"user_id":732,"name":"Styx","steam_id":76561198158334494,"connected_time":298000000000,"state":"active","ping":52},{"user_id":688,"name":"Gay Cake","steam_id":76561198004388831,"connected_time":4343000000000,"state":"active","ping":70},{"user_id":733,"name":"clamfunny","steam_id":76561198834323868,"connected_time":276000000000,"state":"active","ping":84},{"user_id":735,"name":"richard","steam_id":76561198956666951,"connected_time":106000000000,"state":"active","ping":57},{"user_id":666,"name":"Animal Slices","steam_id":76561198137545511,"connected_time":5913000000000,"state":"active","ping":55},{"user_id":736,"name":"Slippin' Jimmy","steam_id":76561198324749126,"connected_time":92000000000,"state":"active","ping":85},{"user_id":663,"name":"exotic fishes","steam_id":76561199046490785,"connected_time":6255000000000,"state":"active","ping":64},{"user_id":737,"name":"garbo","steam_id":76561198149280150,"connected_time":64000000000,"state":"active","ping":83},{"user_id":738,"name":"Dew","steam_id":76561197977101474,"connected_time":40000000000,"state":"active","ping":90}]},{"server_id":403,"name":"Uncletopia | Chicago | 4 | All Maps","name_short":"chi-4","host":"chi-1.us.uncletopia.com","port":27045,"enabled":true,"region":"us-central","cc":"us","latitude":41.881832,"longitude":-87.62318,"reserved":0,"last_update":"0001-01-01T00:00:00Z","name_a2s":"Uncletopia | Chicago | 4 | All Maps","protocol":17,"map":"koth_lakeside_final","folder":"tf","game":"Team Fortress","app_id":440,"player_count":0,"max_players":24,"Bots":0,"server_type":"Dedicated","server_os":"Linux","password":true,"vac":true,"version":"7961495","steam_id":85568392924515193,"keywords":["cp","nocrits","nodmgspread","uncletopia"],"game_id":440,"stv_port":27046,"stv_name":"Uncletopia | Chicago | 4 | All Maps | STV","players":null},{"server_id":36,"name":"Uncletopia | Chicago | 5 | All Maps","name_short":"chi-5","host":"chi-2.us.uncletopia.com","port":27015,"enabled":true,"region":"us-central","cc":"us","latitude":41.881832,"longitude":-87.62318,"reserved":0,"last_update":"0001-01-01T00:00:00Z","name_a2s":"Uncletopia | Chicago | 5 | All Maps","protocol":17,"map":"pl_upward","folder":"tf","game":"Team Fortress","app_id":440,"player_count":24,"max_players":24,"Bots":0,"server_type":"Dedicated","server_os":"Linux","password":true,"vac":true,"version":"7961495","steam_id":85568392924866362,"keywords":["nocrits","nodmgspread","payload","uncletopia"],"game_id":440,"stv_port":27016,"stv_name":"Uncletopia | Chicago | 5 | All Maps | STV","players":[{"user_id":524,"name":"Biscipline","steam_id":76561198019206178,"connected_time":83000000000,"state":"active","ping":75},{"user_id":427,"name":"flappyflap2","steam_id":76561198285048973,"connected_time":6063000000000,"state":"active","ping":61},{"user_id":458,"name":"RoraBeth","steam_id":76561197999432246,"connected_time":4199000000000,"state":"active","ping":75},{"user_id":516,"name":"tiefling lesbian","steam_id":76561198162998471,"connected_time":928000000000,"state":"active","ping":76},{"user_id":500,"name":"gaza","steam_id":76561199056091914,"connected_time":1471000000000,"state":"active","ping":80},{"user_id":525,"name":"Resistance","steam_id":76561197998318861,"connected_time":78000000000,"state":"active","ping":76},{"user_id":526,"name":"DarthPorgus69420","steam_id":76561198014429676,"connected_time":57000000000,"state":"active","ping":87},{"user_id":503,"name":"Shotgun","steam_id":76561199093327390,"connected_time":1416000000000,"state":"active","ping":85},{"user_id":520,"name":"radical","steam_id":76561199194112599,"connected_time":251000000000,"state":"connecting","ping":0},{"user_id":527,"name":"Cosmo","steam_id":76561198042147273,"connected_time":33000000000,"state":"active","ping":60},{"user_id":402,"name":"Goober","steam_id":76561198988863807,"connected_time":7234000000000,"state":"active","ping":81},{"user_id":407,"name":"Chauncey von Snuffles III","steam_id":76561198021784746,"connected_time":6906000000000,"state":"active","ping":72},{"user_id":515,"name":"Lore","steam_id":76561198098407538,"connected_time":947000000000,"state":"active","ping":46},{"user_id":517,"name":"zinqi","steam_id":76561198376838848,"connected_time":928000000000,"state":"active","ping":77},{"user_id":528,"name":"Imagine being trash at Medic","steam_id":76561197986530028,"connected_time":11000000000,"state":"spawning","ping":127},{"user_id":409,"name":"gamerkiddude08","steam_id":76561198403417575,"connected_time":6848000000000,"state":"active","ping":112},{"user_id":511,"name":"MikeRobo","steam_id":76561198050996041,"connected_time":1179000000000,"state":"active","ping":104},{"user_id":414,"name":"FlexTape","steam_id":76561198871834867,"connected_time":6741000000000,"state":"active","ping":123},{"user_id":512,"name":"doughboy","steam_id":76561198219012928,"connected_time":1102000000000,"state":"active","ping":102},{"user_id":519,"name":"Yeti","steam_id":76561199226373771,"connected_time":899000000000,"state":"active","ping":63},{"user_id":523,"name":"xulera","steam_id":76561198080736030,"connected_time":163000000000,"state":"active","ping":158},{"user_id":522,"name":"Crazy7SV","steam_id":76561198206507016,"connected_time":241000000000,"state":"active","ping":65},{"user_id":499,"name":"[TF2Apples] Intense Green Apple","steam_id":76561198803561622,"connected_time":1914000000000,"state":"active","ping":84},{"user_id":455,"name":"Alien_Skull","steam_id":76561199218920647,"connected_time":4428000000000,"state":"active","ping":97}]},{"server_id":37,"name":"Uncletopia | Chicago | 6 | All Maps","name_short":"chi-6","host":"chi-2.us.uncletopia.com","port":27025,"enabled":true,"region":"us-central","cc":"us","latitude":41.881832,"longitude":-87.62318,"reserved":0,"last_update":"0001-01-01T00:00:00Z","name_a2s":"Uncletopia | Chicago | 6 | All Maps","protocol":17,"map":"cp_altitude","folder":"tf","game":"Team Fortress","app_id":440,"player_count":22,"max_players":24,"Bots":0,"server_type":"Dedicated","server_os":"Linux","password":true,"vac":true,"version":"7961495","steam_id":85568392924866363,"keywords":["cp","nocrits","nodmgspread","uncletopia"],"game_id":440,"stv_port":27026,"stv_name":"Uncletopia | Chicago | 6 | All Maps | STV","players":[{"user_id":415,"name":"Average Anarchist","steam_id":76561199175442910,"connected_time":896000000000,"state":"active","ping":75},{"user_id":424,"name":"Alex G Piss Pants","steam_id":76561199406829810,"connected_time":244000000000,"state":"active","ping":63},{"user_id":407,"name":"PringlesMan","steam_id":76561198079371059,"connected_time":1180000000000,"state":"active","ping":56},{"user_id":408,"name":"Toon","steam_id":76561198227601072,"connected_time":1159000000000,"state":"active","ping":64},{"user_id":395,"name":"Mr.Crabapples","steam_id":76561199082148884,"connected_time":1613000000000,"state":"active","ping":107},{"user_id":396,"name":"Mr.Dummy","steam_id":76561199070768131,"connected_time":1605000000000,"state":"active","ping":70},{"user_id":411,"name":"FiddyFoMike","steam_id":76561198057072581,"connected_time":1019000000000,"state":"active","ping":99},{"user_id":425,"name":"Sud","steam_id":76561199102300588,"connected_time":151000000000,"state":"active","ping":89},{"user_id":414,"name":"gay sex","steam_id":76561198138467891,"connected_time":924000000000,"state":"active","ping":151},{"user_id":397,"name":"Gibs Degrossi","steam_id":76561198066152609,"connected_time":1583000000000,"state":"active","ping":59},{"user_id":382,"name":"hehe","steam_id":76561198141437661,"connected_time":2132000000000,"state":"active","ping":63},{"user_id":398,"name":"FireQuiz","steam_id":76561198107357249,"connected_time":1550000000000,"state":"active","ping":104},{"user_id":409,"name":"Si1entSn1pa","steam_id":76561198170095479,"connected_time":1118000000000,"state":"active","ping":87},{"user_id":416,"name":"Bombsgamer","steam_id":76561198350009050,"connected_time":689000000000,"state":"active","ping":73},{"user_id":417,"name":"StarB","steam_id":76561198149605368,"connected_time":622000000000,"state":"active","ping":81},{"user_id":388,"name":"CabezaGrande","steam_id":76561197972555502,"connected_time":1895000000000,"state":"active","ping":72},{"user_id":389,"name":"sloth (be nice im cringe)","steam_id":76561198047098172,"connected_time":1895000000000,"state":"active","ping":75},{"user_id":390,"name":"Chicken","steam_id":76561198855273194,"connected_time":1892000000000,"state":"active","ping":55},{"user_id":401,"name":"Calypso","steam_id":76561198082939544,"connected_time":1526000000000,"state":"active","ping":92},{"user_id":403,"name":"moonboy","steam_id":76561198172113657,"connected_time":1490000000000,"state":"active","ping":95},{"user_id":418,"name":"goblin?","steam_id":76561198007192438,"connected_time":584000000000,"state":"active","ping":72},{"user_id":420,"name":"Mechanical Sanity","steam_id":76561198817025452,"connected_time":465000000000,"state":"active","ping":62}]},{"server_id":38,"name":"Uncletopia | Chicago | 7 | Stopwatch","name_short":"chi-7","host":"chi-2.us.uncletopia.com","port":27035,"enabled":true,"region":"us-central","cc":"us","latitude":41.881832,"longitude":-87.62318,"reserved":0,"last_update":"0001-01-01T00:00:00Z","name_a2s":"Uncletopia | Chicago | 7 | Stopwatch","protocol":17,"map":"workshop/koth_product_final.ugc454272353","folder":"tf","game":"Team Fortress","app_id":440,"player_count":0,"max_players":24,"Bots":0,"server_type":"Dedicated","server_os":"Linux","password":true,"vac":true,"version":"7961495","steam_id":85568392924866364,"keywords":["cp","nocrits","nodmgspread","uncletopia"],"game_id":440,"stv_port":27036,"stv_name":"Uncletopia | Chicago | 7 | Stopwatch | STV","players":null},{"server_id":39,"name":"Uncletopia | Chicago | 8 | Community","name_short":"chi-8","host":"chi-2.us.uncletopia.com","port":27045,"enabled":true,"region":"us-central","cc":"us","latitude":41.881832,"longitude":-87.62318,"reserved":0,"last_update":"0001-01-01T00:00:00Z","name_a2s":"Uncletopia | Chicago | 8 | Community","protocol":17,"map":"workshop/koth_kemptown_rc1.ugc767410655","folder":"tf","game":"Team Fortress","app_id":440,"player_count":0,"max_players":24,"Bots":0,"server_type":"Dedicated","server_os":"Linux","password":true,"vac":true,"version":"7961495","steam_id":85568392924866365,"keywords":["cp","nocrits","nodmgspread","uncletopia"],"game_id":440,"stv_port":27046,"stv_name":"Uncletopia | Chicago | 8 | Community | STV","players":null},{"server_id":8,"name":"Uncletopia | Dallas | 1 | All Maps","name_short":"dal-1","host":"dal-1.us.uncletopia.com","port":27015,"enabled":true,"region":"us-central","cc":"us","latitude":32.779167,"longitude":-96.80889,"reserved":0,"last_update":"0001-01-01T00:00:00Z","name_a2s":"Uncletopia | Dallas | 1 | All Maps","protocol":17,"map":"cp_dustbowl","folder":"tf","game":"Team Fortress","app_id":440,"player_count":24,"max_players":24,"Bots":0,"server_type":"Dedicated","server_os":"Linux","password":true,"vac":true,"version":"7961495","steam_id":85568392924469986,"keywords":["cp","nocrits","nodmgspread","uncletopia"],"game_id":440,"stv_port":27016,"stv_name":"Uncletopia | Dallas | 1 | All Maps | STV","players":[{"user_id":972,"name":"Lorberry","steam_id":76561198023706058,"connected_time":2309000000000,"state":"active","ping":56},{"user_id":973,"name":"only a spoonful","steam_id":76561198113180616,"connected_time":2228000000000,"state":"active","ping":91},{"user_id":974,"name":"rocketspires","steam_id":76561198800386026,"connected_time":2146000000000,"state":"active","ping":104},{"user_id":968,"name":"yippeeee","steam_id":76561198026563351,"connected_time":2615000000000,"state":"active","ping":77},{"user_id":985,"name":"axolotl","steam_id":76561198028490882,"connected_time":1740000000000,"state":"active","ping":74},{"user_id":949,"name":"Mi cara","steam_id":76561198190771759,"connected_time":3705000000000,"state":"active","ping":113},{"user_id":946,"name":"Elpipiribao","steam_id":76561198825371499,"connected_time":3735000000000,"state":"active","ping":142},{"user_id":975,"name":"Kdash","steam_id":76561198043829155,"connected_time":2127000000000,"state":"active","ping":57},{"user_id":989,"name":"Catnap","steam_id":76561197991738817,"connected_time":648000000000,"state":"active","ping":97},{"user_id":934,"name":"Bogey","steam_id":76561198096227944,"connected_time":4428000000000,"state":"active","ping":45},{"user_id":944,"name":"A Straw","steam_id":76561199367935846,"connected_time":3769000000000,"state":"active","ping":70},{"user_id":962,"name":"River Rat","steam_id":76561198116383976,"connected_time":3230000000000,"state":"active","ping":119},{"user_id":992,"name":"soft and wet","steam_id":76561198081974528,"connected_time":27000000000,"state":"active","ping":65},{"user_id":990,"name":"DBosch","steam_id":76561198064290290,"connected_time":613000000000,"state":"active","ping":128},{"user_id":988,"name":"{ST} Oxythemoron","steam_id":76561198060089965,"connected_time":682000000000,"state":"active","ping":52},{"user_id":932,"name":"dumbest girl alive","steam_id":76561198062263639,"connected_time":4613000000000,"state":"active","ping":51},{"user_id":965,"name":"radicalPolio","steam_id":76561197961561855,"connected_time":2932000000000,"state":"active","ping":45},{"user_id":986,"name":"Inflation Jumpscare","steam_id":76561198137862444,"connected_time":1327000000000,"state":"active","ping":50},{"user_id":980,"name":"storyboard","steam_id":76561199088496817,"connected_time":2057000000000,"state":"active","ping":61},{"user_id":981,"name":"Mystic Zone","steam_id":76561198362722560,"connected_time":2014000000000,"state":"active","ping":98},{"user_id":982,"name":"hbk ch0w","steam_id":76561198054427889,"connected_time":2000000000000,"state":"active","ping":87},{"user_id":964,"name":"『Hazon』","steam_id":76561198119852107,"connected_time":2970000000000,"state":"active","ping":92},{"user_id":983,"name":"Korbus_","steam_id":76561198046835415,"connected_time":1998000000000,"state":"active","ping":70},{"user_id":957,"name":"LampMan","steam_id":76561198079857527,"connected_time":3521000000000,"state":"active","ping":57}]},{"server_id":108,"name":"Uncletopia | Dallas | 2 | All Maps","name_short":"dal-2","host":"dal-1.us.uncletopia.com","port":27025,"enabled":true,"region":"us-central","cc":"us","latitude":32.779167,"longitude":-96.80889,"reserved":0,"last_update":"0001-01-01T00:00:00Z","name_a2s":"Uncletopia | Dallas | 2 | All Maps","protocol":17,"map":"ctf_2fort","folder":"tf","game":"Team Fortress","app_id":440,"player_count":23,"max_players":24,"Bots":0,"server_type":"Dedicated","server_os":"Linux","password":true,"vac":true,"version":"7961495","steam_id":85568392924469988,"keywords":["ctf","nocrits","nodmgspread","uncletopia"],"game_id":440,"stv_port":27026,"stv_name":"Uncletopia | Dallas | 2 | All Maps | STV","players":[{"user_id":629,"name":"GlizzLord","steam_id":76561198321010427,"connected_time":854000000000,"state":"active","ping":96},{"user_id":628,"name":"HOG RIDER","steam_id":76561198298589502,"connected_time":1017000000000,"state":"active","ping":85},{"user_id":631,"name":"Withered Bonnie (Real)","steam_id":76561198423310113,"connected_time":555000000000,"state":"active","ping":53},{"user_id":619,"name":"VolatileVixen","steam_id":76561198158750199,"connected_time":1372000000000,"state":"active","ping":64},{"user_id":586,"name":"above average gock enjoyer","steam_id":76561199328635967,"connected_time":3472000000000,"state":"active","ping":50},{"user_id":638,"name":"evil sorceress","steam_id":76561199196442823,"connected_time":250000000000,"state":"active","ping":143},{"user_id":639,"name":"root beer bong hits","steam_id":76561199159928133,"connected_time":225000000000,"state":"active","ping":90},{"user_id":595,"name":"spunch bub","steam_id":76561198326658210,"connected_time":2854000000000,"state":"active","ping":72},{"user_id":630,"name":"Unlicensed Fed","steam_id":76561198166040449,"connected_time":680000000000,"state":"active","ping":90},{"user_id":525,"name":"E4Estrogen","steam_id":76561198085813708,"connected_time":8044000000000,"state":"active","ping":69},{"user_id":632,"name":"gretchling","steam_id":76561198046111695,"connected_time":539000000000,"state":"active","ping":46},{"user_id":640,"name":"Boof","steam_id":76561198105392791,"connected_time":208000000000,"state":"active","ping":72},{"user_id":604,"name":"drink enjoyer","steam_id":76561199078359629,"connected_time":2571000000000,"state":"active","ping":75},{"user_id":635,"name":"DogePan","steam_id":76561198327559786,"connected_time":475000000000,"state":"active","ping":95},{"user_id":588,"name":"Runny Eggs","steam_id":76561198006785882,"connected_time":3250000000000,"state":"active","ping":79},{"user_id":633,"name":"Superangel","steam_id":76561197985566989,"connected_time":533000000000,"state":"active","ping":125},{"user_id":594,"name":"a little guy","steam_id":76561198085888959,"connected_time":2855000000000,"state":"active","ping":60},{"user_id":599,"name":"SleepyScotoplanesTTV","steam_id":76561198968140914,"connected_time":2756000000000,"state":"active","ping":63},{"user_id":559,"name":"WhatAmIDoing","steam_id":76561199060028126,"connected_time":5702000000000,"state":"active","ping":102},{"user_id":641,"name":"Calcium?","steam_id":76561198079508469,"connected_time":204000000000,"state":"active","ping":65},{"user_id":626,"name":"octane infused rabies7","steam_id":76561198309010627,"connected_time":1066000000000,"state":"active","ping":95},{"user_id":644,"name":"ask me about the bird masher.","steam_id":76561198186128723,"connected_time":24000000000,"state":"active","ping":48},{"user_id":603,"name":"cylinder","steam_id":76561197995609787,"connected_time":2575000000000,"state":"active","ping":85}]},{"server_id":404,"name":"Uncletopia | Dallas | 3 | All Maps","name_short":"dal-3","host":"dal-1.us.uncletopia.com","port":27035,"enabled":true,"region":"us-central","cc":"us","latitude":32.779167,"longitude":-96.80889,"reserved":0,"last_update":"0001-01-01T00:00:00Z","name_a2s":"Uncletopia | Dallas | 3 | All Maps","protocol":17,"map":"koth_suijin","folder":"tf","game":"Team Fortress","app_id":440,"player_count":0,"max_players":24,"Bots":0,"server_type":"Dedicated","server_os":"Linux","password":true,"vac":true,"version":"7961495","steam_id":85568392924515219,"keywords":["cp","nocrits","nodmgspread","uncletopia"],"game_id":440,"stv_port":27036,"stv_name":"Uncletopia | Dallas | 3 | All Maps | STV","players":null},{"server_id":405,"name":"Uncletopia | Dallas | 4 | Community","name_short":"dal-4","host":"dal-1.us.uncletopia.com","port":27045,"enabled":true,"region":"us-central","cc":"us","latitude":32.779167,"longitude":-96.80889,"reserved":0,"last_update":"0001-01-01T00:00:00Z","name_a2s":"Uncletopia | Dallas | 4 | Community","protocol":17,"map":"workshop/cp_sulfur_rc2.ugc619869471","folder":"tf","game":"Team Fortress","app_id":440,"player_count":18,"max_players":24,"Bots":0,"server_type":"Dedicated","server_os":"Linux","password":true,"vac":true,"version":"7961495","steam_id":85568392924515220,"keywords":["cp","nocrits","nodmgspread","uncletopia"],"game_id":440,"stv_port":27046,"stv_name":"Uncletopia | Dallas | 4 | Community | STV","players":[{"user_id":151,"name":"ChubbySolution","steam_id":76561198160468964,"connected_time":239000000000,"state":"active","ping":77},{"user_id":143,"name":"stinker","steam_id":76561198295640486,"connected_time":1968000000000,"state":"active","ping":75},{"user_id":150,"name":"H.","steam_id":76561198074951179,"connected_time":723000000000,"state":"active","ping":61},{"user_id":133,"name":"happy man!!! :D!!!!","steam_id":76561198128468316,"connected_time":2529000000000,"state":"active","ping":61},{"user_id":152,"name":"FerretWithAHat","steam_id":76561198184773007,"connected_time":105000000000,"state":"active","ping":77},{"user_id":134,"name":"Goldwalker","steam_id":76561198279461590,"connected_time":2521000000000,"state":"active","ping":85},{"user_id":153,"name":"cotton","steam_id":76561198018652890,"connected_time":81000000000,"state":"active","ping":98},{"user_id":154,"name":"Wordly Eggplant","steam_id":76561198166704083,"connected_time":38000000000,"state":"active","ping":66},{"user_id":118,"name":"Username","steam_id":76561198198918781,"connected_time":3291000000000,"state":"active","ping":99},{"user_id":148,"name":"Big Bill Haywood","steam_id":76561198142290733,"connected_time":1526000000000,"state":"active","ping":85},{"user_id":137,"name":"menta fresca","steam_id":76561198086666486,"connected_time":2387000000000,"state":"active","ping":89},{"user_id":99,"name":"Shadoe","steam_id":76561198218577281,"connected_time":4765000000000,"state":"active","ping":69},{"user_id":114,"name":"Žinâlyga","steam_id":76561198067803679,"connected_time":3696000000000,"state":"active","ping":61},{"user_id":138,"name":"Engideer","steam_id":76561198145733164,"connected_time":2378000000000,"state":"active","ping":45},{"user_id":128,"name":"Man Man","steam_id":76561199068338634,"connected_time":2810000000000,"state":"active","ping":70},{"user_id":102,"name":"bluefoxx118","steam_id":76561198182884975,"connected_time":4744000000000,"state":"active","ping":83},{"user_id":130,"name":"Giselle","steam_id":76561198162593640,"connected_time":2770000000000,"state":"active","ping":111},{"user_id":149,"name":"Panckakebro","steam_id":76561198106419992,"connected_time":1194000000000,"state":"active","ping":61}]},{"server_id":5,"name":"Uncletopia | Frankfurt | 1 | All Maps","name_short":"frk-1","host":"frk-1.de.uncletopia.com","port":27015,"enabled":true,"region":"eu","cc":"de","latitude":50.110924,"longitude":8.682127,"reserved":0,"last_update":"0001-01-01T00:00:00Z","name_a2s":"Uncletopia | Frankfurt | 1 | All Maps","protocol":17,"map":"koth_highpass","folder":"tf","game":"Team Fortress","app_id":440,"player_count":0,"max_players":24,"Bots":0,"server_type":"Dedicated","server_os":"Linux","password":true,"vac":true,"version":"7961495","steam_id":85568392924469989,"keywords":["cp","nocrits","nodmgspread","uncletopia"],"game_id":440,"stv_port":27016,"stv_name":"Uncletopia | Frankfurt | 1 | All Maps | STV","players":null},{"server_id":110,"name":"Uncletopia | Frankfurt | 2 | All Maps","name_short":"frk-2","host":"frk-1.de.uncletopia.com","port":27025,"enabled":true,"region":"eu","cc":"de","latitude":50.110924,"longitude":8.682127,"reserved":0,"last_update":"0001-01-01T00:00:00Z","name_a2s":"Uncletopia | Frankfurt | 2 | All Maps","protocol":17,"map":"cp_dustbowl","folder":"tf","game":"Team Fortress","app_id":440,"player_count":0,"max_players":24,"Bots":0,"server_type":"Dedicated","server_os":"Linux","password":true,"vac":true,"version":"7961495","steam_id":85568392924469990,"keywords":["cp","nocrits","nodmgspread","uncletopia"],"game_id":440,"stv_port":27026,"stv_name":"Uncletopia | Frankfurt | 2 | All Maps | STV","players":null},{"server_id":308,"name":"Uncletopia | Frankfurt | 3 | All Maps","name_short":"frk-3","host":"frk-1.de.uncletopia.com","port":27035,"enabled":true,"region":"eu","cc":"de","latitude":50.110924,"longitude":8.682127,"reserved":0,"last_update":"0001-01-01T00:00:00Z","name_a2s":"Uncletopia | Frankfurt | 3 | All Maps","protocol":17,"map":"pl_barnblitz","folder":"tf","game":"Team Fortress","app_id":440,"player_count":0,"max_players":24,"Bots":0,"server_type":"Dedicated","server_os":"Linux","password":true,"vac":true,"version":"7961495","steam_id":85568392924504274,"keywords":["nocrits","nodmgspread","payload","uncletopia"],"game_id":440,"stv_port":27036,"stv_name":"Uncletopia | Frankfurt | 3 | All Maps | STV","players":null},{"server_id":309,"name":"Uncletopia | Frankfurt | 4 | All Maps","name_short":"frk-4","host":"frk-1.de.uncletopia.com","port":27045,"enabled":true,"region":"eu","cc":"de","latitude":50.110924,"longitude":8.682127,"reserved":0,"last_update":"0001-01-01T00:00:00Z","name_a2s":"Uncletopia | Frankfurt | 4 | All Maps","protocol":17,"map":"koth_highpass","folder":"tf","game":"Team Fortress","app_id":440,"player_count":0,"max_players":24,"Bots":0,"server_type":"Dedicated","server_os":"Linux","password":true,"vac":true,"version":"7961495","steam_id":85568392924504275,"keywords":["cp","nocrits","nodmgspread","uncletopia"],"game_id":440,"stv_port":27046,"stv_name":"Uncletopia | Frankfurt | 4 | All Maps | STV","players":null},{"server_id":310,"name":"Uncletopia | Frankfurt | 5 | All Maps","name_short":"frk-5","host":"frk-1.de.uncletopia.com","port":27055,"enabled":true,"region":"eu","cc":"de","latitude":50.110924,"longitude":8.682127,"reserved":0,"last_update":"0001-01-01T00:00:00Z","name_a2s":"Uncletopia | Frankfurt | 5 | All Maps","protocol":17,"map":"pl_badwater","folder":"tf","game":"Team Fortress","app_id":440,"player_count":0,"max_players":24,"Bots":0,"server_type":"Dedicated","server_os":"Linux","password":true,"vac":true,"version":"7961495","steam_id":85568392924504277,"keywords":["nocrits","nodmgspread","payload","uncletopia"],"game_id":440,"stv_port":27056,"stv_name":"Uncletopia | Frankfurt | 5 | All Maps | STV","players":null},{"server_id":311,"name":"Uncletopia | Frankfurt | 6 | All Maps","name_short":"frk-6","host":"frk-1.de.uncletopia.com","port":27065,"enabled":true,"region":"eu","cc":"de","latitude":50.110924,"longitude":8.682127,"reserved":0,"last_update":"0001-01-01T00:00:00Z","name_a2s":"Uncletopia | Frankfurt | 6 | All Maps","protocol":17,"map":"cp_altitude","folder":"tf","game":"Team Fortress","app_id":440,"player_count":0,"max_players":24,"Bots":0,"server_type":"Dedicated","server_os":"Linux","password":true,"vac":true,"version":"7961495","steam_id":85568392924504278,"keywords":["cp","nocrits","nodmgspread","uncletopia"],"game_id":440,"stv_port":27066,"stv_name":"Uncletopia | Frankfurt | 6 | All Maps | STV","players":null},{"server_id":23,"name":"Uncletopia | Frankfurt | 7 | Stopwatch","name_short":"frk-7","host":"frk-1.de.uncletopia.com","port":27075,"enabled":true,"region":"eu","cc":"de","latitude":50.110924,"longitude":8.682127,"reserved":0,"last_update":"0001-01-01T00:00:00Z","name_a2s":"Uncletopia | Frankfurt | 7 | Stopwatch","protocol":17,"map":"pl_frontier_final","folder":"tf","game":"Team Fortress","app_id":440,"player_count":0,"max_players":24,"Bots":0,"server_type":"Dedicated","server_os":"Linux","password":true,"vac":true,"version":"7961495","steam_id":85568392924742827,"keywords":["nocrits","nodmgspread","payload","uncletopia"],"game_id":440,"stv_port":27076,"stv_name":"Uncletopia | Frankfurt | 7 | Stopwatch | STV","players":null},{"server_id":24,"name":"Uncletopia | Frankfurt | 8 | Community","name_short":"frk-8","host":"frk-1.de.uncletopia.com","port":27085,"enabled":true,"region":"eu","cc":"de","latitude":50.110924,"longitude":8.682127,"reserved":0,"last_update":"0001-01-01T00:00:00Z","name_a2s":"Uncletopia | Frankfurt | 8 | Community","protocol":17,"map":"cp_mountainlab","folder":"tf","game":"Team Fortress","app_id":440,"player_count":0,"max_players":24,"Bots":0,"server_type":"Dedicated","server_os":"Linux","password":true,"vac":true,"version":"7961495","steam_id":85568392924742828,"keywords":["cp","nocrits","nodmgspread","uncletopia"],"game_id":440,"stv_port":27086,"stv_name":"Uncletopia | Frankfurt | 8 | Community | STV","players":null},{"server_id":202,"name":"Uncletopia | Hong Kong | 1 | All Maps","name_short":"hgk-1","host":"hgk-1.hk.uncletopia.com","port":27015,"enabled":true,"region":"asia","cc":"hk","latitude":22.302711,"longitude":114.177216,"reserved":0,"last_update":"0001-01-01T00:00:00Z","name_a2s":"Uncletopia | Hong Kong | 1 | All Maps","protocol":17,"map":"pl_rumford_event","folder":"tf","game":"Team Fortress","app_id":440,"player_count":23,"max_players":24,"Bots":0,"server_type":"Dedicated","server_os":"Linux","password":true,"vac":true,"version":"7961495","steam_id":85568392924494504,"keywords":["nocrits","nodmgspread","payload","uncletopia"],"game_id":440,"stv_port":27016,"stv_name":"Uncletopia | Hong Kong | 1 | All Maps | STV","players":[{"user_id":145,"name":"black betty","steam_id":76561198439382132,"connected_time":803000000000,"state":"active","ping":120},{"user_id":156,"name":"SunShine","steam_id":76561198323642446,"connected_time":25000000000,"state":"spawning","ping":265},{"user_id":147,"name":"good kid maad city on 3ds","steam_id":76561198320532821,"connected_time":746000000000,"state":"active","ping":66},{"user_id":18,"name":"MANCO FETT","steam_id":76561198107128889,"connected_time":11622000000000,"state":"active","ping":98},{"user_id":155,"name":"Dr. Piss Rat","steam_id":76561199074809838,"connected_time":167000000000,"state":"active","ping":73},{"user_id":132,"name":"Windmill","steam_id":76561199230997986,"connected_time":2009000000000,"state":"active","ping":70},{"user_id":142,"name":"Fourth8","steam_id":76561198079927520,"connected_time":1315000000000,"state":"active","ping":44},{"user_id":139,"name":"BazooKa","steam_id":76561198061628689,"connected_time":1739000000000,"state":"active","ping":51},{"user_id":113,"name":"Stewb","steam_id":76561198131423270,"connected_time":2996000000000,"state":"active","ping":64},{"user_id":143,"name":"better call saul","steam_id":76561198323270925,"connected_time":901000000000,"state":"active","ping":129},{"user_id":151,"name":"Wx","steam_id":76561199217780897,"connected_time":641000000000,"state":"active","ping":119},{"user_id":152,"name":"DeadMeat","steam_id":76561197962351031,"connected_time":538000000000,"state":"active","ping":41},{"user_id":144,"name":"icryinbed","steam_id":76561198084027826,"connected_time":875000000000,"state":"active","ping":104},{"user_id":153,"name":"hakos balls","steam_id":76561198074339034,"connected_time":382000000000,"state":"active","ping":75},{"user_id":82,"name":"MS PowerPoint","steam_id":76561198369523192,"connected_time":6370000000000,"state":"active","ping":62},{"user_id":141,"name":"13MAN","steam_id":76561198900023603,"connected_time":1505000000000,"state":"active","ping":155},{"user_id":148,"name":"Telekhine","steam_id":76561198387120618,"connected_time":727000000000,"state":"active","ping":59},{"user_id":109,"name":"screaming sniper","steam_id":76561199085568674,"connected_time":3338000000000,"state":"active","ping":62},{"user_id":137,"name":"moly sikucing lucu","steam_id":76561198136784654,"connected_time":1860000000000,"state":"active","ping":97},{"user_id":149,"name":"多喝热水","steam_id":76561197989889063,"connected_time":722000000000,"state":"active","ping":98},{"user_id":83,"name":"Kpba32(Lego)","steam_id":76561198051927766,"connected_time":6353000000000,"state":"active","ping":112},{"user_id":135,"name":"14","steam_id":76561198113401862,"connected_time":1947000000000,"state":"active","ping":86},{"user_id":71,"name":"silverhouse7 | A |","steam_id":76561198349634906,"connected_time":7469000000000,"state":"active","ping":130}]},{"server_id":1,"name":"Uncletopia | Los Angeles | 1 | All Maps","name_short":"lax-1","host":"lax-1.us.uncletopia.com","port":27015,"enabled":true,"region":"us-west","cc":"us","latitude":33.94279,"longitude":-118.41004,"reserved":0,"last_update":"0001-01-01T00:00:00Z","name_a2s":"Uncletopia | Los Angeles | 1 | All Maps","protocol":17,"map":"pl_badwater","folder":"tf","game":"Team Fortress","app_id":440,"player_count":25,"max_players":24,"Bots":0,"server_type":"Dedicated","server_os":"Linux","password":true,"vac":true,"version":"7961495","steam_id":85568392924469991,"keywords":["nocrits","nodmgspread","payload","uncletopia"],"game_id":440,"stv_port":27016,"stv_name":"Uncletopia | Los Angeles | 1 | All Maps | STV","players":[{"user_id":614,"name":"TaxMan","steam_id":76561198832477468,"connected_time":1736000000000,"state":"active","ping":84},{"user_id":628,"name":"MancalaMadMan","steam_id":76561198347324053,"connected_time":607000000000,"state":"active","ping":99},{"user_id":620,"name":"californjoe","steam_id":76561197965047795,"connected_time":907000000000,"state":"active","ping":53},{"user_id":584,"name":"Trips","steam_id":76561198054581597,"connected_time":3783000000000,"state":"active","ping":50},{"user_id":600,"name":"rollypollyolie","steam_id":76561198039539380,"connected_time":2935000000000,"state":"active","ping":121},{"user_id":624,"name":"Xanathar","steam_id":76561197985749277,"connected_time":796000000000,"state":"active","ping":57},{"user_id":623,"name":"An00bis","steam_id":76561198044084508,"connected_time":869000000000,"state":"active","ping":45},{"user_id":582,"name":"Drive-By-Fish-Guy","steam_id":76561198105513652,"connected_time":3907000000000,"state":"active","ping":60},{"user_id":611,"name":"Nez","steam_id":76561197963109059,"connected_time":2283000000000,"state":"active","ping":72},{"user_id":594,"name":"Crazy Hungarian","steam_id":76561198025498172,"connected_time":3291000000000,"state":"active","ping":87},{"user_id":621,"name":"nescoceo","steam_id":76561198040801160,"connected_time":904000000000,"state":"active","ping":45},{"user_id":606,"name":"Snoopy","steam_id":76561198273735974,"connected_time":2551000000000,"state":"active","ping":94},{"user_id":605,"name":"roach","steam_id":76561198354811369,"connected_time":2633000000000,"state":"active","ping":50},{"user_id":585,"name":"Owl_eyes","steam_id":76561198066199203,"connected_time":3660000000000,"state":"active","ping":57},{"user_id":456,"name":"basedball","steam_id":76561198385887698,"connected_time":14063000000000,"state":"active","ping":65},{"user_id":572,"name":"Platinum","steam_id":76561198348354629,"connected_time":4309000000000,"state":"active","ping":46},{"user_id":613,"name":"Ralph Kramden (Slim Charles)","steam_id":76561197981687895,"connected_time":2143000000000,"state":"active","ping":99},{"user_id":608,"name":"flo rida","steam_id":76561198226169704,"connected_time":2545000000000,"state":"active","ping":49},{"user_id":601,"name":"Uprightmoss7528","steam_id":76561199200138486,"connected_time":2837000000000,"state":"active","ping":54},{"user_id":550,"name":"DeltaForce4Life","steam_id":76561198355534614,"connected_time":6118000000000,"state":"active","ping":87},{"user_id":617,"name":"Rusty","steam_id":76561198055585129,"connected_time":1644000000000,"state":"active","ping":75},{"user_id":629,"name":"lytewerk","steam_id":76561198002819791,"connected_time":194000000000,"state":"active","ping":89},{"user_id":626,"name":"Big Blue","steam_id":76561198084930108,"connected_time":714000000000,"state":"active","ping":69},{"user_id":627,"name":"A Shiny Meat Bicycle","steam_id":76561198358757709,"connected_time":701000000000,"state":"active","ping":114},{"user_id":630,"name":"Gengarfield","steam_id":76561198052506289,"connected_time":6000000000,"state":"spawning","ping":91}]},{"server_id":112,"name":"Uncletopia | Los Angeles | 2 | All Maps","name_short":"lax-2","host":"lax-1.us.uncletopia.com","port":27025,"enabled":true,"region":"us-west","cc":"us","latitude":33.94279,"longitude":-118.41004,"reserved":0,"last_update":"0001-01-01T00:00:00Z","name_a2s":"Uncletopia | Los Angeles | 2 | All Maps","protocol":17,"map":"koth_highpass","folder":"tf","game":"Team Fortress","app_id":440,"player_count":0,"max_players":24,"Bots":0,"server_type":"Dedicated","server_os":"Linux","password":true,"vac":true,"version":"7961495","steam_id":85568392924469992,"keywords":["cp","nocrits","nodmgspread","uncletopia"],"game_id":440,"stv_port":27026,"stv_name":"Uncletopia | Los Angeles | 2 | All Maps | STV","players":null},{"server_id":324,"name":"Uncletopia | Los Angeles | 3 | All Maps","name_short":"lax-3","host":"lax-1.us.uncletopia.com","port":27035,"enabled":true,"region":"us-west","cc":"us","latitude":33.94279,"longitude":-118.41004,"reserved":0,"last_update":"0001-01-01T00:00:00Z","name_a2s":"Uncletopia | Los Angeles | 3 | All Maps","protocol":17,"map":"cp_process_final","folder":"tf","game":"Team Fortress","app_id":440,"player_count":0,"max_players":24,"Bots":0,"server_type":"Dedicated","server_os":"Linux","password":true,"vac":true,"version":"7961495","steam_id":85568392924510198,"keywords":["cp","nocrits","nodmgspread","uncletopia"],"game_id":440,"stv_port":27036,"stv_name":"Uncletopia | Los Angeles | 3 | All Maps | STV","players":null},{"server_id":25,"name":"Uncletopia | Los Angeles | 4 | Stopwatch","name_short":"lax-4","host":"lax-1.us.uncletopia.com","port":27045,"enabled":true,"region":"us-west","cc":"us","latitude":33.94279,"longitude":-118.41004,"reserved":0,"last_update":"0001-01-01T00:00:00Z","name_a2s":"Uncletopia | Los Angeles | 4 | Stopwatch","protocol":17,"map":"workshop/koth_ashville_final.ugc2130459942","folder":"tf","game":"Team Fortress","app_id":440,"player_count":0,"max_players":24,"Bots":0,"server_type":"Dedicated","server_os":"Linux","password":true,"vac":true,"version":"7961495","steam_id":85568392924510199,"keywords":["cp","nocrits","nodmgspread","uncletopia"],"game_id":440,"stv_port":27046,"stv_name":"Uncletopia | Los Angeles | 4 | Stopwatch | STV","players":null},{"server_id":11,"name":"Uncletopia | London | 1 | All Maps","name_short":"lon-1","host":"lon-1.uk.uncletopia.com","port":27015,"enabled":true,"region":"eu","cc":"gb","latitude":51.509865,"longitude":-0.118092,"reserved":0,"last_update":"0001-01-01T00:00:00Z","name_a2s":"Uncletopia | London | 1 | All Maps","protocol":17,"map":"koth_highpass","folder":"tf","game":"Team Fortress","app_id":440,"player_count":0,"max_players":24,"Bots":0,"server_type":"Dedicated","server_os":"Linux","password":true,"vac":true,"version":"7961495","steam_id":85568392924367362,"keywords":["cp","nocrits","nodmgspread","uncletopia"],"game_id":440,"stv_port":27016,"stv_name":"Uncletopia | London | 1 | All Maps | STV","players":null},{"server_id":114,"name":"Uncletopia | London | 2 | All Maps","name_short":"lon-2","host":"lon-1.uk.uncletopia.com","port":27025,"enabled":true,"region":"eu","cc":"gb","latitude":51.509865,"longitude":-0.118092,"reserved":0,"last_update":"0001-01-01T00:00:00Z","name_a2s":"Uncletopia | London | 2 | All Maps","protocol":17,"map":"koth_lakeside_final","folder":"tf","game":"Team Fortress","app_id":440,"player_count":0,"max_players":24,"Bots":0,"server_type":"Dedicated","server_os":"Linux","password":true,"vac":true,"version":"7961495","steam_id":85568392924470941,"keywords":["cp","nocrits","nodmgspread","uncletopia"],"game_id":440,"stv_port":27026,"stv_name":"Uncletopia | London | 2 | All Maps | STV","players":null},{"server_id":320,"name":"Uncletopia | London | 3 | All Maps","name_short":"lon-3","host":"lon-1.uk.uncletopia.com","port":27035,"enabled":true,"region":"eu","cc":"gb","latitude":51.509865,"longitude":-0.118092,"reserved":0,"last_update":"0001-01-01T00:00:00Z","name_a2s":"Uncletopia | London | 3 | All Maps","protocol":17,"map":"cp_process_final","folder":"tf","game":"Team Fortress","app_id":440,"player_count":0,"max_players":24,"Bots":0,"server_type":"Dedicated","server_os":"Linux","password":true,"vac":true,"version":"7961495","steam_id":85568392924510192,"keywords":["cp","nocrits","nodmgspread","uncletopia"],"game_id":440,"stv_port":27036,"stv_name":"Uncletopia | London | 3 | All Maps | STV","players":null},{"server_id":321,"name":"Uncletopia | London | 4 | All Maps","name_short":"lon-4","host":"lon-1.uk.uncletopia.com","port":27045,"enabled":true,"region":"eu","cc":"gb","latitude":51.509865,"longitude":-0.118092,"reserved":0,"last_update":"0001-01-01T00:00:00Z","name_a2s":"Uncletopia | London | 4 | All Maps","protocol":17,"map":"koth_cascade","folder":"tf","game":"Team Fortress","app_id":440,"player_count":0,"max_players":24,"Bots":0,"server_type":"Dedicated","server_os":"Linux","password":true,"vac":true,"version":"7961495","steam_id":85568392924510193,"keywords":["cp","nocrits","nodmgspread","uncletopia"],"game_id":440,"stv_port":27046,"stv_name":"Uncletopia | London | 4 | All Maps | STV","players":null},{"server_id":21,"name":"Uncletopia | London | 5 | All Maps","name_short":"lon-5","host":"lon-1.uk.uncletopia.com","port":27055,"enabled":true,"region":"eu","cc":"gb","latitude":51.509865,"longitude":-0.118092,"reserved":0,"last_update":"0001-01-01T00:00:00Z","name_a2s":"Uncletopia | London | 5 | All Maps","protocol":17,"map":"koth_lakeside_final","folder":"tf","game":"Team Fortress","app_id":440,"player_count":0,"max_players":24,"Bots":0,"server_type":"Dedicated","server_os":"Linux","password":true,"vac":true,"version":"7961495","steam_id":85568392924742829,"keywords":["cp","nocrits","nodmgspread","uncletopia"],"game_id":440,"stv_port":27056,"stv_name":"Uncletopia | London | 5 | All Maps | STV","players":null},{"server_id":22,"name":"Uncletopia | London | 6 | All Maps","name_short":"lon-6","host":"lon-1.uk.uncletopia.com","port":27065,"enabled":true,"region":"eu","cc":"gb","latitude":51.509865,"longitude":-0.118092,"reserved":0,"last_update":"0001-01-01T00:00:00Z","name_a2s":"Uncletopia | London | 6 | All Maps","protocol":17,"map":"cp_dustbowl","folder":"tf","game":"Team Fortress","app_id":440,"player_count":0,"max_players":24,"Bots":0,"server_type":"Dedicated","server_os":"Linux","password":true,"vac":true,"version":"7961495","steam_id":85568392924742830,"keywords":["cp","nocrits","nodmgspread","uncletopia"],"game_id":440,"stv_port":27066,"stv_name":"Uncletopia | London | 6 | All Maps | STV","players":null},{"server_id":40,"name":"Uncletopia | London | 7 | Stopwatch","name_short":"lon-7","host":"lon-1.uk.uncletopia.com","port":27075,"enabled":true,"region":"eu","cc":"gb","latitude":51.509865,"longitude":-0.118092,"reserved":0,"last_update":"0001-01-01T00:00:00Z","name_a2s":"Uncletopia | London | 7 | Stopwatch","protocol":17,"map":"koth_lakeside_final","folder":"tf","game":"Team Fortress","app_id":440,"player_count":0,"max_players":24,"Bots":0,"server_type":"Dedicated","server_os":"Linux","password":true,"vac":true,"version":"7961495","steam_id":85568392924964314,"keywords":["cp","nocrits","nodmgspread","uncletopia"],"game_id":440,"stv_port":27076,"stv_name":"Uncletopia | London | 7 | Stopwatch | STV","players":null},{"server_id":41,"name":"Uncletopia | London | 8 | Community","name_short":"lon-8","host":"lon-1.uk.uncletopia.com","port":27085,"enabled":true,"region":"eu","cc":"gb","latitude":51.509865,"longitude":-0.118092,"reserved":0,"last_update":"0001-01-01T00:00:00Z","name_a2s":"Uncletopia | London | 8 | Community","protocol":17,"map":"cp_snakewater_final1","folder":"tf","game":"Team Fortress","app_id":440,"player_count":0,"max_players":24,"Bots":0,"server_type":"Dedicated","server_os":"Linux","password":true,"vac":true,"version":"7961495","steam_id":85568392924964315,"keywords":["cp","nocrits","nodmgspread","uncletopia"],"game_id":440,"stv_port":27086,"stv_name":"Uncletopia | London | 8 | Community | STV","players":null},{"server_id":300,"name":"Uncletopia | Montréal | 1 | One Thousand Uncles","name_short":"mtl-1","host":"mtl-1.ca.uncletopia.com","port":27015,"enabled":true,"region":"us-east","cc":"ca","latitude":45.50889,"longitude":-73.56167,"reserved":0,"last_update":"0001-01-01T00:00:00Z","name_a2s":"","protocol":0,"map":"","folder":"","game":"","app_id":0,"player_count":11,"max_players":0,"Bots":0,"server_type":"","server_os":"","password":false,"vac":false,"version":"","steam_id":0,"keywords":null,"game_id":0,"stv_port":0,"stv_name":"","players":[{"user_id":634,"name":"eotsu666","steam_id":76561199180399756,"connected_time":2735000000000,"state":"active","ping":79},{"user_id":654,"name":"my name jeff","steam_id":76561198179816898,"connected_time":1472000000000,"state":"active","ping":56},{"user_id":680,"name":"snyper","steam_id":76561199429008660,"connected_time":9000000000,"state":"active","ping":74},{"user_id":656,"name":"Torkhum","steam_id":76561198162880748,"connected_time":1288000000000,"state":"active","ping":122},{"user_id":660,"name":"Mr_Web (He/They)","steam_id":76561198815562258,"connected_time":1078000000000,"state":"active","ping":76},{"user_id":367,"name":"Yep","steam_id":76561198041437251,"connected_time":18732000000000,"state":"active","ping":60},{"user_id":658,"name":"c00kie","steam_id":76561198418178297,"connected_time":1176000000000,"state":"active","ping":55},{"user_id":659,"name":"Kent C Straight","steam_id":76561198056190259,"connected_time":1167000000000,"state":"active","ping":76},{"user_id":678,"name":"Draco","steam_id":76561198031226933,"connected_time":701000000000,"state":"active","ping":132},{"user_id":612,"name":"Vix The Vulpix","steam_id":76561198292181452,"connected_time":4872000000000,"state":"active","ping":89},{"user_id":679,"name":"RacoonGamer","steam_id":76561198100907657,"connected_time":642000000000,"state":"active","ping":71}]},{"server_id":301,"name":"Uncletopia | Montréal | 2 | One Thousand Uncles","name_short":"mtl-2","host":"mtl-1.ca.uncletopia.com","port":27025,"enabled":true,"region":"us-east","cc":"ca","latitude":45.50889,"longitude":-73.56167,"reserved":0,"last_update":"0001-01-01T00:00:00Z","name_a2s":"","protocol":0,"map":"","folder":"","game":"","app_id":0,"player_count":0,"max_players":0,"Bots":0,"server_type":"","server_os":"","password":false,"vac":false,"version":"","steam_id":0,"keywords":null,"game_id":0,"stv_port":0,"stv_name":"","players":null},{"server_id":302,"name":"Uncletopia | Montréal | 3 | One Thousand Uncles","name_short":"mtl-3","host":"mtl-1.ca.uncletopia.com","port":27035,"enabled":true,"region":"us-east","cc":"ca","latitude":45.50889,"longitude":-73.56167,"reserved":0,"last_update":"0001-01-01T00:00:00Z","name_a2s":"","protocol":0,"map":"","folder":"","game":"","app_id":0,"player_count":12,"max_players":0,"Bots":0,"server_type":"","server_os":"","password":false,"vac":false,"version":"","steam_id":0,"keywords":null,"game_id":0,"stv_port":0,"stv_name":"","players":[{"user_id":239,"name":"Ayayayayayahuasca","steam_id":76561199002906056,"connected_time":2048000000000,"state":"active","ping":114},{"user_id":264,"name":"Kaiga","steam_id":76561198044052046,"connected_time":183000000000,"state":"active","ping":168},{"user_id":230,"name":"lasky","steam_id":76561198017030029,"connected_time":3232000000000,"state":"active","ping":114},{"user_id":178,"name":"rat gets the cheese","steam_id":76561198031234032,"connected_time":7504000000000,"state":"active","ping":70},{"user_id":175,"name":"Cheezbeargur","steam_id":76561198164702899,"connected_time":7587000000000,"state":"active","ping":113},{"user_id":242,"name":"Henchie!","steam_id":76561198047567464,"connected_time":1686000000000,"state":"active","ping":119},{"user_id":182,"name":"9221669701","steam_id":76561199221669701,"connected_time":6037000000000,"state":"active","ping":102},{"user_id":241,"name":"shoade","steam_id":76561198271939793,"connected_time":1755000000000,"state":"active","ping":180},{"user_id":185,"name":"Colin102004","steam_id":76561198202384334,"connected_time":5612000000000,"state":"active","ping":46},{"user_id":207,"name":"Sweets(?)","steam_id":76561198998446307,"connected_time":3910000000000,"state":"active","ping":126},{"user_id":231,"name":"Paul Badman","steam_id":76561198965289206,"connected_time":3220000000000,"state":"active","ping":73},{"user_id":246,"name":"Gram Tokers Count Doinkula","steam_id":76561198112811565,"connected_time":1504000000000,"state":"active","ping":64}]},{"server_id":13,"name":"Uncletopia | New York City | 1 | All Maps","name_short":"nyc-1","host":"nyc-1.us.uncletopia.com","port":27015,"enabled":true,"region":"us-east","cc":"us","latitude":40.73061,"longitude":-73.93524,"reserved":0,"last_update":"0001-01-01T00:00:00Z","name_a2s":"Uncletopia | New York City | 1 | All Maps","protocol":17,"map":"koth_nucleus","folder":"tf","game":"Team Fortress","app_id":440,"player_count":18,"max_players":24,"Bots":0,"server_type":"Dedicated","server_os":"Linux","password":true,"vac":true,"version":"7961495","steam_id":85568392924469993,"keywords":["cp","nocrits","nodmgspread","uncletopia"],"game_id":440,"stv_port":27016,"stv_name":"Uncletopia | New York City | 1 | All Maps | STV","players":[{"user_id":661,"name":"Mighty","steam_id":76561198096569755,"connected_time":432000000000,"state":"active","ping":127},{"user_id":672,"name":"JohnsBriefcase","steam_id":76561198117657002,"connected_time":40000000000,"state":"active","ping":50},{"user_id":662,"name":"Sergeant Joker #savetf2","steam_id":76561198854616604,"connected_time":414000000000,"state":"active","ping":46},{"user_id":658,"name":"Whyamidoingthisaaaa","steam_id":76561199168837342,"connected_time":761000000000,"state":"active","ping":55},{"user_id":673,"name":"Crab Gaming","steam_id":76561198251828192,"connected_time":2000000000,"state":"spawning","ping":78},{"user_id":624,"name":"ROGUE-PLANET","steam_id":76561198116023052,"connected_time":3434000000000,"state":"active","ping":78},{"user_id":648,"name":"Abysa.","steam_id":76561198424398862,"connected_time":1649000000000,"state":"active","ping":121},{"user_id":664,"name":"Great","steam_id":76561198895516433,"connected_time":384000000000,"state":"active","ping":55},{"user_id":617,"name":"Urbanzpinapple","steam_id":76561198115426938,"connected_time":4090000000000,"state":"active","ping":68},{"user_id":603,"name":"ZariaGalaxy","steam_id":76561198089441300,"connected_time":5695000000000,"state":"active","ping":55},{"user_id":653,"name":"SirHadoken","steam_id":76561198182440773,"connected_time":1469000000000,"state":"active","ping":114},{"user_id":657,"name":"Hideo Kojima","steam_id":76561198082582335,"connected_time":1012000000000,"state":"active","ping":47},{"user_id":669,"name":"Scum Knight | T.I.D.K.","steam_id":76561198282444763,"connected_time":130000000000,"state":"active","ping":48},{"user_id":655,"name":"Jghost","steam_id":76561198079520603,"connected_time":1439000000000,"state":"active","ping":63},{"user_id":666,"name":"Alejandro","steam_id":76561197970051493,"connected_time":350000000000,"state":"active","ping":120},{"user_id":670,"name":"Huntor","steam_id":76561197999180831,"connected_time":128000000000,"state":"active","ping":88},{"user_id":626,"name":"Bing Soy","steam_id":76561199091381775,"connected_time":2884000000000,"state":"active","ping":118},{"user_id":637,"name":"The Deer Consumer","steam_id":76561198812026312,"connected_time":2369000000000,"state":"active","ping":60}]},{"server_id":14,"name":"Uncletopia | New York City | 2 | All Maps","name_short":"nyc-2","host":"nyc-1.us.uncletopia.com","port":27025,"enabled":true,"region":"us-east","cc":"us","latitude":40.73061,"longitude":-73.93524,"reserved":0,"last_update":"0001-01-01T00:00:00Z","name_a2s":"Uncletopia | New York City | 2 | All Maps","protocol":17,"map":"cp_sunshine","folder":"tf","game":"Team Fortress","app_id":440,"player_count":24,"max_players":24,"Bots":0,"server_type":"Dedicated","server_os":"Linux","password":true,"vac":true,"version":"7961495","steam_id":85568392924469994,"keywords":["cp","nocrits","nodmgspread","uncletopia"],"game_id":440,"stv_port":27026,"stv_name":"Uncletopia | New York City | 2 | All Maps | STV","players":[{"user_id":279,"name":"[CHIMP]-CEO of Monkey Business","steam_id":76561198114260233,"connected_time":4806000000000,"state":"active","ping":72},{"user_id":274,"name":"Terror-Billy #SaveTF2","steam_id":76561198328141870,"connected_time":5354000000000,"state":"active","ping":72},{"user_id":305,"name":"Archmage Walter White","steam_id":76561198059005726,"connected_time":1065000000000,"state":"active","ping":69},{"user_id":314,"name":"hoos","steam_id":76561198045985910,"connected_time":600000000000,"state":"active","ping":55},{"user_id":281,"name":"goblin drill mastermind","steam_id":76561198232617936,"connected_time":4638000000000,"state":"active","ping":73},{"user_id":282,"name":"sofa king wee todd ed","steam_id":76561198040741271,"connected_time":4634000000000,"state":"active","ping":44},{"user_id":303,"name":"Quik","steam_id":76561198184132990,"connected_time":1343000000000,"state":"active","ping":135},{"user_id":307,"name":"cheetaz","steam_id":76561198224614084,"connected_time":917000000000,"state":"active","ping":60},{"user_id":301,"name":"The Shredder","steam_id":76561198042134766,"connected_time":1525000000000,"state":"active","ping":81},{"user_id":304,"name":"joe","steam_id":76561198045781320,"connected_time":1291000000000,"state":"active","ping":59},{"user_id":308,"name":"Antimatter2016","steam_id":76561199016764469,"connected_time":863000000000,"state":"active","ping":165},{"user_id":284,"name":"THIS.","steam_id":76561198333939523,"connected_time":4567000000000,"state":"active","ping":44},{"user_id":269,"name":"Korota","steam_id":76561198095891641,"connected_time":5968000000000,"state":"active","ping":77},{"user_id":287,"name":"wepry","steam_id":76561198114091417,"connected_time":3964000000000,"state":"active","ping":73},{"user_id":309,"name":"Gentoo Linux Gaming","steam_id":76561197999657118,"connected_time":779000000000,"state":"active","ping":65},{"user_id":310,"name":"hooley","steam_id":76561198041923067,"connected_time":746000000000,"state":"active","ping":53},{"user_id":311,"name":"roddy ricch - ballin","steam_id":76561198111290441,"connected_time":674000000000,"state":"active","ping":46},{"user_id":313,"name":"oppenheimer style","steam_id":76561198026664629,"connected_time":628000000000,"state":"active","ping":48},{"user_id":317,"name":"Laogh Marbh","steam_id":76561198115240256,"connected_time":446000000000,"state":"active","ping":62},{"user_id":267,"name":"JGatsby","steam_id":76561198023307584,"connected_time":6065000000000,"state":"active","ping":60},{"user_id":297,"name":"Justine Thyme","steam_id":76561198153296292,"connected_time":2202000000000,"state":"active","ping":61},{"user_id":300,"name":"Argo","steam_id":76561198353725622,"connected_time":1594000000000,"state":"active","ping":71},{"user_id":318,"name":"Transformouse","steam_id":76561198004669368,"connected_time":250000000000,"state":"active","ping":100},{"user_id":316,"name":"BrownMemeSter","steam_id":76561198113745020,"connected_time":571000000000,"state":"active","ping":66}]},{"server_id":15,"name":"Uncletopia | New York City | 3 | Stopwatch","name_short":"nyc-3","host":"nyc-1.us.uncletopia.com","port":27035,"enabled":true,"region":"us-east","cc":"us","latitude":40.73061,"longitude":-73.93524,"reserved":0,"last_update":"0001-01-01T00:00:00Z","name_a2s":"Uncletopia | New York City | 3 | Stopwatch","protocol":17,"map":"pl_swiftwater_final1","folder":"tf","game":"Team Fortress","app_id":440,"player_count":7,"max_players":24,"Bots":0,"server_type":"Dedicated","server_os":"Linux","password":true,"vac":true,"version":"7961495","steam_id":85568392924742820,"keywords":["nocrits","nodmgspread","payload","uncletopia"],"game_id":440,"stv_port":27036,"stv_name":"Uncletopia | New York City | 3 | Stopwatch | STV","players":[{"user_id":286,"name":"Timothy Grunclebottoms","steam_id":76561198871450477,"connected_time":491000000000,"state":"active","ping":58},{"user_id":289,"name":"Beardface31","steam_id":76561198009000764,"connected_time":35000000000,"state":"active","ping":71},{"user_id":244,"name":"chill","steam_id":76561198982840251,"connected_time":4144000000000,"state":"active","ping":55},{"user_id":245,"name":"Trans Brionne","steam_id":76561199004726774,"connected_time":4141000000000,"state":"active","ping":86},{"user_id":280,"name":"muddy","steam_id":76561198035015260,"connected_time":1398000000000,"state":"active","ping":92},{"user_id":253,"name":"Green™","steam_id":76561198136522734,"connected_time":3978000000000,"state":"active","ping":41},{"user_id":184,"name":"muck","steam_id":76561198120437909,"connected_time":9299000000000,"state":"active","ping":74}]},{"server_id":16,"name":"Uncletopia | New York City | 4 | Community","name_short":"nyc-4","host":"nyc-1.us.uncletopia.com","port":27045,"enabled":true,"region":"us-east","cc":"us","latitude":40.73061,"longitude":-73.93524,"reserved":0,"last_update":"0001-01-01T00:00:00Z","name_a2s":"Uncletopia | New York City | 4 | Community","protocol":17,"map":"workshop/koth_trenchfoot_b1a.ugc731436616","folder":"tf","game":"Team Fortress","app_id":440,"player_count":0,"max_players":24,"Bots":0,"server_type":"Dedicated","server_os":"Linux","password":true,"vac":true,"version":"7961495","steam_id":85568392924742821,"keywords":["cp","nocrits","nodmgspread","uncletopia"],"game_id":440,"stv_port":27046,"stv_name":"Uncletopia | New York City | 4 | Community | STV","players":null},{"server_id":142,"name":"Uncletopia | São Paulo | 1 | All Maps","name_short":"sao-1","host":"sao-1.br.uncletopia.com","port":27015,"enabled":true,"region":"sa","cc":"br","latitude":-23.533773,"longitude":-46.62529,"reserved":0,"last_update":"0001-01-01T00:00:00Z","name_a2s":"Uncletopia | São Paulo | 1 | All Maps","protocol":17,"map":"koth_lakeside_final","folder":"tf","game":"Team Fortress","app_id":440,"player_count":0,"max_players":24,"Bots":0,"server_type":"Dedicated","server_os":"Linux","password":true,"vac":true,"version":"7961495","steam_id":85568392924469996,"keywords":["cp","nocrits","nodmgspread","uncletopia"],"game_id":440,"stv_port":27016,"stv_name":"Uncletopia | São Paulo | 1 | All Maps | STV","players":null},{"server_id":143,"name":"Uncletopia | São Paulo | 2 | Community","name_short":"sao-2","host":"sao-2.br.uncletopia.com","port":27015,"enabled":true,"region":"sa","cc":"br","latitude":-23.533773,"longitude":-46.62529,"reserved":0,"last_update":"0001-01-01T00:00:00Z","name_a2s":"Uncletopia | São Paulo | 2 | Community","protocol":17,"map":"workshop/cp_logjam_rc12.ugc454812035","folder":"tf","game":"Team Fortress","app_id":440,"player_count":0,"max_players":24,"Bots":0,"server_type":"Dedicated","server_os":"Linux","password":true,"vac":true,"version":"7961495","steam_id":85568392924485349,"keywords":["cp","nocrits","nodmgspread","uncletopia"],"game_id":440,"stv_port":27016,"stv_name":"Uncletopia | São Paulo | 2 | Community | STV","players":null},{"server_id":7,"name":"Uncletopia | Seattle | 1 | All Maps","name_short":"sea-1","host":"sea-1.us.uncletopia.com","port":27015,"enabled":true,"region":"us-west","cc":"us","latitude":47.608013,"longitude":-122.33517,"reserved":0,"last_update":"0001-01-01T00:00:00Z","name_a2s":"Uncletopia | Seattle | 1 | All Maps","protocol":17,"map":"cp_steel","folder":"tf","game":"Team Fortress","app_id":440,"player_count":23,"max_players":24,"Bots":0,"server_type":"Dedicated","server_os":"Linux","password":true,"vac":true,"version":"7961495","steam_id":85568392924469997,"keywords":["cp","nocrits","nodmgspread","uncletopia"],"game_id":440,"stv_port":27016,"stv_name":"Uncletopia | Seattle | 1 | All Maps | STV","players":[{"user_id":610,"name":"louie, soldier / awp main","steam_id":76561198168084763,"connected_time":137000000000,"state":"active","ping":43},{"user_id":571,"name":"pat","steam_id":76561198040595468,"connected_time":3106000000000,"state":"active","ping":79},{"user_id":565,"name":"Inflight","steam_id":76561198920049475,"connected_time":3636000000000,"state":"active","ping":90},{"user_id":603,"name":"Strikerbolt","steam_id":76561199095622897,"connected_time":941000000000,"state":"active","ping":75},{"user_id":585,"name":"Keamy","steam_id":76561199471434875,"connected_time":2363000000000,"state":"active","ping":37},{"user_id":553,"name":"Tom Crúaich","steam_id":76561197999439911,"connected_time":4662000000000,"state":"active","ping":56},{"user_id":572,"name":"io_est","steam_id":76561198079538952,"connected_time":3071000000000,"state":"active","ping":42},{"user_id":586,"name":"Choom","steam_id":76561197972654816,"connected_time":2337000000000,"state":"active","ping":47},{"user_id":562,"name":"An Old Lady","steam_id":76561198047480318,"connected_time":3778000000000,"state":"active","ping":59},{"user_id":583,"name":"Nightshade","steam_id":76561199011017814,"connected_time":2695000000000,"state":"active","ping":64},{"user_id":560,"name":"onionman0106","steam_id":76561199067766868,"connected_time":3792000000000,"state":"active","ping":47},{"user_id":608,"name":"Drilly22","steam_id":76561198068838338,"connected_time":490000000000,"state":"active","ping":104},{"user_id":609,"name":"slushy :))","steam_id":76561198135281802,"connected_time":149000000000,"state":"active","ping":44},{"user_id":606,"name":"2 Point Tom","steam_id":76561198087617008,"connected_time":683000000000,"state":"active","ping":45},{"user_id":596,"name":"Five","steam_id":76561198026640473,"connected_time":1386000000000,"state":"active","ping":59},{"user_id":591,"name":"Attrition","steam_id":76561197969881916,"connected_time":1732000000000,"state":"active","ping":54},{"user_id":493,"name":"A Can of AriZona Green Tea","steam_id":76561198062481133,"connected_time":8733000000000,"state":"active","ping":74},{"user_id":604,"name":"The King of Piss World","steam_id":76561198082806956,"connected_time":888000000000,"state":"active","ping":144},{"user_id":607,"name":"burger patty","steam_id":76561198076688370,"connected_time":584000000000,"state":"active","ping":60},{"user_id":582,"name":"Zeldamaster123007","steam_id":76561198310651080,"connected_time":2743000000000,"state":"active","ping":90},{"user_id":543,"name":"☰vil Ↄood  ⸸💀⸸","steam_id":76561197963666090,"connected_time":5346000000000,"state":"active","ping":97},{"user_id":508,"name":"lili winters","steam_id":76561199488457138,"connected_time":7530000000000,"state":"active","ping":54},{"user_id":601,"name":"Level 3 hotdog enjoyer","steam_id":76561198870649125,"connected_time":1011000000000,"state":"active","ping":82}]},{"server_id":119,"name":"Uncletopia | Seattle | 2 | All Maps","name_short":"sea-2","host":"sea-1.us.uncletopia.com","port":27025,"enabled":true,"region":"us-west","cc":"us","latitude":47.608013,"longitude":-122.33517,"reserved":0,"last_update":"0001-01-01T00:00:00Z","name_a2s":"Uncletopia | Seattle | 2 | All Maps","protocol":17,"map":"pl_badwater","folder":"tf","game":"Team Fortress","app_id":440,"player_count":21,"max_players":24,"Bots":0,"server_type":"Dedicated","server_os":"Linux","password":true,"vac":true,"version":"7961495","steam_id":85568392924469998,"keywords":["nocrits","nodmgspread","payload","uncletopia"],"game_id":440,"stv_port":27026,"stv_name":"Uncletopia | Seattle | 2 | All Maps | STV","players":[{"user_id":265,"name":"IzzyHoP","steam_id":76561197995927883,"connected_time":2976000000000,"state":"spawning","ping":51},{"user_id":277,"name":"captainskullet","steam_id":76561198314597170,"connected_time":2088000000000,"state":"active","ping":237},{"user_id":219,"name":"Skaði","steam_id":76561198063949642,"connected_time":7804000000000,"state":"spawning","ping":42},{"user_id":270,"name":"Agent Cody Banks","steam_id":76561198071531611,"connected_time":2532000000000,"state":"active","ping":107},{"user_id":284,"name":"TwoScore","steam_id":76561198024412148,"connected_time":1540000000000,"state":"active","ping":104},{"user_id":285,"name":"Tideflat","steam_id":76561198179850851,"connected_time":1529000000000,"state":"active","ping":50},{"user_id":296,"name":"Varrock Guard #7","steam_id":76561198097178599,"connected_time":585000000000,"state":"active","ping":59},{"user_id":245,"name":"Sacrificial Wormy ;-;","steam_id":76561198054539200,"connected_time":5045000000000,"state":"active","ping":47},{"user_id":295,"name":"dekemori","steam_id":76561198373889573,"connected_time":726000000000,"state":"active","ping":50},{"user_id":286,"name":"ZincWolfWarrior","steam_id":76561199249729907,"connected_time":1515000000000,"state":"spawning","ping":122},{"user_id":293,"name":"Satori Komeiji","steam_id":76561198158211423,"connected_time":1125000000000,"state":"active","ping":67},{"user_id":299,"name":"SadFapping","steam_id":76561198076651049,"connected_time":94000000000,"state":"active","ping":39},{"user_id":280,"name":"Steve","steam_id":76561198352805460,"connected_time":1839000000000,"state":"active","ping":109},{"user_id":302,"name":"The_RainbowTrout","steam_id":76561199309554436,"connected_time":24000000000,"state":"active","ping":220},{"user_id":292,"name":"mcdonald's cashier","steam_id":76561198064631164,"connected_time":1262000000000,"state":"active","ping":69},{"user_id":261,"name":"squart guy","steam_id":76561199411560141,"connected_time":3413000000000,"state":"active","ping":210},{"user_id":301,"name":"090-nsalih","steam_id":76561199467467873,"connected_time":38000000000,"state":"active","ping":96},{"user_id":300,"name":"hypergressive","steam_id":76561198065860750,"connected_time":42000000000,"state":"active","ping":256},{"user_id":303,"name":"Wan Shi Tong","steam_id":76561198076441225,"connected_time":14000000000,"state":"active","ping":109},{"user_id":288,"name":"mn","steam_id":76561198042357436,"connected_time":1478000000000,"state":"spawning","ping":33},{"user_id":274,"name":"Dr. Karl, the AUS Science Guy","steam_id":76561198031278747,"connected_time":2294000000000,"state":"active","ping":56}]},{"server_id":406,"name":"Uncletopia | Seattle | 3 | Stopwatch","name_short":"sea-3","host":"sea-1.us.uncletopia.com","port":27035,"enabled":true,"region":"us-west","cc":"us","latitude":47.608013,"longitude":-122.33517,"reserved":0,"last_update":"0001-01-01T00:00:00Z","name_a2s":"Uncletopia | Seattle | 3 | Stopwatch","protocol":17,"map":"pl_upward","folder":"tf","game":"Team Fortress","app_id":440,"player_count":0,"max_players":24,"Bots":0,"server_type":"Dedicated","server_os":"Linux","password":true,"vac":true,"version":"7961495","steam_id":85568392924515217,"keywords":["nocrits","nodmgspread","payload","uncletopia"],"game_id":440,"stv_port":27036,"stv_name":"Uncletopia | Seattle | 3 | Stopwatch | STV","players":null},{"server_id":17,"name":"Uncletopia | San Francisco | 1 | All Maps","name_short":"sfo-1","host":"sfo-1.us.uncletopia.com","port":27015,"enabled":true,"region":"us-west","cc":"us","latitude":37.77397,"longitude":-122.4313,"reserved":0,"last_update":"0001-01-01T00:00:00Z","name_a2s":"Uncletopia | San Francisco | 1 | All Maps","protocol":17,"map":"cp_dustbowl","folder":"tf","game":"Team Fortress","app_id":440,"player_count":6,"max_players":24,"Bots":0,"server_type":"Dedicated","server_os":"Linux","password":true,"vac":true,"version":"7961495","steam_id":85568392924469999,"keywords":["cp","nocrits","nodmgspread","uncletopia"],"game_id":440,"stv_port":27016,"stv_name":"Uncletopia | San Francisco | 1 | All Maps | STV","players":[{"user_id":308,"name":"Me when tryhards kill me","steam_id":76561199209207003,"connected_time":1766000000000,"state":"active","ping":250},{"user_id":305,"name":"ohnocringe","steam_id":76561199381232082,"connected_time":3966000000000,"state":"active","ping":95},{"user_id":307,"name":"Petrivus","steam_id":76561198202152453,"connected_time":2440000000000,"state":"active","ping":70},{"user_id":309,"name":"spiderland","steam_id":76561198335992132,"connected_time":1361000000000,"state":"active","ping":52},{"user_id":313,"name":"Saggle","steam_id":76561198056075147,"connected_time":6000000000,"state":"spawning","ping":207},{"user_id":301,"name":"cofi","steam_id":76561198077504898,"connected_time":4764000000000,"state":"active","ping":110}]},{"server_id":18,"name":"Uncletopia | San Francisco | 2 | All Maps","name_short":"sfo-2","host":"sfo-1.us.uncletopia.com","port":27025,"enabled":true,"region":"us-west","cc":"us","latitude":37.77397,"longitude":-122.4313,"reserved":0,"last_update":"0001-01-01T00:00:00Z","name_a2s":"Uncletopia | San Francisco | 2 | All Maps","protocol":17,"map":"pl_pier","folder":"tf","game":"Team Fortress","app_id":440,"player_count":24,"max_players":24,"Bots":0,"server_type":"Dedicated","server_os":"Linux","password":true,"vac":true,"version":"7961495","steam_id":85568392924470000,"keywords":["nocrits","nodmgspread","payload","uncletopia"],"game_id":440,"stv_port":27026,"stv_name":"Uncletopia | San Francisco | 2 | All Maps | STV","players":[{"user_id":306,"name":"ronald","steam_id":76561197960691622,"connected_time":524000000000,"state":"active","ping":61},{"user_id":208,"name":"Spaceman Spiff","steam_id":76561198390326501,"connected_time":6697000000000,"state":"active","ping":99},{"user_id":240,"name":"enhanced with disney's FastPlay","steam_id":76561198164134387,"connected_time":5364000000000,"state":"active","ping":78},{"user_id":297,"name":"DW codeN1nj4","steam_id":76561198025558856,"connected_time":1346000000000,"state":"active","ping":86},{"user_id":302,"name":"KYBB","steam_id":76561198141390049,"connected_time":1187000000000,"state":"active","ping":71},{"user_id":307,"name":"SanitysEdge","steam_id":76561198130732813,"connected_time":497000000000,"state":"active","ping":52},{"user_id":207,"name":"[247]Cpl.A GlutenFreeStudmuffin","steam_id":76561198063189855,"connected_time":6707000000000,"state":"active","ping":94},{"user_id":283,"name":"Apex","steam_id":76561198039981618,"connected_time":2218000000000,"state":"active","ping":89},{"user_id":305,"name":"Main Opp","steam_id":76561198124910662,"connected_time":645000000000,"state":"active","ping":58},{"user_id":308,"name":"Agent Q","steam_id":76561198830829003,"connected_time":458000000000,"state":"active","ping":79},{"user_id":296,"name":"DWSkilltonTTV","steam_id":76561197967027880,"connected_time":1370000000000,"state":"active","ping":71},{"user_id":309,"name":"Medic Bag","steam_id":76561198403209900,"connected_time":451000000000,"state":"active","ping":104},{"user_id":279,"name":"Bolbi","steam_id":76561198051811597,"connected_time":2852000000000,"state":"active","ping":96},{"user_id":294,"name":"Havi","steam_id":76561198197832829,"connected_time":1398000000000,"state":"active","ping":80},{"user_id":303,"name":"Nukeboy","steam_id":76561198147058560,"connected_time":1180000000000,"state":"active","ping":82},{"user_id":300,"name":"Professional Virgin","steam_id":76561199074327402,"connected_time":1262000000000,"state":"active","ping":103},{"user_id":310,"name":"Poladroid","steam_id":76561198032005291,"connected_time":433000000000,"state":"active","ping":71},{"user_id":289,"name":"selling rice","steam_id":76561198063357023,"connected_time":2058000000000,"state":"active","ping":41},{"user_id":314,"name":"the cock","steam_id":76561198065153674,"connected_time":264000000000,"state":"active","ping":70},{"user_id":246,"name":"legalize nuclear bombs","steam_id":76561198418172095,"connected_time":5150000000000,"state":"active","ping":90},{"user_id":311,"name":"WomanRespecter","steam_id":76561199299653616,"connected_time":392000000000,"state":"active","ping":72},{"user_id":312,"name":"copper","steam_id":76561198146250533,"connected_time":378000000000,"state":"active","ping":55},{"user_id":281,"name":"zinnk","steam_id":76561198092081825,"connected_time":2243000000000,"state":"active","ping":40},{"user_id":313,"name":"dab","steam_id":76561197997990613,"connected_time":332000000000,"state":"active","ping":53}]},{"server_id":19,"name":"Uncletopia | San Francisco | 3 | Stopwatch","name_short":"sfo-3","host":"sfo-1.us.uncletopia.com","port":27035,"enabled":true,"region":"us-west","cc":"us","latitude":37.77397,"longitude":-122.4313,"reserved":0,"last_update":"0001-01-01T00:00:00Z","name_a2s":"Uncletopia | San Francisco | 3 | Stopwatch","protocol":17,"map":"workshop/koth_bagel_rc6.ugc2514036946","folder":"tf","game":"Team Fortress","app_id":440,"player_count":0,"max_players":24,"Bots":0,"server_type":"Dedicated","server_os":"Linux","password":true,"vac":true,"version":"7961495","steam_id":85568392924742824,"keywords":["cp","nocrits","nodmgspread","uncletopia"],"game_id":440,"stv_port":27036,"stv_name":"Uncletopia | San Francisco | 3 | Stopwatch | STV","players":null},{"server_id":20,"name":"Uncletopia | San Francisco | 4 | Community","name_short":"sfo-4","host":"sfo-1.us.uncletopia.com","port":27045,"enabled":true,"region":"us-west","cc":"us","latitude":37.77397,"longitude":-122.4313,"reserved":0,"last_update":"0001-01-01T00:00:00Z","name_a2s":"Uncletopia | San Francisco | 4 | Community","protocol":17,"map":"workshop/koth_trenchfoot_b1a.ugc731436616","folder":"tf","game":"Team Fortress","app_id":440,"player_count":24,"max_players":24,"Bots":0,"server_type":"Dedicated","server_os":"Linux","password":true,"vac":true,"version":"7961495","steam_id":85568392924742826,"keywords":["cp","nocrits","nodmgspread","uncletopia"],"game_id":440,"stv_port":27046,"stv_name":"Uncletopia | San Francisco | 4 | Community | STV","players":[{"user_id":114,"name":"NoUsername","steam_id":76561198057195438,"connected_time":3150000000000,"state":"active","ping":55},{"user_id":138,"name":"Gud","steam_id":76561198311369336,"connected_time":920000000000,"state":"active","ping":60},{"user_id":150,"name":"JohnnyGitGud","steam_id":76561198401455467,"connected_time":531000000000,"state":"active","ping":59},{"user_id":151,"name":"Antonpirulero10","steam_id":76561198253036781,"connected_time":416000000000,"state":"active","ping":84},{"user_id":156,"name":"Schizophrenic Lesbian","steam_id":76561198162559143,"connected_time":170000000000,"state":"active","ping":73},{"user_id":127,"name":"Retrace","steam_id":76561198080620966,"connected_time":1603000000000,"state":"active","ping":74},{"user_id":121,"name":"A doe","steam_id":76561199467334502,"connected_time":2077000000000,"state":"active","ping":45},{"user_id":128,"name":"Ice cream sandwich","steam_id":76561198172748357,"connected_time":1511000000000,"state":"active","ping":48},{"user_id":152,"name":"Dongus","steam_id":76561197979056451,"connected_time":276000000000,"state":"active","ping":74},{"user_id":153,"name":"對沖基金分析師","steam_id":76561198068672882,"connected_time":269000000000,"state":"active","ping":48},{"user_id":133,"name":"nowo","steam_id":76561198136078725,"connected_time":1233000000000,"state":"active","ping":83},{"user_id":129,"name":"unskilled_Twig","steam_id":76561199087437894,"connected_time":1476000000000,"state":"active","ping":118},{"user_id":89,"name":"Mom","steam_id":76561198207936000,"connected_time":6886000000000,"state":"active","ping":30},{"user_id":154,"name":"self sufficient kitten","steam_id":76561197960592612,"connected_time":246000000000,"state":"active","ping":76},{"user_id":131,"name":"Gerbias","steam_id":76561198001002427,"connected_time":1303000000000,"state":"active","ping":55},{"user_id":155,"name":"vvitch","steam_id":76561198279661941,"connected_time":244000000000,"state":"active","ping":62},{"user_id":157,"name":"Buddyram5","steam_id":76561198409858620,"connected_time":124000000000,"state":"active","ping":93},{"user_id":158,"name":"Jigg","steam_id":76561198051140705,"connected_time":50000000000,"state":"active","ping":70},{"user_id":140,"name":"Uluyo","steam_id":76561198065857148,"connected_time":876000000000,"state":"active","ping":70},{"user_id":141,"name":"your lost $20 pokemon card","steam_id":76561198853090480,"connected_time":867000000000,"state":"active","ping":110},{"user_id":145,"name":"big fish","steam_id":76561198186479818,"connected_time":687000000000,"state":"active","ping":70},{"user_id":148,"name":"type \"bad med\" to kick","steam_id":76561198076402476,"connected_time":626000000000,"state":"active","ping":70},{"user_id":149,"name":"Funkmaster yee","steam_id":76561198037738918,"connected_time":620000000000,"state":"active","ping":60}]},{"server_id":141,"name":"Uncletopia | Sydney | 1 | All Maps","name_short":"syd-1","host":"syd-1.au.uncletopia.com","port":27015,"enabled":true,"region":"au","cc":"au","latitude":-33.865143,"longitude":151.2099,"reserved":0,"last_update":"0001-01-01T00:00:00Z","name_a2s":"Uncletopia | Sydney | 1 | All Maps","protocol":17,"map":"pl_snowycoast","folder":"tf","game":"Team Fortress","app_id":440,"player_count":21,"max_players":24,"Bots":0,"server_type":"Dedicated","server_os":"Linux","password":true,"vac":true,"version":"7961495","steam_id":85568392924470001,"keywords":["nocrits","nodmgspread","payload","uncletopia"],"game_id":440,"stv_port":27016,"stv_name":"Uncletopia | Sydney | 1 | All Maps | STV","players":[{"user_id":34,"name":"N0thing_but_pure_lag_and_luck","steam_id":76561199002102933,"connected_time":3021000000000,"state":"active","ping":114},{"user_id":23,"name":"Mikey","steam_id":76561198438203131,"connected_time":3659000000000,"state":"active","ping":50},{"user_id":53,"name":"Phobia²","steam_id":76561198038833524,"connected_time":587000000000,"state":"active","ping":56},{"user_id":49,"name":"rudra","steam_id":76561198067731912,"connected_time":657000000000,"state":"active","ping":72},{"user_id":40,"name":"Brylan Bristopher Woods","steam_id":76561198203918281,"connected_time":1053000000000,"state":"active","ping":85},{"user_id":41,"name":"mickenpox","steam_id":76561198095840327,"connected_time":938000000000,"state":"active","ping":44},{"user_id":42,"name":"Victor","steam_id":76561198324441442,"connected_time":920000000000,"state":"active","ping":72},{"user_id":68,"name":"=S@G= Muhammad Ali Farooq","steam_id":76561198011029970,"connected_time":6000000000,"state":"spawning","ping":230},{"user_id":44,"name":"voxii","steam_id":76561198099698281,"connected_time":823000000000,"state":"active","ping":68},{"user_id":50,"name":"Turbo_dip","steam_id":76561198446508846,"connected_time":638000000000,"state":"active","ping":67},{"user_id":46,"name":"Muffin","steam_id":76561198075391119,"connected_time":779000000000,"state":"active","ping":50},{"user_id":47,"name":"Sliced Toast","steam_id":76561199220276252,"connected_time":767000000000,"state":"active","ping":106},{"user_id":51,"name":"Crimson Aurora","steam_id":76561198157492747,"connected_time":596000000000,"state":"active","ping":95},{"user_id":55,"name":"Cheese","steam_id":76561198862913374,"connected_time":555000000000,"state":"active","ping":54},{"user_id":66,"name":"your average trans girl","steam_id":76561198088390019,"connected_time":154000000000,"state":"active","ping":59},{"user_id":67,"name":"Grumbo","steam_id":76561198169116395,"connected_time":52000000000,"state":"active","ping":59},{"user_id":58,"name":"AuzzieMobBoss","steam_id":76561198348211733,"connected_time":476000000000,"state":"active","ping":131},{"user_id":60,"name":"Paper","steam_id":76561198041517737,"connected_time":425000000000,"state":"active","ping":39},{"user_id":61,"name":"Jman","steam_id":76561198353687857,"connected_time":394000000000,"state":"active","ping":72},{"user_id":62,"name":"Sparky","steam_id":76561198117687688,"connected_time":372000000000,"state":"active","ping":63},{"user_id":63,"name":"CheeseFlag126","steam_id":76561199262769917,"connected_time":361000000000,"state":"active","ping":71}]},{"server_id":123,"name":"Uncletopia | Sydney | 2 | All Maps","name_short":"syd-2","host":"syd-1.au.uncletopia.com","port":27025,"enabled":true,"region":"au","cc":"au","latitude":-33.865143,"longitude":151.2099,"reserved":0,"last_update":"0001-01-01T00:00:00Z","name_a2s":"Uncletopia | Sydney | 2 | All Maps","protocol":17,"map":"koth_highpass","folder":"tf","game":"Team Fortress","app_id":440,"player_count":0,"max_players":24,"Bots":0,"server_type":"Dedicated","server_os":"Linux","password":true,"vac":true,"version":"7961495","steam_id":85568392924470002,"keywords":["cp","nocrits","nodmgspread","uncletopia"],"game_id":440,"stv_port":27026,"stv_name":"Uncletopia | Sydney | 2 | All Maps | STV","players":null},{"server_id":395,"name":"Uncletopia | Sydney | 3 | All Maps","name_short":"syd-3","host":"syd-1.au.uncletopia.com","port":27035,"enabled":true,"region":"au","cc":"au","latitude":-33.865143,"longitude":151.2099,"reserved":0,"last_update":"0001-01-01T00:00:00Z","name_a2s":"Uncletopia | Sydney | 3 | All Maps","protocol":17,"map":"cp_dustbowl","folder":"tf","game":"Team Fortress","app_id":440,"player_count":0,"max_players":24,"Bots":0,"server_type":"Dedicated","server_os":"Linux","password":true,"vac":true,"version":"7961495","steam_id":85568392925194467,"keywords":["cp","nocrits","nodmgspread","uncletopia"],"game_id":440,"stv_port":27036,"stv_name":"Uncletopia | Sydney | 3 | All Maps | STV","players":null},{"server_id":396,"name":"Uncletopia | Sydney | 4 | All Maps","name_short":"syd-4","host":"syd-1.au.uncletopia.com","port":27045,"enabled":true,"region":"au","cc":"au","latitude":-33.865143,"longitude":151.2099,"reserved":0,"last_update":"0001-01-01T00:00:00Z","name_a2s":"Uncletopia | Sydney | 4 | All Maps","protocol":17,"map":"cp_snakewater_final1","folder":"tf","game":"Team Fortress","app_id":440,"player_count":0,"max_players":24,"Bots":0,"server_type":"Dedicated","server_os":"Linux","password":true,"vac":true,"version":"7961495","steam_id":85568392925397958,"keywords":["cp","nocrits","nodmgspread","uncletopia"],"game_id":440,"stv_port":27046,"stv_name":"Uncletopia | Sydney | 4 | All Maps | STV","players":null},{"server_id":58,"name":"Uncletopia | Sydney | 5 | Stopwatch","name_short":"syd-5","host":"syd-1.au.uncletopia.com","port":27055,"enabled":true,"region":"au","cc":"au","latitude":-33.865143,"longitude":151.2099,"reserved":0,"last_update":"0001-01-01T00:00:00Z","name_a2s":"Uncletopia | Sydney | 5 | Stopwatch","protocol":17,"map":"workshop/cp_reckoner_rc6.ugc674719999","folder":"tf","game":"Team Fortress","app_id":440,"player_count":0,"max_players":24,"Bots":0,"server_type":"Dedicated","server_os":"Linux","password":true,"vac":true,"version":"7961495","steam_id":85568392925397959,"keywords":["cp","nocrits","nodmgspread","uncletopia"],"game_id":440,"stv_port":27056,"stv_name":"Uncletopia | Sydney | 5 | Stopwatch | STV","players":null},{"server_id":59,"name":"Uncletopia | Sydney | 6 | Community","name_short":"syd-6","host":"syd-1.au.uncletopia.com","port":27065,"enabled":true,"region":"au","cc":"au","latitude":-33.865143,"longitude":151.2099,"reserved":0,"last_update":"0001-01-01T00:00:00Z","name_a2s":"Uncletopia | Sydney | 6 | Community","protocol":17,"map":"workshop/cp_fulgur_rc2a.ugc2068252300","folder":"tf","game":"Team Fortress","app_id":440,"player_count":0,"max_players":24,"Bots":0,"server_type":"Dedicated","server_os":"Linux","password":true,"vac":true,"version":"7961495","steam_id":85568392925397960,"keywords":["cp","nocrits","nodmgspread","uncletopia"],"game_id":440,"stv_port":27066,"stv_name":"Uncletopia | Sydney | 6 | Community | STV","players":null},{"server_id":49,"name":"Uncletopia | Warsaw | 1 | One Thousand Uncles","name_short":"waw-1","host":"waw-1.pl.uncletopia.com","port":27015,"enabled":true,"region":"eu","cc":"pl","latitude":52.2297,"longitude":21.017532,"reserved":0,"last_update":"0001-01-01T00:00:00Z","name_a2s":"Uncletopia | Warsaw | 1 | One Thousand Uncles","protocol":17,"map":"koth_highpass","folder":"tf","game":"Team Fortress","app_id":440,"player_count":0,"max_players":32,"Bots":0,"server_type":"Dedicated","server_os":"Linux","password":true,"vac":true,"version":"7961495","steam_id":85568392925397850,"keywords":["alltalk","cp","danepve","increased_maxplayers","nocrits","norespawntime","uncletopia"],"game_id":440,"stv_port":0,"stv_name":"","players":null},{"server_id":50,"name":"Uncletopia | Warsaw | 2 | One Thousand Uncles","name_short":"waw-2","host":"waw-1.pl.uncletopia.com","port":27025,"enabled":true,"region":"eu","cc":"pl","latitude":52.2297,"longitude":21.017532,"reserved":0,"last_update":"0001-01-01T00:00:00Z","name_a2s":"Uncletopia | Warsaw | 2 | One Thousand Uncles","protocol":17,"map":"pl_goldrush","folder":"tf","game":"Team Fortress","app_id":440,"player_count":0,"max_players":32,"Bots":0,"server_type":"Dedicated","server_os":"Linux","password":true,"vac":true,"version":"7961495","steam_id":85568392925397851,"keywords":["alltalk","danepve","increased_maxplayers","nocrits","norespawntime","payload","uncletopia"],"game_id":440,"stv_port":0,"stv_name":"","players":null},{"server_id":51,"name":"Uncletopia | Warsaw | 3 | All Maps","name_short":"waw-3","host":"waw-1.pl.uncletopia.com","port":27035,"enabled":true,"region":"eu","cc":"pl","latitude":52.2297,"longitude":21.017532,"reserved":0,"last_update":"0001-01-01T00:00:00Z","name_a2s":"Uncletopia | Warsaw | 3 | All Maps","protocol":17,"map":"plr_pipeline","folder":"tf","game":"Team Fortress","app_id":440,"player_count":0,"max_players":24,"Bots":0,"server_type":"Dedicated","server_os":"Linux","password":true,"vac":true,"version":"7961495","steam_id":85568392925397852,"keywords":["nocrits","nodmgspread","payload","uncletopia"],"game_id":440,"stv_port":27036,"stv_name":"Uncletopia | Warsaw | 3 | All Maps | STV","players":null},{"server_id":52,"name":"Uncletopia | Warsaw | 4 | All Maps","name_short":"waw-4","host":"waw-1.pl.uncletopia.com","port":27045,"enabled":true,"region":"eu","cc":"pl","latitude":52.2297,"longitude":21.017532,"reserved":0,"last_update":"0001-01-01T00:00:00Z","name_a2s":"Uncletopia | Warsaw | 4 | All Maps","protocol":17,"map":"cp_coldfront","folder":"tf","game":"Team Fortress","app_id":440,"player_count":0,"max_players":24,"Bots":0,"server_type":"Dedicated","server_os":"Linux","password":true,"vac":true,"version":"7961495","steam_id":85568392925397853,"keywords":["cp","nocrits","nodmgspread","uncletopia"],"game_id":440,"stv_port":27046,"stv_name":"Uncletopia | Warsaw | 4 | All Maps | STV","players":null},{"server_id":53,"name":"Uncletopia | Warsaw | 5 | Stopwatch","name_short":"waw-5","host":"waw-1.pl.uncletopia.com","port":27055,"enabled":true,"region":"eu","cc":"pl","latitude":52.2297,"longitude":21.017532,"reserved":0,"last_update":"0001-01-01T00:00:00Z","name_a2s":"Uncletopia | Warsaw | 5 | Stopwatch","protocol":17,"map":"workshop/koth_bagel_rc6.ugc2514036946","folder":"tf","game":"Team Fortress","app_id":440,"player_count":0,"max_players":24,"Bots":0,"server_type":"Dedicated","server_os":"Linux","password":true,"vac":true,"version":"7961495","steam_id":85568392925397854,"keywords":["cp","nocrits","nodmgspread","uncletopia"],"game_id":440,"stv_port":27056,"stv_name":"Uncletopia | Warsaw | 5 | Stopwatch | STV","players":null},{"server_id":54,"name":"Uncletopia | Warsaw | 6 | Community","name_short":"waw-6","host":"waw-1.pl.uncletopia.com","port":27065,"enabled":true,"region":"eu","cc":"pl","latitude":52.2297,"longitude":21.017532,"reserved":0,"last_update":"0001-01-01T00:00:00Z","name_a2s":"Uncletopia | Warsaw | 6 | Community","protocol":17,"map":"workshop/pl_badwater_pro_v12.ugc2142942074","folder":"tf","game":"Team Fortress","app_id":440,"player_count":0,"max_players":24,"Bots":0,"server_type":"Dedicated","server_os":"Linux","password":true,"vac":true,"version":"7961495","steam_id":85568392925397856,"keywords":["nocrits","nodmgspread","payload","uncletopia"],"game_id":440,"stv_port":27066,"stv_name":"Uncletopia | Warsaw | 6 | Community | STV","players":null}]}