{"status":true,"message":"","result":[{"server_id":9,"name":"Uncletopia | Atlanta | 1 | All Maps","name_short":"atl-1","host":"atl-1.us.uncletopia.com","port":27015,"enabled":true,"region":"us-east","cc":"us","latitude":33.753746,"longitude":-84.38633,"reserved":0,"last_update":"0001-01-01T00:00:00Z","name_a2s":"Uncletopia | Atlanta | 1 | All Maps","protocol":17,"map":"cp_snakewater_final1","folder":"tf","game":"Team Fortress","app_id":440,"player_count":23,"max_players":24,"Bots":0,"server_type":"Dedicated","server_os":"Linux","password":true,"vac":true,"version":"7961495","steam_id":85568392924469982,"keywords":["cp","nocrits","nodmgspread","uncletopia"],"game_id":440,"stv_port":27016,"stv_name":"Uncletopia | Atlanta | 1 | All Maps | STV","players":null},{"server_id":104,"name":"Uncletopia | Atlanta | 2 | All Maps","name_short":"atl-2","host":"atl-1.us.uncletopia.com","port":27025,"enabled":true,"region":"us-east","cc":"us","latitude":33.753746,"longitude":-84.38633,"reserved":0,"last_update":"0001-01-01T00:00:00Z","name_a2s":"Uncletopia | Atlanta | 2 | All Maps","protocol":17,"map":"pl_swiftwater_final1","folder":"tf","game":"Team Fortress","app_id":440,"player_count":21,"max_players":24,"Bots":0,"server_type":"Dedicated","server_os":"Linux","password":true,"vac":true,"version":"7961495","steam_id":85568392924469983,"keywords":["nocrits","nodmgspread","payload","uncletopia"],"game_id":440,"stv_port":27026,"stv_name":"Uncletopia | Atlanta | 2 | All Maps | STV","players":null},{"server_id":400,"name":"Uncletopia | Atlanta | 3 | Stopwatch","name_short":"atl-3","host":"atl-1.us.uncletopia.com","port":27035,"enabled":true,"region":"us-east","cc":"us","latitude":33.753746,"longitude":-84.38633,"reserved":0,"last_update":"0001-01-01T00:00:00Z","name_a2s":"Uncletopia | Atlanta | 3 | Stopwatch","protocol":17,"map":"pl_badwater","folder":"tf","game":"Team Fortress","app_id":440,"player_count":0,"max_players":24,"Bots":0,"server_type":"Dedicated","server_os":"Linux","password":true,"vac":true,"version":"7961495","steam_id":85568392924515187,"keywords":["nocrits","nodmgspread","payload","uncletopia"],"game_id":440,"stv_port":27036,"stv_name":"Uncletopia | Atlanta | 3 | Stopwatch | STV","players":null},{"server_id":401,"name":"Uncletopia | Atlanta | 4 | Community","name_short":"atl-4","host":"atl-1.us.uncletopia.com","port":27045,"enabled":true,"region":"us-east","cc":"us","latitude":33.753746,"longitude":-84.38633,"reserved":0,"last_update":"0001-01-01T00:00:00Z","name_a2s":"Uncletopia | Atlanta | 4 | Community","protocol":17,"map":"cp_caldera_rc2","folder":"tf","game":"Team Fortress","app_id":440,"player_count":0,"max_players":24,"Bots":0,"server_type":"Dedicated","server_os":"Linux","password":true,"vac":true,"version":"7961495","steam_id":85568392924515188,"keywords":["cp","nocrits","nodmgspread","uncletopia"],"game_id":440,"stv_port":27046,"stv_name":"Uncletopia | Atlanta | 4 | Community | STV","players":null},{"server_id":2,"name":"Uncletopia | Chicago | 1 | All Maps","name_short":"chi-1","host":"chi-1.us.uncletopia.com","port":27015,"enabled":true,"region":"us-central","cc":"us","latitude":41.881832,"longitude":-87.62318,"reserved":0,"last_update":"0001-01-01T00:00:00Z","name_a2s":"Uncletopia | Chicago | 1 | All Maps","protocol":17,"map":"pl_upward","folder":"tf","game":"Team Fortress","app_id":440,"player_count":22,"max_players":24,"Bots":0,"server_type":"Dedicated","server_os":"Linux","password":true,"vac":true,"version":"7961495","steam_id":85568392924469984,"keywords":["nocrits","nodmgspread","payload","uncletopia"],"game_id":440,"stv_port":27016,"stv_name":"Uncletopia | Chicago | 1 | All Maps | STV","players":[{"user_id":1006,"name":"subdromeda","steam_id":76561198884351860,"connected_time":5070000000000,"state":"active","ping":59},{"user_id":1062,"name":"geronimo","steam_id":76561198842674869,"connected_time":1299000000000,"state":"active","ping":59},{"user_id":1077,"name":"cheesebro","steam_id":76561198002072852,"connected_time":556000000000,"state":"active","ping":93},{"user_id":1058,"name":"Halfy","steam_id":76561198086809084,"connected_time":1541000000000,"state":"active","ping":61},{"user_id":1064,"name":"hamletespacial","steam_id":76561199084414649,"connected_time":1231000000000,"state":"active","ping":51},{"user_id":1059,"name":"Deantallica","steam_id":76561198287223999,"connected_time":1529000000000,"state":"active","ping":73},{"user_id":1065,"name":"the master of cats","steam_id":76561198819255576,"connected_time":1229000000000,"state":"active","ping":98},{"user_id":1072,"name":"johnny nicklenuts","steam_id":76561198361326855,"connected_time":639000000000,"state":"active","ping":45},{"user_id":1073,"name":"NjoKuAni","steam_id":76561199061380038,"connected_time":633000000000,"state":"active","ping":59},{"user_id":1066,"name":"GoldtoothFour","steam_id":76561198055529332,"connected_time":1205000000000,"state":"active","ping":53},{"user_id":1067,"name":"Tibalt Nyahuma","steam_id":76561198034779431,"connected_time":1158000000000,"state":"active","ping":72},{"user_id":1076,"name":"OrangeSodaMachine","steam_id":76561198079230156,"connected_time":581000000000,"state":"active","ping":75},{"user_id":1054,"name":"BurritoCat","steam_id":76561198059822805,"connected_time":2248000000000,"state":"active","ping":95},{"user_id":1057,"name":"mcjuice","steam_id":76561198087730829,"connected_time":1924000000000,"state":"active","ping":69},{"user_id":1074,"name":"LivingRaccoon","steam_id":76561198035425632,"connected_time":605000000000,"state":"active","ping":107},{"user_id":1055,"name":"i suffer from ligma","steam_id":76561199158496518,"connected_time":2238000000000,"state":"active","ping":115},{"user_id":1056,"name":"REspecWizard","steam_id":76561198097950624,"connected_time":2201000000000,"state":"active","ping":107},{"user_id":1069,"name":"Octto","steam_id":76561198070124921,"connected_time":875000000000,"state":"active","ping":64},{"user_id":1075,"name":"Wang of Wall St","steam_id":76561198047460598,"connected_time":585000000000,"state":"active","ping":80},{"user_id":1078,"name":"BigNugs","steam_id":76561198056402610,"connected_time":546000000000,"state":"active","ping":71},{"user_id":1079,"name":"Billychicken54","steam_id":76561198022365463,"connected_time":506000000000,"state":"active","ping":55},{"user_id":1080,"name":"Pablo Johnson","steam_id":76561199009805208,"connected_time":489000000000,"state":"active","ping":181}]},{"server_id":106,"name":"Uncletopia | Chicago | 2 | All Maps","name_short":"chi-2","host":"chi-1.us.uncletopia.com","port":27025,"enabled":true,"region":"us-central","cc":"us","latitude":41.881832,"longitude":-87.62318,"reserved":0,"last_update":"0001-01-01T00:00:00Z","name_a2s":"Uncletopia | Chicago | 2 | All Maps","protocol":17,"map":"koth_viaduct","folder":"tf","game":"Team Fortress","app_id":440,"player_count":0,"max_players":24,"Bots":0,"server_type":"Dedicated","server_os":"Linux","password":true,"vac":true,"version":"7961495","steam_id":85568392924469985,"keywords":["cp","nocrits","nodmgspread","uncletopia"],"game_id":440,"stv_port":27026,"stv_name":"Uncletopia | Chicago | 2 | All Maps | STV","players":null},{"server_id":402,"name":"Uncletopia | Chicago | 3 | All Maps","name_short":"chi-3","host":"chi-1.us.uncletopia.com","port":27035,"enabled":true,"region":"us-central","cc":"us","latitude":41.881832,"longitude":-87.62318,"reserved":0,"last_update":"0001-01-01T00:00:00Z","name_a2s":"Uncletopia | Chicago | 3 | All Maps","protocol":17,"map":"pl_badwater","folder":"tf","game":"Team Fortress","app_id":440,"player_count":24,"max_players":24,"Bots":0,"server_type":"Dedicated","server_os":"Linux","password":true,"vac":true,"version":"7961495","steam_id":85568392924515191,"keywords":["nocrits","nodmgspread","payload","uncletopia"],"game_id":440,"stv_port":27036,"stv_name":"Uncletopia | Chicago | 3 | All Maps | STV","players":[{"user_id":546,"name":"SpockASD","steam_id":76561198307516731,"connected_time":1024000000000,"state":"active","ping":77},{"user_id":547,"name":"Manly Emerald","steam_id":76561198245838476,"connected_time":958000000000,"state":"active","ping":55},{"user_id":548,"name":"Whatsapp Spy","steam_id":76561198085410969,"connected_time":941000000000,"state":"active","ping":47},{"user_id":549,"name":"storyboard","steam_id":76561199088496817,"connected_time":934000000000,"state":"active","ping":77},{"user_id":528,"name":"Garfelf","steam_id":76561198419850129,"connected_time":3252000000000,"state":"active","ping":131},{"user_id":539,"name":"badboy6996","steam_id":76561197969386201,"connected_time":1544000000000,"state":"active","ping":57},{"user_id":541,"name":"hej","steam_id":76561198110530761,"connected_time":1330000000000,"state":"active","ping":136},{"user_id":560,"name":"totoro","steam_id":76561198210420871,"connected_time":176000000000,"state":"active","ping":43},{"user_id":530,"name":"Furry Saul Goodman","steam_id":76561198069580305,"connected_time":3175000000000,"state":"active","ping":55},{"user_id":557,"name":"rice white","steam_id":76561198320732910,"connected_time":711000000000,"state":"active","ping":74},{"user_id":538,"name":"B4NNY UNIVERSITY GRADUATE","steam_id":76561198144766439,"connected_time":2014000000000,"state":"active","ping":47},{"user_id":550,"name":"balls","steam_id":76561198164619692,"connected_time":900000000000,"state":"active","ping":90},{"user_id":531,"name":"Chezburgures","steam_id":76561198173043730,"connected_time":3168000000000,"state":"active","ping":94},{"user_id":551,"name":"Hey","steam_id":76561198447517893,"connected_time":891000000000,"state":"active","ping":64},{"user_id":498,"name":"cotton candy ghooost","steam_id":76561198058998371,"connected_time":5570000000000,"state":"active","ping":69},{"user_id":555,"name":"BigDeac","steam_id":76561198091237274,"connected_time":786000000000,"state":"active","ping":58},{"user_id":494,"name":"wheat","steam_id":76561197971158435,"connected_time":5738000000000,"state":"active","ping":59},{"user_id":535,"name":"Breadboy","steam_id":76561199092359175,"connected_time":2826000000000,"state":"active","ping":72},{"user_id":350,"name":"sooty","steam_id":76561198830243167,"connected_time":13345000000000,"state":"active","ping":65},{"user_id":559,"name":"Aviastur","steam_id":76561198066776250,"connected_time":249000000000,"state":"active","ping":65},{"user_id":376,"name":"lalalemons","steam_id":76561198243965308,"connected_time":11944000000000,"state":"active","ping":70},{"user_id":540,"name":"sheep","steam_id":76561198994761483,"connected_time":1537000000000,"state":"active","ping":75},{"user_id":536,"name":"TheKyleB","steam_id":76561198202515104,"connected_time":2772000000000,"state":"active","ping":38},{"user_id":500,"name":"dunk","steam_id":76561198132476501,"connected_time":5401000000000,"state":"active","ping":55}]},{"server_id":403,"name":"Uncletopia | Chicago | 4 | All Maps","name_short":"chi-4","host":"chi-1.us.uncletopia.com","port":27045,"enabled":true,"region":"us-central","cc":"us","latitude":41.881832,"longitude":-87.62318,"reserved":0,"last_update":"0001-01-01T00:00:00Z","name_a2s":"Uncletopia | Chicago | 4 | All Maps","protocol":17,"map":"pl_upward","folder":"tf","game":"Team Fortress","app_id":440,"player_count":23,"max_players":24,"Bots":0,"server_type":"Dedicated","server_os":"Linux","password":true,"vac":true,"version":"7961495","steam_id":85568392924515193,"keywords":["nocrits","nodmgspread","payload","uncletopia"],"game_id":440,"stv_port":27046,"stv_name":"Uncletopia | Chicago | 4 | All Maps | STV","players":[{"user_id":337,"name":"Mr. Meow II","steam_id":76561199476440897,"connected_time":803000000000,"state":"active","ping":74},{"user_id":335,"name":"Llama gaming","steam_id":76561199096881883,"connected_time":1083000000000,"state":"active","ping":66},{"user_id":339,"name":"Bryguy","steam_id":76561198092096120,"connected_time":763000000000,"state":"active","ping":42},{"user_id":338,"name":"Danny Phanny","steam_id":76561199123135608,"connected_time":785000000000,"state":"active","ping":75},{"user_id":336,"name":"Grand Wizard King","steam_id":76561198099802660,"connected_time":1006000000000,"state":"active","ping":73},{"user_id":323,"name":"Natsuki the Scunt","steam_id":76561199175922684,"connected_time":1872000000000,"state":"active","ping":99},{"user_id":340,"name":"Major_Pippy","steam_id":76561198004482878,"connected_time":683000000000,"state":"active","ping":97},{"user_id":341,"name":"microninjeez","steam_id":76561198074936422,"connected_time":570000000000,"state":"active","ping":54},{"user_id":333,"name":"Marble Eating Contest","steam_id":76561198037072888,"connected_time":1198000000000,"state":"active","ping":46},{"user_id":358,"name":"Shotaway's Kitten","steam_id":76561198284226688,"connected_time":49000000000,"state":"active","ping":60},{"user_id":324,"name":"The Rock","steam_id":76561198433328517,"connected_time":1825000000000,"state":"active","ping":66},{"user_id":343,"name":"Bon Gripper","steam_id":76561198090074621,"connected_time":454000000000,"state":"active","ping":42},{"user_id":299,"name":"alN","steam_id":76561198329171346,"connected_time":3339000000000,"state":"active","ping":47},{"user_id":348,"name":"✪ dSaner -iwnl-","steam_id":76561198082291174,"connected_time":206000000000,"state":"active","ping":60},{"user_id":349,"name":"Sovereign","steam_id":76561198018841787,"connected_time":200000000000,"state":"active","ping":90},{"user_id":346,"name":"Gibus Man","steam_id":76561198257241062,"connected_time":275000000000,"state":"active","ping":94},{"user_id":352,"name":"Bearegard","steam_id":76561198061926542,"connected_time":168000000000,"state":"active","ping":68},{"user_id":353,"name":"realCptJack","steam_id":76561198021082168,"connected_time":167000000000,"state":"active","ping":66},{"user_id":334,"name":"8o8","steam_id":76561198996923332,"connected_time":1114000000000,"state":"active","ping":90},{"user_id":331,"name":"Asbestos McFlave","steam_id":76561198001136560,"connected_time":1504000000000,"state":"active","ping":75},{"user_id":354,"name":"sherlock gnomes","steam_id":76561198050681704,"connected_time":166000000000,"state":"active","ping":60},{"user_id":355,"name":"\u003c3","steam_id":76561198065872641,"connected_time":160000000000,"state":"active","ping":114},{"user_id":356,"name":"(TPT) Ghost","steam_id":76561198123262873,"connected_time":149000000000,"state":"active","ping":116}]},{"server_id":36,"name":"Uncletopia | Chicago | 5 | All Maps","name_short":"chi-5","host":"chi-2.us.uncletopia.com","port":27015,"enabled":true,"region":"us-central","cc":"us","latitude":41.881832,"longitude":-87.62318,"reserved":0,"last_update":"0001-01-01T00:00:00Z","name_a2s":"Uncletopia | Chicago | 5 | All Maps","protocol":17,"map":"cp_mountainlab","folder":"tf","game":"Team Fortress","app_id":440,"player_count":0,"max_players":24,"Bots":0,"server_type":"Dedicated","server_os":"Linux","password":true,"vac":true,"version":"7961495","steam_id":85568392924866362,"keywords":["cp","nocrits","nodmgspread","uncletopia"],"game_id":440,"stv_port":27016,"stv_name":"Uncletopia | Chicago | 5 | All Maps | STV","players":null},{"server_id":37,"name":"Uncletopia | Chicago | 6 | All Maps","name_short":"chi-6","host":"chi-2.us.uncletopia.com","port":27025,"enabled":true,"region":"us-central","cc":"us","latitude":41.881832,"longitude":-87.62318,"reserved":0,"last_update":"0001-01-01T00:00:00Z","name_a2s":"Uncletopia | Chicago | 6 | All Maps","protocol":17,"map":"pl_barnblitz","folder":"tf","game":"Team Fortress","app_id":440,"player_count":0,"max_players":24,"Bots":0,"server_type":"Dedicated","server_os":"Linux","password":true,"vac":true,"version":"7961495","steam_id":85568392924866363,"keywords":["nocrits","nodmgspread","payload","uncletopia"],"game_id":440,"stv_port":27026,"stv_name":"Uncletopia | Chicago | 6 | All Maps | STV","players":null},{"server_id":38,"name":"Uncletopia | Chicago | 7 | Stopwatch","name_short":"chi-7","host":"chi-2.us.uncletopia.com","port":27035,"enabled":true,"region":"us-central","cc":"us","latitude":41.881832,"longitude":-87.62318,"reserved":0,"last_update":"0001-01-01T00:00:00Z","name_a2s":"Uncletopia | Chicago | 7 | Stopwatch","protocol":17,"map":"workshop/koth_ramjam_rc1.ugc459778887","folder":"tf","game":"Team Fortress","app_id":440,"player_count":1,"max_players":24,"Bots":0,"server_type":"Dedicated","server_os":"Linux","password":true,"vac":true,"version":"7961495","steam_id":85568392924866364,"keywords":["cp","nocrits","nodmgspread","uncletopia"],"game_id":440,"stv_port":27036,"stv_name":"Uncletopia | Chicago | 7 | Stopwatch | STV","players":[{"user_id":23,"name":"Scrappy J. Dogwater","steam_id":76561199419345617,"connected_time":3788000000000,"state":"active","ping":63}]},{"server_id":39,"name":"Uncletopia | Chicago | 8 | Community","name_short":"chi-8","host":"chi-2.us.uncletopia.com","port":27045,"enabled":true,"region":"us-central","cc":"us","latitude":41.881832,"longitude":-87.62318,"reserved":0,"last_update":"0001-01-01T00:00:00Z","name_a2s":"Uncletopia | Chicago | 8 | Community","protocol":17,"map":"workshop/pl_eruption_b9a.ugc2807898013","folder":"tf","game":"Team Fortress","app_id":440,"player_count":21,"max_players":24,"Bots":0,"server_type":"Dedicated","server_os":"Linux","password":true,"vac":true,"version":"7961495","steam_id":85568392924866365,"keywords":["nocrits","nodmgspread","payload","uncletopia"],"game_id":440,"stv_port":27046,"stv_name":"Uncletopia | Chicago | 8 | Community | STV","players":[{"user_id":240,"name":"Knooper","steam_id":76561198096149824,"connected_time":2712000000000,"state":"active","ping":116},{"user_id":256,"name":"debin","steam_id":76561198070711217,"connected_time":225000000000,"state":"active","ping":47},{"user_id":254,"name":"Hidden Phantom","steam_id":76561198115531799,"connected_time":626000000000,"state":"active","ping":74},{"user_id":237,"name":"Generic Name","steam_id":76561198094225684,"connected_time":2980000000000,"state":"active","ping":76},{"user_id":238,"name":"Catfish","steam_id":76561198088009583,"connected_time":2980000000000,"state":"active","ping":67},{"user_id":257,"name":"Scrumpy Main","steam_id":76561198146302597,"connected_time":121000000000,"state":"active","ping":52},{"user_id":191,"name":"Acorn","steam_id":76561198353480153,"connected_time":5637000000000,"state":"active","ping":57},{"user_id":192,"name":"Edgy Haunter","steam_id":76561199029162264,"connected_time":5611000000000,"state":"active","ping":73},{"user_id":258,"name":"Nortel Network Telephone T7316","steam_id":76561198399261089,"connected_time":66000000000,"state":"active","ping":87},{"user_id":198,"name":"Sleempreem","steam_id":76561198131987251,"connected_time":5173000000000,"state":"active","ping":99},{"user_id":199,"name":"Grandpa 1MinecraftEmpire","steam_id":76561198069046338,"connected_time":5167000000000,"state":"active","ping":67},{"user_id":200,"name":"Fluffy","steam_id":76561198213561811,"connected_time":5134000000000,"state":"active","ping":99},{"user_id":243,"name":"euphoricfilth","steam_id":76561198100160865,"connected_time":2014000000000,"state":"active","ping":61},{"user_id":227,"name":"CACTUS","steam_id":76561198327863229,"connected_time":3916000000000,"state":"active","ping":98},{"user_id":235,"name":"Gram Tokers Count Doinkula","steam_id":76561198112811565,"connected_time":3058000000000,"state":"active","ping":74},{"user_id":244,"name":"Just washed","steam_id":76561199030160932,"connected_time":2011000000000,"state":"active","ping":76},{"user_id":216,"name":"BigButteryCrepes","steam_id":76561199153649549,"connected_time":4529000000000,"state":"active","ping":98},{"user_id":230,"name":"⊰Aero⊱","steam_id":76561198084648457,"connected_time":3794000000000,"state":"active","ping":60},{"user_id":247,"name":"I'm Only 4 Inches","steam_id":76561198055542546,"connected_time":1836000000000,"state":"active","ping":65},{"user_id":233,"name":"NOLSEY","steam_id":76561198108959504,"connected_time":3183000000000,"state":"active","ping":46},{"user_id":222,"name":"Cooler Ye","steam_id":76561198068830312,"connected_time":4396000000000,"state":"active","ping":45}]},{"server_id":8,"name":"Uncletopia | Dallas | 1 | All Maps","name_short":"dal-1","host":"dal-1.us.uncletopia.com","port":27015,"enabled":true,"region":"us-central","cc":"us","latitude":32.779167,"longitude":-96.80889,"reserved":0,"last_update":"0001-01-01T00:00:00Z","name_a2s":"Uncletopia | Dallas | 1 | All Maps","protocol":17,"map":"cp_process_final","folder":"tf","game":"Team Fortress","app_id":440,"player_count":24,"max_players":24,"Bots":0,"server_type":"Dedicated","server_os":"Linux","password":true,"vac":true,"version":"7961495","steam_id":85568392924469986,"keywords":["cp","nocrits","nodmgspread","uncletopia"],"game_id":440,"stv_port":27016,"stv_name":"Uncletopia | Dallas | 1 | All Maps | STV","players":[{"user_id":517,"name":"bulbasaur890","steam_id":76561198093443639,"connected_time":813000000000,"state":"active","ping":51},{"user_id":518,"name":"rusofdog","steam_id":76561198411224235,"connected_time":722000000000,"state":"active","ping":92},{"user_id":458,"name":"HUESO","steam_id":76561198276383681,"connected_time":5951000000000,"state":"active","ping":87},{"user_id":499,"name":"Panckakebro","steam_id":76561198106419992,"connected_time":2559000000000,"state":"active","ping":60},{"user_id":488,"name":"BULLSHIT MATADOR","steam_id":76561198044488913,"connected_time":2828000000000,"state":"active","ping":62},{"user_id":494,"name":"The Biggest Sandwich","steam_id":76561198043876800,"connected_time":2686000000000,"state":"active","ping":60},{"user_id":511,"name":"Moffein","steam_id":76561198016739296,"connected_time":1734000000000,"state":"active","ping":80},{"user_id":515,"name":"uhooter","steam_id":76561198007829078,"connected_time":1270000000000,"state":"active","ping":76},{"user_id":519,"name":"frank","steam_id":76561198137777483,"connected_time":720000000000,"state":"active","ping":88},{"user_id":506,"name":"Dick Grimes","steam_id":76561198157414556,"connected_time":2423000000000,"state":"active","ping":86},{"user_id":445,"name":"ghor","steam_id":76561197994547132,"connected_time":6811000000000,"state":"active","ping":92},{"user_id":526,"name":"Tetris Speedrunner","steam_id":76561198984917566,"connected_time":64000000000,"state":"active","ping":61},{"user_id":512,"name":"Mr.Nostalgic","steam_id":76561198083240822,"connected_time":1614000000000,"state":"active","ping":90},{"user_id":482,"name":"Username","steam_id":76561198198918781,"connected_time":3758000000000,"state":"active","ping":98},{"user_id":523,"name":"PTR","steam_id":76561198237253772,"connected_time":625000000000,"state":"active","ping":53},{"user_id":507,"name":"Ricochet Pro","steam_id":76561198005328215,"connected_time":2216000000000,"state":"active","ping":74},{"user_id":370,"name":"BADWOLF42","steam_id":76561198055447523,"connected_time":11362000000000,"state":"active","ping":53},{"user_id":493,"name":"Squiliam","steam_id":76561198025278006,"connected_time":2694000000000,"state":"active","ping":45},{"user_id":522,"name":"Charles","steam_id":76561198155322277,"connected_time":660000000000,"state":"active","ping":90},{"user_id":471,"name":"Oops","steam_id":76561198015032646,"connected_time":5072000000000,"state":"active","ping":76},{"user_id":521,"name":"Kuyumiester","steam_id":76561198126835302,"connected_time":683000000000,"state":"active","ping":63},{"user_id":514,"name":"lasagnalarry12","steam_id":76561198162688146,"connected_time":1437000000000,"state":"active","ping":87},{"user_id":525,"name":"DuckMaster","steam_id":76561199099069161,"connected_time":271000000000,"state":"active","ping":45},{"user_id":524,"name":"Starkiller","steam_id":76561198101643120,"connected_time":499000000000,"state":"active","ping":101}]},{"server_id":108,"name":"Uncletopia | Dallas | 2 | All Maps","name_short":"dal-2","host":"dal-1.us.uncletopia.com","port":27025,"enabled":true,"region":"us-central","cc":"us","latitude":32.779167,"longitude":-96.80889,"reserved":0,"last_update":"0001-01-01T00:00:00Z","name_a2s":"Uncletopia | Dallas | 2 | All Maps","protocol":17,"map":"pl_borneo","folder":"tf","game":"Team Fortress","app_id":440,"player_count":4,"max_players":24,"Bots":0,"server_type":"Dedicated","server_os":"Linux","password":true,"vac":true,"version":"7961495","steam_id":85568392924469988,"keywords":["nocrits","nodmgspread","payload","uncletopia"],"game_id":440,"stv_port":27026,"stv_name":"Uncletopia | Dallas | 2 | All Maps | STV","players":[{"user_id":353,"name":"Burny Sanders","steam_id":76561197961879048,"connected_time":4939000000000,"state":"active","ping":44},{"user_id":356,"name":"PhattyPhlop","steam_id":76561198153349473,"connected_time":4758000000000,"state":"active","ping":54},{"user_id":262,"name":"unlikelycure","steam_id":76561199174450788,"connected_time":11303000000000,"state":"active","ping":93},{"user_id":408,"name":"mmmmmmmmmmmmmmmmmm","steam_id":76561199267742979,"connected_time":1281000000000,"state":"active","ping":84}]},{"server_id":404,"name":"Uncletopia | Dallas | 3 | All Maps","name_short":"dal-3","host":"dal-1.us.uncletopia.com","port":27035,"enabled":true,"region":"us-central","cc":"us","latitude":32.779167,"longitude":-96.80889,"reserved":0,"last_update":"0001-01-01T00:00:00Z","name_a2s":"Uncletopia | Dallas | 3 | All Maps","protocol":17,"map":"pl_snowycoast","folder":"tf","game":"Team Fortress","app_id":440,"player_count":24,"max_players":24,"Bots":0,"server_type":"Dedicated","server_os":"Linux","password":true,"vac":true,"version":"7961495","steam_id":85568392924515219,"keywords":["nocrits","nodmgspread","payload","uncletopia"],"game_id":440,"stv_port":27036,"stv_name":"Uncletopia | Dallas | 3 | All Maps | STV","players":[{"user_id":737,"name":"GrimComic1","steam_id":76561198421268776,"connected_time":1240000000000,"state":"active","ping":58},{"user_id":742,"name":"mac wit the chicken strips","steam_id":76561198257668336,"connected_time":871000000000,"state":"active","ping":49},{"user_id":721,"name":"Cursed","steam_id":76561199161458959,"connected_time":2136000000000,"state":"active","ping":79},{"user_id":746,"name":"Bayagototh","steam_id":76561198198137847,"connected_time":260000000000,"state":"active","ping":83},{"user_id":732,"name":"The Caretaker","steam_id":76561198125241411,"connected_time":1574000000000,"state":"active","ping":135},{"user_id":728,"name":"Foxer57","steam_id":76561197998108860,"connected_time":1686000000000,"state":"active","ping":80},{"user_id":735,"name":"Jam Jams","steam_id":76561198128811267,"connected_time":1287000000000,"state":"active","ping":111},{"user_id":748,"name":"Bark Soul","steam_id":76561198061791538,"connected_time":117000000000,"state":"active","ping":113},{"user_id":700,"name":"GreekYogurt","steam_id":76561198037671890,"connected_time":4864000000000,"state":"active","ping":87},{"user_id":736,"name":"Devoid","steam_id":76561198254039012,"connected_time":1255000000000,"state":"active","ping":69},{"user_id":697,"name":"Handsome Pete","steam_id":76561198003224229,"connected_time":5128000000000,"state":"active","ping":99},{"user_id":724,"name":"Seskova","steam_id":76561198090207032,"connected_time":1810000000000,"state":"active","ping":116},{"user_id":654,"name":"CabezaGrande","steam_id":76561197972555502,"connected_time":8096000000000,"state":"active","ping":88},{"user_id":655,"name":"Chicken","steam_id":76561198855273194,"connected_time":8092000000000,"state":"active","ping":75},{"user_id":725,"name":"leopardo123atl","steam_id":76561198872648238,"connected_time":1806000000000,"state":"active","ping":74},{"user_id":726,"name":"BOB","steam_id":76561198000787196,"connected_time":1786000000000,"state":"active","ping":152},{"user_id":716,"name":"Ranch","steam_id":76561198035557013,"connected_time":3107000000000,"state":"active","ping":72},{"user_id":738,"name":"pigswill","steam_id":76561197999081865,"connected_time":1230000000000,"state":"active","ping":96},{"user_id":749,"name":"CandorDanceFloor","steam_id":76561198062980511,"connected_time":49000000000,"state":"active","ping":99},{"user_id":715,"name":"Whole Lotta VTEC","steam_id":76561198926416886,"connected_time":3178000000000,"state":"active","ping":66},{"user_id":730,"name":"Sovulous","steam_id":76561198045389233,"connected_time":1650000000000,"state":"active","ping":100},{"user_id":581,"name":"40000 bees in a trench coat","steam_id":76561198240919690,"connected_time":10601000000000,"state":"active","ping":73},{"user_id":739,"name":"Fewny","steam_id":76561198225977000,"connected_time":1135000000000,"state":"active","ping":66},{"user_id":744,"name":"glizzy gladiator","steam_id":76561199028538939,"connected_time":840000000000,"state":"active","ping":96}]},{"server_id":405,"name":"Uncletopia | Dallas | 4 | Community","name_short":"dal-4","host":"dal-1.us.uncletopia.com","port":27045,"enabled":true,"region":"us-central","cc":"us","latitude":32.779167,"longitude":-96.80889,"reserved":0,"last_update":"0001-01-01T00:00:00Z","name_a2s":"Uncletopia | Dallas | 4 | Community","protocol":17,"map":"workshop/rd_asteroid_redux_b1.ugc2154902912","folder":"tf","game":"Team Fortress","app_id":440,"player_count":0,"max_players":24,"Bots":0,"server_type":"Dedicated","server_os":"Linux","password":true,"vac":true,"version":"7961495","steam_id":85568392924515220,"keywords":["beta","nocrits","nodmgspread","rd","uncletopia"],"game_id":440,"stv_port":27046,"stv_name":"Uncletopia | Dallas | 4 | Community | STV","players":null},{"server_id":5,"name":"Uncletopia | Frankfurt | 1 | All Maps","name_short":"frk-1","host":"frk-1.de.uncletopia.com","port":27015,"enabled":true,"region":"eu","cc":"de","latitude":50.110924,"longitude":8.682127,"reserved":0,"last_update":"0001-01-01T00:00:00Z","name_a2s":"Uncletopia | Frankfurt | 1 | All Maps","protocol":17,"map":"koth_highpass","folder":"tf","game":"Team Fortress","app_id":440,"player_count":0,"max_players":24,"Bots":0,"server_type":"Dedicated","server_os":"Linux","password":true,"vac":true,"version":"7961495","steam_id":85568392924469989,"keywords":["cp","nocrits","nodmgspread","uncletopia"],"game_id":440,"stv_port":27016,"stv_name":"Uncletopia | Frankfurt | 1 | All Maps | STV","players":null},{"server_id":110,"name":"Uncletopia | Frankfurt | 2 | All Maps","name_short":"frk-2","host":"frk-1.de.uncletopia.com","port":27025,"enabled":true,"region":"eu","cc":"de","latitude":50.110924,"longitude":8.682127,"reserved":0,"last_update":"0001-01-01T00:00:00Z","name_a2s":"Uncletopia | Frankfurt | 2 | All Maps","protocol":17,"map":"cp_dustbowl","folder":"tf","game":"Team Fortress","app_id":440,"player_count":0,"max_players":24,"Bots":0,"server_type":"Dedicated","server_os":"Linux","password":true,"vac":true,"version":"7961495","steam_id":85568392924469990,"keywords":["cp","nocrits","nodmgspread","uncletopia"],"game_id":440,"stv_port":27026,"stv_name":"Uncletopia | Frankfurt | 2 | All Maps | STV","players":null},{"server_id":308,"name":"Uncletopia | Frankfurt | 3 | All Maps","name_short":"frk-3","host":"frk-1.de.uncletopia.com","port":27035,"enabled":true,"region":"eu","cc":"de","latitude":50.110924,"longitude":8.682127,"reserved":0,"last_update":"0001-01-01T00:00:00Z","name_a2s":"Uncletopia | Frankfurt | 3 | All Maps","protocol":17,"map":"pl_barnblitz","folder":"tf","game":"Team Fortress","app_id":440,"player_count":0,"max_players":24,"Bots":0,"server_type":"Dedicated","server_os":"Linux","password":true,"vac":true,"version":"7961495","steam_id":85568392924504274,"keywords":["nocrits","nodmgspread","payload","uncletopia"],"game_id":440,"stv_port":27036,"stv_name":"Uncletopia | Frankfurt | 3 | All Maps | STV","players":null},{"server_id":309,"name":"Uncletopia | Frankfurt | 4 | All Maps","name_short":"frk-4","host":"frk-1.de.uncletopia.com","port":27045,"enabled":true,"region":"eu","cc":"de","latitude":50.110924,"longitude":8.682127,"reserved":0,"last_update":"0001-01-01T00:00:00Z","name_a2s":"Uncletopia | Frankfurt | 4 | All Maps","protocol":17,"map":"koth_highpass","folder":"tf","game":"Team Fortress","app_id":440,"player_count":0,"max_players":24,"Bots":0,"server_type":"Dedicated","server_os":"Linux","password":true,"vac":true,"version":"7961495","steam_id":85568392924504275,"keywords":["cp","nocrits","nodmgspread","uncletopia"],"game_id":440,"stv_port":27046,"stv_name":"Uncletopia | Frankfurt | 4 | All Maps | STV","players":null},{"server_id":310,"name":"Uncletopia | Frankfurt | 5 | All Maps","name_short":"frk-5","host":"frk-1.de.uncletopia.com","port":27055,"enabled":true,"region":"eu","cc":"de","latitude":50.110924,"longitude":8.682127,"reserved":0,"last_update":"0001-01-01T00:00:00Z","name_a2s":"Uncletopia | Frankfurt | 5 | All Maps","protocol":17,"map":"pl_badwater","folder":"tf","game":"Team Fortress","app_id":440,"player_count":0,"max_players":24,"Bots":0,"server_type":"Dedicated","server_os":"Linux","password":true,"vac":true,"version":"7961495","steam_id":85568392924504277,"keywords":["nocrits","nodmgspread","payload","uncletopia"],"game_id":440,"stv_port":27056,"stv_name":"Uncletopia | Frankfurt | 5 | All Maps | STV","players":null},{"server_id":311,"name":"Uncletopia | Frankfurt | 6 | All Maps","name_short":"frk-6","host":"frk-1.de.uncletopia.com","port":27065,"enabled":true,"region":"eu","cc":"de","latitude":50.110924,"longitude":8.682127,"reserved":0,"last_update":"0001-01-01T00:00:00Z","name_a2s":"Uncletopia | Frankfurt | 6 | All Maps","protocol":17,"map":"cp_altitude","folder":"tf","game":"Team Fortress","app_id":440,"player_count":0,"max_players":24,"Bots":0,"server_type":"Dedicated","server_os":"Linux","password":true,"vac":true,"version":"7961495","steam_id":85568392924504278,"keywords":["cp","nocrits","nodmgspread","uncletopia"],"game_id":440,"stv_port":27066,"stv_name":"Uncletopia | Frankfurt | 6 | All Maps | STV","players":null},{"server_id":23,"name":"Uncletopia | Frankfurt | 7 | Stopwatch","name_short":"frk-7","host":"frk-1.de.uncletopia.com","port":27075,"enabled":true,"region":"eu","cc":"de","latitude":50.110924,"longitude":8.682127,"reserved":0,"last_update":"0001-01-01T00:00:00Z","name_a2s":"Uncletopia | Frankfurt | 7 | Stopwatch","protocol":17,"map":"pl_frontier_final","folder":"tf","game":"Team Fortress","app_id":440,"player_count":0,"max_players":24,"Bots":0,"server_type":"Dedicated","server_os":"Linux","password":true,"vac":true,"version":"7961495","steam_id":85568392924742827,"keywords":["nocrits","nodmgspread","payload","uncletopia"],"game_id":440,"stv_port":27076,"stv_name":"Uncletopia | Frankfurt | 7 | Stopwatch | STV","players":null},{"server_id":24,"name":"Uncletopia | Frankfurt | 8 | Community","name_short":"frk-8","host":"frk-1.de.uncletopia.com","port":27085,"enabled":true,"region":"eu","cc":"de","latitude":50.110924,"longitude":8.682127,"reserved":0,"last_update":"0001-01-01T00:00:00Z","name_a2s":"Uncletopia | Frankfurt | 8 | Community","protocol":17,"map":"cp_mountainlab","folder":"tf","game":"Team Fortress","app_id":440,"player_count":0,"max_players":24,"Bots":0,"server_type":"Dedicated","server_os":"Linux","password":true,"vac":true,"version":"7961495","steam_id":85568392924742828,"keywords":["cp","nocrits","nodmgspread","uncletopia"],"game_id":440,"stv_port":27086,"stv_name":"Uncletopia | Frankfurt | 8 | Community | STV","players":null},{"server_id":202,"name":"Uncletopia | Hong Kong | 1 | All Maps","name_short":"hgk-1","host":"hgk-1.hk.uncletopia.com","port":27015,"enabled":true,"region":"asia","cc":"hk","latitude":22.302711,"longitude":114.177216,"reserved":0,"last_update":"0001-01-01T00:00:00Z","name_a2s":"Uncletopia | Hong Kong | 1 | All Maps","protocol":17,"map":"pl_pier","folder":"tf","game":"Team Fortress","app_id":440,"player_count":24,"max_players":24,"Bots":0,"server_type":"Dedicated","server_os":"Linux","password":true,"vac":true,"version":"7961495","steam_id":85568392924494504,"keywords":["nocrits","nodmgspread","payload","uncletopia"],"game_id":440,"stv_port":27016,"stv_name":"Uncletopia | Hong Kong | 1 | All Maps | STV","players":[{"user_id":77,"name":"Humarazi","steam_id":76561198404352831,"connected_time":7556000000000,"state":"active","ping":60},{"user_id":132,"name":"MsD IV","steam_id":76561198059707655,"connected_time":2575000000000,"state":"active","ping":57},{"user_id":124,"name":"Dokutah, Husband of W","steam_id":76561199273390091,"connected_time":3367000000000,"state":"active","ping":71},{"user_id":152,"name":"im_0ff","steam_id":76561198339346695,"connected_time":903000000000,"state":"active","ping":119},{"user_id":129,"name":"ArcticDolphin","steam_id":76561198203626319,"connected_time":2833000000000,"state":"active","ping":127},{"user_id":146,"name":"BazooKa","steam_id":76561198061628689,"connected_time":1346000000000,"state":"active","ping":51},{"user_id":100,"name":"\"SKS\"","steam_id":76561198187995386,"connected_time":5517000000000,"state":"active","ping":85},{"user_id":156,"name":"Telekhine","steam_id":76561198387120618,"connected_time":253000000000,"state":"active","ping":57},{"user_id":105,"name":"Goldy","steam_id":76561199008543001,"connected_time":4655000000000,"state":"active","ping":55},{"user_id":155,"name":"Luisy","steam_id":76561198185148713,"connected_time":820000000000,"state":"active","ping":70},{"user_id":118,"name":"Lu","steam_id":76561198320532821,"connected_time":3854000000000,"state":"active","ping":56},{"user_id":106,"name":"Wx","steam_id":76561199217780897,"connected_time":4520000000000,"state":"active","ping":126},{"user_id":133,"name":"MANCO FETT","steam_id":76561198107128889,"connected_time":2484000000000,"state":"active","ping":94},{"user_id":150,"name":"CakeMaestor","steam_id":76561198331763015,"connected_time":926000000000,"state":"active","ping":83},{"user_id":126,"name":"screaming sniper","steam_id":76561199085568674,"connected_time":3260000000000,"state":"active","ping":59},{"user_id":151,"name":"hakos balls","steam_id":76561198074339034,"connected_time":923000000000,"state":"active","ping":74},{"user_id":138,"name":"villy","steam_id":76561198169263597,"connected_time":2221000000000,"state":"active","ping":44},{"user_id":103,"name":"Spyroman50","steam_id":76561199137927625,"connected_time":4864000000000,"state":"active","ping":93},{"user_id":139,"name":"Sir Hatson","steam_id":76561198260876201,"connected_time":2149000000000,"state":"active","ping":92},{"user_id":157,"name":"Brightside","steam_id":76561198017293596,"connected_time":69000000000,"state":"active","ping":81},{"user_id":115,"name":"Dits","steam_id":76561198283833960,"connected_time":4031000000000,"state":"active","ping":44},{"user_id":143,"name":"Glagmny","steam_id":76561199427363248,"connected_time":1762000000000,"state":"active","ping":72},{"user_id":145,"name":"tobu!","steam_id":76561198366793531,"connected_time":1422000000000,"state":"active","ping":128},{"user_id":121,"name":"vintage","steam_id":76561198230213828,"connected_time":3804000000000,"state":"active","ping":67}]},{"server_id":1,"name":"Uncletopia | Los Angeles | 1 | All Maps","name_short":"lax-1","host":"lax-1.us.uncletopia.com","port":27015,"enabled":true,"region":"us-west","cc":"us","latitude":33.94279,"longitude":-118.41004,"reserved":0,"last_update":"0001-01-01T00:00:00Z","name_a2s":"Uncletopia | Los Angeles | 1 | All Maps","protocol":17,"map":"cp_egypt_final","folder":"tf","game":"Team Fortress","app_id":440,"player_count":21,"max_players":24,"Bots":0,"server_type":"Dedicated","server_os":"Linux","password":true,"vac":true,"version":"7961495","steam_id":85568392924469991,"keywords":["cp","nocrits","nodmgspread","uncletopia"],"game_id":440,"stv_port":27016,"stv_name":"Uncletopia | Los Angeles | 1 | All Maps | STV","players":[{"user_id":417,"name":"Jaidezt","steam_id":76561197972613110,"connected_time":1331000000000,"state":"active","ping":540},{"user_id":351,"name":"RadioRave","steam_id":76561198240837534,"connected_time":6510000000000,"state":"active","ping":50},{"user_id":376,"name":"Prof. Anesthesia","steam_id":76561198993250002,"connected_time":4514000000000,"state":"active","ping":69},{"user_id":420,"name":"Fancy_Bob","steam_id":76561198169701373,"connected_time":906000000000,"state":"active","ping":76},{"user_id":340,"name":"Lambchop","steam_id":76561198043900363,"connected_time":6950000000000,"state":"active","ping":73},{"user_id":424,"name":"awemrna,sdliasukdfhrejnwkbfaslk","steam_id":76561198405830028,"connected_time":182000000000,"state":"active","ping":46},{"user_id":387,"name":"Sozuki","steam_id":76561198961150367,"connected_time":3105000000000,"state":"active","ping":61},{"user_id":406,"name":"roach","steam_id":76561198354811369,"connected_time":2180000000000,"state":"active","ping":50},{"user_id":423,"name":"breathing meat donut","steam_id":76561198123566649,"connected_time":229000000000,"state":"active","ping":267},{"user_id":362,"name":"Mapachito Lindo","steam_id":76561198031359995,"connected_time":5541000000000,"state":"active","ping":72},{"user_id":418,"name":"Varkrul","steam_id":76561198079657157,"connected_time":1244000000000,"state":"active","ping":57},{"user_id":359,"name":"M_Zuy","steam_id":76561199005898955,"connected_time":5982000000000,"state":"active","ping":55},{"user_id":389,"name":"Scoops M'Gooch","steam_id":76561198048423812,"connected_time":2837000000000,"state":"active","ping":59},{"user_id":419,"name":"Whisper!","steam_id":76561198119609795,"connected_time":1031000000000,"state":"spawning","ping":54},{"user_id":413,"name":"JuliaDragon","steam_id":76561198175727790,"connected_time":1639000000000,"state":"active","ping":46},{"user_id":395,"name":"Paradon","steam_id":76561198242214772,"connected_time":2713000000000,"state":"active","ping":47},{"user_id":402,"name":"TwoForFlinching","steam_id":76561198073814209,"connected_time":2432000000000,"state":"active","ping":99},{"user_id":422,"name":"DaFlynHyn","steam_id":76561197998492675,"connected_time":534000000000,"state":"active","ping":103},{"user_id":416,"name":"Mr.Bunny","steam_id":76561199407580843,"connected_time":1426000000000,"state":"active","ping":60},{"user_id":403,"name":"HAT-WEARING™ Maggot Gamer Cat","steam_id":76561197973992705,"connected_time":2355000000000,"state":"active","ping":69},{"user_id":399,"name":"HiddenEgg","steam_id":76561199045105518,"connected_time":2631000000000,"state":"active","ping":51}]},{"server_id":112,"name":"Uncletopia | Los Angeles | 2 | All Maps","name_short":"lax-2","host":"lax-1.us.uncletopia.com","port":27025,"enabled":true,"region":"us-west","cc":"us","latitude":33.94279,"longitude":-118.41004,"reserved":0,"last_update":"0001-01-01T00:00:00Z","name_a2s":"Uncletopia | Los Angeles | 2 | All Maps","protocol":17,"map":"koth_lakeside_final","folder":"tf","game":"Team Fortress","app_id":440,"player_count":0,"max_players":24,"Bots":0,"server_type":"Dedicated","server_os":"Linux","password":true,"vac":true,"version":"7961495","steam_id":85568392924469992,"keywords":["cp","nocrits","nodmgspread","uncletopia"],"game_id":440,"stv_port":27026,"stv_name":"Uncletopia | Los Angeles | 2 | All Maps | STV","players":null},{"server_id":324,"name":"Uncletopia | Los Angeles | 3 | All Maps","name_short":"lax-3","host":"lax-1.us.uncletopia.com","port":27035,"enabled":true,"region":"us-west","cc":"us","latitude":33.94279,"longitude":-118.41004,"reserved":0,"last_update":"0001-01-01T00:00:00Z","name_a2s":"Uncletopia | Los Angeles | 3 | All Maps","protocol":17,"map":"pl_pier","folder":"tf","game":"Team Fortress","app_id":440,"player_count":24,"max_players":24,"Bots":0,"server_type":"Dedicated","server_os":"Linux","password":true,"vac":true,"version":"7961495","steam_id":85568392924510198,"keywords":["nocrits","nodmgspread","payload","uncletopia"],"game_id":440,"stv_port":27036,"stv_name":"Uncletopia | Los Angeles | 3 | All Maps | STV","players":[{"user_id":210,"name":"Dcoyotzi","steam_id":76561199124707627,"connected_time":616000000000,"state":"active","ping":76},{"user_id":191,"name":"jovial","steam_id":76561198297130941,"connected_time":1939000000000,"state":"active","ping":45},{"user_id":192,"name":"ReDiculous22","steam_id":76561198038391383,"connected_time":1932000000000,"state":"active","ping":74},{"user_id":226,"name":"Closeted femboy enjoyer","steam_id":76561198217747041,"connected_time":51000000000,"state":"active","ping":57},{"user_id":213,"name":"PieSpie","steam_id":76561198054531169,"connected_time":589000000000,"state":"active","ping":148},{"user_id":116,"name":"vvitch","steam_id":76561198279661941,"connected_time":8846000000000,"state":"active","ping":46},{"user_id":190,"name":"bacterial infection","steam_id":76561198149140645,"connected_time":1952000000000,"state":"active","ping":100},{"user_id":220,"name":"Artic_Ryuu","steam_id":76561198182194918,"connected_time":301000000000,"state":"active","ping":45},{"user_id":184,"name":"plutonium isotope","steam_id":76561198319442494,"connected_time":3120000000000,"state":"active","ping":57},{"user_id":187,"name":"Loogey03","steam_id":76561198155483586,"connected_time":1956000000000,"state":"active","ping":104},{"user_id":227,"name":"smetc","steam_id":76561198240696986,"connected_time":38000000000,"state":"spawning","ping":264},{"user_id":208,"name":"Madeline (She/Her)","steam_id":76561198336551859,"connected_time":946000000000,"state":"active","ping":49},{"user_id":215,"name":"Hernandez$","steam_id":76561198019324588,"connected_time":513000000000,"state":"active","ping":50},{"user_id":224,"name":"Gerbias","steam_id":76561198001002427,"connected_time":113000000000,"state":"active","ping":60},{"user_id":206,"name":"ǝɯɐu uʍop ǝpᴉsdn","steam_id":76561199003230946,"connected_time":1173000000000,"state":"active","ping":53},{"user_id":197,"name":"monsterkill4567","steam_id":76561198272986367,"connected_time":1851000000000,"state":"active","ping":61},{"user_id":225,"name":"rmbl (fork eater)","steam_id":76561198150137369,"connected_time":96000000000,"state":"active","ping":59},{"user_id":217,"name":"C3L3RY","steam_id":76561198068754154,"connected_time":487000000000,"state":"active","ping":117},{"user_id":202,"name":"zooted fartstreaks","steam_id":76561198046073848,"connected_time":1342000000000,"state":"active","ping":75},{"user_id":212,"name":"Anon","steam_id":76561198109740776,"connected_time":614000000000,"state":"active","ping":65},{"user_id":200,"name":"El Monte","steam_id":76561198263562991,"connected_time":1585000000000,"state":"active","ping":64},{"user_id":222,"name":"Randle of John","steam_id":76561198328210524,"connected_time":246000000000,"state":"active","ping":49},{"user_id":204,"name":"array","steam_id":76561198280409646,"connected_time":1222000000000,"state":"active","ping":37},{"user_id":228,"name":"Ralph Kramden (Slim Charles)","steam_id":76561197981687895,"connected_time":35000000000,"state":"active","ping":63}]},{"server_id":25,"name":"Uncletopia | Los Angeles | 4 | Stopwatch","name_short":"lax-4","host":"lax-1.us.uncletopia.com","port":27045,"enabled":true,"region":"us-west","cc":"us","latitude":33.94279,"longitude":-118.41004,"reserved":0,"last_update":"0001-01-01T00:00:00Z","name_a2s":"Uncletopia | Los Angeles | 4 | Stopwatch","protocol":17,"map":"workshop/pl_barnblitz_pro7.ugc582280235","folder":"tf","game":"Team Fortress","app_id":440,"player_count":0,"max_players":24,"Bots":0,"server_type":"Dedicated","server_os":"Linux","password":true,"vac":true,"version":"7961495","steam_id":85568392924510199,"keywords":["nocrits","nodmgspread","payload","uncletopia"],"game_id":440,"stv_port":27046,"stv_name":"Uncletopia | Los Angeles | 4 | Stopwatch | STV","players":null},{"server_id":11,"name":"Uncletopia | London | 1 | All Maps","name_short":"lon-1","host":"lon-1.uk.uncletopia.com","port":27015,"enabled":true,"region":"eu","cc":"gb","latitude":51.509865,"longitude":-0.118092,"reserved":0,"last_update":"0001-01-01T00:00:00Z","name_a2s":"Uncletopia | London | 1 | All Maps","protocol":17,"map":"koth_highpass","folder":"tf","game":"Team Fortress","app_id":440,"player_count":0,"max_players":24,"Bots":0,"server_type":"Dedicated","server_os":"Linux","password":true,"vac":true,"version":"7961495","steam_id":85568392924367362,"keywords":["cp","nocrits","nodmgspread","uncletopia"],"game_id":440,"stv_port":27016,"stv_name":"Uncletopia | London | 1 | All Maps | STV","players":null},{"server_id":114,"name":"Uncletopia | London | 2 | All Maps","name_short":"lon-2","host":"lon-1.uk.uncletopia.com","port":27025,"enabled":true,"region":"eu","cc":"gb","latitude":51.509865,"longitude":-0.118092,"reserved":0,"last_update":"0001-01-01T00:00:00Z","name_a2s":"Uncletopia | London | 2 | All Maps","protocol":17,"map":"koth_lakeside_final","folder":"tf","game":"Team Fortress","app_id":440,"player_count":0,"max_players":24,"Bots":0,"server_type":"Dedicated","server_os":"Linux","password":true,"vac":true,"version":"7961495","steam_id":85568392924470941,"keywords":["cp","nocrits","nodmgspread","uncletopia"],"game_id":440,"stv_port":27026,"stv_name":"Uncletopia | London | 2 | All Maps | STV","players":null},{"server_id":320,"name":"Uncletopia | London | 3 | All Maps","name_short":"lon-3","host":"lon-1.uk.uncletopia.com","port":27035,"enabled":true,"region":"eu","cc":"gb","latitude":51.509865,"longitude":-0.118092,"reserved":0,"last_update":"0001-01-01T00:00:00Z","name_a2s":"Uncletopia | London | 3 | All Maps","protocol":17,"map":"cp_process_final","folder":"tf","game":"Team Fortress","app_id":440,"player_count":0,"max_players":24,"Bots":0,"server_type":"Dedicated","server_os":"Linux","password":true,"vac":true,"version":"7961495","steam_id":85568392924510192,"keywords":["cp","nocrits","nodmgspread","uncletopia"],"game_id":440,"stv_port":27036,"stv_name":"Uncletopia | London | 3 | All Maps | STV","players":null},{"server_id":321,"name":"Uncletopia | London | 4 | All Maps","name_short":"lon-4","host":"lon-1.uk.uncletopia.com","port":27045,"enabled":true,"region":"eu","cc":"gb","latitude":51.509865,"longitude":-0.118092,"reserved":0,"last_update":"0001-01-01T00:00:00Z","name_a2s":"Uncletopia | London | 4 | All Maps","protocol":17,"map":"koth_cascade","folder":"tf","game":"Team Fortress","app_id":440,"player_count":0,"max_players":24,"Bots":0,"server_type":"Dedicated","server_os":"Linux","password":true,"vac":true,"version":"7961495","steam_id":85568392924510193,"keywords":["cp","nocrits","nodmgspread","uncletopia"],"game_id":440,"stv_port":27046,"stv_name":"Uncletopia | London | 4 | All Maps | STV","players":null},{"server_id":21,"name":"Uncletopia | London | 5 | All Maps","name_short":"lon-5","host":"lon-1.uk.uncletopia.com","port":27055,"enabled":true,"region":"eu","cc":"gb","latitude":51.509865,"longitude":-0.118092,"reserved":0,"last_update":"0001-01-01T00:00:00Z","name_a2s":"Uncletopia | London | 5 | All Maps","protocol":17,"map":"koth_lakeside_final","folder":"tf","game":"Team Fortress","app_id":440,"player_count":0,"max_players":24,"Bots":0,"server_type":"Dedicated","server_os":"Linux","password":true,"vac":true,"version":"7961495","steam_id":85568392924742829,"keywords":["cp","nocrits","nodmgspread","uncletopia"],"game_id":440,"stv_port":27056,"stv_name":"Uncletopia | London | 5 | All Maps | STV","players":null},{"server_id":22,"name":"Uncletopia | London | 6 | All Maps","name_short":"lon-6","host":"lon-1.uk.uncletopia.com","port":27065,"enabled":true,"region":"eu","cc":"gb","latitude":51.509865,"longitude":-0.118092,"reserved":0,"last_update":"0001-01-01T00:00:00Z","name_a2s":"Uncletopia | London | 6 | All Maps","protocol":17,"map":"cp_dustbowl","folder":"tf","game":"Team Fortress","app_id":440,"player_count":0,"max_players":24,"Bots":0,"server_type":"Dedicated","server_os":"Linux","password":true,"vac":true,"version":"7961495","steam_id":85568392924742830,"keywords":["cp","nocrits","nodmgspread","uncletopia"],"game_id":440,"stv_port":27066,"stv_name":"Uncletopia | London | 6 | All Maps | STV","players":null},{"server_id":40,"name":"Uncletopia | London | 7 | Stopwatch","name_short":"lon-7","host":"lon-1.uk.uncletopia.com","port":27075,"enabled":true,"region":"eu","cc":"gb","latitude":51.509865,"longitude":-0.118092,"reserved":0,"last_update":"0001-01-01T00:00:00Z","name_a2s":"Uncletopia | London | 7 | Stopwatch","protocol":17,"map":"koth_lakeside_final","folder":"tf","game":"Team Fortress","app_id":440,"player_count":0,"max_players":24,"Bots":0,"server_type":"Dedicated","server_os":"Linux","password":true,"vac":true,"version":"7961495","steam_id":85568392924964314,"keywords":["cp","nocrits","nodmgspread","uncletopia"],"game_id":440,"stv_port":27076,"stv_name":"Uncletopia | London | 7 | Stopwatch | STV","players":null},{"server_id":41,"name":"Uncletopia | London | 8 | Community","name_short":"lon-8","host":"lon-1.uk.uncletopia.com","port":27085,"enabled":true,"region":"eu","cc":"gb","latitude":51.509865,"longitude":-0.118092,"reserved":0,"last_update":"0001-01-01T00:00:00Z","name_a2s":"Uncletopia | London | 8 | Community","protocol":17,"map":"cp_snakewater_final1","folder":"tf","game":"Team Fortress","app_id":440,"player_count":0,"max_players":24,"Bots":0,"server_type":"Dedicated","server_os":"Linux","password":true,"vac":true,"version":"7961495","steam_id":85568392924964315,"keywords":["cp","nocrits","nodmgspread","uncletopia"],"game_id":440,"stv_port":27086,"stv_name":"Uncletopia | London | 8 | Community | STV","players":null},{"server_id":300,"name":"Uncletopia | Montréal | 1 | One Thousand Uncles","name_short":"mtl-1","host":"mtl-1.ca.uncletopia.com","port":27015,"enabled":true,"region":"us-east","cc":"ca","latitude":45.50889,"longitude":-73.56167,"reserved":0,"last_update":"0001-01-01T00:00:00Z","name_a2s":"","protocol":0,"map":"","folder":"","game":"","app_id":0,"player_count":0,"max_players":0,"Bots":0,"server_type":"","server_os":"","password":false,"vac":false,"version":"","steam_id":0,"keywords":null,"game_id":0,"stv_port":0,"stv_name":"","players":null},{"server_id":301,"name":"Uncletopia | Montréal | 2 | One Thousand Uncles","name_short":"mtl-2","host":"mtl-1.ca.uncletopia.com","port":27025,"enabled":true,"region":"us-east","cc":"ca","latitude":45.50889,"longitude":-73.56167,"reserved":0,"last_update":"0001-01-01T00:00:00Z","name_a2s":"","protocol":0,"map":"","folder":"","game":"","app_id":0,"player_count":6,"max_players":0,"Bots":0,"server_type":"","server_os":"","password":false,"vac":false,"version":"","steam_id":0,"keywords":null,"game_id":0,"stv_port":0,"stv_name":"","players":[{"user_id":72,"name":"hl3 hot gay sex","steam_id":76561199122281764,"connected_time":9019000000000,"state":"active","ping":92},{"user_id":197,"name":"Word To Your Mothership","steam_id":76561198034329138,"connected_time":186000000000,"state":"active","ping":105},{"user_id":198,"name":"ExplosiveGamer21","steam_id":76561198132370955,"connected_time":85000000000,"state":"active","ping":117},{"user_id":199,"name":"Krabby","steam_id":76561198038002264,"connected_time":65000000000,"state":"active","ping":69},{"user_id":171,"name":"Anthid","steam_id":76561198074493797,"connected_time":3232000000000,"state":"active","ping":89},{"user_id":175,"name":"cheetaz","steam_id":76561198224614084,"connected_time":2400000000000,"state":"active","ping":74}]},{"server_id":302,"name":"Uncletopia | Montréal | 3 | One Thousand Uncles","name_short":"mtl-3","host":"mtl-1.ca.uncletopia.com","port":27035,"enabled":true,"region":"us-east","cc":"ca","latitude":45.50889,"longitude":-73.56167,"reserved":0,"last_update":"0001-01-01T00:00:00Z","name_a2s":"","protocol":0,"map":"","folder":"","game":"","app_id":0,"player_count":0,"max_players":0,"Bots":0,"server_type":"","server_os":"","password":false,"vac":false,"version":"","steam_id":0,"keywords":null,"game_id":0,"stv_port":0,"stv_name":"","players":null},{"server_id":13,"name":"Uncletopia | New York City | 1 | All Maps","name_short":"nyc-1","host":"nyc-1.us.uncletopia.com","port":27015,"enabled":true,"region":"us-east","cc":"us","latitude":40.73061,"longitude":-73.93524,"reserved":0,"last_update":"0001-01-01T00:00:00Z","name_a2s":"Uncletopia | New York City | 1 | All Maps","protocol":17,"map":"cp_snakewater_final1","folder":"tf","game":"Team Fortress","app_id":440,"player_count":21,"max_players":24,"Bots":0,"server_type":"Dedicated","server_os":"Linux","password":true,"vac":true,"version":"7961495","steam_id":85568392924469993,"keywords":["cp","nocrits","nodmgspread","uncletopia"],"game_id":440,"stv_port":27016,"stv_name":"Uncletopia | New York City | 1 | All Maps | STV","players":[{"user_id":626,"name":"E.V.I.L","steam_id":76561198069909083,"connected_time":253000000000,"state":"active","ping":59},{"user_id":557,"name":"Dot.","steam_id":76561198149463984,"connected_time":4939000000000,"state":"active","ping":49},{"user_id":612,"name":"Delta","steam_id":76561198158985472,"connected_time":1719000000000,"state":"active","ping":121},{"user_id":629,"name":"CTRLZ0Y","steam_id":76561198183346187,"connected_time":87000000000,"state":"active","ping":47},{"user_id":560,"name":"MISSINGNO9 (She/Her)","steam_id":76561198322494579,"connected_time":4906000000000,"state":"active","ping":71},{"user_id":616,"name":"ℇ:","steam_id":76561198111403028,"connected_time":1389000000000,"state":"active","ping":60},{"user_id":586,"name":"Two-Teste Tommy","steam_id":76561198064308936,"connected_time":3915000000000,"state":"active","ping":53},{"user_id":575,"name":"kjo2016","steam_id":76561199000977226,"connected_time":4401000000000,"state":"active","ping":134},{"user_id":603,"name":"Bee_Pirate","steam_id":76561199000599111,"connected_time":1911000000000,"state":"active","ping":61},{"user_id":600,"name":"ᗜˬᗜ","steam_id":76561198049076233,"connected_time":2203000000000,"state":"active","ping":48},{"user_id":563,"name":"Bombsgamer","steam_id":76561198350009050,"connected_time":4854000000000,"state":"active","ping":79},{"user_id":622,"name":"Rock Kickass","steam_id":76561198450510841,"connected_time":857000000000,"state":"active","ping":128},{"user_id":623,"name":"anders McFlanders","steam_id":76561198022811995,"connected_time":780000000000,"state":"active","ping":142},{"user_id":631,"name":"Pho","steam_id":76561198306515742,"connected_time":54000000000,"state":"active","ping":120},{"user_id":625,"name":"grome","steam_id":76561198080784921,"connected_time":486000000000,"state":"active","ping":65},{"user_id":628,"name":"OH3V_BAN1M","steam_id":76561199489149559,"connected_time":239000000000,"state":"active","ping":179},{"user_id":632,"name":"Chadineer","steam_id":76561198089349272,"connected_time":48000000000,"state":"active","ping":135},{"user_id":410,"name":"A Puppy","steam_id":76561198828184456,"connected_time":19769000000000,"state":"active","ping":51},{"user_id":584,"name":"Tea Enthusiast","steam_id":76561198185583925,"connected_time":4195000000000,"state":"active","ping":34},{"user_id":569,"name":"That Sentry Is A Spy!","steam_id":76561198069395625,"connected_time":4816000000000,"state":"active","ping":61},{"user_id":550,"name":"Bert.","steam_id":76561198140666346,"connected_time":6143000000000,"state":"active","ping":46}]},{"server_id":14,"name":"Uncletopia | New York City | 2 | All Maps","name_short":"nyc-2","host":"nyc-1.us.uncletopia.com","port":27025,"enabled":true,"region":"us-east","cc":"us","latitude":40.73061,"longitude":-73.93524,"reserved":0,"last_update":"0001-01-01T00:00:00Z","name_a2s":"Uncletopia | New York City | 2 | All Maps","protocol":17,"map":"cp_altitude","folder":"tf","game":"Team Fortress","app_id":440,"player_count":16,"max_players":24,"Bots":0,"server_type":"Dedicated","server_os":"Linux","password":true,"vac":true,"version":"7961495","steam_id":85568392924469994,"keywords":["cp","nocrits","nodmgspread","uncletopia"],"game_id":440,"stv_port":27026,"stv_name":"Uncletopia | New York City | 2 | All Maps | STV","players":[{"user_id":832,"name":"jebs strognest soljer","steam_id":76561198056622157,"connected_time":491000000000,"state":"active","ping":48},{"user_id":836,"name":"Coca162","steam_id":76561198230656540,"connected_time":206000000000,"state":"active","ping":119},{"user_id":814,"name":"brian eno","steam_id":76561198109901138,"connected_time":1760000000000,"state":"active","ping":58},{"user_id":815,"name":"Salixiola","steam_id":76561198042177809,"connected_time":1738000000000,"state":"active","ping":71},{"user_id":786,"name":"Biscipline","steam_id":76561198019206178,"connected_time":3576000000000,"state":"active","ping":74},{"user_id":791,"name":"conner","steam_id":76561198052911241,"connected_time":2929000000000,"state":"active","ping":60},{"user_id":831,"name":"Loud673","steam_id":76561199208323392,"connected_time":541000000000,"state":"active","ping":141},{"user_id":817,"name":"Dragus","steam_id":76561198032967285,"connected_time":1557000000000,"state":"active","ping":72},{"user_id":829,"name":"evegioyidechadab","steam_id":76561198075991626,"connected_time":709000000000,"state":"active","ping":159},{"user_id":802,"name":"menonamed","steam_id":76561198199564382,"connected_time":2358000000000,"state":"active","ping":56},{"user_id":826,"name":"El Duderino","steam_id":76561198084404539,"connected_time":971000000000,"state":"active","ping":70},{"user_id":819,"name":"blunder","steam_id":76561198838223023,"connected_time":1544000000000,"state":"active","ping":65},{"user_id":835,"name":"KZ","steam_id":76561198306669868,"connected_time":285000000000,"state":"active","ping":41},{"user_id":784,"name":"Jousty","steam_id":76561199162677853,"connected_time":3780000000000,"state":"active","ping":111},{"user_id":807,"name":"Jnet","steam_id":76561198001282720,"connected_time":2144000000000,"state":"active","ping":166},{"user_id":823,"name":"Cool-Aids Man","steam_id":76561198280184641,"connected_time":1448000000000,"state":"active","ping":46}]},{"server_id":15,"name":"Uncletopia | New York City | 3 | Stopwatch","name_short":"nyc-3","host":"nyc-1.us.uncletopia.com","port":27035,"enabled":true,"region":"us-east","cc":"us","latitude":40.73061,"longitude":-73.93524,"reserved":0,"last_update":"0001-01-01T00:00:00Z","name_a2s":"Uncletopia | New York City | 3 | Stopwatch","protocol":17,"map":"koth_lakeside_final","folder":"tf","game":"Team Fortress","app_id":440,"player_count":0,"max_players":24,"Bots":0,"server_type":"Dedicated","server_os":"Linux","password":true,"vac":true,"version":"7961495","steam_id":85568392924742820,"keywords":["cp","nocrits","nodmgspread","uncletopia"],"game_id":440,"stv_port":27036,"stv_name":"Uncletopia | New York City | 3 | Stopwatch | STV","players":null},{"server_id":16,"name":"Uncletopia | New York City | 4 | Community","name_short":"nyc-4","host":"nyc-1.us.uncletopia.com","port":27045,"enabled":true,"region":"us-east","cc":"us","latitude":40.73061,"longitude":-73.93524,"reserved":0,"last_update":"0001-01-01T00:00:00Z","name_a2s":"Uncletopia | New York City | 4 | Community","protocol":17,"map":"workshop/cp_sulfur_rc2.ugc619869471","folder":"tf","game":"Team Fortress","app_id":440,"player_count":0,"max_players":24,"Bots":0,"server_type":"Dedicated","server_os":"Linux","password":true,"vac":true,"version":"7961495","steam_id":85568392924742821,"keywords":["cp","nocrits","nodmgspread","uncletopia"],"game_id":440,"stv_port":27046,"stv_name":"Uncletopia | New York City | 4 | Community | STV","players":null},{"server_id":142,"name":"Uncletopia | São Paulo | 1 | All Maps","name_short":"sao-1","host":"sao-1.br.uncletopia.com","port":27015,"enabled":true,"region":"sa","cc":"br","latitude":-23.533773,"longitude":-46.62529,"reserved":0,"last_update":"0001-01-01T00:00:00Z","name_a2s":"Uncletopia | São Paulo | 1 | All Maps","protocol":17,"map":"koth_harvest_final","folder":"tf","game":"Team Fortress","app_id":440,"player_count":0,"max_players":24,"Bots":0,"server_type":"Dedicated","server_os":"Linux","password":true,"vac":true,"version":"7961495","steam_id":85568392924469996,"keywords":["cp","nocrits","nodmgspread","uncletopia"],"game_id":440,"stv_port":27016,"stv_name":"Uncletopia | São Paulo | 1 | All Maps | STV","players":null},{"server_id":143,"name":"Uncletopia | São Paulo | 2 | Community","name_short":"sao-2","host":"sao-2.br.uncletopia.com","port":27015,"enabled":true,"region":"sa","cc":"br","latitude":-23.533773,"longitude":-46.62529,"reserved":0,"last_update":"0001-01-01T00:00:00Z","name_a2s":"Uncletopia | São Paulo | 2 | Community","protocol":17,"map":"workshop/pl_highwood_b13.ugc1769496557","folder":"tf","game":"Team Fortress","app_id":440,"player_count":0,"max_players":24,"Bots":0,"server_type":"Dedicated","server_os":"Linux","password":true,"vac":true,"version":"7961495","steam_id":85568392924485349,"keywords":["nocrits","nodmgspread","payload","uncletopia"],"game_id":440,"stv_port":27016,"stv_name":"Uncletopia | São Paulo | 2 | Community | STV","players":null},{"server_id":7,"name":"Uncletopia | Seattle | 1 | All Maps","name_short":"sea-1","host":"sea-1.us.uncletopia.com","port":27015,"enabled":true,"region":"us-west","cc":"us","latitude":47.608013,"longitude":-122.33517,"reserved":0,"last_update":"0001-01-01T00:00:00Z","name_a2s":"Uncletopia | Seattle | 1 | All Maps","protocol":17,"map":"cp_steel","folder":"tf","game":"Team Fortress","app_id":440,"player_count":23,"max_players":24,"Bots":0,"server_type":"Dedicated","server_os":"Linux","password":true,"vac":true,"version":"7961495","steam_id":85568392924469997,"keywords":["cp","nocrits","nodmgspread","uncletopia"],"game_id":440,"stv_port":27016,"stv_name":"Uncletopia | Seattle | 1 | All Maps | STV","players":[{"user_id":274,"name":"ilun","steam_id":76561198042913843,"connected_time":15044000000000,"state":"active","ping":57},{"user_id":403,"name":"Mr8bittripper","steam_id":76561198133894229,"connected_time":4292000000000,"state":"active","ping":55},{"user_id":413,"name":"Mignyanne :3","steam_id":76561198048754056,"connected_time":3543000000000,"state":"active","ping":60},{"user_id":445,"name":"Tom Skirrett","steam_id":76561198014600788,"connected_time":384000000000,"state":"active","ping":62},{"user_id":427,"name":"Shazzy","steam_id":76561198145460523,"connected_time":1678000000000,"state":"active","ping":50},{"user_id":444,"name":"Greskrendtregk","steam_id":76561197969553142,"connected_time":393000000000,"state":"active","ping":48},{"user_id":422,"name":"Sniff","steam_id":76561198010270922,"connected_time":2506000000000,"state":"active","ping":37},{"user_id":432,"name":"OpossumStyle","steam_id":76561199230107171,"connected_time":1366000000000,"state":"active","ping":104},{"user_id":431,"name":"Henchie!","steam_id":76561198047567464,"connected_time":1457000000000,"state":"active","ping":97},{"user_id":447,"name":"Aureum Custos","steam_id":76561198062627582,"connected_time":188000000000,"state":"active","ping":60},{"user_id":430,"name":"Lord Hater","steam_id":76561199158148782,"connected_time":1617000000000,"state":"active","ping":84},{"user_id":417,"name":"pepe warlord","steam_id":76561198080819197,"connected_time":2734000000000,"state":"active","ping":63},{"user_id":409,"name":"gorlab","steam_id":76561198025089694,"connected_time":3645000000000,"state":"active","ping":58},{"user_id":401,"name":"The King of Piss World","steam_id":76561198082806956,"connected_time":4311000000000,"state":"active","ping":147},{"user_id":418,"name":"Hawksgamer","steam_id":76561198152405941,"connected_time":2730000000000,"state":"active","ping":49},{"user_id":425,"name":"rat who can kickflip","steam_id":76561198073620027,"connected_time":1916000000000,"state":"active","ping":43},{"user_id":434,"name":"Poundcake","steam_id":76561198042196918,"connected_time":1245000000000,"state":"active","ping":56},{"user_id":438,"name":"SadFapping","steam_id":76561198076651049,"connected_time":980000000000,"state":"active","ping":45},{"user_id":428,"name":"SAVECASEY","steam_id":76561198857896847,"connected_time":1674000000000,"state":"active","ping":74},{"user_id":420,"name":"Daz","steam_id":76561198041431938,"connected_time":2727000000000,"state":"active","ping":54},{"user_id":442,"name":"TROY","steam_id":76561197983852176,"connected_time":415000000000,"state":"active","ping":75},{"user_id":446,"name":"Leidon","steam_id":76561198078386945,"connected_time":373000000000,"state":"active","ping":66},{"user_id":402,"name":"rat gets the cheese","steam_id":76561198031234032,"connected_time":4309000000000,"state":"active","ping":98}]},{"server_id":119,"name":"Uncletopia | Seattle | 2 | All Maps","name_short":"sea-2","host":"sea-1.us.uncletopia.com","port":27025,"enabled":true,"region":"us-west","cc":"us","latitude":47.608013,"longitude":-122.33517,"reserved":0,"last_update":"0001-01-01T00:00:00Z","name_a2s":"Uncletopia | Seattle | 2 | All Maps","protocol":17,"map":"koth_lakeside_final","folder":"tf","game":"Team Fortress","app_id":440,"player_count":12,"max_players":24,"Bots":0,"server_type":"Dedicated","server_os":"Linux","password":true,"vac":true,"version":"7961495","steam_id":85568392924469998,"keywords":["cp","nocrits","nodmgspread","uncletopia"],"game_id":440,"stv_port":27026,"stv_name":"Uncletopia | Seattle | 2 | All Maps | STV","players":[{"user_id":766,"name":"1000 Ping","steam_id":76561198098330939,"connected_time":55000000000,"state":"active","ping":85},{"user_id":767,"name":"ToddStool","steam_id":76561198338144919,"connected_time":22000000000,"state":"active","ping":61},{"user_id":668,"name":"TüCold","steam_id":76561198111278197,"connected_time":11422000000000,"state":"active","ping":44},{"user_id":758,"name":"Sordbrute 275","steam_id":76561198974188037,"connected_time":2146000000000,"state":"active","ping":74},{"user_id":741,"name":"Spicy Chicken","steam_id":76561198074209737,"connected_time":3522000000000,"state":"active","ping":89},{"user_id":730,"name":"daddog","steam_id":76561198286968297,"connected_time":4092000000000,"state":"active","ping":41},{"user_id":762,"name":"NEETo","steam_id":76561198018146136,"connected_time":1889000000000,"state":"active","ping":53},{"user_id":757,"name":"Low IQ Specimen","steam_id":76561198169309768,"connected_time":2184000000000,"state":"active","ping":71},{"user_id":759,"name":"CallOfBread","steam_id":76561199143203535,"connected_time":2139000000000,"state":"active","ping":87},{"user_id":764,"name":"WaveJumper","steam_id":76561197972509380,"connected_time":444000000000,"state":"active","ping":123},{"user_id":742,"name":"DroidFreak36","steam_id":76561198028681032,"connected_time":3452000000000,"state":"active","ping":90},{"user_id":761,"name":"airport alan","steam_id":76561198027337461,"connected_time":2070000000000,"state":"active","ping":45}]},{"server_id":406,"name":"Uncletopia | Seattle | 3 | Stopwatch","name_short":"sea-3","host":"sea-1.us.uncletopia.com","port":27035,"enabled":true,"region":"us-west","cc":"us","latitude":47.608013,"longitude":-122.33517,"reserved":0,"last_update":"0001-01-01T00:00:00Z","name_a2s":"Uncletopia | Seattle | 3 | Stopwatch","protocol":17,"map":"workshop/koth_product_final.ugc454272353","folder":"tf","game":"Team Fortress","app_id":440,"player_count":0,"max_players":24,"Bots":0,"server_type":"Dedicated","server_os":"Linux","password":true,"vac":true,"version":"7961495","steam_id":85568392924515217,"keywords":["cp","nocrits","nodmgspread","uncletopia"],"game_id":440,"stv_port":27036,"stv_name":"Uncletopia | Seattle | 3 | Stopwatch | STV","players":null},{"server_id":17,"name":"Uncletopia | San Francisco | 1 | All Maps","name_short":"sfo-1","host":"sfo-1.us.uncletopia.com","port":27015,"enabled":true,"region":"us-west","cc":"us","latitude":37.77397,"longitude":-122.4313,"reserved":0,"last_update":"0001-01-01T00:00:00Z","name_a2s":"Uncletopia | San Francisco | 1 | All Maps","protocol":17,"map":"pl_upward","folder":"tf","game":"Team Fortress","app_id":440,"player_count":22,"max_players":24,"Bots":0,"server_type":"Dedicated","server_os":"Linux","password":true,"vac":true,"version":"7961495","steam_id":85568392924469999,"keywords":["nocrits","nodmgspread","payload","uncletopia"],"game_id":440,"stv_port":27016,"stv_name":"Uncletopia | San Francisco | 1 | All Maps | STV","players":[{"user_id":124,"name":"The Foolish Samurai","steam_id":76561198094494945,"connected_time":3348000000000,"state":"active","ping":76},{"user_id":147,"name":"EpsilonEagle","steam_id":76561197999126769,"connected_time":2019000000000,"state":"active","ping":151},{"user_id":58,"name":"FI LO","steam_id":76561198976530881,"connected_time":9802000000000,"state":"active","ping":45},{"user_id":159,"name":"The Assistant Regional Manager","steam_id":76561199221484936,"connected_time":557000000000,"state":"active","ping":72},{"user_id":164,"name":"SHADOW","steam_id":76561198207768148,"connected_time":127000000000,"state":"active","ping":58},{"user_id":122,"name":"Quigi","steam_id":76561198144645874,"connected_time":3422000000000,"state":"active","ping":70},{"user_id":155,"name":"the bonks","steam_id":76561198418172095,"connected_time":626000000000,"state":"active","ping":85},{"user_id":161,"name":"Infinite_Time","steam_id":76561198298699368,"connected_time":326000000000,"state":"active","ping":59},{"user_id":132,"name":"A class hero","steam_id":76561198066091050,"connected_time":3077000000000,"state":"active","ping":69},{"user_id":148,"name":"O.w.O.","steam_id":76561198438700989,"connected_time":2015000000000,"state":"active","ping":77},{"user_id":125,"name":"lol","steam_id":76561198026491738,"connected_time":3348000000000,"state":"active","ping":60},{"user_id":166,"name":"SpamTheAlien","steam_id":76561199122290968,"connected_time":60000000000,"state":"active","ping":83},{"user_id":133,"name":"Polar","steam_id":76561198271964253,"connected_time":3026000000000,"state":"active","ping":98},{"user_id":150,"name":"zinnk","steam_id":76561198092081825,"connected_time":1506000000000,"state":"active","ping":35},{"user_id":152,"name":"JACK BRUNO","steam_id":76561198027957690,"connected_time":1051000000000,"state":"active","ping":64},{"user_id":167,"name":"MR MODE","steam_id":76561198046775352,"connected_time":47000000000,"state":"active","ping":45},{"user_id":154,"name":"halfwaysdown","steam_id":76561199344558559,"connected_time":680000000000,"state":"active","ping":52},{"user_id":158,"name":"Brandon_411","steam_id":76561198024522909,"connected_time":594000000000,"state":"active","ping":60},{"user_id":162,"name":"tincant","steam_id":76561198357137800,"connected_time":282000000000,"state":"active","ping":79},{"user_id":143,"name":"Calypso","steam_id":76561198082939544,"connected_time":2419000000000,"state":"active","ping":99},{"user_id":108,"name":"the archmage","steam_id":76561198380018244,"connected_time":5582000000000,"state":"active","ping":77},{"user_id":113,"name":"Maid 'n' China","steam_id":76561198423392976,"connected_time":5315000000000,"state":"active","ping":54}]},{"server_id":18,"name":"Uncletopia | San Francisco | 2 | All Maps","name_short":"sfo-2","host":"sfo-1.us.uncletopia.com","port":27025,"enabled":true,"region":"us-west","cc":"us","latitude":37.77397,"longitude":-122.4313,"reserved":0,"last_update":"0001-01-01T00:00:00Z","name_a2s":"Uncletopia | San Francisco | 2 | All Maps","protocol":17,"map":"koth_highpass","folder":"tf","game":"Team Fortress","app_id":440,"player_count":23,"max_players":24,"Bots":0,"server_type":"Dedicated","server_os":"Linux","password":true,"vac":true,"version":"7961495","steam_id":85568392924470000,"keywords":["cp","nocrits","nodmgspread","uncletopia"],"game_id":440,"stv_port":27026,"stv_name":"Uncletopia | San Francisco | 2 | All Maps | STV","players":[{"user_id":259,"name":"Henway","steam_id":76561198998561104,"connected_time":2401000000000,"state":"active","ping":66},{"user_id":282,"name":"oil","steam_id":76561198099980149,"connected_time":1061000000000,"state":"active","ping":54},{"user_id":268,"name":"MiksStuff","steam_id":76561198114092485,"connected_time":2106000000000,"state":"active","ping":117},{"user_id":260,"name":"HungryHippo","steam_id":76561198047615363,"connected_time":2390000000000,"state":"active","ping":59},{"user_id":228,"name":"Cebula33","steam_id":76561197984964095,"connected_time":4380000000000,"state":"active","ping":64},{"user_id":291,"name":"CUBICLE #35","steam_id":76561198799010228,"connected_time":414000000000,"state":"active","ping":73},{"user_id":293,"name":"rushy :))","steam_id":76561198065825165,"connected_time":168000000000,"state":"active","ping":87},{"user_id":185,"name":"mwee machine","steam_id":76561198047126327,"connected_time":6540000000000,"state":"active","ping":74},{"user_id":275,"name":"airy","steam_id":76561198174632198,"connected_time":1722000000000,"state":"active","ping":85},{"user_id":235,"name":"FunnyGoomba","steam_id":76561198279865229,"connected_time":3409000000000,"state":"active","ping":83},{"user_id":297,"name":"Fajita Master","steam_id":76561198329150962,"connected_time":51000000000,"state":"active","ping":89},{"user_id":253,"name":"armdouz","steam_id":76561199170540341,"connected_time":2934000000000,"state":"active","ping":63},{"user_id":287,"name":"puffer","steam_id":76561199049164456,"connected_time":756000000000,"state":"active","ping":71},{"user_id":264,"name":"TheOmegaSeal","steam_id":76561198175099285,"connected_time":2291000000000,"state":"active","ping":59},{"user_id":265,"name":"Knock on the sky and listen","steam_id":76561198077597130,"connected_time":2280000000000,"state":"active","ping":54},{"user_id":266,"name":"tomandjerry085","steam_id":76561198800789071,"connected_time":2220000000000,"state":"active","ping":55},{"user_id":281,"name":"The Piss Warrior","steam_id":76561198151927029,"connected_time":1114000000000,"state":"active","ping":76},{"user_id":292,"name":"fungi bowie.gg","steam_id":76561198169755734,"connected_time":326000000000,"state":"active","ping":47},{"user_id":279,"name":"chanoc","steam_id":76561198026734746,"connected_time":1227000000000,"state":"active","ping":46},{"user_id":296,"name":"Lord Pretty Flocko Jordye","steam_id":76561198962880749,"connected_time":94000000000,"state":"active","ping":76},{"user_id":286,"name":"Bolbi","steam_id":76561198051811597,"connected_time":903000000000,"state":"active","ping":67},{"user_id":267,"name":"FirePandaNinja","steam_id":76561198051896760,"connected_time":2167000000000,"state":"active","ping":70},{"user_id":251,"name":"WickedRV","steam_id":76561198889591503,"connected_time":3032000000000,"state":"active","ping":73}]},{"server_id":19,"name":"Uncletopia | San Francisco | 3 | Stopwatch","name_short":"sfo-3","host":"sfo-1.us.uncletopia.com","port":27035,"enabled":true,"region":"us-west","cc":"us","latitude":37.77397,"longitude":-122.4313,"reserved":0,"last_update":"0001-01-01T00:00:00Z","name_a2s":"Uncletopia | San Francisco | 3 | Stopwatch","protocol":17,"map":"workshop/pl_vigil_rc10.ugc1266210012","folder":"tf","game":"Team Fortress","app_id":440,"player_count":0,"max_players":24,"Bots":0,"server_type":"Dedicated","server_os":"Linux","password":true,"vac":true,"version":"7961495","steam_id":85568392924742824,"keywords":["nocrits","nodmgspread","payload","uncletopia"],"game_id":440,"stv_port":27036,"stv_name":"Uncletopia | San Francisco | 3 | Stopwatch | STV","players":null},{"server_id":20,"name":"Uncletopia | San Francisco | 4 | Community","name_short":"sfo-4","host":"sfo-1.us.uncletopia.com","port":27045,"enabled":true,"region":"us-west","cc":"us","latitude":37.77397,"longitude":-122.4313,"reserved":0,"last_update":"0001-01-01T00:00:00Z","name_a2s":"Uncletopia | San Francisco | 4 | Community","protocol":17,"map":"workshop/cp_reckoner_rc6.ugc674719999","folder":"tf","game":"Team Fortress","app_id":440,"player_count":0,"max_players":24,"Bots":0,"server_type":"Dedicated","server_os":"Linux","password":true,"vac":true,"version":"7961495","steam_id":85568392924742826,"keywords":["cp","nocrits","nodmgspread","uncletopia"],"game_id":440,"stv_port":27046,"stv_name":"Uncletopia | San Francisco | 4 | Community | STV","players":null},{"server_id":141,"name":"Uncletopia | Sydney | 1 | All Maps","name_short":"syd-1","host":"syd-1.au.uncletopia.com","port":27015,"enabled":true,"region":"au","cc":"au","latitude":-33.865143,"longitude":151.2099,"reserved":0,"last_update":"0001-01-01T00:00:00Z","name_a2s":"Uncletopia | Sydney | 1 | All Maps","protocol":17,"map":"pl_badwater","folder":"tf","game":"Team Fortress","app_id":440,"player_count":21,"max_players":24,"Bots":0,"server_type":"Dedicated","server_os":"Linux","password":true,"vac":true,"version":"7961495","steam_id":85568392924470001,"keywords":["nocrits","nodmgspread","payload","uncletopia"],"game_id":440,"stv_port":27016,"stv_name":"Uncletopia | Sydney | 1 | All Maps | STV","players":[{"user_id":18,"name":"APVC","steam_id":76561199090168813,"connected_time":5004000000000,"state":"active","ping":47},{"user_id":34,"name":"UrAvgDMG","steam_id":76561199214859141,"connected_time":2384000000000,"state":"active","ping":135},{"user_id":73,"name":"Leekduck","steam_id":76561198201978381,"connected_time":17000000000,"state":"spawning","ping":73},{"user_id":36,"name":"snowy steel [HF]","steam_id":76561199024624434,"connected_time":2000000000000,"state":"active","ping":39},{"user_id":37,"name":"Snuky","steam_id":76561198117902338,"connected_time":1978000000000,"state":"active","ping":43},{"user_id":29,"name":"tren","steam_id":76561199184547017,"connected_time":3132000000000,"state":"active","ping":43},{"user_id":38,"name":"Jim's Asbestos Removal","steam_id":76561198107491778,"connected_time":1959000000000,"state":"active","ping":44},{"user_id":72,"name":"lau","steam_id":76561198045451991,"connected_time":50000000000,"state":"active","ping":44},{"user_id":69,"name":"soupy","steam_id":76561198073734936,"connected_time":427000000000,"state":"active","ping":90},{"user_id":46,"name":"Sover blw.tf","steam_id":76561198136347837,"connected_time":1288000000000,"state":"active","ping":120},{"user_id":66,"name":"thrognoiblus blipfroogy","steam_id":76561198063481761,"connected_time":742000000000,"state":"active","ping":45},{"user_id":50,"name":"whiteshaq","steam_id":76561198131988811,"connected_time":1116000000000,"state":"active","ping":45},{"user_id":51,"name":"cakey","steam_id":76561198173746761,"connected_time":1041000000000,"state":"active","ping":37},{"user_id":53,"name":"hhhh","steam_id":76561198019740135,"connected_time":1017000000000,"state":"active","ping":53},{"user_id":54,"name":"reClyde beans","steam_id":76561198301282416,"connected_time":1013000000000,"state":"active","ping":47},{"user_id":67,"name":"Lords Resistance Army","steam_id":76561198010870577,"connected_time":723000000000,"state":"active","ping":102},{"user_id":56,"name":"Cat Allergies","steam_id":76561198214351613,"connected_time":959000000000,"state":"active","ping":46},{"user_id":57,"name":"Pile of Sneed","steam_id":76561198143537391,"connected_time":945000000000,"state":"active","ping":54},{"user_id":63,"name":"Sun Allergies","steam_id":76561198065322292,"connected_time":847000000000,"state":"active","ping":61},{"user_id":64,"name":"4LOW","steam_id":76561199156942316,"connected_time":836000000000,"state":"active","ping":76},{"user_id":62,"name":"❤callie❤","steam_id":76561198231953400,"connected_time":879000000000,"state":"active","ping":59}]},{"server_id":123,"name":"Uncletopia | Sydney | 2 | All Maps","name_short":"syd-2","host":"syd-1.au.uncletopia.com","port":27025,"enabled":true,"region":"au","cc":"au","latitude":-33.865143,"longitude":151.2099,"reserved":0,"last_update":"0001-01-01T00:00:00Z","name_a2s":"Uncletopia | Sydney | 2 | All Maps","protocol":17,"map":"koth_lakeside_final","folder":"tf","game":"Team Fortress","app_id":440,"player_count":0,"max_players":24,"Bots":0,"server_type":"Dedicated","server_os":"Linux","password":true,"vac":true,"version":"7961495","steam_id":85568392924470002,"keywords":["cp","nocrits","nodmgspread","uncletopia"],"game_id":440,"stv_port":27026,"stv_name":"Uncletopia | Sydney | 2 | All Maps | STV","players":null},{"server_id":395,"name":"Uncletopia | Sydney | 3 | All Maps","name_short":"syd-3","host":"syd-1.au.uncletopia.com","port":27035,"enabled":true,"region":"au","cc":"au","latitude":-33.865143,"longitude":151.2099,"reserved":0,"last_update":"0001-01-01T00:00:00Z","name_a2s":"Uncletopia | Sydney | 3 | All Maps","protocol":17,"map":"pl_frontier_final","folder":"tf","game":"Team Fortress","app_id":440,"player_count":0,"max_players":24,"Bots":0,"server_type":"Dedicated","server_os":"Linux","password":true,"vac":true,"version":"7961495","steam_id":85568392925194467,"keywords":["nocrits","nodmgspread","payload","uncletopia"],"game_id":440,"stv_port":27036,"stv_name":"Uncletopia | Sydney | 3 | All Maps | STV","players":null},{"server_id":396,"name":"Uncletopia | Sydney | 4 | All Maps","name_short":"syd-4","host":"syd-1.au.uncletopia.com","port":27045,"enabled":true,"region":"au","cc":"au","latitude":-33.865143,"longitude":151.2099,"reserved":0,"last_update":"0001-01-01T00:00:00Z","name_a2s":"Uncletopia | Sydney | 4 | All Maps","protocol":17,"map":"koth_lakeside_final","folder":"tf","game":"Team Fortress","app_id":440,"player_count":4,"max_players":24,"Bots":0,"server_type":"Dedicated","server_os":"Linux","password":true,"vac":true,"version":"7961495","steam_id":85568392925397958,"keywords":["cp","nocrits","nodmgspread","uncletopia"],"game_id":440,"stv_port":27046,"stv_name":"Uncletopia | Sydney | 4 | All Maps | STV","players":[{"user_id":4,"name":"fat obama","steam_id":76561199128395555,"connected_time":3661000000000,"state":"active","ping":69},{"user_id":28,"name":"Luckycharm","steam_id":76561199073672243,"connected_time":268000000000,"state":"active","ping":100},{"user_id":6,"name":"Very Wealthy Business man Gamin","steam_id":76561199018063750,"connected_time":3643000000000,"state":"active","ping":60},{"user_id":8,"name":"French China","steam_id":76561199435850354,"connected_time":3420000000000,"state":"active","ping":84}]},{"server_id":58,"name":"Uncletopia | Sydney | 5 | Stopwatch","name_short":"syd-5","host":"syd-1.au.uncletopia.com","port":27055,"enabled":true,"region":"au","cc":"au","latitude":-33.865143,"longitude":151.2099,"reserved":0,"last_update":"0001-01-01T00:00:00Z","name_a2s":"Uncletopia | Sydney | 5 | Stopwatch","protocol":17,"map":"pl_frontier_final","folder":"tf","game":"Team Fortress","app_id":440,"player_count":0,"max_players":24,"Bots":0,"server_type":"Dedicated","server_os":"Linux","password":true,"vac":true,"version":"7961495","steam_id":85568392925397959,"keywords":["nocrits","nodmgspread","payload","uncletopia"],"game_id":440,"stv_port":27056,"stv_name":"Uncletopia | Sydney | 5 | Stopwatch | STV","players":null},{"server_id":59,"name":"Uncletopia | Sydney | 6 | Community","name_short":"syd-6","host":"syd-1.au.uncletopia.com","port":27065,"enabled":true,"region":"au","cc":"au","latitude":-33.865143,"longitude":151.2099,"reserved":0,"last_update":"0001-01-01T00:00:00Z","name_a2s":"Uncletopia | Sydney | 6 | Community","protocol":17,"map":"cp_sunshine","folder":"tf","game":"Team Fortress","app_id":440,"player_count":0,"max_players":24,"Bots":0,"server_type":"Dedicated","server_os":"Linux","password":true,"vac":true,"version":"7961495","steam_id":85568392925397960,"keywords":["cp","nocrits","nodmgspread","uncletopia"],"game_id":440,"stv_port":27066,"stv_name":"Uncletopia | Sydney | 6 | Community | STV","players":null},{"server_id":49,"name":"Uncletopia | Warsaw | 1 | One Thousand Uncles","name_short":"waw-1","host":"waw-1.pl.uncletopia.com","port":27015,"enabled":true,"region":"eu","cc":"pl","latitude":52.2297,"longitude":21.017532,"reserved":0,"last_update":"0001-01-01T00:00:00Z","name_a2s":"Uncletopia | Warsaw | 1 | One Thousand Uncles","protocol":17,"map":"koth_highpass","folder":"tf","game":"Team Fortress","app_id":440,"player_count":17,"max_players":32,"Bots":16,"server_type":"Dedicated","server_os":"Linux","password":true,"vac":true,"version":"7961495","steam_id":85568392925397850,"keywords":["alltalk","bots","cp","danepve","increased_maxplayers","nocrits","norespawntime","uncletopia"],"game_id":440,"stv_port":0,"stv_name":"","players":[{"user_id":3,"name":"recruit37a","steam_id":76561199066264495,"connected_time":160000000000,"state":"active","ping":132}]},{"server_id":50,"name":"Uncletopia | Warsaw | 2 | One Thousand Uncles","name_short":"waw-2","host":"waw-1.pl.uncletopia.com","port":27025,"enabled":true,"region":"eu","cc":"pl","latitude":52.2297,"longitude":21.017532,"reserved":0,"last_update":"0001-01-01T00:00:00Z","name_a2s":"Uncletopia | Warsaw | 2 | One Thousand Uncles","protocol":17,"map":"pl_goldrush","folder":"tf","game":"Team Fortress","app_id":440,"player_count":0,"max_players":32,"Bots":0,"server_type":"Dedicated","server_os":"Linux","password":true,"vac":true,"version":"7961495","steam_id":85568392925397851,"keywords":["alltalk","danepve","increased_maxplayers","nocrits","norespawntime","payload","uncletopia"],"game_id":440,"stv_port":0,"stv_name":"","players":null},{"server_id":51,"name":"Uncletopia | Warsaw | 3 | All Maps","name_short":"waw-3","host":"waw-1.pl.uncletopia.com","port":27035,"enabled":true,"region":"eu","cc":"pl","latitude":52.2297,"longitude":21.017532,"reserved":0,"last_update":"0001-01-01T00:00:00Z","name_a2s":"Uncletopia | Warsaw | 3 | All Maps","protocol":17,"map":"plr_pipeline","folder":"tf","game":"Team Fortress","app_id":440,"player_count":0,"max_players":24,"Bots":0,"server_type":"Dedicated","server_os":"Linux","password":true,"vac":true,"version":"7961495","steam_id":85568392925397852,"keywords":["nocrits","nodmgspread","payload","uncletopia"],"game_id":440,"stv_port":27036,"stv_name":"Uncletopia | Warsaw | 3 | All Maps | STV","players":null},{"server_id":52,"name":"Uncletopia | Warsaw | 4 | All Maps","name_short":"waw-4","host":"waw-1.pl.uncletopia.com","port":27045,"enabled":true,"region":"eu","cc":"pl","latitude":52.2297,"longitude":21.017532,"reserved":0,"last_update":"0001-01-01T00:00:00Z","name_a2s":"Uncletopia | Warsaw | 4 | All Maps","protocol":17,"map":"cp_coldfront","folder":"tf","game":"Team Fortress","app_id":440,"player_count":0,"max_players":24,"Bots":0,"server_type":"Dedicated","server_os":"Linux","password":true,"vac":true,"version":"7961495","steam_id":85568392925397853,"keywords":["cp","nocrits","nodmgspread","uncletopia"],"game_id":440,"stv_port":27046,"stv_name":"Uncletopia | Warsaw | 4 | All Maps | STV","players":null},{"server_id":53,"name":"Uncletopia | Warsaw | 5 | Stopwatch","name_short":"waw-5","host":"waw-1.pl.uncletopia.com","port":27055,"enabled":true,"region":"eu","cc":"pl","latitude":52.2297,"longitude":21.017532,"reserved":0,"last_update":"0001-01-01T00:00:00Z","name_a2s":"Uncletopia | Warsaw | 5 | Stopwatch","protocol":17,"map":"workshop/koth_bagel_rc6.ugc2514036946","folder":"tf","game":"Team Fortress","app_id":440,"player_count":0,"max_players":24,"Bots":0,"server_type":"Dedicated","server_os":"Linux","password":true,"vac":true,"version":"7961495","steam_id":85568392925397854,"keywords":["cp","nocrits","nodmgspread","uncletopia"],"game_id":440,"stv_port":27056,"stv_name":"Uncletopia | Warsaw | 5 | Stopwatch | STV","players":null},{"server_id":54,"name":"Uncletopia | Warsaw | 6 | Community","name_short":"waw-6","host":"waw-1.pl.uncletopia.com","port":27065,"enabled":true,"region":"eu","cc":"pl","latitude":52.2297,"longitude":21.017532,"reserved":0,"last_update":"0001-01-01T00:00:00Z","name_a2s":"Uncletopia | Warsaw | 6 | Community","protocol":17,"map":"workshop/pl_badwater_pro_v12.ugc2142942074","folder":"tf","game":"Team Fortress","app_id":440,"player_count":0,"max_players":24,"Bots":0,"server_type":"Dedicated","server_os":"Linux","password":true,"vac":true,"version":"7961495","steam_id":85568392925397856,"keywords":["nocrits","nodmgspread","payload","uncletopia"],"game_id":440,"stv_port":27066,"stv_name":"Uncletopia | Warsaw | 6 | Community | STV","players":null}]}