{"status":true,"message":"","result":[{"server_id":2,"name":"Uncletopia | Chicago | 1 | All Maps","name_short":"chi-1","host":"chi-1.us.uncletopia.com","port":27015,"enabled":true,"region":"us-central","cc":"us","latitude":41.881832,"longitude":-87.62318,"reserved":0,"last_update":"0001-01-01T00:00:00Z","name_a2s":"Uncletopia | Chicago | 1 | All Maps","protocol":17,"map":"cp_mercenarypark","folder":"tf","game":"Team Fortress","app_id":440,"player_count":24,"max_players":24,"Bots":0,"server_type":"Dedicated","server_os":"Linux","password":true,"vac":true,"version":"7932396","steam_id":85568392924469984,"keywords":["cp","nocrits","nodmgspread","uncletopia"],"game_id":440,"stv_port":27016,"stv_name":"Uncletopia | Chicago | 1 | All Maps | STV","players":[{"user_id":373,"name":"Yengozi","steam_id":76561198448764748,"connected_time":2225000000000,"state":"active","ping":73},{"user_id":351,"name":"Speedy","steam_id":76561198080761661,"connected_time":3592000000000,"state":"active","ping":79},{"user_id":414,"name":"Banned Worthless Specimen","steam_id":76561198117206414,"connected_time":243000000000,"state":"active","ping":101},{"user_id":374,"name":"MikeLovesRabbit","steam_id":76561197997742625,"connected_time":2170000000000,"state":"active","ping":63},{"user_id":385,"name":"Waddlehi","steam_id":76561198072553840,"connected_time":1670000000000,"state":"active","ping":57},{"user_id":363,"name":"The Dead Weight","steam_id":76561198056694098,"connected_time":2768000000000,"state":"active","ping":60},{"user_id":397,"name":"Rockgraham101","steam_id":76561198171740458,"connected_time":683000000000,"state":"active","ping":60},{"user_id":372,"name":"Naffty","steam_id":76561198119734981,"connected_time":2250000000000,"state":"active","ping":94},{"user_id":415,"name":"Word To Your Mothership","steam_id":76561198034329138,"connected_time":226000000000,"state":"active","ping":107},{"user_id":417,"name":"Bee","steam_id":76561198074681324,"connected_time":157000000000,"state":"active","ping":62},{"user_id":392,"name":"Protato","steam_id":76561198061182563,"connected_time":946000000000,"state":"active","ping":68},{"user_id":399,"name":"Dr Oshawott","steam_id":76561198042021629,"connected_time":660000000000,"state":"active","ping":68},{"user_id":405,"name":"Im High","steam_id":76561198049954886,"connected_time":457000000000,"state":"active","ping":62},{"user_id":369,"name":"James","steam_id":76561198081313916,"connected_time":2344000000000,"state":"active","ping":72},{"user_id":400,"name":"Ripley","steam_id":76561198080766916,"connected_time":642000000000,"state":"active","ping":73},{"user_id":391,"name":"Celestial Bodies","steam_id":76561198212572955,"connected_time":982000000000,"state":"active","ping":84},{"user_id":401,"name":"Milkmur","steam_id":76561198210043821,"connected_time":637000000000,"state":"active","ping":64},{"user_id":412,"name":"ThatOneKnight","steam_id":76561198388583650,"connected_time":275000000000,"state":"active","ping":55},{"user_id":410,"name":"Fudge_Cake","steam_id":76561198059218167,"connected_time":364000000000,"state":"active","ping":60},{"user_id":383,"name":"SlurpyTheDog","steam_id":76561198799733154,"connected_time":1758000000000,"state":"active","ping":65},{"user_id":416,"name":"shaq$","steam_id":76561198045246504,"connected_time":208000000000,"state":"active","ping":57},{"user_id":413,"name":"Boom 13","steam_id":76561198126796502,"connected_time":266000000000,"state":"active","ping":82},{"user_id":361,"name":"Jirachi","steam_id":76561198341537452,"connected_time":2903000000000,"state":"active","ping":77},{"user_id":389,"name":"blob","steam_id":76561198122375328,"connected_time":1050000000000,"state":"active","ping":60}]},{"server_id":106,"name":"Uncletopia | Chicago | 2 | All Maps","name_short":"chi-2","host":"chi-1.us.uncletopia.com","port":27025,"enabled":true,"region":"us-central","cc":"us","latitude":41.881832,"longitude":-87.62318,"reserved":0,"last_update":"0001-01-01T00:00:00Z","name_a2s":"Uncletopia | Chicago | 2 | All Maps","protocol":17,"map":"cp_process_final","folder":"tf","game":"Team Fortress","app_id":440,"player_count":18,"max_players":24,"Bots":0,"server_type":"Dedicated","server_os":"Linux","password":true,"vac":true,"version":"7932396","steam_id":85568392924469985,"keywords":["cp","nocrits","nodmgspread","uncletopia"],"game_id":440,"stv_port":27026,"stv_name":"Uncletopia | Chicago | 2 | All Maps | STV","players":[{"user_id":209,"name":"duckgod 2.o","steam_id":76561198938434440,"connected_time":98000000000,"state":"active","ping":87},{"user_id":208,"name":"wearing my sunday pants","steam_id":76561198834106533,"connected_time":404000000000,"state":"active","ping":77},{"user_id":210,"name":"sagejay","steam_id":76561198118149530,"connected_time":94000000000,"state":"active","ping":59},{"user_id":211,"name":"clussy","steam_id":76561198312686335,"connected_time":82000000000,"state":"active","ping":56},{"user_id":212,"name":"Walmart Employee","steam_id":76561198840373909,"connected_time":70000000000,"state":"active","ping":84},{"user_id":162,"name":"Dyson","steam_id":76561199081837220,"connected_time":4689000000000,"state":"active","ping":80},{"user_id":176,"name":"pinky","steam_id":76561199109784776,"connected_time":3826000000000,"state":"active","ping":46},{"user_id":202,"name":"pablo","steam_id":76561198395577807,"connected_time":1088000000000,"state":"active","ping":60},{"user_id":181,"name":"mark","steam_id":76561198207881077,"connected_time":3506000000000,"state":"active","ping":76},{"user_id":182,"name":"SpookFist  #NEWTF2Hunt","steam_id":76561198133598777,"connected_time":3475000000000,"state":"active","ping":86},{"user_id":185,"name":"Skylord","steam_id":76561198246648784,"connected_time":3410000000000,"state":"active","ping":68},{"user_id":207,"name":"Goober","steam_id":76561198941700660,"connected_time":614000000000,"state":"active","ping":78},{"user_id":161,"name":"tiredfisherman69","steam_id":76561199228963816,"connected_time":4863000000000,"state":"active","ping":94},{"user_id":200,"name":"metal fingers","steam_id":76561198823526581,"connected_time":1113000000000,"state":"active","ping":75},{"user_id":189,"name":"ultralisk52","steam_id":76561198051666604,"connected_time":2653000000000,"state":"active","ping":60},{"user_id":71,"name":"Pumpkin Spice","steam_id":76561198058356815,"connected_time":12364000000000,"state":"active","ping":66},{"user_id":205,"name":"eat Pant","steam_id":76561197974965536,"connected_time":1046000000000,"state":"active","ping":56},{"user_id":199,"name":"dulg","steam_id":76561198127640309,"connected_time":1215000000000,"state":"active","ping":79}]},{"server_id":402,"name":"Uncletopia | Chicago | 3 | All Maps","name_short":"chi-3","host":"chi-1.us.uncletopia.com","port":27035,"enabled":true,"region":"us-central","cc":"us","latitude":41.881832,"longitude":-87.62318,"reserved":0,"last_update":"0001-01-01T00:00:00Z","name_a2s":"Uncletopia | Chicago | 3 | All Maps","protocol":17,"map":"pl_upward","folder":"tf","game":"Team Fortress","app_id":440,"player_count":0,"max_players":24,"Bots":0,"server_type":"Dedicated","server_os":"Linux","password":true,"vac":true,"version":"7932396","steam_id":85568392924515191,"keywords":["nocrits","nodmgspread","payload","uncletopia"],"game_id":440,"stv_port":27036,"stv_name":"Uncletopia | Chicago | 3 | All Maps | STV","players":null},{"server_id":403,"name":"Uncletopia | Chicago | 4 | All Maps","name_short":"chi-4","host":"chi-1.us.uncletopia.com","port":27045,"enabled":true,"region":"us-central","cc":"us","latitude":41.881832,"longitude":-87.62318,"reserved":0,"last_update":"0001-01-01T00:00:00Z","name_a2s":"Uncletopia | Chicago | 4 | All Maps","protocol":17,"map":"pl_snowycoast","folder":"tf","game":"Team Fortress","app_id":440,"player_count":24,"max_players":24,"Bots":0,"server_type":"Dedicated","server_os":"Linux","password":true,"vac":true,"version":"7932396","steam_id":85568392924515193,"keywords":["nocrits","nodmgspread","payload","uncletopia"],"game_id":440,"stv_port":27046,"stv_name":"Uncletopia | Chicago | 4 | All Maps | STV","players":[{"user_id":386,"name":"shalankawanak","steam_id":76561198987719376,"connected_time":1986000000000,"state":"active","ping":50},{"user_id":385,"name":"NeonBean","steam_id":76561198088335827,"connected_time":2008000000000,"state":"active","ping":94},{"user_id":378,"name":"Snazzy_","steam_id":76561198014803098,"connected_time":2417000000000,"state":"active","ping":68},{"user_id":401,"name":"mar","steam_id":76561199187162134,"connected_time":804000000000,"state":"active","ping":71},{"user_id":415,"name":"Quark","steam_id":76561198328155605,"connected_time":183000000000,"state":"active","ping":49},{"user_id":404,"name":"shmoney maker","steam_id":76561198241948526,"connected_time":556000000000,"state":"active","ping":63},{"user_id":348,"name":"5mech","steam_id":76561198979167520,"connected_time":4609000000000,"state":"active","ping":52},{"user_id":407,"name":"William Wallace","steam_id":76561199343316814,"connected_time":393000000000,"state":"active","ping":73},{"user_id":416,"name":"Your Local Moron","steam_id":76561198810637224,"connected_time":124000000000,"state":"active","ping":68},{"user_id":360,"name":"a bellhop","steam_id":76561198046797995,"connected_time":3818000000000,"state":"active","ping":69},{"user_id":394,"name":"177013","steam_id":76561198072303290,"connected_time":1728000000000,"state":"active","ping":62},{"user_id":382,"name":"drevott74","steam_id":76561199262592779,"connected_time":2368000000000,"state":"active","ping":109},{"user_id":408,"name":"SCARRING THE HOES (i am lonely)","steam_id":76561198397009880,"connected_time":385000000000,"state":"active","ping":68},{"user_id":409,"name":"FizzleWizard","steam_id":76561198045990868,"connected_time":378000000000,"state":"active","ping":67},{"user_id":417,"name":"crayonnipple","steam_id":76561198070253331,"connected_time":78000000000,"state":"active","ping":74},{"user_id":405,"name":"kentuckyfriedsocks","steam_id":76561198311122883,"connected_time":484000000000,"state":"active","ping":85},{"user_id":410,"name":"SLEEPY-Class NHP","steam_id":76561198064583865,"connected_time":378000000000,"state":"active","ping":59},{"user_id":396,"name":"honor in defeat","steam_id":76561198013735714,"connected_time":1594000000000,"state":"active","ping":75},{"user_id":418,"name":"Goldensliv","steam_id":76561198161673891,"connected_time":28000000000,"state":"active","ping":113},{"user_id":403,"name":"x3 ♡","steam_id":76561198132011077,"connected_time":598000000000,"state":"active","ping":62},{"user_id":412,"name":"glankinator","steam_id":76561198354077256,"connected_time":286000000000,"state":"active","ping":47},{"user_id":414,"name":"Yam Jazzy Jim","steam_id":76561198000788950,"connected_time":277000000000,"state":"active","ping":71},{"user_id":395,"name":"6t26j","steam_id":76561198278282836,"connected_time":1722000000000,"state":"active","ping":54},{"user_id":393,"name":"D","steam_id":76561198292908619,"connected_time":1885000000000,"state":"active","ping":72}]},{"server_id":36,"name":"Uncletopia | Chicago | 5 | All Maps","name_short":"chi-5","host":"chi-2.us.uncletopia.com","port":27015,"enabled":true,"region":"us-central","cc":"us","latitude":41.881832,"longitude":-87.62318,"reserved":0,"last_update":"0001-01-01T00:00:00Z","name_a2s":"Uncletopia | Chicago | 5 | All Maps","protocol":17,"map":"cp_altitude","folder":"tf","game":"Team Fortress","app_id":440,"player_count":0,"max_players":24,"Bots":0,"server_type":"Dedicated","server_os":"Linux","password":true,"vac":true,"version":"7932396","steam_id":85568392924866362,"keywords":["cp","nocrits","nodmgspread","uncletopia"],"game_id":440,"stv_port":27016,"stv_name":"Uncletopia | Chicago | 5 | All Maps | STV","players":null},{"server_id":37,"name":"Uncletopia | Chicago | 6 | All Maps","name_short":"chi-6","host":"chi-2.us.uncletopia.com","port":27025,"enabled":true,"region":"us-central","cc":"us","latitude":41.881832,"longitude":-87.62318,"reserved":0,"last_update":"0001-01-01T00:00:00Z","name_a2s":"Uncletopia | Chicago | 6 | All Maps","protocol":17,"map":"pl_frontier_final","folder":"tf","game":"Team Fortress","app_id":440,"player_count":1,"max_players":24,"Bots":0,"server_type":"Dedicated","server_os":"Linux","password":true,"vac":true,"version":"7932396","steam_id":85568392924866363,"keywords":["nocrits","nodmgspread","payload","uncletopia"],"game_id":440,"stv_port":27026,"stv_name":"Uncletopia | Chicago | 6 | All Maps | STV","players":[{"user_id":32,"name":"jarrettconsult","steam_id":76561198249998262,"connected_time":180000000000,"state":"active","ping":105}]},{"server_id":38,"name":"Uncletopia | Chicago | 7 | Stopwatch Beta","name_short":"chi-7","host":"chi-2.us.uncletopia.com","port":27035,"enabled":true,"region":"us-central","cc":"us","latitude":41.881832,"longitude":-87.62318,"reserved":0,"last_update":"0001-01-01T00:00:00Z","name_a2s":"Uncletopia | Chicago | 7 | Stopwatch Beta","protocol":17,"map":"pl_borneo","folder":"tf","game":"Team Fortress","app_id":440,"player_count":0,"max_players":24,"Bots":0,"server_type":"Dedicated","server_os":"Linux","password":true,"vac":true,"version":"7932396","steam_id":85568392924866364,"keywords":["nocrits","nodmgspread","payload","uncletopia"],"game_id":440,"stv_port":27036,"stv_name":"Uncletopia | Chicago | 7 | Stopwatch Beta | STV","players":null},{"server_id":39,"name":"Uncletopia | Chicago | 8 | Community","name_short":"chi-8","host":"chi-2.us.uncletopia.com","port":27045,"enabled":true,"region":"us-central","cc":"us","latitude":41.881832,"longitude":-87.62318,"reserved":0,"last_update":"0001-01-01T00:00:00Z","name_a2s":"Uncletopia | Chicago | 8 | Community","protocol":17,"map":"koth_viaduct","folder":"tf","game":"Team Fortress","app_id":440,"player_count":7,"max_players":24,"Bots":0,"server_type":"Dedicated","server_os":"Linux","password":true,"vac":true,"version":"7932396","steam_id":85568392924866365,"keywords":["cp","nocrits","nodmgspread","uncletopia"],"game_id":440,"stv_port":27046,"stv_name":"Uncletopia | Chicago | 8 | Community | STV","players":[{"user_id":7,"name":"Yoshi2500","steam_id":76561199072458701,"connected_time":721000000000,"state":"active","ping":67},{"user_id":6,"name":"Buttercup","steam_id":76561198030816577,"connected_time":741000000000,"state":"active","ping":77},{"user_id":8,"name":"Big Boy B-Franks","steam_id":76561198050292373,"connected_time":516000000000,"state":"active","ping":121},{"user_id":9,"name":"Epsilous","steam_id":76561198141383786,"connected_time":473000000000,"state":"active","ping":102},{"user_id":10,"name":"Imagine Zetro","steam_id":76561198812842014,"connected_time":443000000000,"state":"active","ping":80},{"user_id":11,"name":"Warpy","steam_id":76561198055852599,"connected_time":229000000000,"state":"active","ping":82},{"user_id":12,"name":"shadowarrior","steam_id":76561198231304076,"connected_time":64000000000,"state":"active","ping":66}]},{"server_id":8,"name":"Uncletopia | Dallas | 1 | All Maps","name_short":"dal-1","host":"dal-1.us.uncletopia.com","port":27015,"enabled":true,"region":"us-central","cc":"us","latitude":32.779167,"longitude":-96.80889,"reserved":0,"last_update":"0001-01-01T00:00:00Z","name_a2s":"Uncletopia | Dallas | 1 | All Maps","protocol":17,"map":"cp_altitude","folder":"tf","game":"Team Fortress","app_id":440,"player_count":24,"max_players":24,"Bots":0,"server_type":"Dedicated","server_os":"Linux","password":true,"vac":true,"version":"7932396","steam_id":85568392924469986,"keywords":["cp","nocrits","nodmgspread","uncletopia"],"game_id":440,"stv_port":27016,"stv_name":"Uncletopia | Dallas | 1 | All Maps | STV","players":[{"user_id":431,"name":"Bubster3020 tera.gg","steam_id":76561198405350609,"connected_time":28000000000,"state":"active","ping":106},{"user_id":414,"name":"FroggerGaming20","steam_id":76561199112470899,"connected_time":701000000000,"state":"active","ping":101},{"user_id":426,"name":"slowdance","steam_id":76561198097427947,"connected_time":268000000000,"state":"active","ping":119},{"user_id":392,"name":"Ostrich","steam_id":76561198068553779,"connected_time":2409000000000,"state":"active","ping":75},{"user_id":385,"name":"DeadMeme","steam_id":76561198269707793,"connected_time":2780000000000,"state":"active","ping":64},{"user_id":407,"name":"Imrgrim","steam_id":76561198135866481,"connected_time":1126000000000,"state":"active","ping":67},{"user_id":402,"name":"AtomSQRRL","steam_id":76561199151951364,"connected_time":1322000000000,"state":"active","ping":79},{"user_id":415,"name":"1TheExterminator","steam_id":76561198972879727,"connected_time":695000000000,"state":"active","ping":56},{"user_id":416,"name":"Birdman","steam_id":76561199183704008,"connected_time":665000000000,"state":"active","ping":100},{"user_id":427,"name":"menta fresca","steam_id":76561198086666486,"connected_time":225000000000,"state":"active","ping":109},{"user_id":411,"name":"Bilbo Swaggins","steam_id":76561198300169517,"connected_time":904000000000,"state":"active","ping":392},{"user_id":408,"name":"abobobini","steam_id":76561198024307311,"connected_time":1100000000000,"state":"active","ping":74},{"user_id":409,"name":"EightySix","steam_id":76561198186678831,"connected_time":1083000000000,"state":"active","ping":78},{"user_id":401,"name":"el muchacho","steam_id":76561198282632562,"connected_time":1528000000000,"state":"active","ping":69},{"user_id":382,"name":"Career","steam_id":76561198028542212,"connected_time":3119000000000,"state":"active","ping":74},{"user_id":386,"name":"Minlit","steam_id":76561198205832799,"connected_time":2749000000000,"state":"active","ping":55},{"user_id":405,"name":"tsz","steam_id":76561199246231090,"connected_time":1231000000000,"state":"active","ping":82},{"user_id":430,"name":"Sahbi (she/they)","steam_id":76561199196292242,"connected_time":119000000000,"state":"active","ping":64},{"user_id":423,"name":"William Afton","steam_id":76561198819442173,"connected_time":387000000000,"state":"active","ping":130},{"user_id":420,"name":"TheAilingSword","steam_id":76561198250350844,"connected_time":540000000000,"state":"active","ping":54},{"user_id":396,"name":"Atlas","steam_id":76561198127975050,"connected_time":2245000000000,"state":"active","ping":68},{"user_id":421,"name":"EverythingZen","steam_id":76561198257384503,"connected_time":538000000000,"state":"active","ping":66},{"user_id":370,"name":"Your Favorite Fearless Hero","steam_id":76561199127590316,"connected_time":3739000000000,"state":"active","ping":99},{"user_id":429,"name":"Raziel","steam_id":76561198404168839,"connected_time":203000000000,"state":"active","ping":123}]},{"server_id":108,"name":"Uncletopia | Dallas | 2 | All Maps","name_short":"dal-2","host":"dal-1.us.uncletopia.com","port":27025,"enabled":true,"region":"us-central","cc":"us","latitude":32.779167,"longitude":-96.80889,"reserved":0,"last_update":"0001-01-01T00:00:00Z","name_a2s":"Uncletopia | Dallas | 2 | All Maps","protocol":17,"map":"pl_badwater","folder":"tf","game":"Team Fortress","app_id":440,"player_count":24,"max_players":24,"Bots":0,"server_type":"Dedicated","server_os":"Linux","password":true,"vac":true,"version":"7932396","steam_id":85568392924469988,"keywords":["nocrits","nodmgspread","payload","uncletopia"],"game_id":440,"stv_port":27026,"stv_name":"Uncletopia | Dallas | 2 | All Maps | STV","players":[{"user_id":76,"name":"Galaxy","steam_id":76561197997354354,"connected_time":2081000000000,"state":"active","ping":70},{"user_id":37,"name":"shnowshner","steam_id":76561198066450438,"connected_time":3667000000000,"state":"active","ping":100},{"user_id":38,"name":"Garfield Expert","steam_id":76561198092452824,"connected_time":3642000000000,"state":"active","ping":86},{"user_id":90,"name":"Nucklechuts","steam_id":76561199123867905,"connected_time":412000000000,"state":"active","ping":43},{"user_id":89,"name":"Dumbfox Casn't","steam_id":76561198049019822,"connected_time":450000000000,"state":"active","ping":90},{"user_id":73,"name":"Big Blue","steam_id":76561198084930108,"connected_time":2217000000000,"state":"active","ping":87},{"user_id":67,"name":"Drozz Misses Shots","steam_id":76561198072555204,"connected_time":2457000000000,"state":"active","ping":74},{"user_id":85,"name":"Smug","steam_id":76561198325526945,"connected_time":751000000000,"state":"active","ping":84},{"user_id":91,"name":"Piam2900","steam_id":76561198100337984,"connected_time":398000000000,"state":"active","ping":96},{"user_id":78,"name":"DustBowl TF2","steam_id":76561199171572966,"connected_time":1679000000000,"state":"active","ping":61},{"user_id":65,"name":"Sunny","steam_id":76561198125892600,"connected_time":2777000000000,"state":"active","ping":61},{"user_id":64,"name":"Killer_Byte_","steam_id":76561198153259922,"connected_time":2853000000000,"state":"active","ping":87},{"user_id":71,"name":"Eiann","steam_id":76561198360762316,"connected_time":2293000000000,"state":"active","ping":45},{"user_id":92,"name":"The Panda Knight","steam_id":76561198150282587,"connected_time":378000000000,"state":"active","ping":69},{"user_id":46,"name":"TheFriendlyPybro","steam_id":76561198119425604,"connected_time":3475000000000,"state":"active","ping":91},{"user_id":81,"name":"2JZ_","steam_id":76561198064027289,"connected_time":1030000000000,"state":"active","ping":73},{"user_id":98,"name":"Jo","steam_id":76561198060447015,"connected_time":77000000000,"state":"active","ping":76},{"user_id":82,"name":"JacBeQuic","steam_id":76561198299656413,"connected_time":1016000000000,"state":"active","ping":94},{"user_id":79,"name":"Jarryl97","steam_id":76561198055451373,"connected_time":1542000000000,"state":"active","ping":66},{"user_id":84,"name":"Röntgen","steam_id":76561197993492325,"connected_time":758000000000,"state":"active","ping":62},{"user_id":83,"name":"Captain Buggy","steam_id":76561198024444448,"connected_time":814000000000,"state":"active","ping":95},{"user_id":69,"name":"retaW","steam_id":76561198308097092,"connected_time":2356000000000,"state":"active","ping":59},{"user_id":96,"name":"[DEEP] Roz257","steam_id":76561198842844532,"connected_time":263000000000,"state":"active","ping":89},{"user_id":94,"name":"Choppah","steam_id":76561198269193530,"connected_time":311000000000,"state":"active","ping":48}]},{"server_id":5,"name":"Uncletopia | Frankfurt | 1 | All Maps","name_short":"frk-1","host":"frk-1.de.uncletopia.com","port":27015,"enabled":true,"region":"eu","cc":"de","latitude":50.110924,"longitude":8.682127,"reserved":0,"last_update":"0001-01-01T00:00:00Z","name_a2s":"Uncletopia | Frankfurt | 1 | All Maps","protocol":17,"map":"cp_mountainlab","folder":"tf","game":"Team Fortress","app_id":440,"player_count":13,"max_players":24,"Bots":0,"server_type":"Dedicated","server_os":"Linux","password":true,"vac":true,"version":"7932396","steam_id":85568392924469989,"keywords":["cp","nocrits","nodmgspread","uncletopia"],"game_id":440,"stv_port":27016,"stv_name":"Uncletopia | Frankfurt | 1 | All Maps | STV","players":[{"user_id":644,"name":"Crimson","steam_id":76561197987552332,"connected_time":524000000000,"state":"active","ping":43},{"user_id":581,"name":"GMsU | Rebikas","steam_id":76561198077053764,"connected_time":6039000000000,"state":"active","ping":40},{"user_id":629,"name":"hisham","steam_id":76561198414437290,"connected_time":2435000000000,"state":"active","ping":101},{"user_id":638,"name":"Moth","steam_id":76561198845262365,"connected_time":1212000000000,"state":"active","ping":101},{"user_id":645,"name":"iyed","steam_id":76561198982141827,"connected_time":468000000000,"state":"active","ping":141},{"user_id":648,"name":"ROB","steam_id":76561198982164150,"connected_time":148000000000,"state":"active","ping":76},{"user_id":643,"name":"Mad son","steam_id":76561197991300332,"connected_time":668000000000,"state":"active","ping":116},{"user_id":649,"name":"Krefa12","steam_id":76561198268375393,"connected_time":24000000000,"state":"active","ping":75},{"user_id":559,"name":"GMsU | Smiley","steam_id":76561198121494414,"connected_time":7475000000000,"state":"active","ping":89},{"user_id":561,"name":"yush","steam_id":76561198121688934,"connected_time":7465000000000,"state":"active","ping":73},{"user_id":630,"name":"B19-PP","steam_id":76561198057733920,"connected_time":2158000000000,"state":"active","ping":112},{"user_id":612,"name":"Amandus","steam_id":76561198036281079,"connected_time":3820000000000,"state":"active","ping":60},{"user_id":633,"name":"DaLuigi","steam_id":76561198054486188,"connected_time":1414000000000,"state":"active","ping":45}]},{"server_id":110,"name":"Uncletopia | Frankfurt | 2 | All Maps","name_short":"frk-2","host":"frk-1.de.uncletopia.com","port":27025,"enabled":true,"region":"eu","cc":"de","latitude":50.110924,"longitude":8.682127,"reserved":0,"last_update":"0001-01-01T00:00:00Z","name_a2s":"Uncletopia | Frankfurt | 2 | All Maps","protocol":17,"map":"pl_rumford_event","folder":"tf","game":"Team Fortress","app_id":440,"player_count":24,"max_players":24,"Bots":0,"server_type":"Dedicated","server_os":"Linux","password":true,"vac":true,"version":"7932396","steam_id":85568392924469990,"keywords":["nocrits","nodmgspread","payload","uncletopia"],"game_id":440,"stv_port":27026,"stv_name":"Uncletopia | Frankfurt | 2 | All Maps | STV","players":[{"user_id":414,"name":"SODA!!!!!!!","steam_id":76561198107362485,"connected_time":628000000000,"state":"active","ping":58},{"user_id":415,"name":"Klifton","steam_id":76561198803743443,"connected_time":610000000000,"state":"active","ping":73},{"user_id":419,"name":"Hattmannen","steam_id":76561198340884902,"connected_time":411000000000,"state":"active","ping":77},{"user_id":417,"name":"Biggus Dickus","steam_id":76561198018358868,"connected_time":549000000000,"state":"active","ping":68},{"user_id":370,"name":"Kowa4ui_korm","steam_id":76561198000724421,"connected_time":3484000000000,"state":"active","ping":91},{"user_id":418,"name":"Jordi.B","steam_id":76561198015233614,"connected_time":504000000000,"state":"active","ping":53},{"user_id":404,"name":"Michal jordan","steam_id":76561199106262610,"connected_time":1474000000000,"state":"active","ping":66},{"user_id":388,"name":"I.C. Wiener","steam_id":76561197999912254,"connected_time":2762000000000,"state":"active","ping":105},{"user_id":369,"name":"Greg","steam_id":76561198014131702,"connected_time":3516000000000,"state":"active","ping":129},{"user_id":393,"name":"Max Power","steam_id":76561198019269089,"connected_time":2598000000000,"state":"active","ping":47},{"user_id":380,"name":"marcelwellmann","steam_id":76561198868282827,"connected_time":3088000000000,"state":"active","ping":80},{"user_id":420,"name":"Toast","steam_id":76561198123766602,"connected_time":384000000000,"state":"active","ping":54},{"user_id":401,"name":"Fr1Zer","steam_id":76561198357086270,"connected_time":1846000000000,"state":"active","ping":107},{"user_id":410,"name":"MMMonkey | trade.tf","steam_id":76561198118917458,"connected_time":796000000000,"state":"active","ping":118},{"user_id":421,"name":"AnEliteSandwich","steam_id":76561198070890640,"connected_time":314000000000,"state":"active","ping":73},{"user_id":411,"name":"MC Stompin","steam_id":76561198061527217,"connected_time":745000000000,"state":"active","ping":68},{"user_id":423,"name":"TryTane","steam_id":76561198133293111,"connected_time":261000000000,"state":"active","ping":48},{"user_id":424,"name":"nikkielmao","steam_id":76561198086229832,"connected_time":219000000000,"state":"active","ping":60},{"user_id":413,"name":"THE Grosser","steam_id":76561197995530666,"connected_time":695000000000,"state":"active","ping":50},{"user_id":425,"name":"Spinya","steam_id":76561198086653667,"connected_time":172000000000,"state":"active","ping":67},{"user_id":426,"name":"pepper","steam_id":76561198852650589,"connected_time":154000000000,"state":"active","ping":90},{"user_id":397,"name":"vadim_kotler","steam_id":76561199016634369,"connected_time":2180000000000,"state":"active","ping":117},{"user_id":427,"name":"MS","steam_id":76561198037560108,"connected_time":132000000000,"state":"active","ping":53},{"user_id":392,"name":"Raspberry Lemonade","steam_id":76561198343462349,"connected_time":2627000000000,"state":"active","ping":108}]},{"server_id":308,"name":"Uncletopia | Frankfurt | 3 | All Maps","name_short":"frk-3","host":"frk-1.de.uncletopia.com","port":27035,"enabled":true,"region":"eu","cc":"de","latitude":50.110924,"longitude":8.682127,"reserved":0,"last_update":"0001-01-01T00:00:00Z","name_a2s":"Uncletopia | Frankfurt | 3 | All Maps","protocol":17,"map":"cp_process_final","folder":"tf","game":"Team Fortress","app_id":440,"player_count":24,"max_players":24,"Bots":0,"server_type":"Dedicated","server_os":"Linux","password":true,"vac":true,"version":"7932396","steam_id":85568392924504274,"keywords":["cp","nocrits","nodmgspread","uncletopia"],"game_id":440,"stv_port":27036,"stv_name":"Uncletopia | Frankfurt | 3 | All Maps | STV","players":[{"user_id":435,"name":"Genesis","steam_id":76561198999652040,"connected_time":978000000000,"state":"active","ping":46},{"user_id":429,"name":"Bonca","steam_id":76561198137503531,"connected_time":1357000000000,"state":"active","ping":75},{"user_id":453,"name":"KnugenIV","steam_id":76561198127091993,"connected_time":360000000000,"state":"active","ping":54},{"user_id":402,"name":"xavier","steam_id":76561198076494034,"connected_time":3498000000000,"state":"active","ping":55},{"user_id":423,"name":"Flight of the Blonde Giraffes","steam_id":76561198451585571,"connected_time":2162000000000,"state":"active","ping":69},{"user_id":431,"name":"roblan11","steam_id":76561198066839258,"connected_time":1275000000000,"state":"active","ping":45},{"user_id":436,"name":"MelonLad","steam_id":76561198975335528,"connected_time":928000000000,"state":"active","ping":69},{"user_id":415,"name":"Solymr ibn Wali Barad","steam_id":76561198044008976,"connected_time":2905000000000,"state":"active","ping":73},{"user_id":449,"name":"Envy","steam_id":76561198132723219,"connected_time":451000000000,"state":"active","ping":118},{"user_id":437,"name":"neJ","steam_id":76561198003397488,"connected_time":848000000000,"state":"active","ping":68},{"user_id":445,"name":"Doggo225","steam_id":76561198166707002,"connected_time":549000000000,"state":"active","ping":49},{"user_id":398,"name":"Vershal Smershal","steam_id":76561198116223995,"connected_time":4297000000000,"state":"active","ping":61},{"user_id":438,"name":"Tatsu","steam_id":76561198026601479,"connected_time":743000000000,"state":"active","ping":74},{"user_id":439,"name":"PKCrane","steam_id":76561198038672847,"connected_time":735000000000,"state":"active","ping":70},{"user_id":444,"name":"Bill_nye","steam_id":76561199216249214,"connected_time":575000000000,"state":"active","ping":161},{"user_id":450,"name":"madijo","steam_id":76561198012617400,"connected_time":433000000000,"state":"active","ping":60},{"user_id":452,"name":"akakez","steam_id":76561198095432821,"connected_time":387000000000,"state":"active","ping":119},{"user_id":425,"name":"Que le morteded non","steam_id":76561198068678853,"connected_time":1979000000000,"state":"active","ping":106},{"user_id":446,"name":"twitch.tv/cosmeticall","steam_id":76561198444036574,"connected_time":545000000000,"state":"active","ping":70},{"user_id":454,"name":"Nabalazs","steam_id":76561198086970184,"connected_time":325000000000,"state":"active","ping":86},{"user_id":447,"name":"KMP","steam_id":76561198278707199,"connected_time":540000000000,"state":"active","ping":115},{"user_id":448,"name":"taunt if thatcher's dead","steam_id":76561198057121917,"connected_time":519000000000,"state":"active","ping":83},{"user_id":456,"name":"-TA- Sussy Gilaric","steam_id":76561198067540283,"connected_time":285000000000,"state":"active","ping":65},{"user_id":428,"name":"GogsCrunchyNuts","steam_id":76561198150599213,"connected_time":1464000000000,"state":"active","ping":106}]},{"server_id":309,"name":"Uncletopia | Frankfurt | 4 | All Maps","name_short":"frk-4","host":"frk-1.de.uncletopia.com","port":27045,"enabled":true,"region":"eu","cc":"de","latitude":50.110924,"longitude":8.682127,"reserved":0,"last_update":"0001-01-01T00:00:00Z","name_a2s":"Uncletopia | Frankfurt | 4 | All Maps","protocol":17,"map":"cp_metalworks","folder":"tf","game":"Team Fortress","app_id":440,"player_count":18,"max_players":24,"Bots":0,"server_type":"Dedicated","server_os":"Linux","password":true,"vac":true,"version":"7932396","steam_id":85568392924504275,"keywords":["cp","nocrits","nodmgspread","uncletopia"],"game_id":440,"stv_port":27046,"stv_name":"Uncletopia | Frankfurt | 4 | All Maps | STV","players":[{"user_id":322,"name":"Huskey","steam_id":76561198152392309,"connected_time":552000000000,"state":"active","ping":47},{"user_id":224,"name":"Bakser Swagger","steam_id":76561198199774646,"connected_time":8540000000000,"state":"active","ping":80},{"user_id":324,"name":"notjak000","steam_id":76561199472259735,"connected_time":535000000000,"state":"active","ping":72},{"user_id":325,"name":"Cathedra","steam_id":76561198430227030,"connected_time":372000000000,"state":"active","ping":58},{"user_id":310,"name":"Fat Pigeon","steam_id":76561198817940142,"connected_time":2087000000000,"state":"active","ping":50},{"user_id":231,"name":"Bobirulez","steam_id":76561198009125458,"connected_time":8229000000000,"state":"active","ping":74},{"user_id":279,"name":"cuddle","steam_id":76561198805181599,"connected_time":4268000000000,"state":"active","ping":68},{"user_id":326,"name":"mt","steam_id":76561197961319303,"connected_time":230000000000,"state":"active","ping":45},{"user_id":327,"name":"Fridge","steam_id":76561198071665589,"connected_time":170000000000,"state":"active","ping":96},{"user_id":328,"name":"ƃuɐʇsnɯ","steam_id":76561198235739036,"connected_time":112000000000,"state":"active","ping":79},{"user_id":278,"name":"Udinese Dion","steam_id":76561198067931573,"connected_time":4388000000000,"state":"active","ping":48},{"user_id":330,"name":"The one who knocks","steam_id":76561198089341471,"connected_time":70000000000,"state":"active","ping":71},{"user_id":304,"name":"Rock..","steam_id":76561198004641963,"connected_time":2459000000000,"state":"active","ping":76},{"user_id":272,"name":"sunshine","steam_id":76561198084597975,"connected_time":5752000000000,"state":"active","ping":71},{"user_id":311,"name":"mèx","steam_id":76561197975951572,"connected_time":2050000000000,"state":"active","ping":59},{"user_id":301,"name":"finbar","steam_id":76561198056812396,"connected_time":2550000000000,"state":"active","ping":86},{"user_id":315,"name":"Nithle","steam_id":76561198025372740,"connected_time":1685000000000,"state":"active","ping":45},{"user_id":306,"name":"etc","steam_id":76561197998394797,"connected_time":2387000000000,"state":"active","ping":57}]},{"server_id":310,"name":"Uncletopia | Frankfurt | 5 | All Maps","name_short":"frk-5","host":"frk-1.de.uncletopia.com","port":27055,"enabled":true,"region":"eu","cc":"de","latitude":50.110924,"longitude":8.682127,"reserved":0,"last_update":"0001-01-01T00:00:00Z","name_a2s":"Uncletopia | Frankfurt | 5 | All Maps","protocol":17,"map":"cp_dustbowl","folder":"tf","game":"Team Fortress","app_id":440,"player_count":24,"max_players":24,"Bots":0,"server_type":"Dedicated","server_os":"Linux","password":true,"vac":true,"version":"7932396","steam_id":85568392924504277,"keywords":["cp","nocrits","nodmgspread","uncletopia"],"game_id":440,"stv_port":27056,"stv_name":"Uncletopia | Frankfurt | 5 | All Maps | STV","players":[{"user_id":435,"name":"FlameTheGame [P.I.I]","steam_id":76561198841108519,"connected_time":3695000000000,"state":"active","ping":85},{"user_id":458,"name":"cl","steam_id":76561199436640904,"connected_time":1372000000000,"state":"active","ping":76},{"user_id":423,"name":"Monsteh","steam_id":76561198325898181,"connected_time":4415000000000,"state":"active","ping":73},{"user_id":462,"name":"Solid","steam_id":76561198357049292,"connected_time":1230000000000,"state":"active","ping":75},{"user_id":472,"name":"bad farter","steam_id":76561198261853441,"connected_time":653000000000,"state":"active","ping":65},{"user_id":417,"name":"n0k0la","steam_id":76561198363645264,"connected_time":4477000000000,"state":"active","ping":92},{"user_id":452,"name":"str1k","steam_id":76561198450366153,"connected_time":2132000000000,"state":"active","ping":146},{"user_id":463,"name":"Tomfool","steam_id":76561197993256481,"connected_time":1125000000000,"state":"active","ping":73},{"user_id":464,"name":"誰かが見ている","steam_id":76561198834913692,"connected_time":1087000000000,"state":"active","ping":67},{"user_id":478,"name":"Pepegi","steam_id":76561198001230113,"connected_time":131000000000,"state":"active","ping":89},{"user_id":427,"name":"zek","steam_id":76561198862763731,"connected_time":4343000000000,"state":"active","ping":59},{"user_id":401,"name":"Certified Hood pybro (ua)","steam_id":76561198970562699,"connected_time":5336000000000,"state":"active","ping":96},{"user_id":361,"name":"Whackyone5588","steam_id":76561198846242972,"connected_time":8324000000000,"state":"active","ping":104},{"user_id":470,"name":"mkwii","steam_id":76561198062507768,"connected_time":763000000000,"state":"active","ping":61},{"user_id":477,"name":"Kaishakunin","steam_id":76561198028123874,"connected_time":218000000000,"state":"active","ping":90},{"user_id":471,"name":"calum92","steam_id":76561197992188760,"connected_time":732000000000,"state":"active","ping":85},{"user_id":454,"name":"JazzCat","steam_id":76561198305052350,"connected_time":1991000000000,"state":"active","ping":86},{"user_id":475,"name":"Salih","steam_id":76561198287934839,"connected_time":451000000000,"state":"active","ping":59},{"user_id":446,"name":"pretty boy","steam_id":76561198345972230,"connected_time":3045000000000,"state":"active","ping":77},{"user_id":467,"name":"MrBanana","steam_id":76561198116021623,"connected_time":908000000000,"state":"active","ping":56},{"user_id":473,"name":"Carrotcracker","steam_id":76561198034862396,"connected_time":618000000000,"state":"active","ping":68},{"user_id":469,"name":"Fem","steam_id":76561198398529841,"connected_time":894000000000,"state":"active","ping":72},{"user_id":436,"name":"DiscoTraveler","steam_id":76561199240168088,"connected_time":3687000000000,"state":"active","ping":141},{"user_id":453,"name":"Niko","steam_id":76561199006295285,"connected_time":2092000000000,"state":"active","ping":98}]},{"server_id":311,"name":"Uncletopia | Frankfurt | 6 | All Maps","name_short":"frk-6","host":"frk-1.de.uncletopia.com","port":27065,"enabled":true,"region":"eu","cc":"de","latitude":50.110924,"longitude":8.682127,"reserved":0,"last_update":"0001-01-01T00:00:00Z","name_a2s":"Uncletopia | Frankfurt | 6 | All Maps","protocol":17,"map":"koth_viaduct","folder":"tf","game":"Team Fortress","app_id":440,"player_count":5,"max_players":24,"Bots":0,"server_type":"Dedicated","server_os":"Linux","password":true,"vac":true,"version":"7932396","steam_id":85568392924504278,"keywords":["cp","nocrits","nodmgspread","uncletopia"],"game_id":440,"stv_port":27066,"stv_name":"Uncletopia | Frankfurt | 6 | All Maps | STV","players":[{"user_id":16,"name":"Twitch Chat","steam_id":76561198061580505,"connected_time":431000000000,"state":"active","ping":60},{"user_id":17,"name":"katten","steam_id":76561198163615254,"connected_time":394000000000,"state":"active","ping":59},{"user_id":18,"name":"F","steam_id":76561199149462792,"connected_time":289000000000,"state":"active","ping":71},{"user_id":19,"name":"bee","steam_id":76561198211644077,"connected_time":256000000000,"state":"active","ping":62},{"user_id":20,"name":"Knague","steam_id":76561198154332955,"connected_time":240000000000,"state":"active","ping":67}]},{"server_id":23,"name":"Uncletopia | Frankfurt | 7 | Stopwatch Beta","name_short":"frk-7","host":"frk-1.de.uncletopia.com","port":27075,"enabled":true,"region":"eu","cc":"de","latitude":50.110924,"longitude":8.682127,"reserved":0,"last_update":"0001-01-01T00:00:00Z","name_a2s":"Uncletopia | Frankfurt | 7 | Stopwatch Beta","protocol":17,"map":"pl_snowycoast","folder":"tf","game":"Team Fortress","app_id":440,"player_count":0,"max_players":24,"Bots":0,"server_type":"Dedicated","server_os":"Linux","password":true,"vac":true,"version":"7932396","steam_id":85568392924742827,"keywords":["nocrits","nodmgspread","payload","uncletopia"],"game_id":440,"stv_port":27076,"stv_name":"Uncletopia | Frankfurt | 7 | Stopwatch Beta | STV","players":null},{"server_id":24,"name":"Uncletopia | Frankfurt | 8 | Community","name_short":"frk-8","host":"frk-1.de.uncletopia.com","port":27085,"enabled":true,"region":"eu","cc":"de","latitude":50.110924,"longitude":8.682127,"reserved":0,"last_update":"0001-01-01T00:00:00Z","name_a2s":"Uncletopia | Frankfurt | 8 | Community","protocol":17,"map":"workshop/koth_ashville_final.ugc2130459942","folder":"tf","game":"Team Fortress","app_id":440,"player_count":0,"max_players":24,"Bots":0,"server_type":"Dedicated","server_os":"Linux","password":true,"vac":true,"version":"7932396","steam_id":85568392924742828,"keywords":["cp","nocrits","nodmgspread","uncletopia"],"game_id":440,"stv_port":27086,"stv_name":"Uncletopia | Frankfurt | 8 | Community | STV","players":null},{"server_id":202,"name":"Uncletopia | Hong Kong | 1 | All Maps","name_short":"hgk-1","host":"hgk-1.hk.uncletopia.com","port":27015,"enabled":true,"region":"asia","cc":"hk","latitude":22.302711,"longitude":114.177216,"reserved":0,"last_update":"0001-01-01T00:00:00Z","name_a2s":"Uncletopia | Hong Kong | 1 | All Maps","protocol":17,"map":"koth_viaduct","folder":"tf","game":"Team Fortress","app_id":440,"player_count":0,"max_players":24,"Bots":0,"server_type":"Dedicated","server_os":"Linux","password":true,"vac":true,"version":"7932396","steam_id":85568392924494504,"keywords":["cp","nocrits","nodmgspread","uncletopia"],"game_id":440,"stv_port":27016,"stv_name":"Uncletopia | Hong Kong | 1 | All Maps | STV","players":null},{"server_id":1,"name":"Uncletopia | Los Angeles | 1 | All Maps","name_short":"lax-1","host":"lax-1.us.uncletopia.com","port":27015,"enabled":true,"region":"us-west","cc":"us","latitude":33.94279,"longitude":-118.41004,"reserved":0,"last_update":"0001-01-01T00:00:00Z","name_a2s":"Uncletopia | Los Angeles | 1 | All Maps","protocol":17,"map":"pl_barnblitz","folder":"tf","game":"Team Fortress","app_id":440,"player_count":0,"max_players":24,"Bots":0,"server_type":"Dedicated","server_os":"Linux","password":true,"vac":true,"version":"7932396","steam_id":85568392924469991,"keywords":["nocrits","nodmgspread","payload","uncletopia"],"game_id":440,"stv_port":27016,"stv_name":"Uncletopia | Los Angeles | 1 | All Maps | STV","players":null},{"server_id":112,"name":"Uncletopia | Los Angeles | 2 | All Maps","name_short":"lax-2","host":"lax-1.us.uncletopia.com","port":27025,"enabled":true,"region":"us-west","cc":"us","latitude":33.94279,"longitude":-118.41004,"reserved":0,"last_update":"0001-01-01T00:00:00Z","name_a2s":"Uncletopia | Los Angeles | 2 | All Maps","protocol":17,"map":"pl_borneo","folder":"tf","game":"Team Fortress","app_id":440,"player_count":0,"max_players":24,"Bots":0,"server_type":"Dedicated","server_os":"Linux","password":true,"vac":true,"version":"7932396","steam_id":85568392924469992,"keywords":["nocrits","nodmgspread","payload","uncletopia"],"game_id":440,"stv_port":27026,"stv_name":"Uncletopia | Los Angeles | 2 | All Maps | STV","players":null},{"server_id":324,"name":"Uncletopia | Los Angeles | 3 | All Maps","name_short":"lax-3","host":"lax-1.us.uncletopia.com","port":27035,"enabled":true,"region":"us-west","cc":"us","latitude":33.94279,"longitude":-118.41004,"reserved":0,"last_update":"0001-01-01T00:00:00Z","name_a2s":"Uncletopia | Los Angeles | 3 | All Maps","protocol":17,"map":"koth_highpass","folder":"tf","game":"Team Fortress","app_id":440,"player_count":0,"max_players":24,"Bots":0,"server_type":"Dedicated","server_os":"Linux","password":true,"vac":true,"version":"7932396","steam_id":85568392924510198,"keywords":["cp","nocrits","nodmgspread","uncletopia"],"game_id":440,"stv_port":27036,"stv_name":"Uncletopia | Los Angeles | 3 | All Maps | STV","players":null},{"server_id":25,"name":"Uncletopia | Los Angeles | 4 | Stopwatch Beta","name_short":"lax-4","host":"lax-1.us.uncletopia.com","port":27045,"enabled":true,"region":"us-west","cc":"us","latitude":33.94279,"longitude":-118.41004,"reserved":0,"last_update":"0001-01-01T00:00:00Z","name_a2s":"Uncletopia | Los Angeles | 4 | Stopwatch Beta","protocol":17,"map":"cp_altitude","folder":"tf","game":"Team Fortress","app_id":440,"player_count":0,"max_players":24,"Bots":0,"server_type":"Dedicated","server_os":"Linux","password":true,"vac":true,"version":"7932396","steam_id":85568392924510199,"keywords":["cp","nocrits","nodmgspread","uncletopia"],"game_id":440,"stv_port":27046,"stv_name":"Uncletopia | Los Angeles | 4 | Stopwatch Beta | STV","players":null},{"server_id":11,"name":"Uncletopia | London | 1 | All Maps","name_short":"lon-1","host":"lon-1.uk.uncletopia.com","port":27015,"enabled":true,"region":"eu","cc":"gb","latitude":51.509865,"longitude":-0.118092,"reserved":0,"last_update":"0001-01-01T00:00:00Z","name_a2s":"Uncletopia | London | 1 | All Maps","protocol":17,"map":"cp_dustbowl","folder":"tf","game":"Team Fortress","app_id":440,"player_count":23,"max_players":24,"Bots":0,"server_type":"Dedicated","server_os":"Linux","password":true,"vac":true,"version":"7932396","steam_id":85568392924367362,"keywords":["cp","nocrits","nodmgspread","uncletopia"],"game_id":440,"stv_port":27016,"stv_name":"Uncletopia | London | 1 | All Maps | STV","players":[{"user_id":350,"name":"gnarly business","steam_id":76561198832688767,"connected_time":500000000000,"state":"active","ping":48},{"user_id":359,"name":"Joe","steam_id":76561198061717026,"connected_time":231000000000,"state":"active","ping":38},{"user_id":363,"name":"head empty","steam_id":76561199146973356,"connected_time":179000000000,"state":"active","ping":54},{"user_id":360,"name":"Crisp Rat","steam_id":76561198252853460,"connected_time":225000000000,"state":"active","ping":53},{"user_id":332,"name":"LegoBoy","steam_id":76561197983095579,"connected_time":2559000000000,"state":"active","ping":82},{"user_id":361,"name":"Townsend And Sons","steam_id":76561199072698153,"connected_time":222000000000,"state":"active","ping":71},{"user_id":353,"name":"Bottle O' Scrumpy","steam_id":76561199244250562,"connected_time":430000000000,"state":"active","ping":102},{"user_id":354,"name":"transgender e-girl","steam_id":76561198168589809,"connected_time":424000000000,"state":"active","ping":66},{"user_id":362,"name":"cat","steam_id":76561198832231975,"connected_time":194000000000,"state":"active","ping":120},{"user_id":340,"name":"Puss in Boots","steam_id":76561198211599767,"connected_time":1673000000000,"state":"active","ping":49},{"user_id":343,"name":"Caerot","steam_id":76561198839000676,"connected_time":1524000000000,"state":"active","ping":66},{"user_id":364,"name":"quickfast","steam_id":76561199438900919,"connected_time":175000000000,"state":"active","ping":45},{"user_id":333,"name":"trite","steam_id":76561197983765323,"connected_time":2540000000000,"state":"active","ping":49},{"user_id":365,"name":"Sunny Unruly","steam_id":76561199280853585,"connected_time":171000000000,"state":"active","ping":60},{"user_id":371,"name":"ByteLaw","steam_id":76561198434800890,"connected_time":31000000000,"state":"active","ping":146},{"user_id":367,"name":"Sentry hater","steam_id":76561199269309068,"connected_time":137000000000,"state":"active","ping":88},{"user_id":368,"name":"ruffeeh","steam_id":76561197995517185,"connected_time":130000000000,"state":"active","ping":90},{"user_id":296,"name":"The Butterman#SaveTF2","steam_id":76561198065057086,"connected_time":4749000000000,"state":"active","ping":75},{"user_id":347,"name":"Mrbluuub","steam_id":76561199273847084,"connected_time":900000000000,"state":"active","ping":88},{"user_id":369,"name":"Cervantes","steam_id":76561198099245500,"connected_time":110000000000,"state":"active","ping":55},{"user_id":372,"name":"ultimate hype man","steam_id":76561199208482994,"connected_time":1000000000,"state":"spawning","ping":35},{"user_id":370,"name":"FirePenguin","steam_id":76561198151468340,"connected_time":93000000000,"state":"active","ping":37},{"user_id":336,"name":"Replica","steam_id":76561198243258784,"connected_time":2488000000000,"state":"active","ping":75}]},{"server_id":114,"name":"Uncletopia | London | 2 | All Maps","name_short":"lon-2","host":"lon-1.uk.uncletopia.com","port":27025,"enabled":true,"region":"eu","cc":"gb","latitude":51.509865,"longitude":-0.118092,"reserved":0,"last_update":"0001-01-01T00:00:00Z","name_a2s":"Uncletopia | London | 2 | All Maps","protocol":17,"map":"cp_dustbowl","folder":"tf","game":"Team Fortress","app_id":440,"player_count":17,"max_players":24,"Bots":0,"server_type":"Dedicated","server_os":"Linux","password":true,"vac":true,"version":"7932396","steam_id":85568392924470941,"keywords":["cp","nocrits","nodmgspread","uncletopia"],"game_id":440,"stv_port":27026,"stv_name":"Uncletopia | London | 2 | All Maps | STV","players":[{"user_id":107,"name":"yuno appreciator","steam_id":76561198083286511,"connected_time":2002000000000,"state":"active","ping":45},{"user_id":139,"name":"Girlboy (Contained)","steam_id":76561198029025500,"connected_time":434000000000,"state":"active","ping":66},{"user_id":112,"name":"Elkabat","steam_id":76561198150017277,"connected_time":1622000000000,"state":"active","ping":60},{"user_id":122,"name":"slorp","steam_id":76561198239927434,"connected_time":1284000000000,"state":"active","ping":78},{"user_id":115,"name":"Girl btw UwU","steam_id":76561198303096886,"connected_time":1533000000000,"state":"active","ping":149},{"user_id":116,"name":"Luppi van Puppi","steam_id":76561198055986745,"connected_time":1501000000000,"state":"spawning","ping":93},{"user_id":114,"name":"Pyra Szlichta","steam_id":76561199015127243,"connected_time":1558000000000,"state":"active","ping":92},{"user_id":117,"name":"Lightning 'Sparky' Spark","steam_id":76561198017749215,"connected_time":1488000000000,"state":"active","ping":170},{"user_id":121,"name":"Rare bulldog owner","steam_id":76561199407941086,"connected_time":1325000000000,"state":"active","ping":71},{"user_id":123,"name":"Miiukade","steam_id":76561198089157860,"connected_time":1263000000000,"state":"active","ping":113},{"user_id":143,"name":"hhhhhh","steam_id":76561198031982574,"connected_time":239000000000,"state":"active","ping":62},{"user_id":127,"name":"Munibe","steam_id":76561198107967904,"connected_time":1043000000000,"state":"active","ping":68},{"user_id":128,"name":"flange","steam_id":76561198040182692,"connected_time":1023000000000,"state":"active","ping":34},{"user_id":131,"name":"Bepis Boy","steam_id":76561198278555807,"connected_time":845000000000,"state":"active","ping":47},{"user_id":132,"name":"FuneralDJ (semen demon)","steam_id":76561198105320071,"connected_time":824000000000,"state":"active","ping":46},{"user_id":133,"name":"penis gnome","steam_id":76561198097612561,"connected_time":798000000000,"state":"active","ping":56},{"user_id":137,"name":"alan","steam_id":76561198306947435,"connected_time":498000000000,"state":"active","ping":64}]},{"server_id":320,"name":"Uncletopia | London | 3 | All Maps","name_short":"lon-3","host":"lon-1.uk.uncletopia.com","port":27035,"enabled":true,"region":"eu","cc":"gb","latitude":51.509865,"longitude":-0.118092,"reserved":0,"last_update":"0001-01-01T00:00:00Z","name_a2s":"Uncletopia | London | 3 | All Maps","protocol":17,"map":"cp_steel","folder":"tf","game":"Team Fortress","app_id":440,"player_count":18,"max_players":24,"Bots":0,"server_type":"Dedicated","server_os":"Linux","password":true,"vac":true,"version":"7932396","steam_id":85568392924510192,"keywords":["cp","nocrits","nodmgspread","uncletopia"],"game_id":440,"stv_port":27036,"stv_name":"Uncletopia | London | 3 | All Maps | STV","players":[{"user_id":154,"name":"ninjacat424","steam_id":76561198339467815,"connected_time":5184000000000,"state":"active","ping":66},{"user_id":240,"name":"FLASH","steam_id":76561197996649686,"connected_time":1109000000000,"state":"active","ping":70},{"user_id":232,"name":"OceanMan","steam_id":76561198391833371,"connected_time":1315000000000,"state":"active","ping":40},{"user_id":263,"name":"Darfsterman #rustclash","steam_id":76561199004139305,"connected_time":133000000000,"state":"active","ping":70},{"user_id":265,"name":"Robotomatique","steam_id":76561198354793952,"connected_time":97000000000,"state":"spawning","ping":55},{"user_id":256,"name":"aww yeah","steam_id":76561197992978878,"connected_time":352000000000,"state":"active","ping":72},{"user_id":251,"name":"Hukka","steam_id":76561198035505355,"connected_time":530000000000,"state":"active","ping":98},{"user_id":255,"name":"ok","steam_id":76561198044451693,"connected_time":428000000000,"state":"active","ping":209},{"user_id":234,"name":"Patafoin","steam_id":76561198142395913,"connected_time":1232000000000,"state":"active","ping":65},{"user_id":165,"name":"Operable2694","steam_id":76561199486377532,"connected_time":4404000000000,"state":"active","ping":59},{"user_id":236,"name":"gabagool","steam_id":76561198307111838,"connected_time":1205000000000,"state":"active","ping":30},{"user_id":237,"name":"Spliffendor","steam_id":76561198144020209,"connected_time":1203000000000,"state":"active","ping":54},{"user_id":229,"name":"RedFog","steam_id":76561198284713081,"connected_time":1447000000000,"state":"active","ping":49},{"user_id":170,"name":"Ｒ Ｏ Ｂ Ｂ Ｅ Ｒ Ｔ","steam_id":76561198134404830,"connected_time":4078000000000,"state":"active","ping":133},{"user_id":230,"name":"2fort's silliest soldier","steam_id":76561198128613675,"connected_time":1433000000000,"state":"active","ping":82},{"user_id":243,"name":"Mr_Sir_Bread","steam_id":76561198964893691,"connected_time":952000000000,"state":"active","ping":88},{"user_id":205,"name":"Dim","steam_id":76561198141549249,"connected_time":2538000000000,"state":"active","ping":132},{"user_id":246,"name":"Mr. Jax","steam_id":76561197984300042,"connected_time":867000000000,"state":"active","ping":45}]},{"server_id":321,"name":"Uncletopia | London | 4 | All Maps","name_short":"lon-4","host":"lon-1.uk.uncletopia.com","port":27045,"enabled":true,"region":"eu","cc":"gb","latitude":51.509865,"longitude":-0.118092,"reserved":0,"last_update":"0001-01-01T00:00:00Z","name_a2s":"Uncletopia | London | 4 | All Maps","protocol":17,"map":"cp_sunshine","folder":"tf","game":"Team Fortress","app_id":440,"player_count":24,"max_players":24,"Bots":0,"server_type":"Dedicated","server_os":"Linux","password":true,"vac":true,"version":"7932396","steam_id":85568392924510193,"keywords":["cp","nocrits","nodmgspread","uncletopia"],"game_id":440,"stv_port":27046,"stv_name":"Uncletopia | London | 4 | All Maps | STV","players":[{"user_id":268,"name":"chey","steam_id":76561198035380064,"connected_time":1482000000000,"state":"active","ping":59},{"user_id":262,"name":"Eck","steam_id":76561198170101474,"connected_time":1569000000000,"state":"active","ping":64},{"user_id":274,"name":"Kestrel","steam_id":76561198144033005,"connected_time":1108000000000,"state":"active","ping":50},{"user_id":263,"name":"Gordon","steam_id":76561198303652059,"connected_time":1567000000000,"state":"active","ping":67},{"user_id":240,"name":"ROX","steam_id":76561198272289320,"connected_time":2650000000000,"state":"active","ping":62},{"user_id":227,"name":"trobin120","steam_id":76561199122420273,"connected_time":3011000000000,"state":"active","ping":123},{"user_id":256,"name":"errisauroh","steam_id":76561198112701938,"connected_time":2023000000000,"state":"active","ping":60},{"user_id":278,"name":"Walter Griffin","steam_id":76561199415989636,"connected_time":890000000000,"state":"active","ping":93},{"user_id":224,"name":"Wide \u0026 Irish","steam_id":76561198023640858,"connected_time":3295000000000,"state":"active","ping":30},{"user_id":286,"name":"PP_master69420","steam_id":76561199019913910,"connected_time":486000000000,"state":"active","ping":87},{"user_id":260,"name":"Edusuh","steam_id":76561198877948244,"connected_time":1780000000000,"state":"active","ping":86},{"user_id":277,"name":"tyler.d.martin666","steam_id":76561199438075342,"connected_time":1059000000000,"state":"active","ping":130},{"user_id":280,"name":"Exe_Red","steam_id":76561198154952759,"connected_time":815000000000,"state":"active","ping":104},{"user_id":234,"name":"Suetolog","steam_id":76561199053090212,"connected_time":2819000000000,"state":"active","ping":60},{"user_id":232,"name":"❤G a n K","steam_id":76561199125995565,"connected_time":2838000000000,"state":"active","ping":65},{"user_id":281,"name":"Explosive Poptart","steam_id":76561198023918830,"connected_time":782000000000,"state":"active","ping":43},{"user_id":287,"name":"The worst gunspy","steam_id":76561199104410590,"connected_time":473000000000,"state":"active","ping":69},{"user_id":282,"name":"fshfkr","steam_id":76561198095979282,"connected_time":748000000000,"state":"active","ping":44},{"user_id":257,"name":"Adopted Irishman","steam_id":76561198006130468,"connected_time":2020000000000,"state":"active","ping":48},{"user_id":266,"name":"ARROGANT","steam_id":76561198113089831,"connected_time":1559000000000,"state":"active","ping":93},{"user_id":267,"name":"zinzyk","steam_id":76561198128011822,"connected_time":1520000000000,"state":"active","ping":71},{"user_id":271,"name":"stock \u0026 ball torture","steam_id":76561198248239796,"connected_time":1347000000000,"state":"active","ping":56},{"user_id":249,"name":"Zembis","steam_id":76561198008017918,"connected_time":2400000000000,"state":"active","ping":118},{"user_id":284,"name":"$VIFT $NEAKY","steam_id":76561198061233344,"connected_time":722000000000,"state":"active","ping":45}]},{"server_id":21,"name":"Uncletopia | London | 5 | All Maps","name_short":"lon-5","host":"lon-1.uk.uncletopia.com","port":27055,"enabled":true,"region":"eu","cc":"gb","latitude":51.509865,"longitude":-0.118092,"reserved":0,"last_update":"0001-01-01T00:00:00Z","name_a2s":"Uncletopia | London | 5 | All Maps","protocol":17,"map":"pl_pier","folder":"tf","game":"Team Fortress","app_id":440,"player_count":24,"max_players":24,"Bots":0,"server_type":"Dedicated","server_os":"Linux","password":true,"vac":true,"version":"7932396","steam_id":85568392924742829,"keywords":["nocrits","nodmgspread","payload","uncletopia"],"game_id":440,"stv_port":27056,"stv_name":"Uncletopia | London | 5 | All Maps | STV","players":[{"user_id":224,"name":"Nyrgon","steam_id":76561198269206916,"connected_time":555000000000,"state":"active","ping":71},{"user_id":206,"name":"Jeffrey Harpen","steam_id":76561199073314677,"connected_time":1660000000000,"state":"active","ping":80},{"user_id":215,"name":"Demoknight tf2","steam_id":76561198133041874,"connected_time":950000000000,"state":"active","ping":147},{"user_id":207,"name":"BlobsOfWax","steam_id":76561198041752402,"connected_time":1654000000000,"state":"active","ping":41},{"user_id":225,"name":"TheEventGuy","steam_id":76561197972797744,"connected_time":548000000000,"state":"active","ping":76},{"user_id":199,"name":"Gravy","steam_id":76561198029548074,"connected_time":2091000000000,"state":"active","ping":49},{"user_id":205,"name":"Femboy Gaming","steam_id":76561198174108515,"connected_time":1731000000000,"state":"active","ping":49},{"user_id":222,"name":"nimbus","steam_id":76561199049550830,"connected_time":594000000000,"state":"active","ping":118},{"user_id":219,"name":"luckiee","steam_id":76561198062926958,"connected_time":698000000000,"state":"active","ping":38},{"user_id":181,"name":"Worm","steam_id":76561198296497176,"connected_time":2823000000000,"state":"active","ping":48},{"user_id":223,"name":"TobMan","steam_id":76561199132167284,"connected_time":587000000000,"state":"active","ping":53},{"user_id":228,"name":"ims trong","steam_id":76561198047359132,"connected_time":532000000000,"state":"active","ping":74},{"user_id":220,"name":"goblinninja110","steam_id":76561198269159354,"connected_time":659000000000,"state":"active","ping":61},{"user_id":218,"name":"toomas2018(real)","steam_id":76561199105796083,"connected_time":842000000000,"state":"active","ping":78},{"user_id":155,"name":"Asdfasds","steam_id":76561198029296185,"connected_time":4526000000000,"state":"active","ping":96},{"user_id":221,"name":"Faking.","steam_id":76561198823540483,"connected_time":655000000000,"state":"active","ping":88},{"user_id":226,"name":"xSuperPile23x","steam_id":76561198974610536,"connected_time":541000000000,"state":"active","ping":101},{"user_id":195,"name":"peso enjoyer","steam_id":76561198798177799,"connected_time":2413000000000,"state":"active","ping":78},{"user_id":210,"name":"Playing with new mouse (im bad)","steam_id":76561198139404261,"connected_time":1279000000000,"state":"active","ping":43},{"user_id":233,"name":"koth_harvest","steam_id":76561199195985387,"connected_time":35000000000,"state":"active","ping":98},{"user_id":193,"name":"DeterminedXD[HUN]","steam_id":76561199469006453,"connected_time":2474000000000,"state":"active","ping":105},{"user_id":217,"name":"zeppa114","steam_id":76561198065192734,"connected_time":888000000000,"state":"active","ping":61},{"user_id":114,"name":"Mono","steam_id":76561198114569493,"connected_time":6978000000000,"state":"active","ping":46},{"user_id":229,"name":"s a i","steam_id":76561197970379754,"connected_time":506000000000,"state":"active","ping":69}]},{"server_id":22,"name":"Uncletopia | London | 6 | All Maps","name_short":"lon-6","host":"lon-1.uk.uncletopia.com","port":27065,"enabled":true,"region":"eu","cc":"gb","latitude":51.509865,"longitude":-0.118092,"reserved":0,"last_update":"0001-01-01T00:00:00Z","name_a2s":"Uncletopia | London | 6 | All Maps","protocol":17,"map":"cp_process_final","folder":"tf","game":"Team Fortress","app_id":440,"player_count":0,"max_players":24,"Bots":0,"server_type":"Dedicated","server_os":"Linux","password":true,"vac":true,"version":"7932396","steam_id":85568392924742830,"keywords":["cp","nocrits","nodmgspread","uncletopia"],"game_id":440,"stv_port":27066,"stv_name":"Uncletopia | London | 6 | All Maps | STV","players":null},{"server_id":40,"name":"Uncletopia | London | 7 | No Payload","name_short":"lon-7","host":"lon-1.uk.uncletopia.com","port":27075,"enabled":true,"region":"eu","cc":"gb","latitude":51.509865,"longitude":-0.118092,"reserved":0,"last_update":"0001-01-01T00:00:00Z","name_a2s":"Uncletopia | London | 7 | No Payload","protocol":17,"map":"koth_lazarus","folder":"tf","game":"Team Fortress","app_id":440,"player_count":0,"max_players":24,"Bots":0,"server_type":"Dedicated","server_os":"Linux","password":true,"vac":true,"version":"7932396","steam_id":85568392924964314,"keywords":["cp","nocrits","nodmgspread","uncletopia"],"game_id":440,"stv_port":27076,"stv_name":"Uncletopia | London | 7 | No Payload | STV","players":null},{"server_id":41,"name":"Uncletopia | London | 8 | Community","name_short":"lon-8","host":"lon-1.uk.uncletopia.com","port":27085,"enabled":true,"region":"eu","cc":"gb","latitude":51.509865,"longitude":-0.118092,"reserved":0,"last_update":"0001-01-01T00:00:00Z","name_a2s":"Uncletopia | London | 8 | Community","protocol":17,"map":"workshop/pl_eruption_b9a.ugc2807898013","folder":"tf","game":"Team Fortress","app_id":440,"player_count":7,"max_players":24,"Bots":0,"server_type":"Dedicated","server_os":"Linux","password":true,"vac":true,"version":"7932396","steam_id":85568392924964315,"keywords":["nocrits","nodmgspread","payload","uncletopia"],"game_id":440,"stv_port":27086,"stv_name":"Uncletopia | London | 8 | Community | STV","players":[{"user_id":12,"name":"Ekon","steam_id":76561199145447699,"connected_time":5500000000000,"state":"active","ping":115},{"user_id":13,"name":"♥HuHi♥","steam_id":76561198286149089,"connected_time":5476000000000,"state":"active","ping":85},{"user_id":57,"name":"Interstellis fan","steam_id":76561199486155880,"connected_time":582000000000,"state":"active","ping":182},{"user_id":51,"name":"☸Koala99☸","steam_id":76561198375591154,"connected_time":1500000000000,"state":"active","ping":50},{"user_id":55,"name":"drippin jimmy","steam_id":76561198219243969,"connected_time":832000000000,"state":"active","ping":71},{"user_id":58,"name":"q47tx","steam_id":76561199181333933,"connected_time":338000000000,"state":"active","ping":81},{"user_id":44,"name":"ifre3","steam_id":76561198052545817,"connected_time":1889000000000,"state":"active","ping":105}]},{"server_id":300,"name":"Uncletopia | Montréal | 1 | All Maps","name_short":"mtl-1","host":"mtl-1.ca.uncletopia.com","port":27015,"enabled":true,"region":"us-east","cc":"ca","latitude":45.50889,"longitude":-73.56167,"reserved":0,"last_update":"0001-01-01T00:00:00Z","name_a2s":"Uncletopia | Montréal | 1 | All Maps","protocol":17,"map":"cp_altitude","folder":"tf","game":"Team Fortress","app_id":440,"player_count":0,"max_players":24,"Bots":0,"server_type":"Dedicated","server_os":"Linux","password":true,"vac":true,"version":"7932396","steam_id":85568392924500087,"keywords":["cp","nocrits","nodmgspread","uncletopia"],"game_id":440,"stv_port":27016,"stv_name":"Uncletopia | Montréal | 1 | All Maps | STV","players":null},{"server_id":301,"name":"Uncletopia | Montréal | 2 | All Maps","name_short":"mtl-2","host":"mtl-1.ca.uncletopia.com","port":27025,"enabled":true,"region":"us-east","cc":"ca","latitude":45.50889,"longitude":-73.56167,"reserved":0,"last_update":"0001-01-01T00:00:00Z","name_a2s":"Uncletopia | Montréal | 2 | All Maps","protocol":17,"map":"koth_lakeside_final","folder":"tf","game":"Team Fortress","app_id":440,"player_count":0,"max_players":24,"Bots":0,"server_type":"Dedicated","server_os":"Linux","password":true,"vac":true,"version":"7932396","steam_id":85568392924500088,"keywords":["cp","nocrits","nodmgspread","uncletopia"],"game_id":440,"stv_port":27026,"stv_name":"Uncletopia | Montréal | 2 | All Maps | STV","players":null},{"server_id":302,"name":"Uncletopia | Montréal | 3 | All Maps","name_short":"mtl-3","host":"mtl-1.ca.uncletopia.com","port":27035,"enabled":true,"region":"us-east","cc":"ca","latitude":45.50889,"longitude":-73.56167,"reserved":0,"last_update":"0001-01-01T00:00:00Z","name_a2s":"Uncletopia | Montréal | 3 | All Maps","protocol":17,"map":"cp_process_final","folder":"tf","game":"Team Fortress","app_id":440,"player_count":0,"max_players":24,"Bots":0,"server_type":"Dedicated","server_os":"Linux","password":true,"vac":true,"version":"7932396","steam_id":85568392924500089,"keywords":["cp","nocrits","nodmgspread","uncletopia"],"game_id":440,"stv_port":27036,"stv_name":"Uncletopia | Montréal | 3 | All Maps | STV","players":null},{"server_id":303,"name":"Uncletopia | Montréal | 4 | No Payload","name_short":"mtl-4","host":"mtl-1.ca.uncletopia.com","port":27045,"enabled":true,"region":"us-east","cc":"ca","latitude":45.50889,"longitude":-73.56167,"reserved":0,"last_update":"0001-01-01T00:00:00Z","name_a2s":"Uncletopia | Montréal | 4 | No Payload","protocol":17,"map":"ctf_landfall","folder":"tf","game":"Team Fortress","app_id":440,"player_count":0,"max_players":24,"Bots":0,"server_type":"Dedicated","server_os":"Linux","password":true,"vac":true,"version":"7932396","steam_id":85568392924500090,"keywords":["ctf","nocrits","nodmgspread","uncletopia"],"game_id":440,"stv_port":27046,"stv_name":"Uncletopia | Montréal | 4 | No Payload | STV","players":null},{"server_id":13,"name":"Uncletopia | New York City | 1 | All Maps","name_short":"nyc-1","host":"nyc-1.us.uncletopia.com","port":27015,"enabled":true,"region":"us-east","cc":"us","latitude":40.73061,"longitude":-73.93524,"reserved":0,"last_update":"0001-01-01T00:00:00Z","name_a2s":"Uncletopia | New York City | 1 | All Maps","protocol":17,"map":"koth_cascade","folder":"tf","game":"Team Fortress","app_id":440,"player_count":24,"max_players":24,"Bots":0,"server_type":"Dedicated","server_os":"Linux","password":true,"vac":true,"version":"7932396","steam_id":85568392924469993,"keywords":["cp","nocrits","nodmgspread","uncletopia"],"game_id":440,"stv_port":27016,"stv_name":"Uncletopia | New York City | 1 | All Maps | STV","players":[{"user_id":96,"name":"Huntsman TF2 Enthusiast","steam_id":76561198365321225,"connected_time":1325000000000,"state":"active","ping":59},{"user_id":59,"name":"Fightin Cow","steam_id":76561198080941486,"connected_time":4790000000000,"state":"active","ping":87},{"user_id":101,"name":"Kronk","steam_id":76561198245717236,"connected_time":988000000000,"state":"active","ping":63},{"user_id":91,"name":"Earl S","steam_id":76561198064273772,"connected_time":1770000000000,"state":"active","ping":77},{"user_id":46,"name":"Snake Handler","steam_id":76561198027198306,"connected_time":5840000000000,"state":"active","ping":60},{"user_id":80,"name":"Darkish Souls","steam_id":76561198095982312,"connected_time":2669000000000,"state":"active","ping":40},{"user_id":92,"name":"Gildedire","steam_id":76561198063959574,"connected_time":1754000000000,"state":"active","ping":59},{"user_id":75,"name":"erf","steam_id":76561198078203677,"connected_time":2905000000000,"state":"active","ping":53},{"user_id":85,"name":"Cereal With Water","steam_id":76561198337783795,"connected_time":2381000000000,"state":"active","ping":47},{"user_id":102,"name":"Temujin","steam_id":76561198030936583,"connected_time":933000000000,"state":"active","ping":44},{"user_id":65,"name":"mytoyo2k2","steam_id":76561199486326945,"connected_time":4627000000000,"state":"active","ping":71},{"user_id":42,"name":"Mr_mann35","steam_id":76561198380216643,"connected_time":6408000000000,"state":"active","ping":77},{"user_id":77,"name":"ElongatedEgg TTV","steam_id":76561198380989735,"connected_time":2893000000000,"state":"active","ping":134},{"user_id":103,"name":"Norman","steam_id":76561198154715990,"connected_time":81000000000,"state":"active","ping":99},{"user_id":69,"name":"Obama","steam_id":76561198194065283,"connected_time":4271000000000,"state":"active","ping":118},{"user_id":89,"name":"pong_","steam_id":76561198166982558,"connected_time":1880000000000,"state":"active","ping":144},{"user_id":88,"name":"Joy #savetf2","steam_id":76561198073690173,"connected_time":1891000000000,"state":"active","ping":55},{"user_id":105,"name":"TF2 Nuetral Christian Gaming","steam_id":76561198102037718,"connected_time":7000000000,"state":"spawning","ping":76},{"user_id":86,"name":"melvinsaurus56430","steam_id":76561198170276601,"connected_time":2342000000000,"state":"active","ping":103},{"user_id":94,"name":"Yesu","steam_id":76561198026522528,"connected_time":1711000000000,"state":"active","ping":45},{"user_id":87,"name":"TwoBit","steam_id":76561198062437559,"connected_time":2330000000000,"state":"active","ping":60},{"user_id":90,"name":"Pie™","steam_id":76561198158312625,"connected_time":1876000000000,"state":"active","ping":116},{"user_id":95,"name":"sunny","steam_id":76561198069380992,"connected_time":1697000000000,"state":"active","ping":89},{"user_id":100,"name":"Ketchup on Cheerios","steam_id":76561198050523315,"connected_time":996000000000,"state":"active","ping":162}]},{"server_id":14,"name":"Uncletopia | New York City | 2 | All Maps","name_short":"nyc-2","host":"nyc-1.us.uncletopia.com","port":27025,"enabled":true,"region":"us-east","cc":"us","latitude":40.73061,"longitude":-73.93524,"reserved":0,"last_update":"0001-01-01T00:00:00Z","name_a2s":"Uncletopia | New York City | 2 | All Maps","protocol":17,"map":"koth_lakeside_final","folder":"tf","game":"Team Fortress","app_id":440,"player_count":12,"max_players":24,"Bots":0,"server_type":"Dedicated","server_os":"Linux","password":true,"vac":true,"version":"7932396","steam_id":85568392924469994,"keywords":["cp","nocrits","nodmgspread","uncletopia"],"game_id":440,"stv_port":27026,"stv_name":"Uncletopia | New York City | 2 | All Maps | STV","players":[{"user_id":6,"name":"Jesse Bear","steam_id":76561198217075305,"connected_time":1628000000000,"state":"active","ping":68},{"user_id":21,"name":"Nimble_Nut","steam_id":76561198201653505,"connected_time":260000000000,"state":"active","ping":77},{"user_id":9,"name":"living in mushroom park","steam_id":76561198097588802,"connected_time":991000000000,"state":"active","ping":62},{"user_id":10,"name":"pee fartress poo","steam_id":76561198063152319,"connected_time":971000000000,"state":"active","ping":73},{"user_id":11,"name":"🅜🅔🅔🅚🅢🅣🅔\ufffd\ufffd\ufffd","steam_id":76561197999748343,"connected_time":827000000000,"state":"active","ping":75},{"user_id":12,"name":"GGass","steam_id":76561198173172369,"connected_time":816000000000,"state":"active","ping":150},{"user_id":15,"name":"g00bur","steam_id":76561197993622520,"connected_time":624000000000,"state":"active","ping":53},{"user_id":16,"name":"Game Of Life","steam_id":76561198262361438,"connected_time":547000000000,"state":"active","ping":78},{"user_id":26,"name":"Don't Fuckle with Shuckle","steam_id":76561199020102367,"connected_time":26000000000,"state":"active","ping":73},{"user_id":22,"name":"Absurdly Obese Cat","steam_id":76561198073202543,"connected_time":194000000000,"state":"active","ping":98},{"user_id":23,"name":"ᓀ‸ᓂ","steam_id":76561198046055673,"connected_time":161000000000,"state":"active","ping":46},{"user_id":20,"name":"Awesome Style Gaming","steam_id":76561198311537713,"connected_time":516000000000,"state":"active","ping":72}]},{"server_id":15,"name":"Uncletopia | New York City | 3 | Stopwatch Beta","name_short":"nyc-3","host":"nyc-1.us.uncletopia.com","port":27035,"enabled":true,"region":"us-east","cc":"us","latitude":40.73061,"longitude":-73.93524,"reserved":0,"last_update":"0001-01-01T00:00:00Z","name_a2s":"Uncletopia | New York City | 3 | Stopwatch Beta","protocol":17,"map":"cp_sunshine","folder":"tf","game":"Team Fortress","app_id":440,"player_count":0,"max_players":24,"Bots":0,"server_type":"Dedicated","server_os":"Linux","password":true,"vac":true,"version":"7932396","steam_id":85568392924742820,"keywords":["cp","nocrits","nodmgspread","uncletopia"],"game_id":440,"stv_port":27036,"stv_name":"Uncletopia | New York City | 3 | Stopwatch Beta | STV","players":null},{"server_id":16,"name":"Uncletopia | New York City | 4 | Community","name_short":"nyc-4","host":"nyc-1.us.uncletopia.com","port":27045,"enabled":true,"region":"us-east","cc":"us","latitude":40.73061,"longitude":-73.93524,"reserved":0,"last_update":"0001-01-01T00:00:00Z","name_a2s":"Uncletopia | New York City | 4 | Community","protocol":17,"map":"workshop/cp_hazyfort_rc6.ugc1365963729","folder":"tf","game":"Team Fortress","app_id":440,"player_count":0,"max_players":24,"Bots":0,"server_type":"Dedicated","server_os":"Linux","password":true,"vac":true,"version":"7932396","steam_id":85568392924742821,"keywords":["cp","nocrits","nodmgspread","uncletopia"],"game_id":440,"stv_port":27046,"stv_name":"Uncletopia | New York City | 4 | Community | STV","players":null},{"server_id":142,"name":"Uncletopia | São Paulo | 1 | All Maps","name_short":"sao-1","host":"sao-1.br.uncletopia.com","port":27015,"enabled":true,"region":"sa","cc":"br","latitude":-23.533773,"longitude":-46.62529,"reserved":0,"last_update":"0001-01-01T00:00:00Z","name_a2s":"Uncletopia | São Paulo | 1 | All Maps","protocol":17,"map":"koth_lakeside_final","folder":"tf","game":"Team Fortress","app_id":440,"player_count":0,"max_players":24,"Bots":0,"server_type":"Dedicated","server_os":"Linux","password":true,"vac":true,"version":"7932396","steam_id":85568392924469996,"keywords":["cp","nocrits","nodmgspread","uncletopia"],"game_id":440,"stv_port":27016,"stv_name":"Uncletopia | São Paulo | 1 | All Maps | STV","players":null},{"server_id":143,"name":"Uncletopia | São Paulo | 2 | All Maps","name_short":"sao-2","host":"sao-2.br.uncletopia.com","port":27015,"enabled":true,"region":"sa","cc":"br","latitude":-23.533773,"longitude":-46.62529,"reserved":0,"last_update":"0001-01-01T00:00:00Z","name_a2s":"Uncletopia | São Paulo | 2 | All Maps","protocol":17,"map":"pl_pier","folder":"tf","game":"Team Fortress","app_id":440,"player_count":0,"max_players":24,"Bots":0,"server_type":"Dedicated","server_os":"Linux","password":true,"vac":true,"version":"7932396","steam_id":85568392924485349,"keywords":["nocrits","nodmgspread","payload","uncletopia"],"game_id":440,"stv_port":27016,"stv_name":"Uncletopia | São Paulo | 2 | All Maps | STV","players":null},{"server_id":7,"name":"Uncletopia | Seattle | 1 | All Maps","name_short":"sea-1","host":"sea-1.us.uncletopia.com","port":27015,"enabled":true,"region":"us-west","cc":"us","latitude":47.608013,"longitude":-122.33517,"reserved":0,"last_update":"0001-01-01T00:00:00Z","name_a2s":"Uncletopia | Seattle | 1 | All Maps","protocol":17,"map":"pl_upward","folder":"tf","game":"Team Fortress","app_id":440,"player_count":24,"max_players":24,"Bots":0,"server_type":"Dedicated","server_os":"Linux","password":true,"vac":true,"version":"7932396","steam_id":85568392924469997,"keywords":["nocrits","nodmgspread","payload","uncletopia"],"game_id":440,"stv_port":27016,"stv_name":"Uncletopia | Seattle | 1 | All Maps | STV","players":[{"user_id":187,"name":"toes","steam_id":76561198221151676,"connected_time":2909000000000,"state":"active","ping":56},{"user_id":198,"name":"Integral","steam_id":76561198158225481,"connected_time":2355000000000,"state":"active","ping":84},{"user_id":223,"name":"Tibalt Nyahuma","steam_id":76561198034779431,"connected_time":32000000000,"state":"spawning","ping":115},{"user_id":193,"name":"smeasly","steam_id":76561198028718812,"connected_time":2626000000000,"state":"active","ping":37},{"user_id":221,"name":"THOTDADDY","steam_id":76561198069868942,"connected_time":70000000000,"state":"active","ping":114},{"user_id":194,"name":"Jacob Hornberger 2016","steam_id":76561198204549723,"connected_time":2607000000000,"state":"active","ping":118},{"user_id":217,"name":"Drapph","steam_id":76561199384213314,"connected_time":152000000000,"state":"active","ping":214},{"user_id":215,"name":"Hobojack","steam_id":76561198016598144,"connected_time":370000000000,"state":"active","ping":43},{"user_id":214,"name":"Laxoloni","steam_id":76561199197045700,"connected_time":475000000000,"state":"active","ping":88},{"user_id":169,"name":"team foolery 2","steam_id":76561199118049168,"connected_time":3780000000000,"state":"active","ping":81},{"user_id":184,"name":"Stone","steam_id":76561198195058370,"connected_time":3163000000000,"state":"active","ping":99},{"user_id":91,"name":"Muralo","steam_id":76561198202160268,"connected_time":10577000000000,"state":"active","ping":97},{"user_id":216,"name":"Kc","steam_id":76561198210734407,"connected_time":347000000000,"state":"active","ping":111},{"user_id":219,"name":"BolognaWithOlives","steam_id":76561198101262668,"connected_time":128000000000,"state":"active","ping":81},{"user_id":220,"name":"Subject Delta","steam_id":76561199109118980,"connected_time":127000000000,"state":"active","ping":80},{"user_id":211,"name":"sun","steam_id":76561198011329825,"connected_time":1594000000000,"state":"active","ping":75},{"user_id":218,"name":"CheeseCake488","steam_id":76561199407617942,"connected_time":148000000000,"state":"active","ping":129},{"user_id":199,"name":"Feasent","steam_id":76561198987316504,"connected_time":2307000000000,"state":"active","ping":67},{"user_id":196,"name":"[SK] Punish ♥ 牧濑红莉栖","steam_id":76561198207987376,"connected_time":2579000000000,"state":"active","ping":121},{"user_id":222,"name":"Unwanted Hero","steam_id":76561198070211478,"connected_time":62000000000,"state":"active","ping":157},{"user_id":85,"name":"Hope","steam_id":76561199182558088,"connected_time":10924000000000,"state":"active","ping":76},{"user_id":224,"name":"Brain damage squirrel","steam_id":76561198846344452,"connected_time":31000000000,"state":"spawning","ping":143},{"user_id":84,"name":"SaaxoM","steam_id":76561198208256603,"connected_time":11119000000000,"state":"active","ping":83},{"user_id":133,"name":"MEDTheProtogen","steam_id":76561198863984364,"connected_time":7701000000000,"state":"active","ping":95}]},{"server_id":119,"name":"Uncletopia | Seattle | 2 | All Maps","name_short":"sea-2","host":"sea-1.us.uncletopia.com","port":27025,"enabled":true,"region":"us-west","cc":"us","latitude":47.608013,"longitude":-122.33517,"reserved":0,"last_update":"0001-01-01T00:00:00Z","name_a2s":"Uncletopia | Seattle | 2 | All Maps","protocol":17,"map":"koth_lakeside_final","folder":"tf","game":"Team Fortress","app_id":440,"player_count":22,"max_players":24,"Bots":0,"server_type":"Dedicated","server_os":"Linux","password":true,"vac":true,"version":"7932396","steam_id":85568392924469998,"keywords":["cp","nocrits","nodmgspread","uncletopia"],"game_id":440,"stv_port":27026,"stv_name":"Uncletopia | Seattle | 2 | All Maps | STV","players":[{"user_id":95,"name":".dedk","steam_id":76561198892878097,"connected_time":18000000000,"state":"active","ping":302},{"user_id":76,"name":"Skull emoji","steam_id":76561199387783793,"connected_time":442000000000,"state":"active","ping":131},{"user_id":55,"name":"◥(◥▶_◀◤)◤","steam_id":76561198007464245,"connected_time":1432000000000,"state":"active","ping":123},{"user_id":88,"name":"Tali Simp Supreme","steam_id":76561198069639184,"connected_time":207000000000,"state":"active","ping":117},{"user_id":82,"name":"Thequirka","steam_id":76561198968058652,"connected_time":325000000000,"state":"active","ping":51},{"user_id":78,"name":"Grandpa 1MinecraftEmpire","steam_id":76561198069046338,"connected_time":431000000000,"state":"active","ping":57},{"user_id":69,"name":"SoundSmith (real)","steam_id":76561198936412406,"connected_time":863000000000,"state":"active","ping":130},{"user_id":93,"name":"Bot Maxwell","steam_id":76561198040781615,"connected_time":83000000000,"state":"active","ping":43},{"user_id":80,"name":"Enderlord99","steam_id":76561198158152954,"connected_time":356000000000,"state":"active","ping":62},{"user_id":19,"name":"keffers","steam_id":76561198202338796,"connected_time":3140000000000,"state":"active","ping":105},{"user_id":20,"name":"CInnabitch","steam_id":76561198913057497,"connected_time":3139000000000,"state":"active","ping":88},{"user_id":21,"name":"VELOURIA","steam_id":76561198116550170,"connected_time":3137000000000,"state":"active","ping":91},{"user_id":27,"name":"VerseG","steam_id":76561198059246919,"connected_time":2685000000000,"state":"active","ping":45},{"user_id":37,"name":"Gabby the Fox","steam_id":76561199200480562,"connected_time":2228000000000,"state":"active","ping":45},{"user_id":89,"name":"JonBoy","steam_id":76561198082052480,"connected_time":174000000000,"state":"active","ping":57},{"user_id":83,"name":"eryn 🗺","steam_id":76561198004433070,"connected_time":312000000000,"state":"active","ping":120},{"user_id":50,"name":"blossom","steam_id":76561198042735130,"connected_time":1506000000000,"state":"active","ping":64},{"user_id":91,"name":"frostedflakes99","steam_id":76561199049292578,"connected_time":129000000000,"state":"active","ping":76},{"user_id":52,"name":"Lindes","steam_id":76561198132472867,"connected_time":1473000000000,"state":"active","ping":90},{"user_id":54,"name":"beastievigoman","steam_id":76561198296314545,"connected_time":1453000000000,"state":"active","ping":75},{"user_id":62,"name":"FalconDabz","steam_id":76561199151759218,"connected_time":1129000000000,"state":"active","ping":145},{"user_id":92,"name":"ᴿᴺᴳ Gʀɪᴍᴠɪʙᴇs","steam_id":76561198065621941,"connected_time":114000000000,"state":"active","ping":50}]},{"server_id":406,"name":"Uncletopia | Seattle | 3 | Stopwatch Beta","name_short":"sea-3","host":"sea-1.us.uncletopia.com","port":27035,"enabled":true,"region":"us-west","cc":"us","latitude":47.608013,"longitude":-122.33517,"reserved":0,"last_update":"0001-01-01T00:00:00Z","name_a2s":"Uncletopia | Seattle | 3 | Stopwatch Beta","protocol":17,"map":"cp_gullywash_final1","folder":"tf","game":"Team Fortress","app_id":440,"player_count":0,"max_players":24,"Bots":0,"server_type":"Dedicated","server_os":"Linux","password":true,"vac":true,"version":"7932396","steam_id":85568392924515217,"keywords":["cp","nocrits","nodmgspread","uncletopia"],"game_id":440,"stv_port":27036,"stv_name":"Uncletopia | Seattle | 3 | Stopwatch Beta | STV","players":null},{"server_id":17,"name":"Uncletopia | San Francisco | 1 | All Maps","name_short":"sfo-1","host":"sfo-1.us.uncletopia.com","port":27015,"enabled":true,"region":"us-west","cc":"us","latitude":37.77397,"longitude":-122.4313,"reserved":0,"last_update":"0001-01-01T00:00:00Z","name_a2s":"Uncletopia | San Francisco | 1 | All Maps","protocol":17,"map":"koth_highpass","folder":"tf","game":"Team Fortress","app_id":440,"player_count":0,"max_players":24,"Bots":0,"server_type":"Dedicated","server_os":"Linux","password":true,"vac":true,"version":"7932396","steam_id":85568392924469999,"keywords":["cp","nocrits","nodmgspread","uncletopia"],"game_id":440,"stv_port":27016,"stv_name":"Uncletopia | San Francisco | 1 | All Maps | STV","players":null},{"server_id":18,"name":"Uncletopia | San Francisco | 2 | All Maps","name_short":"sfo-2","host":"sfo-1.us.uncletopia.com","port":27025,"enabled":true,"region":"us-west","cc":"us","latitude":37.77397,"longitude":-122.4313,"reserved":0,"last_update":"0001-01-01T00:00:00Z","name_a2s":"Uncletopia | San Francisco | 2 | All Maps","protocol":17,"map":"cp_snakewater_final1","folder":"tf","game":"Team Fortress","app_id":440,"player_count":0,"max_players":24,"Bots":0,"server_type":"Dedicated","server_os":"Linux","password":true,"vac":true,"version":"7932396","steam_id":85568392924470000,"keywords":["cp","nocrits","nodmgspread","uncletopia"],"game_id":440,"stv_port":27026,"stv_name":"Uncletopia | San Francisco | 2 | All Maps | STV","players":null},{"server_id":19,"name":"Uncletopia | San Francisco | 3 | Stopwatch Beta","name_short":"sfo-3","host":"sfo-1.us.uncletopia.com","port":27035,"enabled":true,"region":"us-west","cc":"us","latitude":37.77397,"longitude":-122.4313,"reserved":0,"last_update":"0001-01-01T00:00:00Z","name_a2s":"Uncletopia | San Francisco | 3 | Stopwatch Beta","protocol":17,"map":"koth_lakeside_final","folder":"tf","game":"Team Fortress","app_id":440,"player_count":0,"max_players":24,"Bots":0,"server_type":"Dedicated","server_os":"Linux","password":true,"vac":true,"version":"7932396","steam_id":85568392924742824,"keywords":["cp","nocrits","nodmgspread","uncletopia"],"game_id":440,"stv_port":27036,"stv_name":"Uncletopia | San Francisco | 3 | Stopwatch Beta | STV","players":null},{"server_id":20,"name":"Uncletopia | San Francisco | 4 | Community","name_short":"sfo-4","host":"sfo-1.us.uncletopia.com","port":27045,"enabled":true,"region":"us-west","cc":"us","latitude":37.77397,"longitude":-122.4313,"reserved":0,"last_update":"0001-01-01T00:00:00Z","name_a2s":"Uncletopia | San Francisco | 4 | Community","protocol":17,"map":"workshop/pl_eruption_b9a.ugc2807898013","folder":"tf","game":"Team Fortress","app_id":440,"player_count":23,"max_players":24,"Bots":0,"server_type":"Dedicated","server_os":"Linux","password":true,"vac":true,"version":"7932396","steam_id":85568392924742826,"keywords":["nocrits","nodmgspread","payload","uncletopia"],"game_id":440,"stv_port":27046,"stv_name":"Uncletopia | San Francisco | 4 | Community | STV","players":[{"user_id":172,"name":"Xenit","steam_id":76561199034158055,"connected_time":2438000000000,"state":"active","ping":96},{"user_id":189,"name":"The Sinister Potion","steam_id":76561198131280715,"connected_time":1556000000000,"state":"active","ping":128},{"user_id":212,"name":"Phantom_03","steam_id":76561198217929829,"connected_time":443000000000,"state":"active","ping":58},{"user_id":191,"name":"Freedy","steam_id":76561199115274103,"connected_time":1533000000000,"state":"active","ping":60},{"user_id":170,"name":"Sugary","steam_id":76561198088267265,"connected_time":2564000000000,"state":"active","ping":66},{"user_id":135,"name":"dog","steam_id":76561198090737207,"connected_time":5289000000000,"state":"active","ping":60},{"user_id":217,"name":"swag","steam_id":76561198336308039,"connected_time":31000000000,"state":"active","ping":218},{"user_id":204,"name":"Mico (Mico)","steam_id":76561198125462953,"connected_time":714000000000,"state":"active","ping":60},{"user_id":210,"name":"Ocean","steam_id":76561198862723526,"connected_time":506000000000,"state":"active","ping":91},{"user_id":179,"name":"Power Jake","steam_id":76561198051510260,"connected_time":2201000000000,"state":"active","ping":76},{"user_id":186,"name":"donkeyballs2007","steam_id":76561199466298683,"connected_time":1817000000000,"state":"active","ping":52},{"user_id":193,"name":"Sitting Duck","steam_id":76561198157550075,"connected_time":1487000000000,"state":"active","ping":133},{"user_id":176,"name":"Still Alive","steam_id":76561198042523000,"connected_time":2282000000000,"state":"active","ping":108},{"user_id":214,"name":"zam","steam_id":76561198295713840,"connected_time":303000000000,"state":"active","ping":73},{"user_id":211,"name":"NotSharky","steam_id":76561198078910436,"connected_time":460000000000,"state":"active","ping":60},{"user_id":160,"name":"wabermelom :) | Pizzabot.tf","steam_id":76561198373703835,"connected_time":3013000000000,"state":"active","ping":121},{"user_id":197,"name":"FRANKY!!!","steam_id":76561199211305343,"connected_time":1234000000000,"state":"active","ping":51},{"user_id":85,"name":"DuragGod69","steam_id":76561198067814426,"connected_time":8236000000000,"state":"active","ping":110},{"user_id":171,"name":"Cookie","steam_id":76561198283317413,"connected_time":2562000000000,"state":"active","ping":102},{"user_id":206,"name":"Nostalgia","steam_id":76561198051818797,"connected_time":653000000000,"state":"active","ping":69},{"user_id":213,"name":"primordialheath","steam_id":76561199386942638,"connected_time":338000000000,"state":"active","ping":105},{"user_id":199,"name":"eyemgaeh","steam_id":76561197972920442,"connected_time":1202000000000,"state":"active","ping":59},{"user_id":136,"name":"Rickysuper_52","steam_id":76561198067865179,"connected_time":5289000000000,"state":"active","ping":78}]},{"server_id":141,"name":"Uncletopia | Sydney | 1 | All Maps","name_short":"syd-1","host":"syd-1.au.uncletopia.com","port":27015,"enabled":true,"region":"au","cc":"au","latitude":-33.865143,"longitude":151.2099,"reserved":0,"last_update":"0001-01-01T00:00:00Z","name_a2s":"Uncletopia | Sydney | 1 | All Maps","protocol":17,"map":"pl_pier","folder":"tf","game":"Team Fortress","app_id":440,"player_count":0,"max_players":24,"Bots":0,"server_type":"Dedicated","server_os":"Linux","password":true,"vac":true,"version":"7932396","steam_id":85568392924470001,"keywords":["nocrits","nodmgspread","payload","uncletopia"],"game_id":440,"stv_port":27016,"stv_name":"Uncletopia | Sydney | 1 | All Maps | STV","players":null},{"server_id":123,"name":"Uncletopia | Sydney | 2 | All Maps","name_short":"syd-2","host":"syd-1.au.uncletopia.com","port":27025,"enabled":true,"region":"au","cc":"au","latitude":-33.865143,"longitude":151.2099,"reserved":0,"last_update":"0001-01-01T00:00:00Z","name_a2s":"Uncletopia | Sydney | 2 | All Maps","protocol":17,"map":"koth_lakeside_final","folder":"tf","game":"Team Fortress","app_id":440,"player_count":0,"max_players":24,"Bots":0,"server_type":"Dedicated","server_os":"Linux","password":true,"vac":true,"version":"7932396","steam_id":85568392924470002,"keywords":["cp","nocrits","nodmgspread","uncletopia"],"game_id":440,"stv_port":27026,"stv_name":"Uncletopia | Sydney | 2 | All Maps | STV","players":null},{"server_id":395,"name":"Uncletopia | Sydney | 3 | All Maps","name_short":"syd-3","host":"syd-1.au.uncletopia.com","port":27035,"enabled":true,"region":"au","cc":"au","latitude":-33.865143,"longitude":151.2099,"reserved":0,"last_update":"0001-01-01T00:00:00Z","name_a2s":"Uncletopia | Sydney | 3 | All Maps","protocol":17,"map":"pl_barnblitz","folder":"tf","game":"Team Fortress","app_id":440,"player_count":0,"max_players":24,"Bots":0,"server_type":"Dedicated","server_os":"Linux","password":true,"vac":true,"version":"7932396","steam_id":85568392925194467,"keywords":["nocrits","nodmgspread","payload","uncletopia"],"game_id":440,"stv_port":27036,"stv_name":"Uncletopia | Sydney | 3 | All Maps | STV","players":null},{"server_id":396,"name":"Uncletopia | Sydney | 4 | All Maps","name_short":"syd-4","host":"syd-1.au.uncletopia.com","port":27045,"enabled":true,"region":"au","cc":"au","latitude":-33.865143,"longitude":151.2099,"reserved":0,"last_update":"0001-01-01T00:00:00Z","name_a2s":"Uncletopia | Sydney | 4 | All Maps","protocol":17,"map":"pl_pier","folder":"tf","game":"Team Fortress","app_id":440,"player_count":0,"max_players":24,"Bots":0,"server_type":"Dedicated","server_os":"Linux","password":true,"vac":true,"version":"7932396","steam_id":85568392925397958,"keywords":["nocrits","nodmgspread","payload","uncletopia"],"game_id":440,"stv_port":27046,"stv_name":"Uncletopia | Sydney | 4 | All Maps | STV","players":null},{"server_id":58,"name":"Uncletopia | Sydney | 5 | Stopwatch Beta","name_short":"syd-5","host":"syd-1.au.uncletopia.com","port":27055,"enabled":true,"region":"au","cc":"au","latitude":-33.865143,"longitude":151.2099,"reserved":0,"last_update":"0001-01-01T00:00:00Z","name_a2s":"Uncletopia | Sydney | 5 | Stopwatch Beta","protocol":17,"map":"pl_borneo","folder":"tf","game":"Team Fortress","app_id":440,"player_count":0,"max_players":24,"Bots":0,"server_type":"Dedicated","server_os":"Linux","password":true,"vac":true,"version":"7932396","steam_id":85568392925397959,"keywords":["nocrits","nodmgspread","payload","uncletopia"],"game_id":440,"stv_port":27056,"stv_name":"Uncletopia | Sydney | 5 | Stopwatch Beta | STV","players":null},{"server_id":59,"name":"Uncletopia | Sydney | 6 | Community","name_short":"syd-6","host":"syd-1.au.uncletopia.com","port":27065,"enabled":true,"region":"au","cc":"au","latitude":-33.865143,"longitude":151.2099,"reserved":0,"last_update":"0001-01-01T00:00:00Z","name_a2s":"Uncletopia | Sydney | 6 | Community","protocol":17,"map":"pl_badwater","folder":"tf","game":"Team Fortress","app_id":440,"player_count":0,"max_players":24,"Bots":0,"server_type":"Dedicated","server_os":"Linux","password":true,"vac":true,"version":"7932396","steam_id":85568392925397960,"keywords":["nocrits","nodmgspread","payload","uncletopia"],"game_id":440,"stv_port":27066,"stv_name":"Uncletopia | Sydney | 6 | Community | STV","players":null},{"server_id":49,"name":"Uncletopia | Warsaw | 1 | All Maps","name_short":"waw-1","host":"waw-1.pl.uncletopia.com","port":27015,"enabled":true,"region":"eu","cc":"pl","latitude":52.2297,"longitude":21.017532,"reserved":0,"last_update":"0001-01-01T00:00:00Z","name_a2s":"","protocol":0,"map":"","folder":"","game":"","app_id":0,"player_count":0,"max_players":0,"Bots":0,"server_type":"","server_os":"","password":false,"vac":false,"version":"","steam_id":0,"keywords":null,"game_id":0,"stv_port":0,"stv_name":"","players":null},{"server_id":50,"name":"Uncletopia | Warsaw | 2 | All Maps","name_short":"waw-2","host":"waw-1.pl.uncletopia.com","port":27025,"enabled":true,"region":"eu","cc":"pl","latitude":52.2297,"longitude":21.017532,"reserved":0,"last_update":"0001-01-01T00:00:00Z","name_a2s":"Uncletopia | Warsaw | 2 | All Maps","protocol":17,"map":"koth_cascade","folder":"tf","game":"Team Fortress","app_id":440,"player_count":5,"max_players":24,"Bots":0,"server_type":"Dedicated","server_os":"Linux","password":true,"vac":true,"version":"7932396","steam_id":85568392925397851,"keywords":["cp","nocrits","nodmgspread","uncletopia"],"game_id":440,"stv_port":27026,"stv_name":"Uncletopia | Warsaw | 2 | All Maps | STV","players":[{"user_id":18,"name":"Hrabia","steam_id":76561198164608139,"connected_time":1523000000000,"state":"active","ping":56},{"user_id":14,"name":"Laryssa","steam_id":76561198271084076,"connected_time":2017000000000,"state":"active","ping":63},{"user_id":15,"name":"Guthlaf","steam_id":76561198153564078,"connected_time":1974000000000,"state":"active","ping":69},{"user_id":16,"name":"TheRock","steam_id":76561198386889558,"connected_time":1959000000000,"state":"active","ping":63},{"user_id":17,"name":"TumultousTeacups","steam_id":76561198287800213,"connected_time":1926000000000,"state":"active","ping":70}]},{"server_id":51,"name":"Uncletopia | Warsaw | 3 | All Maps","name_short":"waw-3","host":"waw-1.pl.uncletopia.com","port":27035,"enabled":true,"region":"eu","cc":"pl","latitude":52.2297,"longitude":21.017532,"reserved":0,"last_update":"0001-01-01T00:00:00Z","name_a2s":"Uncletopia | Warsaw | 3 | All Maps","protocol":17,"map":"pl_borneo","folder":"tf","game":"Team Fortress","app_id":440,"player_count":0,"max_players":24,"Bots":0,"server_type":"Dedicated","server_os":"Linux","password":true,"vac":true,"version":"7932396","steam_id":85568392925397852,"keywords":["nocrits","nodmgspread","payload","uncletopia"],"game_id":440,"stv_port":27036,"stv_name":"Uncletopia | Warsaw | 3 | All Maps | STV","players":null},{"server_id":52,"name":"Uncletopia | Warsaw | 4 | All Maps","name_short":"waw-4","host":"waw-1.pl.uncletopia.com","port":27045,"enabled":true,"region":"eu","cc":"pl","latitude":52.2297,"longitude":21.017532,"reserved":0,"last_update":"0001-01-01T00:00:00Z","name_a2s":"Uncletopia | Warsaw | 4 | All Maps","protocol":17,"map":"pl_swiftwater_final1","folder":"tf","game":"Team Fortress","app_id":440,"player_count":0,"max_players":24,"Bots":0,"server_type":"Dedicated","server_os":"Linux","password":true,"vac":true,"version":"7932396","steam_id":85568392925397853,"keywords":["nocrits","nodmgspread","payload","uncletopia"],"game_id":440,"stv_port":27046,"stv_name":"Uncletopia | Warsaw | 4 | All Maps | STV","players":null},{"server_id":53,"name":"Uncletopia | Warsaw | 5 | Stopwatch Beta","name_short":"waw-5","host":"waw-1.pl.uncletopia.com","port":27055,"enabled":true,"region":"eu","cc":"pl","latitude":52.2297,"longitude":21.017532,"reserved":0,"last_update":"0001-01-01T00:00:00Z","name_a2s":"Uncletopia | Warsaw | 5 | Stopwatch Beta","protocol":17,"map":"koth_highpass","folder":"tf","game":"Team Fortress","app_id":440,"player_count":0,"max_players":24,"Bots":0,"server_type":"Dedicated","server_os":"Linux","password":true,"vac":true,"version":"7932396","steam_id":85568392925397854,"keywords":["cp","nocrits","nodmgspread","uncletopia"],"game_id":440,"stv_port":27056,"stv_name":"Uncletopia | Warsaw | 5 | Stopwatch Beta | STV","players":null},{"server_id":54,"name":"Uncletopia | Warsaw | 6 | Community","name_short":"waw-6","host":"waw-1.pl.uncletopia.com","port":27065,"enabled":true,"region":"eu","cc":"pl","latitude":52.2297,"longitude":21.017532,"reserved":0,"last_update":"0001-01-01T00:00:00Z","name_a2s":"Uncletopia | Warsaw | 6 | Community","protocol":17,"map":"workshop/pl_cactuscanyon_redux_final2.ugc2579644293","folder":"tf","game":"Team Fortress","app_id":440,"player_count":0,"max_players":24,"Bots":0,"server_type":"Dedicated","server_os":"Linux","password":true,"vac":true,"version":"7932396","steam_id":85568392925397856,"keywords":["nocrits","nodmgspread","payload","uncletopia"],"game_id":440,"stv_port":27066,"stv_name":"Uncletopia | Warsaw | 6 | Community | STV","players":null}]}