{"status":true,"message":"","result":[{"server_id":9,"name":"Uncletopia | Atlanta | 1 | All Maps","name_short":"atl-1","host":"atl-1.us.uncletopia.com","port":27015,"enabled":true,"region":"us-east","cc":"us","latitude":33.753746,"longitude":-84.38633,"reserved":0,"last_update":"0001-01-01T00:00:00Z","name_a2s":"Uncletopia | Atlanta | 1 | All Maps","protocol":17,"map":"pl_barnblitz","folder":"tf","game":"Team Fortress","app_id":440,"player_count":24,"max_players":24,"Bots":0,"server_type":"Dedicated","server_os":"Linux","password":true,"vac":true,"version":"7961495","steam_id":85568392924469982,"keywords":["nocrits","nodmgspread","payload","uncletopia"],"game_id":440,"stv_port":27016,"stv_name":"Uncletopia | Atlanta | 1 | All Maps | STV","players":[{"user_id":93,"name":"lil hog","steam_id":76561199230929836,"connected_time":10364000000000,"state":"active","ping":92},{"user_id":161,"name":"Toonice","steam_id":76561198402994885,"connected_time":2209000000000,"state":"active","ping":84},{"user_id":156,"name":"eish","steam_id":76561198089463603,"connected_time":4001000000000,"state":"active","ping":115},{"user_id":164,"name":"Jingles the Box Elf","steam_id":76561198022302843,"connected_time":2175000000000,"state":"active","ping":60},{"user_id":150,"name":"FIJI","steam_id":76561198126087725,"connected_time":4325000000000,"state":"active","ping":68},{"user_id":151,"name":"DeezNoodlez","steam_id":76561198246700372,"connected_time":4321000000000,"state":"active","ping":58},{"user_id":160,"name":"MotorolÂª","steam_id":76561198358119669,"connected_time":2632000000000,"state":"active","ping":120},{"user_id":179,"name":"BLOW UP NEW JERSEY","steam_id":76561198364439575,"connected_time":205000000000,"state":"active","ping":70},{"user_id":169,"name":"Am Da Best","steam_id":76561198163825955,"connected_time":1733000000000,"state":"active","ping":105},{"user_id":126,"name":"William Wallace","steam_id":76561199343316814,"connected_time":7132000000000,"state":"active","ping":57},{"user_id":174,"name":"Dr.Inkmix(femboy medic!)","steam_id":76561198854070384,"connected_time":447000000000,"state":"active","ping":116},{"user_id":175,"name":"ATL1 | cola","steam_id":76561198374390458,"connected_time":443000000000,"state":"active","ping":66},{"user_id":165,"name":"loot","steam_id":76561198069954956,"connected_time":2155000000000,"state":"active","ping":45},{"user_id":170,"name":"lu","steam_id":76561198080731872,"connected_time":1329000000000,"state":"active","ping":90},{"user_id":168,"name":"joe","steam_id":76561198045781320,"connected_time":1956000000000,"state":"active","ping":71},{"user_id":182,"name":"The Notorious RBG","steam_id":76561198014275148,"connected_time":26000000000,"state":"active","ping":75},{"user_id":144,"name":"HARK! TRITON! HARK!","steam_id":76561198064127012,"connected_time":4870000000000,"state":"active","ping":59},{"user_id":137,"name":"Notsocreative","steam_id":76561198236372202,"connected_time":5806000000000,"state":"active","ping":93},{"user_id":162,"name":"Ya viene...ðŸ¥µ","steam_id":76561198298364415,"connected_time":2178000000000,"state":"active","ping":103},{"user_id":102,"name":"Albino Jellyfish","steam_id":76561198208561097,"connected_time":9803000000000,"state":"active","ping":54},{"user_id":167,"name":"Sophie","steam_id":76561198170408057,"connected_time":1987000000000,"state":"active","ping":55},{"user_id":178,"name":"Dox","steam_id":76561198120368589,"connected_time":268000000000,"state":"active","ping":64},{"user_id":141,"name":"/\\","steam_id":76561198045522596,"connected_time":5449000000000,"state":"active","ping":71},{"user_id":173,"name":"Dreszerg","steam_id":76561198838757422,"connected_time":460000000000,"state":"active","ping":97}]},{"server_id":104,"name":"Uncletopia | Atlanta | 2 | All Maps","name_short":"atl-2","host":"atl-1.us.uncletopia.com","port":27025,"enabled":true,"region":"us-east","cc":"us","latitude":33.753746,"longitude":-84.38633,"reserved":0,"last_update":"0001-01-01T00:00:00Z","name_a2s":"Uncletopia | Atlanta | 2 | All Maps","protocol":17,"map":"koth_cascade","folder":"tf","game":"Team Fortress","app_id":440,"player_count":0,"max_players":24,"Bots":0,"server_type":"Dedicated","server_os":"Linux","password":true,"vac":true,"version":"7961495","steam_id":85568392924469983,"keywords":["cp","nocrits","nodmgspread","uncletopia"],"game_id":440,"stv_port":27026,"stv_name":"Uncletopia | Atlanta | 2 | All Maps | STV","players":null},{"server_id":400,"name":"Uncletopia | Atlanta | 3 | Stopwatch","name_short":"atl-3","host":"atl-1.us.uncletopia.com","port":27035,"enabled":true,"region":"us-east","cc":"us","latitude":33.753746,"longitude":-84.38633,"reserved":0,"last_update":"0001-01-01T00:00:00Z","name_a2s":"Uncletopia | Atlanta | 3 | Stopwatch","protocol":17,"map":"pl_upward","folder":"tf","game":"Team Fortress","app_id":440,"player_count":0,"max_players":24,"Bots":0,"server_type":"Dedicated","server_os":"Linux","password":true,"vac":true,"version":"7961495","steam_id":85568392924515187,"keywords":["nocrits","nodmgspread","payload","uncletopia"],"game_id":440,"stv_port":27036,"stv_name":"Uncletopia | Atlanta | 3 | Stopwatch | STV","players":null},{"server_id":401,"name":"Uncletopia | Atlanta | 4 | Community","name_short":"atl-4","host":"atl-1.us.uncletopia.com","port":27045,"enabled":true,"region":"us-east","cc":"us","latitude":33.753746,"longitude":-84.38633,"reserved":0,"last_update":"0001-01-01T00:00:00Z","name_a2s":"Uncletopia | Atlanta | 4 | Community","protocol":17,"map":"workshop/pl_cashworks_final1.ugc2904065412","folder":"tf","game":"Team Fortress","app_id":440,"player_count":13,"max_players":24,"Bots":0,"server_type":"Dedicated","server_os":"Linux","password":true,"vac":true,"version":"7961495","steam_id":85568392924515188,"keywords":["nocrits","nodmgspread","payload","uncletopia"],"game_id":440,"stv_port":27046,"stv_name":"Uncletopia | Atlanta | 4 | Community | STV","players":[{"user_id":7,"name":"portal","steam_id":76561198142432749,"connected_time":757000000000,"state":"active","ping":64},{"user_id":9,"name":"ã‚¹ã‚­ãƒ ","steam_id":76561198085317389,"connected_time":702000000000,"state":"active","ping":186},{"user_id":10,"name":"prune","steam_id":76561198246597590,"connected_time":697000000000,"state":"active","ping":66},{"user_id":12,"name":"Varie","steam_id":76561199454930210,"connected_time":592000000000,"state":"active","ping":89},{"user_id":13,"name":"Miami \"The Cunnysseur\" Zeal","steam_id":76561198124558226,"connected_time":539000000000,"state":"active","ping":108},{"user_id":14,"name":"dark souls boss","steam_id":76561198316610724,"connected_time":367000000000,"state":"active","ping":104},{"user_id":15,"name":"danteisdum","steam_id":76561199128521088,"connected_time":274000000000,"state":"active","ping":82},{"user_id":16,"name":"Hallucigenia","steam_id":76561198174788342,"connected_time":227000000000,"state":"active","ping":70},{"user_id":17,"name":"Ask Nicely For Heals","steam_id":76561198138478907,"connected_time":209000000000,"state":"active","ping":82},{"user_id":18,"name":"cajun thotsauce","steam_id":76561198101636066,"connected_time":142000000000,"state":"active","ping":90},{"user_id":19,"name":"Squirrel with a Wrench","steam_id":76561198334035413,"connected_time":77000000000,"state":"active","ping":66},{"user_id":20,"name":"Piloto190Demente","steam_id":76561199210752440,"connected_time":50000000000,"state":"spawning","ping":306},{"user_id":21,"name":"Onerish","steam_id":76561198042057889,"connected_time":39000000000,"state":"spawning","ping":290}]},{"server_id":2,"name":"Uncletopia | Chicago | 1 | All Maps","name_short":"chi-1","host":"chi-1.us.uncletopia.com","port":27015,"enabled":true,"region":"us-central","cc":"us","latitude":41.881832,"longitude":-87.62318,"reserved":0,"last_update":"0001-01-01T00:00:00Z","name_a2s":"Uncletopia | Chicago | 1 | All Maps","protocol":17,"map":"koth_viaduct","folder":"tf","game":"Team Fortress","app_id":440,"player_count":24,"max_players":24,"Bots":0,"server_type":"Dedicated","server_os":"Linux","password":true,"vac":true,"version":"7961495","steam_id":85568392924469984,"keywords":["cp","nocrits","nodmgspread","uncletopia"],"game_id":440,"stv_port":27016,"stv_name":"Uncletopia | Chicago | 1 | All Maps | STV","players":[{"user_id":384,"name":"Arkut","steam_id":76561198036998075,"connected_time":847000000000,"state":"active","ping":92},{"user_id":367,"name":"Ras","steam_id":76561198123546775,"connected_time":2542000000000,"state":"active","ping":89},{"user_id":355,"name":"FAKE TAXI PRANKS","steam_id":76561198136746987,"connected_time":3568000000000,"state":"active","ping":83},{"user_id":372,"name":"I.C.","steam_id":76561198049256017,"connected_time":1625000000000,"state":"active","ping":76},{"user_id":373,"name":"Hylic","steam_id":76561199051314589,"connected_time":1618000000000,"state":"active","ping":60},{"user_id":369,"name":"Maurdakar","steam_id":76561197983420976,"connected_time":2381000000000,"state":"active","ping":74},{"user_id":327,"name":"Cooler Ye","steam_id":76561198068830312,"connected_time":5142000000000,"state":"active","ping":48},{"user_id":361,"name":"spencil","steam_id":76561198053727976,"connected_time":3194000000000,"state":"active","ping":61},{"user_id":334,"name":"loscemo","steam_id":76561197994884609,"connected_time":4623000000000,"state":"active","ping":70},{"user_id":383,"name":"corned beef","steam_id":76561199366782761,"connected_time":1315000000000,"state":"active","ping":161},{"user_id":366,"name":"dunk","steam_id":76561198132476501,"connected_time":2573000000000,"state":"active","ping":51},{"user_id":390,"name":"cotton candy ghooost","steam_id":76561198058998371,"connected_time":659000000000,"state":"active","ping":66},{"user_id":385,"name":"Minin","steam_id":76561198018819047,"connected_time":839000000000,"state":"active","ping":95},{"user_id":304,"name":"Amari","steam_id":76561198272446730,"connected_time":6997000000000,"state":"active","ping":57},{"user_id":329,"name":"Tito","steam_id":76561198041702529,"connected_time":4918000000000,"state":"active","ping":90},{"user_id":393,"name":"joseph stalin","steam_id":76561199230441293,"connected_time":255000000000,"state":"active","ping":72},{"user_id":395,"name":"Blasterus","steam_id":76561198859486814,"connected_time":23000000000,"state":"active","ping":76},{"user_id":377,"name":"debin","steam_id":76561198070711217,"connected_time":1586000000000,"state":"active","ping":56},{"user_id":387,"name":"Eins Shinigami","steam_id":76561199030343810,"connected_time":784000000000,"state":"active","ping":58},{"user_id":391,"name":"bird enthusiast","steam_id":76561198087661713,"connected_time":542000000000,"state":"active","ping":65},{"user_id":388,"name":"Sinta","steam_id":76561198098398841,"connected_time":782000000000,"state":"active","ping":61},{"user_id":368,"name":"the silly","steam_id":76561198850632709,"connected_time":2509000000000,"state":"active","ping":84},{"user_id":392,"name":"Goose","steam_id":76561198328998533,"connected_time":370000000000,"state":"active","ping":58},{"user_id":328,"name":"LerN","steam_id":76561198083463877,"connected_time":5142000000000,"state":"active","ping":57}]},{"server_id":106,"name":"Uncletopia | Chicago | 2 | All Maps","name_short":"chi-2","host":"chi-1.us.uncletopia.com","port":27025,"enabled":true,"region":"us-central","cc":"us","latitude":41.881832,"longitude":-87.62318,"reserved":0,"last_update":"0001-01-01T00:00:00Z","name_a2s":"Uncletopia | Chicago | 2 | All Maps","protocol":17,"map":"pl_badwater","folder":"tf","game":"Team Fortress","app_id":440,"player_count":24,"max_players":24,"Bots":0,"server_type":"Dedicated","server_os":"Linux","password":true,"vac":true,"version":"7961495","steam_id":85568392924469985,"keywords":["nocrits","nodmgspread","payload","uncletopia"],"game_id":440,"stv_port":27026,"stv_name":"Uncletopia | Chicago | 2 | All Maps | STV","players":[{"user_id":58,"name":"Hertz","steam_id":76561198310927351,"connected_time":120000000000,"state":"active","ping":145},{"user_id":13,"name":"medd","steam_id":76561198078238722,"connected_time":2165000000000,"state":"active","ping":87},{"user_id":54,"name":"Salt","steam_id":76561198418001135,"connected_time":145000000000,"state":"active","ping":61},{"user_id":42,"name":"Master Oogway","steam_id":76561198252199106,"connected_time":1475000000000,"state":"active","ping":64},{"user_id":15,"name":"Koala Bear","steam_id":76561198118025990,"connected_time":2152000000000,"state":"active","ping":86},{"user_id":17,"name":"Ice","steam_id":76561198045076794,"connected_time":1969000000000,"state":"active","ping":46},{"user_id":59,"name":"Catsontrains","steam_id":76561198066686704,"connected_time":117000000000,"state":"active","ping":68},{"user_id":22,"name":"Chechens Spotted","steam_id":76561199028910893,"connected_time":1829000000000,"state":"active","ping":84},{"user_id":51,"name":"Res","steam_id":76561198167207112,"connected_time":895000000000,"state":"active","ping":73},{"user_id":43,"name":"Church","steam_id":76561199214866732,"connected_time":1472000000000,"state":"active","ping":70},{"user_id":55,"name":"Joculatrix","steam_id":76561198012795457,"connected_time":144000000000,"state":"active","ping":74},{"user_id":49,"name":"Novu","steam_id":76561198886997024,"connected_time":1015000000000,"state":"active","ping":89},{"user_id":56,"name":"CoconutRice","steam_id":76561198114909164,"connected_time":144000000000,"state":"active","ping":46},{"user_id":29,"name":"Frontier Psychiatrist","steam_id":76561198038689088,"connected_time":1698000000000,"state":"active","ping":88},{"user_id":45,"name":"Rick Assley","steam_id":76561198365019199,"connected_time":1173000000000,"state":"active","ping":78},{"user_id":53,"name":"Shrebbie","steam_id":76561198875230824,"connected_time":665000000000,"state":"active","ping":66},{"user_id":32,"name":"Silvr","steam_id":76561198069368377,"connected_time":1687000000000,"state":"active","ping":77},{"user_id":46,"name":"The Hose on Upward","steam_id":76561197965092192,"connected_time":1080000000000,"state":"active","ping":88},{"user_id":34,"name":"à¶ž","steam_id":76561199365672047,"connected_time":1685000000000,"state":"active","ping":85},{"user_id":35,"name":"Subject Delta","steam_id":76561199109118980,"connected_time":1683000000000,"state":"active","ping":133},{"user_id":36,"name":"Rappy \u003c3","steam_id":76561198105613110,"connected_time":1683000000000,"state":"active","ping":49},{"user_id":47,"name":"Mad Rex512","steam_id":76561198193533117,"connected_time":1054000000000,"state":"active","ping":52},{"user_id":39,"name":"big_poopman2011","steam_id":76561198373996593,"connected_time":1658000000000,"state":"active","ping":61},{"user_id":60,"name":"uzr","steam_id":76561198799343084,"connected_time":117000000000,"state":"active","ping":104}]},{"server_id":402,"name":"Uncletopia | Chicago | 3 | All Maps","name_short":"chi-3","host":"chi-1.us.uncletopia.com","port":27035,"enabled":true,"region":"us-central","cc":"us","latitude":41.881832,"longitude":-87.62318,"reserved":0,"last_update":"0001-01-01T00:00:00Z","name_a2s":"Uncletopia | Chicago | 3 | All Maps","protocol":17,"map":"cp_process_final","folder":"tf","game":"Team Fortress","app_id":440,"player_count":24,"max_players":24,"Bots":0,"server_type":"Dedicated","server_os":"Linux","password":true,"vac":true,"version":"7961495","steam_id":85568392924515191,"keywords":["cp","nocrits","nodmgspread","uncletopia"],"game_id":440,"stv_port":27036,"stv_name":"Uncletopia | Chicago | 3 | All Maps | STV","players":[{"user_id":275,"name":"skaska4","steam_id":76561198080606141,"connected_time":1069000000000,"state":"active","ping":76},{"user_id":240,"name":"Headshotsnake","steam_id":76561198067130248,"connected_time":3349000000000,"state":"active","ping":58},{"user_id":266,"name":"NUt","steam_id":76561198031007966,"connected_time":1405000000000,"state":"active","ping":60},{"user_id":274,"name":"dave","steam_id":76561198135961731,"connected_time":1266000000000,"state":"active","ping":82},{"user_id":265,"name":"Doctor_Redstone","steam_id":76561198061947161,"connected_time":1475000000000,"state":"active","ping":69},{"user_id":258,"name":"incredirocks","steam_id":76561198061079993,"connected_time":2033000000000,"state":"active","ping":46},{"user_id":252,"name":"BeautifulDeer","steam_id":76561198119588300,"connected_time":2396000000000,"state":"active","ping":73},{"user_id":253,"name":"Overduecat","steam_id":76561198092452824,"connected_time":2385000000000,"state":"active","ping":71},{"user_id":244,"name":"Vordt","steam_id":76561198040942866,"connected_time":3175000000000,"state":"active","ping":58},{"user_id":281,"name":"UwU","steam_id":76561198971629959,"connected_time":635000000000,"state":"active","ping":134},{"user_id":255,"name":"shnowshner","steam_id":76561198066450438,"connected_time":2190000000000,"state":"active","ping":75},{"user_id":229,"name":"yes daddy","steam_id":76561198166100997,"connected_time":4507000000000,"state":"active","ping":73},{"user_id":267,"name":"Gustavo Fring","steam_id":76561198132807405,"connected_time":1382000000000,"state":"active","ping":92},{"user_id":282,"name":"repulsive garbage disposal coug","steam_id":76561198992250013,"connected_time":495000000000,"state":"active","ping":67},{"user_id":278,"name":"npc energy","steam_id":76561198035342207,"connected_time":921000000000,"state":"active","ping":45},{"user_id":260,"name":"Tyth","steam_id":76561198062543298,"connected_time":1720000000000,"state":"active","ping":89},{"user_id":268,"name":"serious","steam_id":76561198040671133,"connected_time":1363000000000,"state":"active","ping":57},{"user_id":279,"name":"Hey","steam_id":76561198447517893,"connected_time":904000000000,"state":"active","ping":70},{"user_id":280,"name":"Aster","steam_id":76561198037920420,"connected_time":705000000000,"state":"active","ping":80},{"user_id":263,"name":"Cam","steam_id":76561198139174433,"connected_time":1592000000000,"state":"active","ping":91},{"user_id":269,"name":"cbv eagwsewdaefsd","steam_id":76561198304661367,"connected_time":1354000000000,"state":"active","ping":73},{"user_id":270,"name":"Decapitation Station","steam_id":76561198201796098,"connected_time":1351000000000,"state":"active","ping":88},{"user_id":248,"name":"Ms Twig","steam_id":76561198144111736,"connected_time":2726000000000,"state":"active","ping":53}]},{"server_id":403,"name":"Uncletopia | Chicago | 4 | All Maps","name_short":"chi-4","host":"chi-1.us.uncletopia.com","port":27045,"enabled":true,"region":"us-central","cc":"us","latitude":41.881832,"longitude":-87.62318,"reserved":0,"last_update":"0001-01-01T00:00:00Z","name_a2s":"Uncletopia | Chicago | 4 | All Maps","protocol":17,"map":"pl_barnblitz","folder":"tf","game":"Team Fortress","app_id":440,"player_count":24,"max_players":24,"Bots":0,"server_type":"Dedicated","server_os":"Linux","password":true,"vac":true,"version":"7961495","steam_id":85568392924515193,"keywords":["nocrits","nodmgspread","payload","uncletopia"],"game_id":440,"stv_port":27046,"stv_name":"Uncletopia | Chicago | 4 | All Maps | STV","players":[{"user_id":158,"name":"Smashy","steam_id":76561198030704307,"connected_time":622000000000,"state":"active","ping":78},{"user_id":166,"name":"Firedust19","steam_id":76561198153238631,"connected_time":347000000000,"state":"active","ping":108},{"user_id":124,"name":"Weerk","steam_id":76561199209543551,"connected_time":2570000000000,"state":"active","ping":81},{"user_id":44,"name":"HAT-WEARINGâ„¢ Maggot Gamer Cat","steam_id":76561197973992705,"connected_time":8687000000000,"state":"active","ping":110},{"user_id":143,"name":"Rock buddy","steam_id":76561198209197020,"connected_time":1520000000000,"state":"active","ping":65},{"user_id":147,"name":"The No-Longer Mute","steam_id":76561198078359985,"connected_time":1138000000000,"state":"active","ping":61},{"user_id":149,"name":"ThatGamingKiwi","steam_id":76561199170522237,"connected_time":858000000000,"state":"active","ping":72},{"user_id":169,"name":"D(b) Hell","steam_id":76561198067869016,"connected_time":225000000000,"state":"active","ping":44},{"user_id":156,"name":"Try Gardening","steam_id":76561198120311340,"connected_time":671000000000,"state":"active","ping":50},{"user_id":148,"name":"a chicken","steam_id":76561198313121580,"connected_time":896000000000,"state":"active","ping":96},{"user_id":159,"name":"Schizoid Despot","steam_id":76561198141902905,"connected_time":621000000000,"state":"active","ping":63},{"user_id":140,"name":"Seskova","steam_id":76561198090207032,"connected_time":1871000000000,"state":"active","ping":114},{"user_id":168,"name":"dree says relax!","steam_id":76561198079178866,"connected_time":237000000000,"state":"active","ping":70},{"user_id":151,"name":"spaceboots","steam_id":76561197977322319,"connected_time":748000000000,"state":"active","ping":65},{"user_id":133,"name":"Whippin Forgies","steam_id":76561198071058300,"connected_time":2001000000000,"state":"active","ping":71},{"user_id":130,"name":"â’¸â“†â’·","steam_id":76561199068623664,"connected_time":2294000000000,"state":"active","ping":108},{"user_id":145,"name":"doro","steam_id":76561198099041747,"connected_time":1500000000000,"state":"active","ping":90},{"user_id":141,"name":"Riff III","steam_id":76561198066921423,"connected_time":1739000000000,"state":"active","ping":82},{"user_id":152,"name":"BarcodeBenny","steam_id":76561198123553989,"connected_time":714000000000,"state":"active","ping":66},{"user_id":113,"name":"bouncypear","steam_id":76561198199800094,"connected_time":3143000000000,"state":"active","ping":56},{"user_id":165,"name":"sam","steam_id":76561198088504281,"connected_time":480000000000,"state":"active","ping":61},{"user_id":163,"name":"â˜¯iKouRyuuâ˜¯","steam_id":76561198088228019,"connected_time":541000000000,"state":"active","ping":84},{"user_id":164,"name":"Garfield","steam_id":76561198147300599,"connected_time":535000000000,"state":"active","ping":67},{"user_id":170,"name":"WaldyrH","steam_id":76561199185989504,"connected_time":206000000000,"state":"active","ping":195}]},{"server_id":36,"name":"Uncletopia | Chicago | 5 | All Maps","name_short":"chi-5","host":"chi-2.us.uncletopia.com","port":27015,"enabled":true,"region":"us-central","cc":"us","latitude":41.881832,"longitude":-87.62318,"reserved":0,"last_update":"0001-01-01T00:00:00Z","name_a2s":"Uncletopia | Chicago | 5 | All Maps","protocol":17,"map":"koth_viaduct","folder":"tf","game":"Team Fortress","app_id":440,"player_count":1,"max_players":24,"Bots":0,"server_type":"Dedicated","server_os":"Linux","password":true,"vac":true,"version":"7961495","steam_id":85568392924866362,"keywords":["cp","nocrits","nodmgspread","uncletopia"],"game_id":440,"stv_port":27016,"stv_name":"Uncletopia | Chicago | 5 | All Maps | STV","players":[{"user_id":10,"name":"Ask Nicely For Heals","steam_id":76561198138478907,"connected_time":258000000000,"state":"connecting","ping":0}]},{"server_id":37,"name":"Uncletopia | Chicago | 6 | All Maps","name_short":"chi-6","host":"chi-2.us.uncletopia.com","port":27025,"enabled":true,"region":"us-central","cc":"us","latitude":41.881832,"longitude":-87.62318,"reserved":0,"last_update":"0001-01-01T00:00:00Z","name_a2s":"Uncletopia | Chicago | 6 | All Maps","protocol":17,"map":"pl_pier","folder":"tf","game":"Team Fortress","app_id":440,"player_count":0,"max_players":24,"Bots":0,"server_type":"Dedicated","server_os":"Linux","password":true,"vac":true,"version":"7961495","steam_id":85568392924866363,"keywords":["nocrits","nodmgspread","payload","uncletopia"],"game_id":440,"stv_port":27026,"stv_name":"Uncletopia | Chicago | 6 | All Maps | STV","players":null},{"server_id":38,"name":"Uncletopia | Chicago | 7 | Stopwatch","name_short":"chi-7","host":"chi-2.us.uncletopia.com","port":27035,"enabled":true,"region":"us-central","cc":"us","latitude":41.881832,"longitude":-87.62318,"reserved":0,"last_update":"0001-01-01T00:00:00Z","name_a2s":"Uncletopia | Chicago | 7 | Stopwatch","protocol":17,"map":"cp_metalworks","folder":"tf","game":"Team Fortress","app_id":440,"player_count":0,"max_players":24,"Bots":0,"server_type":"Dedicated","server_os":"Linux","password":true,"vac":true,"version":"7961495","steam_id":85568392924866364,"keywords":["cp","nocrits","nodmgspread","uncletopia"],"game_id":440,"stv_port":27036,"stv_name":"Uncletopia | Chicago | 7 | Stopwatch | STV","players":null},{"server_id":39,"name":"Uncletopia | Chicago | 8 | Community","name_short":"chi-8","host":"chi-2.us.uncletopia.com","port":27045,"enabled":true,"region":"us-central","cc":"us","latitude":41.881832,"longitude":-87.62318,"reserved":0,"last_update":"0001-01-01T00:00:00Z","name_a2s":"Uncletopia | Chicago | 8 | Community","protocol":17,"map":"workshop/cp_indulge.ugc528106646","folder":"tf","game":"Team Fortress","app_id":440,"player_count":0,"max_players":24,"Bots":0,"server_type":"Dedicated","server_os":"Linux","password":true,"vac":true,"version":"7961495","steam_id":85568392924866365,"keywords":["cp","nocrits","nodmgspread","uncletopia"],"game_id":440,"stv_port":27046,"stv_name":"Uncletopia | Chicago | 8 | Community | STV","players":null},{"server_id":8,"name":"Uncletopia | Dallas | 1 | All Maps","name_short":"dal-1","host":"dal-1.us.uncletopia.com","port":27015,"enabled":true,"region":"us-central","cc":"us","latitude":32.779167,"longitude":-96.80889,"reserved":0,"last_update":"0001-01-01T00:00:00Z","name_a2s":"Uncletopia | Dallas | 1 | All Maps","protocol":17,"map":"pl_swiftwater_final1","folder":"tf","game":"Team Fortress","app_id":440,"player_count":24,"max_players":24,"Bots":0,"server_type":"Dedicated","server_os":"Linux","password":true,"vac":true,"version":"7961495","steam_id":85568392924469986,"keywords":["nocrits","nodmgspread","payload","uncletopia"],"game_id":440,"stv_port":27016,"stv_name":"Uncletopia | Dallas | 1 | All Maps | STV","players":[{"user_id":22,"name":"Wem-worlds-of-wine.","steam_id":76561199321959230,"connected_time":4457000000000,"state":"active","ping":65},{"user_id":20,"name":"Lyricalnoot","steam_id":76561199164905065,"connected_time":4790000000000,"state":"active","ping":57},{"user_id":15,"name":"Drizzle","steam_id":76561198152143806,"connected_time":5073000000000,"state":"active","ping":70},{"user_id":74,"name":"^,...,^","steam_id":76561198144675074,"connected_time":235000000000,"state":"active","ping":74},{"user_id":60,"name":"adapt","steam_id":76561198156181017,"connected_time":1737000000000,"state":"active","ping":91},{"user_id":29,"name":"Thequirka","steam_id":76561198968058652,"connected_time":3577000000000,"state":"active","ping":96},{"user_id":28,"name":"Mr.Pan","steam_id":76561198069030613,"connected_time":3608000000000,"state":"active","ping":68},{"user_id":75,"name":"I_amgeneric","steam_id":76561198058605649,"connected_time":223000000000,"state":"active","ping":48},{"user_id":33,"name":"deep fried water","steam_id":76561198077272494,"connected_time":3456000000000,"state":"active","ping":73},{"user_id":53,"name":"ben","steam_id":76561198319336957,"connected_time":2944000000000,"state":"active","ping":94},{"user_id":78,"name":"hubida","steam_id":76561198084582998,"connected_time":32000000000,"state":"active","ping":57},{"user_id":77,"name":"Lefty [Gentlemen of Leisure]","steam_id":76561197980825914,"connected_time":202000000000,"state":"active","ping":65},{"user_id":39,"name":"TrueGuardian32.kick","steam_id":76561198149985253,"connected_time":3350000000000,"state":"active","ping":49},{"user_id":41,"name":"mintsmatchamocha","steam_id":76561198420094402,"connected_time":3283000000000,"state":"active","ping":75},{"user_id":42,"name":"Untermensch","steam_id":76561198149634242,"connected_time":3273000000000,"state":"active","ping":93},{"user_id":63,"name":"prospike","steam_id":76561199491903111,"connected_time":1510000000000,"state":"active","ping":102},{"user_id":59,"name":"inshallah","steam_id":76561198165212575,"connected_time":1952000000000,"state":"active","ping":89},{"user_id":58,"name":"171","steam_id":76561199001918194,"connected_time":2047000000000,"state":"active","ping":105},{"user_id":76,"name":"Suburban Wolf Dad","steam_id":76561198069234954,"connected_time":222000000000,"state":"active","ping":75},{"user_id":49,"name":"Lovedaddy","steam_id":76561198006569710,"connected_time":3002000000000,"state":"active","ping":106},{"user_id":51,"name":"BoyWithTheBeanie","steam_id":76561199435079308,"connected_time":2983000000000,"state":"active","ping":155},{"user_id":66,"name":"thebestman982","steam_id":76561199001698710,"connected_time":739000000000,"state":"active","ping":81},{"user_id":54,"name":"Workwaffle","steam_id":76561198088775748,"connected_time":2939000000000,"state":"active","ping":111},{"user_id":55,"name":"Java_Siege_","steam_id":76561199090000728,"connected_time":2925000000000,"state":"active","ping":83}]},{"server_id":108,"name":"Uncletopia | Dallas | 2 | All Maps","name_short":"dal-2","host":"dal-1.us.uncletopia.com","port":27025,"enabled":true,"region":"us-central","cc":"us","latitude":32.779167,"longitude":-96.80889,"reserved":0,"last_update":"0001-01-01T00:00:00Z","name_a2s":"Uncletopia | Dallas | 2 | All Maps","protocol":17,"map":"pl_upward","folder":"tf","game":"Team Fortress","app_id":440,"player_count":24,"max_players":24,"Bots":0,"server_type":"Dedicated","server_os":"Linux","password":true,"vac":true,"version":"7961495","steam_id":85568392924469988,"keywords":["nocrits","nodmgspread","payload","uncletopia"],"game_id":440,"stv_port":27026,"stv_name":"Uncletopia | Dallas | 2 | All Maps | STV","players":[{"user_id":96,"name":"Toasterduds","steam_id":76561198163477584,"connected_time":672000000000,"state":"active","ping":83},{"user_id":14,"name":"Beantama","steam_id":76561198986811476,"connected_time":7371000000000,"state":"active","ping":66},{"user_id":69,"name":"floofy","steam_id":76561198389769098,"connected_time":3537000000000,"state":"active","ping":78},{"user_id":94,"name":"Rin \"Hindwing\" Redtail","steam_id":76561199074865638,"connected_time":1063000000000,"state":"active","ping":54},{"user_id":95,"name":"barefoot fruitscato","steam_id":76561198094225038,"connected_time":912000000000,"state":"active","ping":74},{"user_id":97,"name":"bingus :3","steam_id":76561199198633203,"connected_time":520000000000,"state":"active","ping":121},{"user_id":91,"name":"TechnoBear2099","steam_id":76561198238863596,"connected_time":1384000000000,"state":"active","ping":53},{"user_id":90,"name":"shellaa","steam_id":76561198044124102,"connected_time":1486000000000,"state":"active","ping":45},{"user_id":99,"name":"Scuba Steve","steam_id":76561198313018251,"connected_time":123000000000,"state":"active","ping":80},{"user_id":68,"name":"Giselle","steam_id":76561198162593640,"connected_time":3563000000000,"state":"active","ping":105},{"user_id":79,"name":"AidenAces","steam_id":76561197999610332,"connected_time":2749000000000,"state":"active","ping":66},{"user_id":87,"name":"monkey squirts","steam_id":76561197983101644,"connected_time":2018000000000,"state":"active","ping":75},{"user_id":32,"name":"gooch_masta","steam_id":76561198151578423,"connected_time":5391000000000,"state":"active","ping":86},{"user_id":33,"name":"SuperColie","steam_id":76561198438503152,"connected_time":5387000000000,"state":"active","ping":78},{"user_id":34,"name":"707_","steam_id":76561199113534229,"connected_time":5375000000000,"state":"active","ping":164},{"user_id":36,"name":"TheGFG","steam_id":76561198166150556,"connected_time":5171000000000,"state":"active","ping":69},{"user_id":60,"name":"dv","steam_id":76561198094512992,"connected_time":3973000000000,"state":"active","ping":73},{"user_id":73,"name":"B1ight","steam_id":76561198025419686,"connected_time":3175000000000,"state":"active","ping":92},{"user_id":40,"name":"cwnz2","steam_id":76561198418170535,"connected_time":5063000000000,"state":"active","ping":104},{"user_id":41,"name":"Arthur SSJ2","steam_id":76561198043678479,"connected_time":5043000000000,"state":"active","ping":45},{"user_id":77,"name":"Can You Feel It Mr.Krabs","steam_id":76561198128302414,"connected_time":2880000000000,"state":"active","ping":69},{"user_id":89,"name":"mkl","steam_id":76561197986401685,"connected_time":1679000000000,"state":"active","ping":57},{"user_id":92,"name":"[â˜¯] randomshagz*","steam_id":76561197968666646,"connected_time":1384000000000,"state":"active","ping":77},{"user_id":84,"name":"triph","steam_id":76561198067196509,"connected_time":2196000000000,"state":"active","ping":61}]},{"server_id":404,"name":"Uncletopia | Dallas | 3 | All Maps","name_short":"dal-3","host":"dal-1.us.uncletopia.com","port":27035,"enabled":true,"region":"us-central","cc":"us","latitude":32.779167,"longitude":-96.80889,"reserved":0,"last_update":"0001-01-01T00:00:00Z","name_a2s":"Uncletopia | Dallas | 3 | All Maps","protocol":17,"map":"pl_badwater","folder":"tf","game":"Team Fortress","app_id":440,"player_count":24,"max_players":24,"Bots":0,"server_type":"Dedicated","server_os":"Linux","password":true,"vac":true,"version":"7961495","steam_id":85568392924515219,"keywords":["nocrits","nodmgspread","payload","uncletopia"],"game_id":440,"stv_port":27036,"stv_name":"Uncletopia | Dallas | 3 | All Maps | STV","players":[{"user_id":193,"name":"Antonpirulero10","steam_id":76561198253036781,"connected_time":2871000000000,"state":"active","ping":104},{"user_id":172,"name":"Magik","steam_id":76561198099726660,"connected_time":5268000000000,"state":"active","ping":75},{"user_id":200,"name":"GH578","steam_id":76561199493262585,"connected_time":2760000000000,"state":"active","ping":89},{"user_id":195,"name":"LaChancla","steam_id":76561198971528917,"connected_time":2832000000000,"state":"active","ping":52},{"user_id":186,"name":"Snivy64","steam_id":76561198423445376,"connected_time":4187000000000,"state":"active","ping":68},{"user_id":222,"name":"Think","steam_id":76561198176906631,"connected_time":422000000000,"state":"active","ping":66},{"user_id":214,"name":"YungSunaGod","steam_id":76561198010480457,"connected_time":1492000000000,"state":"active","ping":66},{"user_id":150,"name":"Travorski","steam_id":76561198072493142,"connected_time":6915000000000,"state":"active","ping":93},{"user_id":223,"name":"soccer2010","steam_id":76561198404271005,"connected_time":198000000000,"state":"active","ping":60},{"user_id":197,"name":"bdkaine1","steam_id":76561198133545467,"connected_time":2810000000000,"state":"active","ping":70},{"user_id":213,"name":"Cute femboy fox (pyro main)","steam_id":76561199186496740,"connected_time":1495000000000,"state":"active","ping":113},{"user_id":212,"name":"meta slave","steam_id":76561199467334502,"connected_time":1533000000000,"state":"active","ping":79},{"user_id":198,"name":"SaaxoM","steam_id":76561198208256603,"connected_time":2793000000000,"state":"active","ping":93},{"user_id":215,"name":"American Dad","steam_id":76561198059711448,"connected_time":1481000000000,"state":"active","ping":88},{"user_id":216,"name":"googy doogy","steam_id":76561199025852100,"connected_time":1464000000000,"state":"active","ping":96},{"user_id":210,"name":"fruitlogic","steam_id":76561198071251588,"connected_time":2208000000000,"state":"active","ping":94},{"user_id":211,"name":"Mr.Tatertot","steam_id":76561198145936848,"connected_time":1584000000000,"state":"active","ping":75},{"user_id":217,"name":"AstronautPug","steam_id":76561198162372709,"connected_time":1448000000000,"state":"active","ping":87},{"user_id":218,"name":"PizzaFratello","steam_id":76561199059951970,"connected_time":1389000000000,"state":"active","ping":69},{"user_id":220,"name":"Maxthetic","steam_id":76561198238368418,"connected_time":889000000000,"state":"active","ping":89},{"user_id":219,"name":"87987974","steam_id":76561198046948758,"connected_time":1329000000000,"state":"active","ping":81},{"user_id":160,"name":"ayo MY MAN the beat goes on","steam_id":76561198334044006,"connected_time":6611000000000,"state":"active","ping":77},{"user_id":147,"name":"nori","steam_id":76561198014744084,"connected_time":7133000000000,"state":"active","ping":66},{"user_id":163,"name":"small meth pouch","steam_id":76561198130412963,"connected_time":5939000000000,"state":"active","ping":67}]},{"server_id":405,"name":"Uncletopia | Dallas | 4 | Community","name_short":"dal-4","host":"dal-1.us.uncletopia.com","port":27045,"enabled":true,"region":"us-central","cc":"us","latitude":32.779167,"longitude":-96.80889,"reserved":0,"last_update":"0001-01-01T00:00:00Z","name_a2s":"Uncletopia | Dallas | 4 | Community","protocol":17,"map":"pl_pier","folder":"tf","game":"Team Fortress","app_id":440,"player_count":0,"max_players":24,"Bots":0,"server_type":"Dedicated","server_os":"Linux","password":true,"vac":true,"version":"7961495","steam_id":85568392924515220,"keywords":["nocrits","nodmgspread","payload","uncletopia"],"game_id":440,"stv_port":27046,"stv_name":"Uncletopia | Dallas | 4 | Community | STV","players":null},{"server_id":5,"name":"Uncletopia | Frankfurt | 1 | All Maps","name_short":"frk-1","host":"frk-1.de.uncletopia.com","port":27015,"enabled":true,"region":"eu","cc":"de","latitude":50.110924,"longitude":8.682127,"reserved":0,"last_update":"0001-01-01T00:00:00Z","name_a2s":"Uncletopia | Frankfurt | 1 | All Maps","protocol":17,"map":"koth_viaduct","folder":"tf","game":"Team Fortress","app_id":440,"player_count":13,"max_players":24,"Bots":0,"server_type":"Dedicated","server_os":"Linux","password":true,"vac":true,"version":"7961495","steam_id":85568392924469989,"keywords":["cp","nocrits","nodmgspread","uncletopia"],"game_id":440,"stv_port":27016,"stv_name":"Uncletopia | Frankfurt | 1 | All Maps | STV","players":[{"user_id":828,"name":"Com","steam_id":76561198344874661,"connected_time":145000000000,"state":"active","ping":97},{"user_id":831,"name":"Walter Hartwell White","steam_id":76561199386754212,"connected_time":114000000000,"state":"active","ping":56},{"user_id":778,"name":"Nonok","steam_id":76561199480685498,"connected_time":4009000000000,"state":"active","ping":65},{"user_id":829,"name":"jello_hey","steam_id":76561199176327650,"connected_time":144000000000,"state":"active","ping":152},{"user_id":830,"name":"Goblin (Real)","steam_id":76561199160926985,"connected_time":140000000000,"state":"active","ping":157},{"user_id":805,"name":"Proper Noun","steam_id":76561198055264269,"connected_time":2429000000000,"state":"active","ping":93},{"user_id":832,"name":"Qdarks","steam_id":76561198013391340,"connected_time":58000000000,"state":"active","ping":146},{"user_id":812,"name":"Scout","steam_id":76561198992898803,"connected_time":2326000000000,"state":"active","ping":65},{"user_id":765,"name":"MoistMomMauler","steam_id":76561198069359049,"connected_time":4780000000000,"state":"active","ping":76},{"user_id":781,"name":"Frostlight","steam_id":76561198016360449,"connected_time":3883000000000,"state":"active","ping":70},{"user_id":822,"name":"sokige","steam_id":76561198167112371,"connected_time":995000000000,"state":"active","ping":96},{"user_id":731,"name":"MR BUBBLES","steam_id":76561198019005259,"connected_time":7498000000000,"state":"active","ping":107},{"user_id":817,"name":"Niyaah","steam_id":76561198110209191,"connected_time":2243000000000,"state":"active","ping":66}]},{"server_id":110,"name":"Uncletopia | Frankfurt | 2 | All Maps","name_short":"frk-2","host":"frk-1.de.uncletopia.com","port":27025,"enabled":true,"region":"eu","cc":"de","latitude":50.110924,"longitude":8.682127,"reserved":0,"last_update":"0001-01-01T00:00:00Z","name_a2s":"Uncletopia | Frankfurt | 2 | All Maps","protocol":17,"map":"pl_upward","folder":"tf","game":"Team Fortress","app_id":440,"player_count":24,"max_players":24,"Bots":0,"server_type":"Dedicated","server_os":"Linux","password":true,"vac":true,"version":"7961495","steam_id":85568392924469990,"keywords":["nocrits","nodmgspread","payload","uncletopia"],"game_id":440,"stv_port":27026,"stv_name":"Uncletopia | Frankfurt | 2 | All Maps | STV","players":[{"user_id":467,"name":"Skyrider of Spaceways","steam_id":76561197991678236,"connected_time":4899000000000,"state":"active","ping":124},{"user_id":367,"name":"Finnish Farmer","steam_id":76561198205366043,"connected_time":11518000000000,"state":"active","ping":83},{"user_id":546,"name":"Yeetr","steam_id":76561198322726257,"connected_time":546000000000,"state":"active","ping":75},{"user_id":547,"name":"Matbanan","steam_id":76561198228537672,"connected_time":430000000000,"state":"active","ping":83},{"user_id":439,"name":"Vacys Maslionka","steam_id":76561198126518252,"connected_time":5836000000000,"state":"active","ping":75},{"user_id":525,"name":"shankz","steam_id":76561198128803260,"connected_time":1959000000000,"state":"active","ping":55},{"user_id":473,"name":"myon","steam_id":76561197992528570,"connected_time":4518000000000,"state":"active","ping":81},{"user_id":551,"name":"SnurreNurre","steam_id":76561198046097852,"connected_time":204000000000,"state":"active","ping":83},{"user_id":548,"name":"Noob_with_source","steam_id":76561198870362103,"connected_time":422000000000,"state":"active","ping":60},{"user_id":552,"name":"Gioni","steam_id":76561198395912581,"connected_time":56000000000,"state":"active","ping":106},{"user_id":538,"name":"Jessen2002","steam_id":76561198119503211,"connected_time":1213000000000,"state":"active","ping":58},{"user_id":545,"name":"qualiTY","steam_id":76561198011909737,"connected_time":910000000000,"state":"active","ping":63},{"user_id":540,"name":"Pyrolander","steam_id":76561198050785450,"connected_time":1087000000000,"state":"active","ping":45},{"user_id":541,"name":"manure merchant","steam_id":76561198010109316,"connected_time":1083000000000,"state":"active","ping":54},{"user_id":493,"name":"TheSpaceWizard","steam_id":76561198361055692,"connected_time":3496000000000,"state":"active","ping":70},{"user_id":524,"name":"Hoff","steam_id":76561198138540938,"connected_time":2120000000000,"state":"active","ping":73},{"user_id":553,"name":"Ding","steam_id":76561198306879390,"connected_time":32000000000,"state":"active","ping":95},{"user_id":519,"name":"turbo shart","steam_id":76561198012351808,"connected_time":2444000000000,"state":"active","ping":68},{"user_id":501,"name":"VolcanicArts","steam_id":76561198063453246,"connected_time":2725000000000,"state":"active","ping":65},{"user_id":543,"name":"Spotmonkey","steam_id":76561198003994092,"connected_time":1046000000000,"state":"active","ping":74},{"user_id":535,"name":"ladies fear me","steam_id":76561199145943588,"connected_time":1375000000000,"state":"active","ping":69},{"user_id":498,"name":"Necator","steam_id":76561198094006970,"connected_time":2933000000000,"state":"active","ping":60},{"user_id":550,"name":"Finem Belli","steam_id":76561198227177976,"connected_time":228000000000,"state":"active","ping":49},{"user_id":537,"name":"Elsuedi","steam_id":76561198074722832,"connected_time":1263000000000,"state":"active","ping":60}]},{"server_id":308,"name":"Uncletopia | Frankfurt | 3 | All Maps","name_short":"frk-3","host":"frk-1.de.uncletopia.com","port":27035,"enabled":true,"region":"eu","cc":"de","latitude":50.110924,"longitude":8.682127,"reserved":0,"last_update":"0001-01-01T00:00:00Z","name_a2s":"Uncletopia | Frankfurt | 3 | All Maps","protocol":17,"map":"pl_frontier_final","folder":"tf","game":"Team Fortress","app_id":440,"player_count":24,"max_players":24,"Bots":0,"server_type":"Dedicated","server_os":"Linux","password":true,"vac":true,"version":"7961495","steam_id":85568392924504274,"keywords":["nocrits","nodmgspread","payload","uncletopia"],"game_id":440,"stv_port":27036,"stv_name":"Uncletopia | Frankfurt | 3 | All Maps | STV","players":[{"user_id":463,"name":"HAMtastic","steam_id":76561198879769410,"connected_time":1411000000000,"state":"active","ping":77},{"user_id":472,"name":"tralalaOuiOui","steam_id":76561197963471507,"connected_time":430000000000,"state":"active","ping":58},{"user_id":414,"name":"Biggest Homie","steam_id":76561198373107677,"connected_time":4381000000000,"state":"active","ping":83},{"user_id":445,"name":"Archive","steam_id":76561198071255385,"connected_time":2622000000000,"state":"active","ping":97},{"user_id":460,"name":"Reznov","steam_id":76561199125472187,"connected_time":1653000000000,"state":"active","ping":115},{"user_id":412,"name":"Trollstoy","steam_id":76561198072017175,"connected_time":4431000000000,"state":"active","ping":59},{"user_id":433,"name":"MiÅ› Polarny","steam_id":76561198083655097,"connected_time":3647000000000,"state":"active","ping":84},{"user_id":454,"name":"Nittugai","steam_id":76561198067366462,"connected_time":1983000000000,"state":"active","ping":60},{"user_id":469,"name":"speedy-heavy","steam_id":76561198124991468,"connected_time":718000000000,"state":"active","ping":61},{"user_id":446,"name":"Lucky Number 13","steam_id":76561198043951279,"connected_time":2617000000000,"state":"active","ping":123},{"user_id":415,"name":"kittylover55","steam_id":76561198136297981,"connected_time":4377000000000,"state":"active","ping":62},{"user_id":461,"name":"sto cazzo","steam_id":76561198066071855,"connected_time":1561000000000,"state":"active","ping":60},{"user_id":471,"name":"MR.CRAB","steam_id":76561198329833659,"connected_time":541000000000,"state":"active","ping":73},{"user_id":465,"name":"gei nas x","steam_id":76561199204740482,"connected_time":1091000000000,"state":"active","ping":88},{"user_id":470,"name":"KnÃ¶sta","steam_id":76561198143422139,"connected_time":648000000000,"state":"active","ping":108},{"user_id":439,"name":"YANIV5OO","steam_id":76561198953566872,"connected_time":3338000000000,"state":"active","ping":97},{"user_id":459,"name":"Haschgott 2.0","steam_id":76561198049820307,"connected_time":1692000000000,"state":"active","ping":60},{"user_id":422,"name":"Skepingawich","steam_id":76561198038736553,"connected_time":4125000000000,"state":"active","ping":60},{"user_id":466,"name":"anders McFlanders","steam_id":76561198022811995,"connected_time":1074000000000,"state":"active","ping":67},{"user_id":464,"name":"kurage","steam_id":76561198021221288,"connected_time":1129000000000,"state":"active","ping":58},{"user_id":366,"name":"GrokeytheHunter","steam_id":76561198136995521,"connected_time":7390000000000,"state":"active","ping":172},{"user_id":437,"name":"Roxio","steam_id":76561198061586945,"connected_time":3535000000000,"state":"active","ping":71},{"user_id":449,"name":"Lord of Birds","steam_id":76561198268952995,"connected_time":2578000000000,"state":"active","ping":73},{"user_id":473,"name":"TiredOcean","steam_id":76561198177747195,"connected_time":430000000000,"state":"active","ping":60}]},{"server_id":309,"name":"Uncletopia | Frankfurt | 4 | All Maps","name_short":"frk-4","host":"frk-1.de.uncletopia.com","port":27045,"enabled":true,"region":"eu","cc":"de","latitude":50.110924,"longitude":8.682127,"reserved":0,"last_update":"0001-01-01T00:00:00Z","name_a2s":"Uncletopia | Frankfurt | 4 | All Maps","protocol":17,"map":"cp_sunshine","folder":"tf","game":"Team Fortress","app_id":440,"player_count":24,"max_players":24,"Bots":0,"server_type":"Dedicated","server_os":"Linux","password":true,"vac":true,"version":"7961495","steam_id":85568392924504275,"keywords":["cp","nocrits","nodmgspread","uncletopia"],"game_id":440,"stv_port":27046,"stv_name":"Uncletopia | Frankfurt | 4 | All Maps | STV","players":[{"user_id":354,"name":"la pistola","steam_id":76561198190073005,"connected_time":5155000000000,"state":"active","ping":58},{"user_id":389,"name":"2006 Mitsubishi Lancer","steam_id":76561198036632498,"connected_time":2761000000000,"state":"active","ping":55},{"user_id":372,"name":"dia","steam_id":76561198033281405,"connected_time":3939000000000,"state":"active","ping":84},{"user_id":417,"name":"Arnas445","steam_id":76561198148377210,"connected_time":273000000000,"state":"active","ping":73},{"user_id":413,"name":"Umbro","steam_id":76561198087930438,"connected_time":607000000000,"state":"active","ping":75},{"user_id":398,"name":"The Lady","steam_id":76561198029895809,"connected_time":1834000000000,"state":"active","ping":74},{"user_id":387,"name":"nezolif","steam_id":76561198102030382,"connected_time":3016000000000,"state":"active","ping":62},{"user_id":416,"name":"Pan Prezydent","steam_id":76561198354738139,"connected_time":356000000000,"state":"active","ping":72},{"user_id":414,"name":"Segersgia","steam_id":76561198055181132,"connected_time":493000000000,"state":"active","ping":63},{"user_id":368,"name":"Vershal Smershal","steam_id":76561198116223995,"connected_time":4283000000000,"state":"active","ping":59},{"user_id":420,"name":"WildesTier","steam_id":76561198132133702,"connected_time":45000000000,"state":"active","ping":46},{"user_id":391,"name":"piss man (real)","steam_id":76561198839843428,"connected_time":2755000000000,"state":"active","ping":121},{"user_id":405,"name":"o_o","steam_id":76561198113045011,"connected_time":1499000000000,"state":"active","ping":85},{"user_id":378,"name":"Corporate Cuck Kermit","steam_id":76561198914063104,"connected_time":3705000000000,"state":"active","ping":167},{"user_id":363,"name":"boywife","steam_id":76561198160047415,"connected_time":4999000000000,"state":"active","ping":84},{"user_id":418,"name":"ouchie wouchies","steam_id":76561198105443986,"connected_time":203000000000,"state":"active","ping":78},{"user_id":384,"name":"Bobirulez","steam_id":76561198009125458,"connected_time":3189000000000,"state":"active","ping":82},{"user_id":397,"name":"Udinese Dion","steam_id":76561198067931573,"connected_time":2219000000000,"state":"active","ping":51},{"user_id":376,"name":"LogainAblar","steam_id":76561198353261190,"connected_time":3845000000000,"state":"active","ping":71},{"user_id":399,"name":"Tea","steam_id":76561198799243030,"connected_time":1578000000000,"state":"active","ping":81},{"user_id":411,"name":"rob","steam_id":76561198122211848,"connected_time":1044000000000,"state":"active","ping":90},{"user_id":415,"name":"wes","steam_id":76561198067000117,"connected_time":383000000000,"state":"active","ping":62},{"user_id":419,"name":"Cranjis McBasketball","steam_id":76561198051290193,"connected_time":161000000000,"state":"active","ping":52},{"user_id":400,"name":"MÃ©bh Ã“g MacTÃ­re","steam_id":76561198346399624,"connected_time":1565000000000,"state":"active","ping":72}]},{"server_id":310,"name":"Uncletopia | Frankfurt | 5 | All Maps","name_short":"frk-5","host":"frk-1.de.uncletopia.com","port":27055,"enabled":true,"region":"eu","cc":"de","latitude":50.110924,"longitude":8.682127,"reserved":0,"last_update":"0001-01-01T00:00:00Z","name_a2s":"Uncletopia | Frankfurt | 5 | All Maps","protocol":17,"map":"pl_frontier_final","folder":"tf","game":"Team Fortress","app_id":440,"player_count":24,"max_players":24,"Bots":0,"server_type":"Dedicated","server_os":"Linux","password":true,"vac":true,"version":"7961495","steam_id":85568392924504277,"keywords":["nocrits","nodmgspread","payload","uncletopia"],"game_id":440,"stv_port":27056,"stv_name":"Uncletopia | Frankfurt | 5 | All Maps | STV","players":[{"user_id":629,"name":"Relic","steam_id":76561199499093258,"connected_time":926000000000,"state":"active","ping":59},{"user_id":616,"name":"Damin","steam_id":76561198288156612,"connected_time":1895000000000,"state":"active","ping":42},{"user_id":641,"name":"NotChloe","steam_id":76561198080658092,"connected_time":557000000000,"state":"active","ping":75},{"user_id":560,"name":"dumbai","steam_id":76561199098418729,"connected_time":5730000000000,"state":"active","ping":99},{"user_id":596,"name":"MaRo","steam_id":76561198992286676,"connected_time":3057000000000,"state":"active","ping":64},{"user_id":606,"name":"._.","steam_id":76561198300316801,"connected_time":2742000000000,"state":"active","ping":123},{"user_id":631,"name":"bruh","steam_id":76561197993922244,"connected_time":879000000000,"state":"active","ping":54},{"user_id":583,"name":"glyph","steam_id":76561197980736364,"connected_time":3720000000000,"state":"active","ping":77},{"user_id":632,"name":"Bottle O' Scrumpy","steam_id":76561199244250562,"connected_time":876000000000,"state":"active","ping":112},{"user_id":592,"name":"yuck","steam_id":76561197987249568,"connected_time":3105000000000,"state":"active","ping":99},{"user_id":582,"name":"endlesshills","steam_id":76561198081908373,"connected_time":3964000000000,"state":"active","ping":58},{"user_id":617,"name":"M1","steam_id":76561198392997232,"connected_time":1876000000000,"state":"active","ping":96},{"user_id":619,"name":"Ilsagar","steam_id":76561198182957762,"connected_time":1868000000000,"state":"active","ping":89},{"user_id":568,"name":"Ketich","steam_id":76561198021772703,"connected_time":4936000000000,"state":"active","ping":74},{"user_id":628,"name":"finjar","steam_id":76561198350473059,"connected_time":936000000000,"state":"active","ping":75},{"user_id":625,"name":"Abska","steam_id":76561198118323803,"connected_time":1465000000000,"state":"active","ping":129},{"user_id":643,"name":"Bastard'Nick","steam_id":76561198044044651,"connected_time":67000000000,"state":"active","ping":69},{"user_id":642,"name":"humble genius","steam_id":76561198243808680,"connected_time":209000000000,"state":"active","ping":61},{"user_id":634,"name":"Larry Penus","steam_id":76561198207546233,"connected_time":828000000000,"state":"active","ping":56},{"user_id":551,"name":"else1","steam_id":76561197996558319,"connected_time":6586000000000,"state":"active","ping":80},{"user_id":635,"name":"Mitrixie","steam_id":76561198842023498,"connected_time":822000000000,"state":"active","ping":92},{"user_id":637,"name":"guru{Hari}","steam_id":76561197997001681,"connected_time":792000000000,"state":"active","ping":61},{"user_id":624,"name":"CJ_from_Groove","steam_id":76561198889928743,"connected_time":1523000000000,"state":"active","ping":99},{"user_id":640,"name":"leo","steam_id":76561198090848620,"connected_time":608000000000,"state":"active","ping":88}]},{"server_id":311,"name":"Uncletopia | Frankfurt | 6 | All Maps","name_short":"frk-6","host":"frk-1.de.uncletopia.com","port":27065,"enabled":true,"region":"eu","cc":"de","latitude":50.110924,"longitude":8.682127,"reserved":0,"last_update":"0001-01-01T00:00:00Z","name_a2s":"Uncletopia | Frankfurt | 6 | All Maps","protocol":17,"map":"pl_snowycoast","folder":"tf","game":"Team Fortress","app_id":440,"player_count":23,"max_players":24,"Bots":0,"server_type":"Dedicated","server_os":"Linux","password":true,"vac":true,"version":"7961495","steam_id":85568392924504278,"keywords":["nocrits","nodmgspread","payload","uncletopia"],"game_id":440,"stv_port":27066,"stv_name":"Uncletopia | Frankfurt | 6 | All Maps | STV","players":[{"user_id":673,"name":"maya","steam_id":76561198116072854,"connected_time":2291000000000,"state":"active","ping":58},{"user_id":693,"name":"TryTane","steam_id":76561198133293111,"connected_time":744000000000,"state":"active","ping":46},{"user_id":707,"name":"â˜¸Koala99â˜¸","steam_id":76561198375591154,"connected_time":358000000000,"state":"active","ping":64},{"user_id":710,"name":"on my way","steam_id":76561198816538971,"connected_time":152000000000,"state":"active","ping":57},{"user_id":668,"name":"pond","steam_id":76561198214849363,"connected_time":2338000000000,"state":"active","ping":77},{"user_id":708,"name":"burritoeater","steam_id":76561199124197813,"connected_time":354000000000,"state":"active","ping":82},{"user_id":709,"name":"caixabank879","steam_id":76561198836442412,"connected_time":342000000000,"state":"active","ping":108},{"user_id":614,"name":"Eric Catman","steam_id":76561198802117294,"connected_time":5912000000000,"state":"active","ping":81},{"user_id":692,"name":"full paranoia","steam_id":76561198070450646,"connected_time":804000000000,"state":"active","ping":91},{"user_id":687,"name":"sirsmit1","steam_id":76561199129778001,"connected_time":1169000000000,"state":"active","ping":157},{"user_id":638,"name":"Hoxton","steam_id":76561198129209505,"connected_time":3857000000000,"state":"active","ping":73},{"user_id":702,"name":"Khrinde","steam_id":76561198036744526,"connected_time":490000000000,"state":"active","ping":102},{"user_id":660,"name":"Hey, IÂ´m Andy!","steam_id":76561198060337777,"connected_time":2757000000000,"state":"active","ping":78},{"user_id":671,"name":"zazuza","steam_id":76561198049820905,"connected_time":2325000000000,"state":"active","ping":73},{"user_id":662,"name":"Mega Man Legends 3","steam_id":76561198014110199,"connected_time":2614000000000,"state":"active","ping":55},{"user_id":684,"name":"Jack Fox","steam_id":76561198132826595,"connected_time":1283000000000,"state":"active","ping":104},{"user_id":653,"name":"s a i","steam_id":76561197970379754,"connected_time":3370000000000,"state":"active","ping":48},{"user_id":704,"name":"My left foot itches","steam_id":76561198078411001,"connected_time":452000000000,"state":"active","ping":81},{"user_id":685,"name":"me (real)","steam_id":76561198013770973,"connected_time":1250000000000,"state":"active","ping":74},{"user_id":701,"name":"PiN hEaD","steam_id":76561198834713682,"connected_time":536000000000,"state":"active","ping":73},{"user_id":706,"name":"Sheriel Phoenix","steam_id":76561198213125835,"connected_time":395000000000,"state":"active","ping":61},{"user_id":688,"name":"Nozzo","steam_id":76561198012367783,"connected_time":1043000000000,"state":"active","ping":75},{"user_id":672,"name":"Vonacht","steam_id":76561198016033944,"connected_time":2321000000000,"state":"active","ping":66}]},{"server_id":23,"name":"Uncletopia | Frankfurt | 7 | Stopwatch","name_short":"frk-7","host":"frk-1.de.uncletopia.com","port":27075,"enabled":true,"region":"eu","cc":"de","latitude":50.110924,"longitude":8.682127,"reserved":0,"last_update":"0001-01-01T00:00:00Z","name_a2s":"Uncletopia | Frankfurt | 7 | Stopwatch","protocol":17,"map":"workshop/pl_vigil_rc10.ugc1266210012","folder":"tf","game":"Team Fortress","app_id":440,"player_count":0,"max_players":24,"Bots":0,"server_type":"Dedicated","server_os":"Linux","password":true,"vac":true,"version":"7961495","steam_id":85568392924742827,"keywords":["nocrits","nodmgspread","payload","uncletopia"],"game_id":440,"stv_port":27076,"stv_name":"Uncletopia | Frankfurt | 7 | Stopwatch | STV","players":null},{"server_id":24,"name":"Uncletopia | Frankfurt | 8 | Community","name_short":"frk-8","host":"frk-1.de.uncletopia.com","port":27085,"enabled":true,"region":"eu","cc":"de","latitude":50.110924,"longitude":8.682127,"reserved":0,"last_update":"0001-01-01T00:00:00Z","name_a2s":"Uncletopia | Frankfurt | 8 | Community","protocol":17,"map":"workshop/cp_logjam_rc12.ugc454812035","folder":"tf","game":"Team Fortress","app_id":440,"player_count":24,"max_players":24,"Bots":0,"server_type":"Dedicated","server_os":"Linux","password":true,"vac":true,"version":"7961495","steam_id":85568392924742828,"keywords":["cp","nocrits","nodmgspread","uncletopia"],"game_id":440,"stv_port":27086,"stv_name":"Uncletopia | Frankfurt | 8 | Community | STV","players":[{"user_id":249,"name":"Dobsoj","steam_id":76561198047775276,"connected_time":1668000000000,"state":"active","ping":63},{"user_id":258,"name":"myffdii","steam_id":76561198067677196,"connected_time":1438000000000,"state":"active","ping":68},{"user_id":247,"name":"Sckuish","steam_id":76561198297216345,"connected_time":1745000000000,"state":"active","ping":165},{"user_id":196,"name":"sAmasam","steam_id":76561198114953928,"connected_time":4213000000000,"state":"active","ping":58},{"user_id":259,"name":"Lozo","steam_id":76561198091866601,"connected_time":1437000000000,"state":"active","ping":65},{"user_id":251,"name":"Sunshine Moon","steam_id":76561198022604491,"connected_time":1629000000000,"state":"active","ping":62},{"user_id":248,"name":"TheAnonymeKiller","steam_id":76561198190680978,"connected_time":1699000000000,"state":"active","ping":59},{"user_id":269,"name":"The Rekonion","steam_id":76561198133153755,"connected_time":897000000000,"state":"active","ping":71},{"user_id":243,"name":"Skatnaset","steam_id":76561198298457353,"connected_time":1858000000000,"state":"active","ping":81},{"user_id":253,"name":"Rotan999","steam_id":76561198896907653,"connected_time":1526000000000,"state":"active","ping":76},{"user_id":263,"name":"Vischan but worse","steam_id":76561199371650805,"connected_time":1271000000000,"state":"active","ping":94},{"user_id":255,"name":"Baron","steam_id":76561198021901783,"connected_time":1484000000000,"state":"active","ping":76},{"user_id":245,"name":"Joo â™¦","steam_id":76561197987609203,"connected_time":1806000000000,"state":"active","ping":73},{"user_id":260,"name":"linuxabuser","steam_id":76561198044014377,"connected_time":1437000000000,"state":"active","ping":155},{"user_id":233,"name":"cl","steam_id":76561199436640904,"connected_time":2245000000000,"state":"active","ping":70},{"user_id":272,"name":"superx","steam_id":76561198044976613,"connected_time":276000000000,"state":"active","ping":142},{"user_id":203,"name":"t0ksi","steam_id":76561198107240798,"connected_time":3864000000000,"state":"active","ping":61},{"user_id":257,"name":"Teecho","steam_id":76561197995269610,"connected_time":1454000000000,"state":"active","ping":70},{"user_id":270,"name":"Lord_saitam","steam_id":76561198081415496,"connected_time":887000000000,"state":"active","ping":90},{"user_id":198,"name":"Knusperfrosch","steam_id":76561198071278017,"connected_time":4180000000000,"state":"active","ping":50},{"user_id":273,"name":"TOP G","steam_id":76561198138928548,"connected_time":256000000000,"state":"active","ping":56},{"user_id":265,"name":"Amandus","steam_id":76561198036281079,"connected_time":1262000000000,"state":"active","ping":58},{"user_id":266,"name":"MÃ¼esli","steam_id":76561198183105149,"connected_time":1262000000000,"state":"active","ping":41},{"user_id":267,"name":"MostSereneDogeBestDoge","steam_id":76561198061196566,"connected_time":1248000000000,"state":"active","ping":76}]},{"server_id":202,"name":"Uncletopia | Hong Kong | 1 | All Maps","name_short":"hgk-1","host":"hgk-1.hk.uncletopia.com","port":27015,"enabled":true,"region":"asia","cc":"hk","latitude":22.302711,"longitude":114.177216,"reserved":0,"last_update":"0001-01-01T00:00:00Z","name_a2s":"Uncletopia | Hong Kong | 1 | All Maps","protocol":17,"map":"pl_snowycoast","folder":"tf","game":"Team Fortress","app_id":440,"player_count":2,"max_players":24,"Bots":0,"server_type":"Dedicated","server_os":"Linux","password":true,"vac":true,"version":"7961495","steam_id":85568392924494504,"keywords":["nocrits","nodmgspread","payload","uncletopia"],"game_id":440,"stv_port":27016,"stv_name":"Uncletopia | Hong Kong | 1 | All Maps | STV","players":[{"user_id":956,"name":"NotKomori","steam_id":76561198845165975,"connected_time":325000000000,"state":"active","ping":113},{"user_id":957,"name":"TheInfiniteK","steam_id":76561198353173330,"connected_time":319000000000,"state":"active","ping":219}]},{"server_id":1,"name":"Uncletopia | Los Angeles | 1 | All Maps","name_short":"lax-1","host":"lax-1.us.uncletopia.com","port":27015,"enabled":true,"region":"us-west","cc":"us","latitude":33.94279,"longitude":-118.41004,"reserved":0,"last_update":"0001-01-01T00:00:00Z","name_a2s":"Uncletopia | Los Angeles | 1 | All Maps","protocol":17,"map":"cp_process_final","folder":"tf","game":"Team Fortress","app_id":440,"player_count":0,"max_players":24,"Bots":0,"server_type":"Dedicated","server_os":"Linux","password":true,"vac":true,"version":"7961495","steam_id":85568392924469991,"keywords":["cp","nocrits","nodmgspread","uncletopia"],"game_id":440,"stv_port":27016,"stv_name":"Uncletopia | Los Angeles | 1 | All Maps | STV","players":null},{"server_id":112,"name":"Uncletopia | Los Angeles | 2 | All Maps","name_short":"lax-2","host":"lax-1.us.uncletopia.com","port":27025,"enabled":true,"region":"us-west","cc":"us","latitude":33.94279,"longitude":-118.41004,"reserved":0,"last_update":"0001-01-01T00:00:00Z","name_a2s":"Uncletopia | Los Angeles | 2 | All Maps","protocol":17,"map":"koth_cascade","folder":"tf","game":"Team Fortress","app_id":440,"player_count":0,"max_players":24,"Bots":0,"server_type":"Dedicated","server_os":"Linux","password":true,"vac":true,"version":"7961495","steam_id":85568392924469992,"keywords":["cp","nocrits","nodmgspread","uncletopia"],"game_id":440,"stv_port":27026,"stv_name":"Uncletopia | Los Angeles | 2 | All Maps | STV","players":null},{"server_id":324,"name":"Uncletopia | Los Angeles | 3 | All Maps","name_short":"lax-3","host":"lax-1.us.uncletopia.com","port":27035,"enabled":true,"region":"us-west","cc":"us","latitude":33.94279,"longitude":-118.41004,"reserved":0,"last_update":"0001-01-01T00:00:00Z","name_a2s":"Uncletopia | Los Angeles | 3 | All Maps","protocol":17,"map":"pl_frontier_final","folder":"tf","game":"Team Fortress","app_id":440,"player_count":0,"max_players":24,"Bots":0,"server_type":"Dedicated","server_os":"Linux","password":true,"vac":true,"version":"7961495","steam_id":85568392924510198,"keywords":["nocrits","nodmgspread","payload","uncletopia"],"game_id":440,"stv_port":27036,"stv_name":"Uncletopia | Los Angeles | 3 | All Maps | STV","players":null},{"server_id":25,"name":"Uncletopia | Los Angeles | 4 | Stopwatch","name_short":"lax-4","host":"lax-1.us.uncletopia.com","port":27045,"enabled":true,"region":"us-west","cc":"us","latitude":33.94279,"longitude":-118.41004,"reserved":0,"last_update":"0001-01-01T00:00:00Z","name_a2s":"Uncletopia | Los Angeles | 4 | Stopwatch","protocol":17,"map":"pl_barnblitz","folder":"tf","game":"Team Fortress","app_id":440,"player_count":0,"max_players":24,"Bots":0,"server_type":"Dedicated","server_os":"Linux","password":true,"vac":true,"version":"7961495","steam_id":85568392924510199,"keywords":["nocrits","nodmgspread","payload","uncletopia"],"game_id":440,"stv_port":27046,"stv_name":"Uncletopia | Los Angeles | 4 | Stopwatch | STV","players":null},{"server_id":11,"name":"Uncletopia | London | 1 | All Maps","name_short":"lon-1","host":"lon-1.uk.uncletopia.com","port":27015,"enabled":true,"region":"eu","cc":"gb","latitude":51.509865,"longitude":-0.118092,"reserved":0,"last_update":"0001-01-01T00:00:00Z","name_a2s":"Uncletopia | London | 1 | All Maps","protocol":17,"map":"koth_viaduct","folder":"tf","game":"Team Fortress","app_id":440,"player_count":24,"max_players":24,"Bots":0,"server_type":"Dedicated","server_os":"Linux","password":true,"vac":true,"version":"7961495","steam_id":85568392924367362,"keywords":["cp","nocrits","nodmgspread","uncletopia"],"game_id":440,"stv_port":27016,"stv_name":"Uncletopia | London | 1 | All Maps | STV","players":[{"user_id":622,"name":"im jelqing","steam_id":76561198236015392,"connected_time":91000000000,"state":"active","ping":118},{"user_id":601,"name":"GLUEEATER hedon","steam_id":76561198249832770,"connected_time":2833000000000,"state":"active","ping":48},{"user_id":599,"name":"hmscole09","steam_id":76561198811362788,"connected_time":3042000000000,"state":"active","ping":52},{"user_id":604,"name":"SuperBob103","steam_id":76561199175360012,"connected_time":2379000000000,"state":"active","ping":60},{"user_id":595,"name":"Schiever","steam_id":76561198052136026,"connected_time":3374000000000,"state":"active","ping":59},{"user_id":602,"name":"âœª Danny","steam_id":76561198104483241,"connected_time":2824000000000,"state":"active","ping":55},{"user_id":605,"name":"Aaron","steam_id":76561197990046953,"connected_time":2376000000000,"state":"active","ping":55},{"user_id":611,"name":"Explosive Poptart","steam_id":76561198023918830,"connected_time":1221000000000,"state":"active","ping":45},{"user_id":582,"name":"ein","steam_id":76561198152162834,"connected_time":3593000000000,"state":"active","ping":106},{"user_id":612,"name":"jermany (not jerma)","steam_id":76561198126599355,"connected_time":1218000000000,"state":"active","ping":63},{"user_id":618,"name":"Dr Bondus Bolongus Dongus","steam_id":76561198378657692,"connected_time":506000000000,"state":"active","ping":48},{"user_id":619,"name":"torn","steam_id":76561198223003236,"connected_time":501000000000,"state":"active","ping":37},{"user_id":592,"name":"trite","steam_id":76561197983765323,"connected_time":3479000000000,"state":"active","ping":52},{"user_id":600,"name":"SOPHIIAA","steam_id":76561198443798981,"connected_time":2970000000000,"state":"active","ping":95},{"user_id":614,"name":"Jyghc","steam_id":76561198405980575,"connected_time":1011000000000,"state":"active","ping":65},{"user_id":569,"name":"panda","steam_id":76561198215136941,"connected_time":4180000000000,"state":"active","ping":120},{"user_id":572,"name":"map","steam_id":76561198370196400,"connected_time":4100000000000,"state":"active","ping":90},{"user_id":620,"name":"jawA","steam_id":76561198070341774,"connected_time":490000000000,"state":"active","ping":88},{"user_id":621,"name":"Deadbeef","steam_id":76561198061532124,"connected_time":474000000000,"state":"active","ping":31},{"user_id":593,"name":"precisely 348279402472cm alice","steam_id":76561198180361759,"connected_time":3458000000000,"state":"active","ping":40},{"user_id":585,"name":"Sandshee","steam_id":76561198088574666,"connected_time":3577000000000,"state":"active","ping":46},{"user_id":603,"name":"Minimi","steam_id":76561198873850443,"connected_time":2812000000000,"state":"active","ping":61},{"user_id":608,"name":"Son Goku","steam_id":76561199383437138,"connected_time":1485000000000,"state":"active","ping":125},{"user_id":591,"name":"Voks_","steam_id":76561198159687785,"connected_time":3513000000000,"state":"active","ping":69}]},{"server_id":114,"name":"Uncletopia | London | 2 | All Maps","name_short":"lon-2","host":"lon-1.uk.uncletopia.com","port":27025,"enabled":true,"region":"eu","cc":"gb","latitude":51.509865,"longitude":-0.118092,"reserved":0,"last_update":"0001-01-01T00:00:00Z","name_a2s":"Uncletopia | London | 2 | All Maps","protocol":17,"map":"pl_swiftwater_final1","folder":"tf","game":"Team Fortress","app_id":440,"player_count":24,"max_players":24,"Bots":0,"server_type":"Dedicated","server_os":"Linux","password":true,"vac":true,"version":"7961495","steam_id":85568392924470941,"keywords":["nocrits","nodmgspread","payload","uncletopia"],"game_id":440,"stv_port":27026,"stv_name":"Uncletopia | London | 2 | All Maps | STV","players":[{"user_id":785,"name":"TreatFly","steam_id":76561198069707362,"connected_time":2304000000000,"state":"active","ping":54},{"user_id":787,"name":"lillunya â™¡","steam_id":76561198330418866,"connected_time":2019000000000,"state":"active","ping":67},{"user_id":815,"name":"KEEEFEX","steam_id":76561198316041208,"connected_time":835000000000,"state":"active","ping":81},{"user_id":772,"name":"FoOzTV","steam_id":76561197998636728,"connected_time":3200000000000,"state":"active","ping":71},{"user_id":817,"name":"flange","steam_id":76561198040182692,"connected_time":775000000000,"state":"active","ping":40},{"user_id":766,"name":"kalaa â€ ","steam_id":76561198134652336,"connected_time":3857000000000,"state":"active","ping":69},{"user_id":779,"name":"I sell exotic parrots","steam_id":76561199192434258,"connected_time":2848000000000,"state":"active","ping":90},{"user_id":823,"name":"_420_StopItDudeCmon","steam_id":76561197997146481,"connected_time":86000000000,"state":"active","ping":54},{"user_id":820,"name":"Spobs","steam_id":76561198090362809,"connected_time":563000000000,"state":"active","ping":99},{"user_id":801,"name":"Hugh","steam_id":76561198976348754,"connected_time":1167000000000,"state":"active","ping":48},{"user_id":788,"name":"Yuval","steam_id":76561198241802390,"connected_time":1981000000000,"state":"active","ping":119},{"user_id":818,"name":"yardy","steam_id":76561198079410772,"connected_time":759000000000,"state":"active","ping":80},{"user_id":816,"name":"VampWolfDoll (She/Her)","steam_id":76561198102301491,"connected_time":834000000000,"state":"active","ping":115},{"user_id":824,"name":"Quantum level failure","steam_id":76561199037497493,"connected_time":38000000000,"state":"active","ping":142},{"user_id":799,"name":"General Petrov","steam_id":76561198027204104,"connected_time":1200000000000,"state":"active","ping":75},{"user_id":807,"name":"Swayer","steam_id":76561198056192460,"connected_time":1102000000000,"state":"active","ping":67},{"user_id":813,"name":"Aspartus","steam_id":76561198101385763,"connected_time":880000000000,"state":"active","ping":42},{"user_id":793,"name":"Darim","steam_id":76561198097062529,"connected_time":1794000000000,"state":"active","ping":127},{"user_id":781,"name":"Gent","steam_id":76561198037167890,"connected_time":2606000000000,"state":"active","ping":80},{"user_id":770,"name":"Arthur","steam_id":76561198066109166,"connected_time":3537000000000,"state":"active","ping":87},{"user_id":794,"name":"Temp0_ â™¥","steam_id":76561198162068639,"connected_time":1682000000000,"state":"active","ping":71},{"user_id":812,"name":"Superiumentarius","steam_id":76561198081642249,"connected_time":912000000000,"state":"active","ping":67},{"user_id":754,"name":"Zanryiel","steam_id":76561198120723872,"connected_time":4283000000000,"state":"active","ping":84},{"user_id":797,"name":"wazaaap","steam_id":76561198080648647,"connected_time":1215000000000,"state":"active","ping":61}]},{"server_id":320,"name":"Uncletopia | London | 3 | All Maps","name_short":"lon-3","host":"lon-1.uk.uncletopia.com","port":27035,"enabled":true,"region":"eu","cc":"gb","latitude":51.509865,"longitude":-0.118092,"reserved":0,"last_update":"0001-01-01T00:00:00Z","name_a2s":"Uncletopia | London | 3 | All Maps","protocol":17,"map":"pl_borneo","folder":"tf","game":"Team Fortress","app_id":440,"player_count":24,"max_players":24,"Bots":0,"server_type":"Dedicated","server_os":"Linux","password":true,"vac":true,"version":"7961495","steam_id":85568392924510192,"keywords":["nocrits","nodmgspread","payload","uncletopia"],"game_id":440,"stv_port":27036,"stv_name":"Uncletopia | London | 3 | All Maps | STV","players":[{"user_id":623,"name":"padillacampos","steam_id":76561198161923970,"connected_time":261000000000,"state":"active","ping":88},{"user_id":622,"name":"I have","steam_id":76561199184873889,"connected_time":284000000000,"state":"active","ping":73},{"user_id":624,"name":"Ceiling fan enthusiast","steam_id":76561197989214268,"connected_time":250000000000,"state":"active","ping":59},{"user_id":605,"name":"Dictatorial Karelian","steam_id":76561198196736457,"connected_time":1948000000000,"state":"active","ping":77},{"user_id":611,"name":"Rob","steam_id":76561198234139612,"connected_time":1391000000000,"state":"active","ping":81},{"user_id":629,"name":"DistantJragon","steam_id":76561198117563641,"connected_time":109000000000,"state":"active","ping":134},{"user_id":600,"name":"jeezo","steam_id":76561198123592400,"connected_time":2212000000000,"state":"active","ping":91},{"user_id":617,"name":"HNDRXX","steam_id":76561198202741199,"connected_time":1173000000000,"state":"active","ping":64},{"user_id":572,"name":"Lemmy","steam_id":76561199038870751,"connected_time":4203000000000,"state":"active","ping":63},{"user_id":625,"name":"Snowmotion","steam_id":76561198075022454,"connected_time":239000000000,"state":"active","ping":66},{"user_id":587,"name":"srobb","steam_id":76561197985615971,"connected_time":3695000000000,"state":"active","ping":71},{"user_id":504,"name":"soder.","steam_id":76561199294336405,"connected_time":8037000000000,"state":"active","ping":90},{"user_id":595,"name":"Deacon Dracul","steam_id":76561198046880663,"connected_time":2590000000000,"state":"active","ping":98},{"user_id":613,"name":"Drift7114","steam_id":76561199044419505,"connected_time":1350000000000,"state":"active","ping":68},{"user_id":626,"name":"oh my god, the cart is on fire","steam_id":76561198086304421,"connected_time":134000000000,"state":"active","ping":84},{"user_id":627,"name":"Comfy Monkey","steam_id":76561197998434936,"connected_time":118000000000,"state":"active","ping":101},{"user_id":628,"name":"chimpin","steam_id":76561198858089300,"connected_time":114000000000,"state":"active","ping":127},{"user_id":606,"name":"POOTIS #saveTF2","steam_id":76561198384735957,"connected_time":1841000000000,"state":"active","ping":60},{"user_id":633,"name":"jonas","steam_id":76561198883559477,"connected_time":61000000000,"state":"active","ping":60},{"user_id":582,"name":"Temperance","steam_id":76561198446955878,"connected_time":3854000000000,"state":"active","ping":63},{"user_id":631,"name":"Raivop","steam_id":76561197980854307,"connected_time":82000000000,"state":"active","ping":84},{"user_id":621,"name":"Darth Falcon","steam_id":76561199033727636,"connected_time":504000000000,"state":"active","ping":177},{"user_id":619,"name":"Djingis Khan","steam_id":76561197967864460,"connected_time":918000000000,"state":"active","ping":59},{"user_id":632,"name":"Skinny101","steam_id":76561197985599360,"connected_time":65000000000,"state":"active","ping":55}]},{"server_id":321,"name":"Uncletopia | London | 4 | All Maps","name_short":"lon-4","host":"lon-1.uk.uncletopia.com","port":27045,"enabled":true,"region":"eu","cc":"gb","latitude":51.509865,"longitude":-0.118092,"reserved":0,"last_update":"0001-01-01T00:00:00Z","name_a2s":"Uncletopia | London | 4 | All Maps","protocol":17,"map":"pl_borneo","folder":"tf","game":"Team Fortress","app_id":440,"player_count":24,"max_players":24,"Bots":0,"server_type":"Dedicated","server_os":"Linux","password":true,"vac":true,"version":"7961495","steam_id":85568392924510193,"keywords":["nocrits","nodmgspread","payload","uncletopia"],"game_id":440,"stv_port":27046,"stv_name":"Uncletopia | London | 4 | All Maps | STV","players":[{"user_id":265,"name":"Cat","steam_id":76561199030180843,"connected_time":2983000000000,"state":"active","ping":104},{"user_id":294,"name":"oozaru","steam_id":76561198236803694,"connected_time":857000000000,"state":"active","ping":47},{"user_id":247,"name":"The Subway Scientist","steam_id":76561198193757646,"connected_time":3538000000000,"state":"active","ping":46},{"user_id":257,"name":"Zero Sleep Gaming","steam_id":76561198982674420,"connected_time":3165000000000,"state":"active","ping":47},{"user_id":259,"name":"noot","steam_id":76561198148074472,"connected_time":3069000000000,"state":"active","ping":58},{"user_id":266,"name":"Cream","steam_id":76561198204266952,"connected_time":2965000000000,"state":"active","ping":98},{"user_id":289,"name":"snail","steam_id":76561198147277460,"connected_time":1148000000000,"state":"active","ping":68},{"user_id":279,"name":"Tavish","steam_id":76561197971486686,"connected_time":1917000000000,"state":"active","ping":49},{"user_id":298,"name":"Donac Dum","steam_id":76561198064089294,"connected_time":92000000000,"state":"active","ping":56},{"user_id":277,"name":"The Duke","steam_id":76561198063644325,"connected_time":2449000000000,"state":"active","ping":54},{"user_id":238,"name":"ï¼¬ï½•ï½Žï½„ï½…ï½’ï½“å„š","steam_id":76561198001599722,"connected_time":4090000000000,"state":"active","ping":90},{"user_id":182,"name":"LordTrap.exe","steam_id":76561198318089716,"connected_time":7097000000000,"state":"active","ping":66},{"user_id":284,"name":"Chris","steam_id":76561198179791702,"connected_time":1675000000000,"state":"active","ping":180},{"user_id":285,"name":"Mastenbier","steam_id":76561199067658590,"connected_time":1661000000000,"state":"active","ping":131},{"user_id":286,"name":"Ñ‚Ñ‹ Ñ‡Ñ‚Ð¾ Ð´ÑƒÑ€Ð°Ðº","steam_id":76561198163244605,"connected_time":1192000000000,"state":"active","ping":76},{"user_id":290,"name":"Xenometan","steam_id":76561198208408392,"connected_time":1109000000000,"state":"active","ping":103},{"user_id":295,"name":"0rdinal","steam_id":76561198109034326,"connected_time":835000000000,"state":"active","ping":31},{"user_id":299,"name":"Nam","steam_id":76561198188110526,"connected_time":20000000000,"state":"active","ping":73},{"user_id":276,"name":"Pomson Gaming","steam_id":76561199200442395,"connected_time":2583000000000,"state":"active","ping":84},{"user_id":297,"name":"gfjhsdf","steam_id":76561198136736426,"connected_time":163000000000,"state":"active","ping":62},{"user_id":296,"name":"Mikeal (bad)","steam_id":76561198241759034,"connected_time":688000000000,"state":"active","ping":96},{"user_id":272,"name":"Cpt_frost","steam_id":76561198218034817,"connected_time":2776000000000,"state":"active","ping":33},{"user_id":263,"name":"bryophyta","steam_id":76561197968945306,"connected_time":3051000000000,"state":"active","ping":69},{"user_id":281,"name":"SynthBox3","steam_id":76561199094075745,"connected_time":1893000000000,"state":"active","ping":92}]},{"server_id":21,"name":"Uncletopia | London | 5 | All Maps","name_short":"lon-5","host":"lon-1.uk.uncletopia.com","port":27055,"enabled":true,"region":"eu","cc":"gb","latitude":51.509865,"longitude":-0.118092,"reserved":0,"last_update":"0001-01-01T00:00:00Z","name_a2s":"Uncletopia | London | 5 | All Maps","protocol":17,"map":"cp_metalworks","folder":"tf","game":"Team Fortress","app_id":440,"player_count":23,"max_players":24,"Bots":0,"server_type":"Dedicated","server_os":"Linux","password":true,"vac":true,"version":"7961495","steam_id":85568392924742829,"keywords":["cp","nocrits","nodmgspread","uncletopia"],"game_id":440,"stv_port":27056,"stv_name":"Uncletopia | London | 5 | All Maps | STV","players":[{"user_id":467,"name":"Raymus","steam_id":76561198021330407,"connected_time":558000000000,"state":"active","ping":48},{"user_id":471,"name":"Arty","steam_id":76561198160100181,"connected_time":245000000000,"state":"active","ping":59},{"user_id":458,"name":"Oblivion","steam_id":76561198352683491,"connected_time":866000000000,"state":"active","ping":44},{"user_id":384,"name":"yuno appreciator","steam_id":76561198083286511,"connected_time":7369000000000,"state":"active","ping":31},{"user_id":472,"name":"Sex updater","steam_id":76561198173218318,"connected_time":239000000000,"state":"active","ping":63},{"user_id":459,"name":"erenom09","steam_id":76561199017383513,"connected_time":817000000000,"state":"active","ping":98},{"user_id":450,"name":"kid bean","steam_id":76561198063328792,"connected_time":2003000000000,"state":"active","ping":105},{"user_id":423,"name":"Ullr","steam_id":76561198140547483,"connected_time":4237000000000,"state":"active","ping":42},{"user_id":460,"name":"KarlRanzeier","steam_id":76561198066281337,"connected_time":783000000000,"state":"active","ping":60},{"user_id":452,"name":"Alpaca","steam_id":76561198029839079,"connected_time":1935000000000,"state":"active","ping":48},{"user_id":435,"name":"Kachigga","steam_id":76561198273112995,"connected_time":2995000000000,"state":"active","ping":52},{"user_id":347,"name":"Boba","steam_id":76561198261766530,"connected_time":9616000000000,"state":"active","ping":79},{"user_id":431,"name":"$kelly","steam_id":76561198195270894,"connected_time":3417000000000,"state":"active","ping":79},{"user_id":424,"name":"Packet","steam_id":76561199173195875,"connected_time":4232000000000,"state":"active","ping":102},{"user_id":438,"name":"Beh","steam_id":76561198251208926,"connected_time":2959000000000,"state":"active","ping":50},{"user_id":461,"name":"da accident","steam_id":76561198169798649,"connected_time":714000000000,"state":"active","ping":77},{"user_id":466,"name":"Cosmo","steam_id":76561198078378048,"connected_time":571000000000,"state":"active","ping":43},{"user_id":470,"name":"branco jardento csgo500.com","steam_id":76561198166605966,"connected_time":463000000000,"state":"active","ping":83},{"user_id":473,"name":"Chipsy","steam_id":76561198271813588,"connected_time":237000000000,"state":"active","ping":40},{"user_id":463,"name":"Saucisse","steam_id":76561198119955969,"connected_time":694000000000,"state":"active","ping":59},{"user_id":468,"name":"NoctilucentDavid","steam_id":76561199248746732,"connected_time":510000000000,"state":"active","ping":85},{"user_id":434,"name":"Nomad","steam_id":76561198267819704,"connected_time":3016000000000,"state":"active","ping":84},{"user_id":449,"name":"ExtraFlames","steam_id":76561199136146246,"connected_time":2109000000000,"state":"active","ping":59}]},{"server_id":22,"name":"Uncletopia | London | 6 | All Maps","name_short":"lon-6","host":"lon-1.uk.uncletopia.com","port":27065,"enabled":true,"region":"eu","cc":"gb","latitude":51.509865,"longitude":-0.118092,"reserved":0,"last_update":"0001-01-01T00:00:00Z","name_a2s":"Uncletopia | London | 6 | All Maps","protocol":17,"map":"pl_badwater","folder":"tf","game":"Team Fortress","app_id":440,"player_count":24,"max_players":24,"Bots":0,"server_type":"Dedicated","server_os":"Linux","password":true,"vac":true,"version":"7961495","steam_id":85568392924742830,"keywords":["nocrits","nodmgspread","payload","uncletopia"],"game_id":440,"stv_port":27066,"stv_name":"Uncletopia | London | 6 | All Maps | STV","players":[{"user_id":497,"name":"stickurr","steam_id":76561198089536805,"connected_time":429000000000,"state":"active","ping":54},{"user_id":444,"name":"pvtemback","steam_id":76561198887302382,"connected_time":4574000000000,"state":"active","ping":87},{"user_id":452,"name":"Rodak","steam_id":76561199135986344,"connected_time":4021000000000,"state":"active","ping":74},{"user_id":479,"name":"Dr. Funkenstein","steam_id":76561197977816210,"connected_time":2422000000000,"state":"active","ping":57},{"user_id":375,"name":"mhib","steam_id":76561198048037379,"connected_time":8728000000000,"state":"active","ping":83},{"user_id":461,"name":"[P-roc] BadJacKS","steam_id":76561197972666377,"connected_time":3507000000000,"state":"active","ping":61},{"user_id":454,"name":"Fliits","steam_id":76561198129780632,"connected_time":3902000000000,"state":"active","ping":84},{"user_id":455,"name":"Paint","steam_id":76561198166823873,"connected_time":3874000000000,"state":"active","ping":55},{"user_id":473,"name":"Onvee","steam_id":76561198205342551,"connected_time":2921000000000,"state":"active","ping":70},{"user_id":456,"name":"race car driver jerry","steam_id":76561198054047446,"connected_time":3817000000000,"state":"active","ping":70},{"user_id":487,"name":"ÐÐ½Ð´Ñ€ÐµÐ¹","steam_id":76561199004027817,"connected_time":1840000000000,"state":"active","ping":112},{"user_id":483,"name":"Chish n' Fips","steam_id":76561198012300440,"connected_time":2087000000000,"state":"active","ping":48},{"user_id":376,"name":"GrzMik","steam_id":76561198061951968,"connected_time":8710000000000,"state":"active","ping":97},{"user_id":462,"name":"Bobo","steam_id":76561198052308399,"connected_time":3499000000000,"state":"active","ping":67},{"user_id":498,"name":"CF-TF2","steam_id":76561198145893044,"connected_time":378000000000,"state":"active","ping":117},{"user_id":491,"name":"emu","steam_id":76561198067937303,"connected_time":1046000000000,"state":"active","ping":93},{"user_id":488,"name":"killerdiam","steam_id":76561198806422317,"connected_time":1646000000000,"state":"active","ping":51},{"user_id":489,"name":"glorpis","steam_id":76561199225333422,"connected_time":1225000000000,"state":"active","ping":37},{"user_id":481,"name":"NitPig","steam_id":76561198212991935,"connected_time":2360000000000,"state":"active","ping":94},{"user_id":467,"name":"SourMyth","steam_id":76561198071818351,"connected_time":3294000000000,"state":"active","ping":46},{"user_id":469,"name":"Skarpy","steam_id":76561198034398376,"connected_time":3157000000000,"state":"active","ping":64},{"user_id":492,"name":"Ð®Ð¤","steam_id":76561198044519039,"connected_time":953000000000,"state":"active","ping":68},{"user_id":471,"name":"Goose","steam_id":76561198316133736,"connected_time":3112000000000,"state":"active","ping":54},{"user_id":478,"name":"Fu Manchu","steam_id":76561197995224539,"connected_time":2677000000000,"state":"active","ping":62}]},{"server_id":40,"name":"Uncletopia | London | 7 | Stopwatch","name_short":"lon-7","host":"lon-1.uk.uncletopia.com","port":27075,"enabled":true,"region":"eu","cc":"gb","latitude":51.509865,"longitude":-0.118092,"reserved":0,"last_update":"0001-01-01T00:00:00Z","name_a2s":"Uncletopia | London | 7 | Stopwatch","protocol":17,"map":"koth_highpass","folder":"tf","game":"Team Fortress","app_id":440,"player_count":1,"max_players":24,"Bots":0,"server_type":"Dedicated","server_os":"Linux","password":true,"vac":true,"version":"7961495","steam_id":85568392924964314,"keywords":["cp","nocrits","nodmgspread","uncletopia"],"game_id":440,"stv_port":27076,"stv_name":"Uncletopia | London | 7 | Stopwatch | STV","players":[{"user_id":35,"name":"Tispy","steam_id":76561199207410049,"connected_time":55000000000,"state":"spawning","ping":143}]},{"server_id":41,"name":"Uncletopia | London | 8 | Community","name_short":"lon-8","host":"lon-1.uk.uncletopia.com","port":27085,"enabled":true,"region":"eu","cc":"gb","latitude":51.509865,"longitude":-0.118092,"reserved":0,"last_update":"0001-01-01T00:00:00Z","name_a2s":"Uncletopia | London | 8 | Community","protocol":17,"map":"workshop/pl_highwood_b13.ugc1769496557","folder":"tf","game":"Team Fortress","app_id":440,"player_count":0,"max_players":24,"Bots":0,"server_type":"Dedicated","server_os":"Linux","password":true,"vac":true,"version":"7961495","steam_id":85568392924964315,"keywords":["nocrits","nodmgspread","payload","uncletopia"],"game_id":440,"stv_port":27086,"stv_name":"Uncletopia | London | 8 | Community | STV","players":null},{"server_id":300,"name":"Uncletopia | MontrÃ©al | 1 | One Thousand Uncles","name_short":"mtl-1","host":"mtl-1.ca.uncletopia.com","port":27015,"enabled":true,"region":"us-east","cc":"ca","latitude":45.50889,"longitude":-73.56167,"reserved":0,"last_update":"0001-01-01T00:00:00Z","name_a2s":"","protocol":0,"map":"","folder":"","game":"","app_id":0,"player_count":14,"max_players":0,"Bots":0,"server_type":"","server_os":"","password":false,"vac":false,"version":"","steam_id":0,"keywords":null,"game_id":0,"stv_port":0,"stv_name":"","players":[{"user_id":259,"name":"Sallomone","steam_id":76561198878216775,"connected_time":1891000000000,"state":"active","ping":190},{"user_id":268,"name":"spidercam123","steam_id":76561199184902367,"connected_time":466000000000,"state":"active","ping":89},{"user_id":248,"name":"BIGMOOD","steam_id":76561199086966716,"connected_time":3908000000000,"state":"active","ping":117},{"user_id":264,"name":"Memes","steam_id":76561198354087246,"connected_time":989000000000,"state":"active","ping":113},{"user_id":202,"name":"Nova Astral","steam_id":76561198068127098,"connected_time":7407000000000,"state":"active","ping":64},{"user_id":257,"name":"Jared","steam_id":76561198020432651,"connected_time":2121000000000,"state":"active","ping":49},{"user_id":260,"name":"Kenny Gaming","steam_id":76561199382783363,"connected_time":1576000000000,"state":"active","ping":79},{"user_id":258,"name":"Kaiser","steam_id":76561198140729247,"connected_time":2115000000000,"state":"active","ping":46},{"user_id":262,"name":"JoeFalco","steam_id":76561198064005012,"connected_time":1184000000000,"state":"active","ping":90},{"user_id":265,"name":"LightBulbGlue #SaveTF2","steam_id":76561198329573529,"connected_time":914000000000,"state":"active","ping":64},{"user_id":266,"name":"Heartgold","steam_id":76561199062592062,"connected_time":810000000000,"state":"active","ping":73},{"user_id":269,"name":"Lyxfex","steam_id":76561198050166082,"connected_time":383000000000,"state":"active","ping":35},{"user_id":193,"name":"Snoopy","steam_id":76561198273735974,"connected_time":10252000000000,"state":"active","ping":103},{"user_id":273,"name":"LÇ˜cÐšÎ³ Ú©Å¦riÐºÎ¾","steam_id":76561198057723275,"connected_time":327000000000,"state":"active","ping":139}]},{"server_id":301,"name":"Uncletopia | MontrÃ©al | 2 | One Thousand Uncles","name_short":"mtl-2","host":"mtl-1.ca.uncletopia.com","port":27025,"enabled":true,"region":"us-east","cc":"ca","latitude":45.50889,"longitude":-73.56167,"reserved":0,"last_update":"0001-01-01T00:00:00Z","name_a2s":"","protocol":0,"map":"","folder":"","game":"","app_id":0,"player_count":1,"max_players":0,"Bots":0,"server_type":"","server_os":"","password":false,"vac":false,"version":"","steam_id":0,"keywords":null,"game_id":0,"stv_port":0,"stv_name":"","players":[{"user_id":71,"name":"princess fern \u003c3333","steam_id":76561198881792140,"connected_time":209000000000,"state":"active","ping":51}]},{"server_id":302,"name":"Uncletopia | MontrÃ©al | 3 | One Thousand Uncles","name_short":"mtl-3","host":"mtl-1.ca.uncletopia.com","port":27035,"enabled":true,"region":"us-east","cc":"ca","latitude":45.50889,"longitude":-73.56167,"reserved":0,"last_update":"0001-01-01T00:00:00Z","name_a2s":"","protocol":0,"map":"","folder":"","game":"","app_id":0,"player_count":0,"max_players":0,"Bots":0,"server_type":"","server_os":"","password":false,"vac":false,"version":"","steam_id":0,"keywords":null,"game_id":0,"stv_port":0,"stv_name":"","players":null},{"server_id":13,"name":"Uncletopia | New York City | 1 | All Maps","name_short":"nyc-1","host":"nyc-1.us.uncletopia.com","port":27015,"enabled":true,"region":"us-east","cc":"us","latitude":40.73061,"longitude":-73.93524,"reserved":0,"last_update":"0001-01-01T00:00:00Z","name_a2s":"Uncletopia | New York City | 1 | All Maps","protocol":17,"map":"pl_borneo","folder":"tf","game":"Team Fortress","app_id":440,"player_count":24,"max_players":24,"Bots":0,"server_type":"Dedicated","server_os":"Linux","password":true,"vac":true,"version":"7961495","steam_id":85568392924469993,"keywords":["nocrits","nodmgspread","payload","uncletopia"],"game_id":440,"stv_port":27016,"stv_name":"Uncletopia | New York City | 1 | All Maps | STV","players":[{"user_id":109,"name":"Glennithy","steam_id":76561198339332079,"connected_time":1541000000000,"state":"active","ping":65},{"user_id":106,"name":"WibbyOne","steam_id":76561198052843846,"connected_time":1896000000000,"state":"active","ping":39},{"user_id":96,"name":"CornDog","steam_id":76561198249446918,"connected_time":2623000000000,"state":"active","ping":33},{"user_id":64,"name":"High School Nudical","steam_id":76561198172120615,"connected_time":5189000000000,"state":"active","ping":38},{"user_id":116,"name":"Ace","steam_id":76561198086172358,"connected_time":54000000000,"state":"active","ping":44},{"user_id":68,"name":"benny worm","steam_id":76561198163238434,"connected_time":4864000000000,"state":"active","ping":46},{"user_id":79,"name":"Havok","steam_id":76561198063455003,"connected_time":3702000000000,"state":"active","ping":52},{"user_id":111,"name":"Post nut clarity","steam_id":76561198060246831,"connected_time":711000000000,"state":"active","ping":71},{"user_id":112,"name":"frim le yousse","steam_id":76561198107765260,"connected_time":701000000000,"state":"active","ping":73},{"user_id":103,"name":"Carpet enthusiast","steam_id":76561198024040142,"connected_time":1925000000000,"state":"active","ping":90},{"user_id":76,"name":"olg","steam_id":76561198163423805,"connected_time":3910000000000,"state":"active","ping":59},{"user_id":92,"name":"wool","steam_id":76561198869689933,"connected_time":3047000000000,"state":"active","ping":54},{"user_id":89,"name":"skid","steam_id":76561198057536994,"connected_time":3404000000000,"state":"active","ping":67},{"user_id":83,"name":"Horrowes","steam_id":76561198318446417,"connected_time":3646000000000,"state":"active","ping":62},{"user_id":117,"name":"cyberas","steam_id":76561198257092290,"connected_time":53000000000,"state":"active","ping":66},{"user_id":104,"name":"Explodingmayo","steam_id":76561198361728591,"connected_time":1923000000000,"state":"active","ping":83},{"user_id":39,"name":"Drake the Pixel","steam_id":76561198131824401,"connected_time":5906000000000,"state":"active","ping":43},{"user_id":98,"name":"BeerPowder","steam_id":76561198058129400,"connected_time":1960000000000,"state":"active","ping":53},{"user_id":100,"name":"UnlivingSkunk","steam_id":76561198324517387,"connected_time":1956000000000,"state":"active","ping":51},{"user_id":110,"name":"Banks","steam_id":76561198276505537,"connected_time":936000000000,"state":"active","ping":60},{"user_id":118,"name":"MTGbigdog","steam_id":76561198838760637,"connected_time":49000000000,"state":"active","ping":69},{"user_id":77,"name":"ExtraSoap","steam_id":76561198008712409,"connected_time":3784000000000,"state":"active","ping":60},{"user_id":119,"name":"Leroy","steam_id":76561199013064727,"connected_time":47000000000,"state":"active","ping":107},{"user_id":115,"name":"SpaceSanctum","steam_id":76561198805242305,"connected_time":306000000000,"state":"active","ping":45}]},{"server_id":14,"name":"Uncletopia | New York City | 2 | All Maps","name_short":"nyc-2","host":"nyc-1.us.uncletopia.com","port":27025,"enabled":true,"region":"us-east","cc":"us","latitude":40.73061,"longitude":-73.93524,"reserved":0,"last_update":"0001-01-01T00:00:00Z","name_a2s":"Uncletopia | New York City | 2 | All Maps","protocol":17,"map":"pl_pier","folder":"tf","game":"Team Fortress","app_id":440,"player_count":24,"max_players":24,"Bots":0,"server_type":"Dedicated","server_os":"Linux","password":true,"vac":true,"version":"7961495","steam_id":85568392924469994,"keywords":["nocrits","nodmgspread","payload","uncletopia"],"game_id":440,"stv_port":27026,"stv_name":"Uncletopia | New York City | 2 | All Maps | STV","players":[{"user_id":28,"name":"Orange Gaming Llama","steam_id":76561199088577021,"connected_time":2420000000000,"state":"active","ping":91},{"user_id":29,"name":"johs","steam_id":76561198827312411,"connected_time":2414000000000,"state":"active","ping":69},{"user_id":45,"name":"yer_nerd","steam_id":76561199435454093,"connected_time":1095000000000,"state":"active","ping":59},{"user_id":42,"name":"Xemyr","steam_id":76561198044090177,"connected_time":1330000000000,"state":"active","ping":83},{"user_id":43,"name":"Anstorner","steam_id":76561198274026015,"connected_time":1274000000000,"state":"active","ping":103},{"user_id":67,"name":"1HandsomeLAD","steam_id":76561198807047496,"connected_time":422000000000,"state":"active","ping":91},{"user_id":69,"name":"King","steam_id":76561198123927752,"connected_time":208000000000,"state":"active","ping":60},{"user_id":68,"name":"Sicko Mode (Chris Pratt Cover)","steam_id":76561198315786174,"connected_time":373000000000,"state":"active","ping":55},{"user_id":66,"name":"It's FoolMoon","steam_id":76561198153344375,"connected_time":455000000000,"state":"active","ping":44},{"user_id":47,"name":"NoobsSlayer","steam_id":76561199102765122,"connected_time":1005000000000,"state":"active","ping":140},{"user_id":75,"name":"Deltaco","steam_id":76561198094572694,"connected_time":12000000000,"state":"spawning","ping":118},{"user_id":49,"name":"SuitedKnight","steam_id":76561198969546736,"connected_time":954000000000,"state":"active","ping":65},{"user_id":73,"name":"for the king","steam_id":76561197973488858,"connected_time":62000000000,"state":"active","ping":45},{"user_id":70,"name":"â˜¢ Lime â˜¢","steam_id":76561199102839784,"connected_time":201000000000,"state":"active","ping":107},{"user_id":53,"name":"The_Swan101","steam_id":76561198255629546,"connected_time":856000000000,"state":"active","ping":54},{"user_id":55,"name":"Fu Qian Qian","steam_id":76561199081837220,"connected_time":806000000000,"state":"active","ping":75},{"user_id":56,"name":"wearing my sunday pants","steam_id":76561198834106533,"connected_time":797000000000,"state":"active","ping":59},{"user_id":64,"name":"CEO of Great Value Rootbeer","steam_id":76561198255823904,"connected_time":626000000000,"state":"active","ping":116},{"user_id":58,"name":"Lime","steam_id":76561198104953902,"connected_time":757000000000,"state":"active","ping":49},{"user_id":59,"name":"glimbo the goblin","steam_id":76561198060133892,"connected_time":743000000000,"state":"active","ping":100},{"user_id":74,"name":"Gaming","steam_id":76561198107080532,"connected_time":41000000000,"state":"active","ping":69},{"user_id":62,"name":"Kiril","steam_id":76561198051433762,"connected_time":693000000000,"state":"active","ping":166},{"user_id":65,"name":"aureli","steam_id":76561199031411031,"connected_time":624000000000,"state":"active","ping":56},{"user_id":72,"name":"QuackTheShot","steam_id":76561198367481730,"connected_time":179000000000,"state":"active","ping":50}]},{"server_id":15,"name":"Uncletopia | New York City | 3 | Stopwatch","name_short":"nyc-3","host":"nyc-1.us.uncletopia.com","port":27035,"enabled":true,"region":"us-east","cc":"us","latitude":40.73061,"longitude":-73.93524,"reserved":0,"last_update":"0001-01-01T00:00:00Z","name_a2s":"Uncletopia | New York City | 3 | Stopwatch","protocol":17,"map":"pl_borneo","folder":"tf","game":"Team Fortress","app_id":440,"player_count":0,"max_players":24,"Bots":0,"server_type":"Dedicated","server_os":"Linux","password":true,"vac":true,"version":"7961495","steam_id":85568392924742820,"keywords":["nocrits","nodmgspread","payload","uncletopia"],"game_id":440,"stv_port":27036,"stv_name":"Uncletopia | New York City | 3 | Stopwatch | STV","players":null},{"server_id":16,"name":"Uncletopia | New York City | 4 | Community","name_short":"nyc-4","host":"nyc-1.us.uncletopia.com","port":27045,"enabled":true,"region":"us-east","cc":"us","latitude":40.73061,"longitude":-73.93524,"reserved":0,"last_update":"0001-01-01T00:00:00Z","name_a2s":"Uncletopia | New York City | 4 | Community","protocol":17,"map":"workshop/koth_ramjam_rc1.ugc459778887","folder":"tf","game":"Team Fortress","app_id":440,"player_count":0,"max_players":24,"Bots":0,"server_type":"Dedicated","server_os":"Linux","password":true,"vac":true,"version":"7961495","steam_id":85568392924742821,"keywords":["cp","nocrits","nodmgspread","uncletopia"],"game_id":440,"stv_port":27046,"stv_name":"Uncletopia | New York City | 4 | Community | STV","players":null},{"server_id":142,"name":"Uncletopia | SÃ£o Paulo | 1 | All Maps","name_short":"sao-1","host":"sao-1.br.uncletopia.com","port":27015,"enabled":true,"region":"sa","cc":"br","latitude":-23.533773,"longitude":-46.62529,"reserved":0,"last_update":"0001-01-01T00:00:00Z","name_a2s":"Uncletopia | SÃ£o Paulo | 1 | All Maps","protocol":17,"map":"koth_viaduct","folder":"tf","game":"Team Fortress","app_id":440,"player_count":0,"max_players":24,"Bots":0,"server_type":"Dedicated","server_os":"Linux","password":true,"vac":true,"version":"7961495","steam_id":85568392924469996,"keywords":["cp","nocrits","nodmgspread","uncletopia"],"game_id":440,"stv_port":27016,"stv_name":"Uncletopia | SÃ£o Paulo | 1 | All Maps | STV","players":null},{"server_id":143,"name":"Uncletopia | SÃ£o Paulo | 2 | Community","name_short":"sao-2","host":"sao-2.br.uncletopia.com","port":27015,"enabled":true,"region":"sa","cc":"br","latitude":-23.533773,"longitude":-46.62529,"reserved":0,"last_update":"0001-01-01T00:00:00Z","name_a2s":"Uncletopia | SÃ£o Paulo | 2 | Community","protocol":17,"map":"workshop/pl_boundary_final1.ugc456799153","folder":"tf","game":"Team Fortress","app_id":440,"player_count":1,"max_players":24,"Bots":0,"server_type":"Dedicated","server_os":"Linux","password":true,"vac":true,"version":"7961495","steam_id":85568392924485349,"keywords":["nocrits","nodmgspread","payload","uncletopia"],"game_id":440,"stv_port":27016,"stv_name":"Uncletopia | SÃ£o Paulo | 2 | Community | STV","players":[{"user_id":14,"name":"https://youtu.be/RvVdFXOFcjw","steam_id":76561198844048672,"connected_time":277000000000,"state":"active","ping":32}]},{"server_id":7,"name":"Uncletopia | Seattle | 1 | All Maps","name_short":"sea-1","host":"sea-1.us.uncletopia.com","port":27015,"enabled":true,"region":"us-west","cc":"us","latitude":47.608013,"longitude":-122.33517,"reserved":0,"last_update":"0001-01-01T00:00:00Z","name_a2s":"Uncletopia | Seattle | 1 | All Maps","protocol":17,"map":"cp_process_final","folder":"tf","game":"Team Fortress","app_id":440,"player_count":24,"max_players":24,"Bots":0,"server_type":"Dedicated","server_os":"Linux","password":true,"vac":true,"version":"7961495","steam_id":85568392924469997,"keywords":["cp","nocrits","nodmgspread","uncletopia"],"game_id":440,"stv_port":27016,"stv_name":"Uncletopia | Seattle | 1 | All Maps | STV","players":[{"user_id":173,"name":"Mr8bittripper","steam_id":76561198133894229,"connected_time":2170000000000,"state":"active","ping":43},{"user_id":77,"name":"Snale","steam_id":76561198039517965,"connected_time":10848000000000,"state":"active","ping":60},{"user_id":148,"name":"Jornan","steam_id":76561199247095754,"connected_time":4328000000000,"state":"active","ping":55},{"user_id":162,"name":"TommyBoi","steam_id":76561198025528637,"connected_time":3168000000000,"state":"active","ping":38},{"user_id":123,"name":"box","steam_id":76561198049531483,"connected_time":6697000000000,"state":"active","ping":134},{"user_id":128,"name":"my monitor is off","steam_id":76561198074499537,"connected_time":6173000000000,"state":"active","ping":66},{"user_id":186,"name":"ShiningForce","steam_id":76561198026039048,"connected_time":18000000000,"state":"spawning","ping":115},{"user_id":154,"name":"mach5","steam_id":76561198014094290,"connected_time":3651000000000,"state":"active","ping":101},{"user_id":156,"name":"Theodore John Kaczynski","steam_id":76561199127590316,"connected_time":3600000000000,"state":"active","ping":73},{"user_id":165,"name":"Buswolley","steam_id":76561197995205571,"connected_time":3009000000000,"state":"active","ping":59},{"user_id":143,"name":"dust | it/she","steam_id":76561198045218909,"connected_time":4722000000000,"state":"active","ping":44},{"user_id":176,"name":"lukamine","steam_id":76561198166827208,"connected_time":1636000000000,"state":"active","ping":44},{"user_id":158,"name":"Dimple","steam_id":76561198980324190,"connected_time":3304000000000,"state":"active","ping":60},{"user_id":179,"name":"Tenzin Gyatso","steam_id":76561198258980884,"connected_time":1336000000000,"state":"active","ping":53},{"user_id":184,"name":"Juuichi11","steam_id":76561198141955085,"connected_time":125000000000,"state":"active","ping":52},{"user_id":175,"name":"korkskrou","steam_id":76561198422156430,"connected_time":2009000000000,"state":"active","ping":47},{"user_id":161,"name":"roach","steam_id":76561198354811369,"connected_time":3282000000000,"state":"active","ping":74},{"user_id":163,"name":"Linksaver1","steam_id":76561198096312838,"connected_time":3136000000000,"state":"active","ping":76},{"user_id":185,"name":"Engineer Gaming Live","steam_id":76561198045914603,"connected_time":83000000000,"state":"active","ping":70},{"user_id":181,"name":"woodpigeon","steam_id":76561199488457138,"connected_time":267000000000,"state":"active","ping":59},{"user_id":152,"name":"Leaky Louie","steam_id":76561198132755619,"connected_time":3682000000000,"state":"active","ping":71},{"user_id":178,"name":"Blueyou","steam_id":76561198086516692,"connected_time":1355000000000,"state":"active","ping":57},{"user_id":145,"name":"Nibotshooter","steam_id":76561199284825579,"connected_time":4588000000000,"state":"active","ping":75},{"user_id":153,"name":"Daz","steam_id":76561198041431938,"connected_time":3679000000000,"state":"active","ping":53}]},{"server_id":119,"name":"Uncletopia | Seattle | 2 | All Maps","name_short":"sea-2","host":"sea-1.us.uncletopia.com","port":27025,"enabled":true,"region":"us-west","cc":"us","latitude":47.608013,"longitude":-122.33517,"reserved":0,"last_update":"0001-01-01T00:00:00Z","name_a2s":"Uncletopia | Seattle | 2 | All Maps","protocol":17,"map":"koth_cascade","folder":"tf","game":"Team Fortress","app_id":440,"player_count":0,"max_players":24,"Bots":0,"server_type":"Dedicated","server_os":"Linux","password":true,"vac":true,"version":"7961495","steam_id":85568392924469998,"keywords":["cp","nocrits","nodmgspread","uncletopia"],"game_id":440,"stv_port":27026,"stv_name":"Uncletopia | Seattle | 2 | All Maps | STV","players":null},{"server_id":406,"name":"Uncletopia | Seattle | 3 | Stopwatch","name_short":"sea-3","host":"sea-1.us.uncletopia.com","port":27035,"enabled":true,"region":"us-west","cc":"us","latitude":47.608013,"longitude":-122.33517,"reserved":0,"last_update":"0001-01-01T00:00:00Z","name_a2s":"Uncletopia | Seattle | 3 | Stopwatch","protocol":17,"map":"cp_process_final","folder":"tf","game":"Team Fortress","app_id":440,"player_count":0,"max_players":24,"Bots":0,"server_type":"Dedicated","server_os":"Linux","password":true,"vac":true,"version":"7961495","steam_id":85568392924515217,"keywords":["cp","nocrits","nodmgspread","uncletopia"],"game_id":440,"stv_port":27036,"stv_name":"Uncletopia | Seattle | 3 | Stopwatch | STV","players":null},{"server_id":17,"name":"Uncletopia | San Francisco | 1 | All Maps","name_short":"sfo-1","host":"sfo-1.us.uncletopia.com","port":27015,"enabled":true,"region":"us-west","cc":"us","latitude":37.77397,"longitude":-122.4313,"reserved":0,"last_update":"0001-01-01T00:00:00Z","name_a2s":"Uncletopia | San Francisco | 1 | All Maps","protocol":17,"map":"koth_cascade","folder":"tf","game":"Team Fortress","app_id":440,"player_count":0,"max_players":24,"Bots":0,"server_type":"Dedicated","server_os":"Linux","password":true,"vac":true,"version":"7961495","steam_id":85568392924469999,"keywords":["cp","nocrits","nodmgspread","uncletopia"],"game_id":440,"stv_port":27016,"stv_name":"Uncletopia | San Francisco | 1 | All Maps | STV","players":null},{"server_id":18,"name":"Uncletopia | San Francisco | 2 | All Maps","name_short":"sfo-2","host":"sfo-1.us.uncletopia.com","port":27025,"enabled":true,"region":"us-west","cc":"us","latitude":37.77397,"longitude":-122.4313,"reserved":0,"last_update":"0001-01-01T00:00:00Z","name_a2s":"Uncletopia | San Francisco | 2 | All Maps","protocol":17,"map":"cp_snakewater_final1","folder":"tf","game":"Team Fortress","app_id":440,"player_count":0,"max_players":24,"Bots":0,"server_type":"Dedicated","server_os":"Linux","password":true,"vac":true,"version":"7961495","steam_id":85568392924470000,"keywords":["cp","nocrits","nodmgspread","uncletopia"],"game_id":440,"stv_port":27026,"stv_name":"Uncletopia | San Francisco | 2 | All Maps | STV","players":null},{"server_id":19,"name":"Uncletopia | San Francisco | 3 | Stopwatch","name_short":"sfo-3","host":"sfo-1.us.uncletopia.com","port":27035,"enabled":true,"region":"us-west","cc":"us","latitude":37.77397,"longitude":-122.4313,"reserved":0,"last_update":"0001-01-01T00:00:00Z","name_a2s":"Uncletopia | San Francisco | 3 | Stopwatch","protocol":17,"map":"pl_pier","folder":"tf","game":"Team Fortress","app_id":440,"player_count":0,"max_players":24,"Bots":0,"server_type":"Dedicated","server_os":"Linux","password":true,"vac":true,"version":"7961495","steam_id":85568392924742824,"keywords":["nocrits","nodmgspread","payload","uncletopia"],"game_id":440,"stv_port":27036,"stv_name":"Uncletopia | San Francisco | 3 | Stopwatch | STV","players":null},{"server_id":20,"name":"Uncletopia | San Francisco | 4 | Community","name_short":"sfo-4","host":"sfo-1.us.uncletopia.com","port":27045,"enabled":true,"region":"us-west","cc":"us","latitude":37.77397,"longitude":-122.4313,"reserved":0,"last_update":"0001-01-01T00:00:00Z","name_a2s":"Uncletopia | San Francisco | 4 | Community","protocol":17,"map":"pl_pier","folder":"tf","game":"Team Fortress","app_id":440,"player_count":0,"max_players":24,"Bots":0,"server_type":"Dedicated","server_os":"Linux","password":true,"vac":true,"version":"7961495","steam_id":85568392924742826,"keywords":["nocrits","nodmgspread","payload","uncletopia"],"game_id":440,"stv_port":27046,"stv_name":"Uncletopia | San Francisco | 4 | Community | STV","players":null},{"server_id":141,"name":"Uncletopia | Sydney | 1 | All Maps","name_short":"syd-1","host":"syd-1.au.uncletopia.com","port":27015,"enabled":true,"region":"au","cc":"au","latitude":-33.865143,"longitude":151.2099,"reserved":0,"last_update":"0001-01-01T00:00:00Z","name_a2s":"Uncletopia | Sydney | 1 | All Maps","protocol":17,"map":"koth_viaduct","folder":"tf","game":"Team Fortress","app_id":440,"player_count":0,"max_players":24,"Bots":0,"server_type":"Dedicated","server_os":"Linux","password":true,"vac":true,"version":"7961495","steam_id":85568392924470001,"keywords":["cp","nocrits","nodmgspread","uncletopia"],"game_id":440,"stv_port":27016,"stv_name":"Uncletopia | Sydney | 1 | All Maps | STV","players":null},{"server_id":123,"name":"Uncletopia | Sydney | 2 | All Maps","name_short":"syd-2","host":"syd-1.au.uncletopia.com","port":27025,"enabled":true,"region":"au","cc":"au","latitude":-33.865143,"longitude":151.2099,"reserved":0,"last_update":"0001-01-01T00:00:00Z","name_a2s":"Uncletopia | Sydney | 2 | All Maps","protocol":17,"map":"koth_lakeside_final","folder":"tf","game":"Team Fortress","app_id":440,"player_count":0,"max_players":24,"Bots":0,"server_type":"Dedicated","server_os":"Linux","password":true,"vac":true,"version":"7961495","steam_id":85568392924470002,"keywords":["cp","nocrits","nodmgspread","uncletopia"],"game_id":440,"stv_port":27026,"stv_name":"Uncletopia | Sydney | 2 | All Maps | STV","players":null},{"server_id":395,"name":"Uncletopia | Sydney | 3 | All Maps","name_short":"syd-3","host":"syd-1.au.uncletopia.com","port":27035,"enabled":true,"region":"au","cc":"au","latitude":-33.865143,"longitude":151.2099,"reserved":0,"last_update":"0001-01-01T00:00:00Z","name_a2s":"Uncletopia | Sydney | 3 | All Maps","protocol":17,"map":"pl_frontier_final","folder":"tf","game":"Team Fortress","app_id":440,"player_count":0,"max_players":24,"Bots":0,"server_type":"Dedicated","server_os":"Linux","password":true,"vac":true,"version":"7961495","steam_id":85568392925194467,"keywords":["nocrits","nodmgspread","payload","uncletopia"],"game_id":440,"stv_port":27036,"stv_name":"Uncletopia | Sydney | 3 | All Maps | STV","players":null},{"server_id":396,"name":"Uncletopia | Sydney | 4 | All Maps","name_short":"syd-4","host":"syd-1.au.uncletopia.com","port":27045,"enabled":true,"region":"au","cc":"au","latitude":-33.865143,"longitude":151.2099,"reserved":0,"last_update":"0001-01-01T00:00:00Z","name_a2s":"Uncletopia | Sydney | 4 | All Maps","protocol":17,"map":"cp_process_final","folder":"tf","game":"Team Fortress","app_id":440,"player_count":0,"max_players":24,"Bots":0,"server_type":"Dedicated","server_os":"Linux","password":true,"vac":true,"version":"7961495","steam_id":85568392925397958,"keywords":["cp","nocrits","nodmgspread","uncletopia"],"game_id":440,"stv_port":27046,"stv_name":"Uncletopia | Sydney | 4 | All Maps | STV","players":null},{"server_id":58,"name":"Uncletopia | Sydney | 5 | Stopwatch","name_short":"syd-5","host":"syd-1.au.uncletopia.com","port":27055,"enabled":true,"region":"au","cc":"au","latitude":-33.865143,"longitude":151.2099,"reserved":0,"last_update":"0001-01-01T00:00:00Z","name_a2s":"Uncletopia | Sydney | 5 | Stopwatch","protocol":17,"map":"pl_frontier_final","folder":"tf","game":"Team Fortress","app_id":440,"player_count":0,"max_players":24,"Bots":0,"server_type":"Dedicated","server_os":"Linux","password":true,"vac":true,"version":"7961495","steam_id":85568392925397959,"keywords":["nocrits","nodmgspread","payload","uncletopia"],"game_id":440,"stv_port":27056,"stv_name":"Uncletopia | Sydney | 5 | Stopwatch | STV","players":null},{"server_id":59,"name":"Uncletopia | Sydney | 6 | Community","name_short":"syd-6","host":"syd-1.au.uncletopia.com","port":27065,"enabled":true,"region":"au","cc":"au","latitude":-33.865143,"longitude":151.2099,"reserved":0,"last_update":"0001-01-01T00:00:00Z","name_a2s":"Uncletopia | Sydney | 6 | Community","protocol":17,"map":"cp_sunshine","folder":"tf","game":"Team Fortress","app_id":440,"player_count":0,"max_players":24,"Bots":0,"server_type":"Dedicated","server_os":"Linux","password":true,"vac":true,"version":"7961495","steam_id":85568392925397960,"keywords":["cp","nocrits","nodmgspread","uncletopia"],"game_id":440,"stv_port":27066,"stv_name":"Uncletopia | Sydney | 6 | Community | STV","players":null},{"server_id":49,"name":"Uncletopia | Warsaw | 1 | One Thousand Uncles","name_short":"waw-1","host":"waw-1.pl.uncletopia.com","port":27015,"enabled":true,"region":"eu","cc":"pl","latitude":52.2297,"longitude":21.017532,"reserved":0,"last_update":"0001-01-01T00:00:00Z","name_a2s":"Uncletopia | Warsaw | 1 | One Thousand Uncles","protocol":17,"map":"pl_badwater","folder":"tf","game":"Team Fortress","app_id":440,"player_count":29,"max_players":32,"Bots":16,"server_type":"Dedicated","server_os":"Linux","password":true,"vac":true,"version":"7961495","steam_id":85568392925397850,"keywords":["alltalk","bots","danepve","increased_maxplayers","nocrits","norespawntime","payload","uncletopia"],"game_id":440,"stv_port":0,"stv_name":"","players":[{"user_id":668,"name":"Riky95","steam_id":76561198095289436,"connected_time":595000000000,"state":"active","ping":65},{"user_id":664,"name":"Pepefuckurmom","steam_id":76561199467404806,"connected_time":1500000000000,"state":"active","ping":73},{"user_id":549,"name":"kakash","steam_id":76561199420637314,"connected_time":9695000000000,"state":"active","ping":78},{"user_id":665,"name":"The Big J","steam_id":76561198158202901,"connected_time":1325000000000,"state":"active","ping":59},{"user_id":666,"name":"Hapy","steam_id":76561199157398169,"connected_time":1292000000000,"state":"active","ping":194},{"user_id":685,"name":"Radlup","steam_id":76561198812309304,"connected_time":555000000000,"state":"active","ping":39},{"user_id":652,"name":"Kaia Brodbecker","steam_id":76561198294109951,"connected_time":2540000000000,"state":"active","ping":97},{"user_id":660,"name":"mex :3","steam_id":76561198091083324,"connected_time":2028000000000,"state":"active","ping":61},{"user_id":661,"name":"Callawe","steam_id":76561198129785792,"connected_time":1951000000000,"state":"active","ping":73},{"user_id":656,"name":"ZharMeny","steam_id":76561199086841610,"connected_time":2285000000000,"state":"active","ping":96},{"user_id":689,"name":"Nansral26","steam_id":76561198886650496,"connected_time":41000000000,"state":"active","ping":145},{"user_id":657,"name":"Sindik","steam_id":76561198973176041,"connected_time":2250000000000,"state":"active","ping":85},{"user_id":692,"name":"DonnieEladioVuente","steam_id":76561198273905858,"connected_time":0,"state":"spawning","ping":0}]},{"server_id":50,"name":"Uncletopia | Warsaw | 2 | One Thousand Uncles","name_short":"waw-2","host":"waw-1.pl.uncletopia.com","port":27025,"enabled":true,"region":"eu","cc":"pl","latitude":52.2297,"longitude":21.017532,"reserved":0,"last_update":"0001-01-01T00:00:00Z","name_a2s":"Uncletopia | Warsaw | 2 | One Thousand Uncles","protocol":17,"map":"pl_barnblitz","folder":"tf","game":"Team Fortress","app_id":440,"player_count":20,"max_players":32,"Bots":16,"server_type":"Dedicated","server_os":"Linux","password":true,"vac":true,"version":"7961495","steam_id":85568392925397851,"keywords":["alltalk","bots","danepve","increased_maxplayers","nocrits","norespawntime","payload","uncletopia"],"game_id":440,"stv_port":0,"stv_name":"","players":[{"user_id":407,"name":"blachu #SafeTF2","steam_id":76561199409774861,"connected_time":164000000000,"state":"active","ping":62},{"user_id":329,"name":"I.C. Wiener","steam_id":76561197999912254,"connected_time":5914000000000,"state":"active","ping":57},{"user_id":370,"name":"walking plane","steam_id":76561198146779559,"connected_time":3439000000000,"state":"active","ping":93},{"user_id":322,"name":"Max Power","steam_id":76561198019269089,"connected_time":6678000000000,"state":"active","ping":60}]},{"server_id":51,"name":"Uncletopia | Warsaw | 3 | All Maps","name_short":"waw-3","host":"waw-1.pl.uncletopia.com","port":27035,"enabled":true,"region":"eu","cc":"pl","latitude":52.2297,"longitude":21.017532,"reserved":0,"last_update":"0001-01-01T00:00:00Z","name_a2s":"Uncletopia | Warsaw | 3 | All Maps","protocol":17,"map":"koth_highpass","folder":"tf","game":"Team Fortress","app_id":440,"player_count":0,"max_players":24,"Bots":0,"server_type":"Dedicated","server_os":"Linux","password":true,"vac":true,"version":"7961495","steam_id":85568392925397852,"keywords":["cp","nocrits","nodmgspread","uncletopia"],"game_id":440,"stv_port":27036,"stv_name":"Uncletopia | Warsaw | 3 | All Maps | STV","players":null},{"server_id":52,"name":"Uncletopia | Warsaw | 4 | All Maps","name_short":"waw-4","host":"waw-1.pl.uncletopia.com","port":27045,"enabled":true,"region":"eu","cc":"pl","latitude":52.2297,"longitude":21.017532,"reserved":0,"last_update":"0001-01-01T00:00:00Z","name_a2s":"Uncletopia | Warsaw | 4 | All Maps","protocol":17,"map":"koth_lakeside_final","folder":"tf","game":"Team Fortress","app_id":440,"player_count":0,"max_players":24,"Bots":0,"server_type":"Dedicated","server_os":"Linux","password":true,"vac":true,"version":"7961495","steam_id":85568392925397853,"keywords":["cp","nocrits","nodmgspread","uncletopia"],"game_id":440,"stv_port":27046,"stv_name":"Uncletopia | Warsaw | 4 | All Maps | STV","players":null},{"server_id":53,"name":"Uncletopia | Warsaw | 5 | Stopwatch","name_short":"waw-5","host":"waw-1.pl.uncletopia.com","port":27055,"enabled":true,"region":"eu","cc":"pl","latitude":52.2297,"longitude":21.017532,"reserved":0,"last_update":"0001-01-01T00:00:00Z","name_a2s":"Uncletopia | Warsaw | 5 | Stopwatch","protocol":17,"map":"koth_lakeside_final","folder":"tf","game":"Team Fortress","app_id":440,"player_count":0,"max_players":24,"Bots":0,"server_type":"Dedicated","server_os":"Linux","password":true,"vac":true,"version":"7961495","steam_id":85568392925397854,"keywords":["cp","nocrits","nodmgspread","uncletopia"],"game_id":440,"stv_port":27056,"stv_name":"Uncletopia | Warsaw | 5 | Stopwatch | STV","players":null},{"server_id":54,"name":"Uncletopia | Warsaw | 6 | Community","name_short":"waw-6","host":"waw-1.pl.uncletopia.com","port":27065,"enabled":true,"region":"eu","cc":"pl","latitude":52.2297,"longitude":21.017532,"reserved":0,"last_update":"0001-01-01T00:00:00Z","name_a2s":"Uncletopia | Warsaw | 6 | Community","protocol":17,"map":"workshop/cp_indulge.ugc528106646","folder":"tf","game":"Team Fortress","app_id":440,"player_count":0,"max_players":24,"Bots":0,"server_type":"Dedicated","server_os":"Linux","password":true,"vac":true,"version":"7961495","steam_id":85568392925397856,"keywords":["cp","nocrits","nodmgspread","uncletopia"],"game_id":440,"stv_port":27066,"stv_name":"Uncletopia | Warsaw | 6 | Community | STV","players":null}]}