{"status":true,"message":"","result":[{"server_id":9,"name":"Uncletopia | Atlanta | 1 | All Maps","name_short":"atl-1","host":"atl-1.us.uncletopia.com","port":27015,"enabled":true,"region":"us-east","cc":"us","latitude":33.753746,"longitude":-84.38633,"reserved":0,"last_update":"0001-01-01T00:00:00Z","name_a2s":"Uncletopia | Atlanta | 1 | All Maps","protocol":17,"map":"pl_snowycoast","folder":"tf","game":"Team Fortress","app_id":440,"player_count":24,"max_players":24,"Bots":0,"server_type":"Dedicated","server_os":"Linux","password":true,"vac":true,"version":"7961495","steam_id":85568392924469982,"keywords":["nocrits","nodmgspread","payload","uncletopia"],"game_id":440,"stv_port":27016,"stv_name":"Uncletopia | Atlanta | 1 | All Maps | STV","players":[{"user_id":210,"name":"Shuko","steam_id":76561197995563378,"connected_time":2358000000000,"state":"active","ping":75},{"user_id":241,"name":"tydogzilla","steam_id":76561198054254518,"connected_time":657000000000,"state":"active","ping":61},{"user_id":234,"name":"dantheman","steam_id":76561199486390813,"connected_time":927000000000,"state":"active","ping":71},{"user_id":235,"name":"kite","steam_id":76561198346516392,"connected_time":922000000000,"state":"active","ping":86},{"user_id":207,"name":"Neptune˖⁺｡˚⋆˙♥","steam_id":76561199054203198,"connected_time":2389000000000,"state":"active","ping":65},{"user_id":225,"name":"Haveltherock27","steam_id":76561199219844391,"connected_time":1759000000000,"state":"active","ping":94},{"user_id":239,"name":"sillylokisparkles","steam_id":76561198872251615,"connected_time":759000000000,"state":"active","ping":59},{"user_id":208,"name":"immie^^","steam_id":76561197961231625,"connected_time":2385000000000,"state":"active","ping":131},{"user_id":199,"name":"Ghetto Smosh Fan","steam_id":76561198097272509,"connected_time":4067000000000,"state":"active","ping":32},{"user_id":160,"name":"The Undead Knight","steam_id":76561198010654500,"connected_time":6414000000000,"state":"active","ping":62},{"user_id":237,"name":"The Nikocado Enjoyer","steam_id":76561198263154374,"connected_time":823000000000,"state":"active","ping":78},{"user_id":232,"name":"thunderous prophet","steam_id":76561198131166135,"connected_time":958000000000,"state":"active","ping":105},{"user_id":229,"name":"Oxygen User","steam_id":76561199111975528,"connected_time":1375000000000,"state":"active","ping":67},{"user_id":220,"name":"Ashe is Kiriko main","steam_id":76561198245775974,"connected_time":1897000000000,"state":"active","ping":137},{"user_id":206,"name":"twizted","steam_id":76561197960407274,"connected_time":3536000000000,"state":"active","ping":91},{"user_id":231,"name":"--_Cook_--","steam_id":76561198080855748,"connected_time":1002000000000,"state":"active","ping":60},{"user_id":244,"name":"0","steam_id":76561199036099287,"connected_time":83000000000,"state":"active","ping":59},{"user_id":243,"name":"eish","steam_id":76561198089463603,"connected_time":165000000000,"state":"active","ping":121},{"user_id":175,"name":"Kc","steam_id":76561198210734407,"connected_time":5421000000000,"state":"active","ping":56},{"user_id":242,"name":"Obelisk","steam_id":76561198049416866,"connected_time":612000000000,"state":"active","ping":45},{"user_id":240,"name":"NotoriousThicc","steam_id":76561198244650474,"connected_time":739000000000,"state":"active","ping":108},{"user_id":209,"name":"Lilith","steam_id":76561198125102885,"connected_time":2376000000000,"state":"active","ping":65},{"user_id":219,"name":"Snitzman","steam_id":76561198068303272,"connected_time":1956000000000,"state":"active","ping":99},{"user_id":222,"name":"Punchy","steam_id":76561198200000641,"connected_time":1885000000000,"state":"active","ping":63}]},{"server_id":104,"name":"Uncletopia | Atlanta | 2 | All Maps","name_short":"atl-2","host":"atl-1.us.uncletopia.com","port":27025,"enabled":true,"region":"us-east","cc":"us","latitude":33.753746,"longitude":-84.38633,"reserved":0,"last_update":"0001-01-01T00:00:00Z","name_a2s":"Uncletopia | Atlanta | 2 | All Maps","protocol":17,"map":"pl_badwater","folder":"tf","game":"Team Fortress","app_id":440,"player_count":24,"max_players":24,"Bots":0,"server_type":"Dedicated","server_os":"Linux","password":true,"vac":true,"version":"7961495","steam_id":85568392924469983,"keywords":["nocrits","nodmgspread","payload","uncletopia"],"game_id":440,"stv_port":27026,"stv_name":"Uncletopia | Atlanta | 2 | All Maps | STV","players":[{"user_id":224,"name":"syruptology","steam_id":76561199435086194,"connected_time":2119000000000,"state":"active","ping":86},{"user_id":226,"name":"ichster fishman","steam_id":76561198011675372,"connected_time":1602000000000,"state":"active","ping":121},{"user_id":241,"name":"WitchKing999","steam_id":76561198338154458,"connected_time":459000000000,"state":"active","ping":75},{"user_id":242,"name":"Jenjove","steam_id":76561199079701223,"connected_time":438000000000,"state":"active","ping":84},{"user_id":118,"name":"A Cat","steam_id":76561198221549132,"connected_time":8201000000000,"state":"active","ping":119},{"user_id":232,"name":"MechaSixVII","steam_id":76561198014927379,"connected_time":997000000000,"state":"active","ping":85},{"user_id":203,"name":"GreySweaterCat","steam_id":76561198351860293,"connected_time":3407000000000,"state":"active","ping":88},{"user_id":214,"name":"Bobbn","steam_id":76561198876124683,"connected_time":2503000000000,"state":"active","ping":93},{"user_id":239,"name":"Scoundrel","steam_id":76561198056672372,"connected_time":662000000000,"state":"active","ping":82},{"user_id":238,"name":"borus","steam_id":76561198148059714,"connected_time":699000000000,"state":"active","ping":69},{"user_id":222,"name":"Rex","steam_id":76561198138365053,"connected_time":2147000000000,"state":"active","ping":117},{"user_id":186,"name":"confield","steam_id":76561198004322265,"connected_time":4863000000000,"state":"active","ping":56},{"user_id":234,"name":"Toxic-Fluid","steam_id":76561198115530353,"connected_time":973000000000,"state":"active","ping":85},{"user_id":108,"name":"Tala\u003c3","steam_id":76561198169200739,"connected_time":8698000000000,"state":"active","ping":134},{"user_id":245,"name":"1998 Volvo S70 T5","steam_id":76561198258615044,"connected_time":23000000000,"state":"active","ping":84},{"user_id":219,"name":"Gaminglast","steam_id":76561198362927765,"connected_time":2343000000000,"state":"active","ping":153},{"user_id":231,"name":"Phillip Jeffries","steam_id":76561198064052174,"connected_time":1351000000000,"state":"active","ping":73},{"user_id":125,"name":"The All-Seeing Tim","steam_id":76561198075510786,"connected_time":8008000000000,"state":"active","ping":85},{"user_id":246,"name":"bask","steam_id":76561198880152293,"connected_time":23000000000,"state":"spawning","ping":50},{"user_id":200,"name":"endwalker simp","steam_id":76561198066177299,"connected_time":3680000000000,"state":"active","ping":134},{"user_id":235,"name":"Hawkborne","steam_id":76561198107249245,"connected_time":972000000000,"state":"active","ping":82},{"user_id":218,"name":"thorn","steam_id":76561198089287999,"connected_time":2448000000000,"state":"active","ping":129},{"user_id":223,"name":"A rare skimbly dink","steam_id":76561198396814154,"connected_time":2138000000000,"state":"active","ping":118},{"user_id":230,"name":"EduGhost","steam_id":76561198294986893,"connected_time":1424000000000,"state":"active","ping":121}]},{"server_id":400,"name":"Uncletopia | Atlanta | 3 | Stopwatch","name_short":"atl-3","host":"atl-1.us.uncletopia.com","port":27035,"enabled":true,"region":"us-east","cc":"us","latitude":33.753746,"longitude":-84.38633,"reserved":0,"last_update":"0001-01-01T00:00:00Z","name_a2s":"Uncletopia | Atlanta | 3 | Stopwatch","protocol":17,"map":"workshop/pl_barnblitz_pro7.ugc582280235","folder":"tf","game":"Team Fortress","app_id":440,"player_count":0,"max_players":24,"Bots":0,"server_type":"Dedicated","server_os":"Linux","password":true,"vac":true,"version":"7961495","steam_id":85568392924515187,"keywords":["nocrits","nodmgspread","payload","uncletopia"],"game_id":440,"stv_port":27036,"stv_name":"Uncletopia | Atlanta | 3 | Stopwatch | STV","players":null},{"server_id":401,"name":"Uncletopia | Atlanta | 4 | Community","name_short":"atl-4","host":"atl-1.us.uncletopia.com","port":27045,"enabled":true,"region":"us-east","cc":"us","latitude":33.753746,"longitude":-84.38633,"reserved":0,"last_update":"0001-01-01T00:00:00Z","name_a2s":"Uncletopia | Atlanta | 4 | Community","protocol":17,"map":"workshop/pl_cashworks_final1.ugc2904065412","folder":"tf","game":"Team Fortress","app_id":440,"player_count":0,"max_players":24,"Bots":0,"server_type":"Dedicated","server_os":"Linux","password":true,"vac":true,"version":"7961495","steam_id":85568392924515188,"keywords":["nocrits","nodmgspread","payload","uncletopia"],"game_id":440,"stv_port":27046,"stv_name":"Uncletopia | Atlanta | 4 | Community | STV","players":null},{"server_id":2,"name":"Uncletopia | Chicago | 1 | All Maps","name_short":"chi-1","host":"chi-1.us.uncletopia.com","port":27015,"enabled":true,"region":"us-central","cc":"us","latitude":41.881832,"longitude":-87.62318,"reserved":0,"last_update":"0001-01-01T00:00:00Z","name_a2s":"Uncletopia | Chicago | 1 | All Maps","protocol":17,"map":"pl_hoodoo_final","folder":"tf","game":"Team Fortress","app_id":440,"player_count":25,"max_players":24,"Bots":0,"server_type":"Dedicated","server_os":"Linux","password":true,"vac":true,"version":"7961495","steam_id":85568392924469984,"keywords":["nocrits","nodmgspread","payload","uncletopia"],"game_id":440,"stv_port":27016,"stv_name":"Uncletopia | Chicago | 1 | All Maps | STV","players":[{"user_id":186,"name":"Kaleb","steam_id":76561198331013248,"connected_time":4626000000000,"state":"active","ping":66},{"user_id":180,"name":"loser","steam_id":76561198259380127,"connected_time":6000000000000,"state":"active","ping":51},{"user_id":211,"name":"Seymourian","steam_id":76561199078574984,"connected_time":2164000000000,"state":"active","ping":90},{"user_id":168,"name":"Squigly","steam_id":76561198084811625,"connected_time":8034000000000,"state":"active","ping":73},{"user_id":178,"name":"THORNFIELDGAMER","steam_id":76561199087167473,"connected_time":6193000000000,"state":"active","ping":91},{"user_id":126,"name":"aurro","steam_id":76561198315692300,"connected_time":12096000000000,"state":"active","ping":50},{"user_id":225,"name":"dunk","steam_id":76561198132476501,"connected_time":800000000000,"state":"active","ping":40},{"user_id":218,"name":"Hexadecatrack","steam_id":76561198044480181,"connected_time":1672000000000,"state":"active","ping":48},{"user_id":148,"name":"Little Skull Boi","steam_id":76561198093595888,"connected_time":9985000000000,"state":"active","ping":102},{"user_id":195,"name":"TittyBoii69","steam_id":76561198096412234,"connected_time":4000000000000,"state":"active","ping":63},{"user_id":159,"name":"Pyrrhon the Aurum","steam_id":76561198046272856,"connected_time":8290000000000,"state":"active","ping":73},{"user_id":214,"name":"Waos","steam_id":76561198329179651,"connected_time":1981000000000,"state":"active","ping":107},{"user_id":169,"name":"Siz","steam_id":76561198072962154,"connected_time":7862000000000,"state":"active","ping":61},{"user_id":227,"name":"yun1cornz","steam_id":76561198982435446,"connected_time":392000000000,"state":"active","ping":77},{"user_id":197,"name":"Ockulus","steam_id":76561199069638460,"connected_time":3397000000000,"state":"active","ping":109},{"user_id":226,"name":"Mr. Tickle","steam_id":76561198126684647,"connected_time":584000000000,"state":"active","ping":61},{"user_id":228,"name":"spudpickle","steam_id":76561198113923066,"connected_time":376000000000,"state":"active","ping":103},{"user_id":200,"name":"Rornir","steam_id":76561198081829615,"connected_time":3173000000000,"state":"active","ping":44},{"user_id":190,"name":"cotton candy testament","steam_id":76561198058998371,"connected_time":4598000000000,"state":"active","ping":70},{"user_id":220,"name":"Bluedemon","steam_id":76561199212058684,"connected_time":1347000000000,"state":"active","ping":105},{"user_id":217,"name":"Fanatic","steam_id":76561198036960509,"connected_time":1773000000000,"state":"active","ping":67},{"user_id":210,"name":"Ace Attorney","steam_id":76561198133011705,"connected_time":2179000000000,"state":"active","ping":66},{"user_id":221,"name":"whirlybird","steam_id":76561198353887173,"connected_time":1347000000000,"state":"active","ping":33},{"user_id":222,"name":"Monsterjessy","steam_id":76561198035630985,"connected_time":1019000000000,"state":"active","ping":69},{"user_id":229,"name":"Lia_Rein","steam_id":76561198151569597,"connected_time":178000000000,"state":"active","ping":164}]},{"server_id":106,"name":"Uncletopia | Chicago | 2 | All Maps","name_short":"chi-2","host":"chi-1.us.uncletopia.com","port":27025,"enabled":true,"region":"us-central","cc":"us","latitude":41.881832,"longitude":-87.62318,"reserved":0,"last_update":"0001-01-01T00:00:00Z","name_a2s":"Uncletopia | Chicago | 2 | All Maps","protocol":17,"map":"pl_badwater","folder":"tf","game":"Team Fortress","app_id":440,"player_count":0,"max_players":24,"Bots":0,"server_type":"Dedicated","server_os":"Linux","password":true,"vac":true,"version":"7961495","steam_id":85568392924469985,"keywords":["nocrits","nodmgspread","payload","uncletopia"],"game_id":440,"stv_port":27026,"stv_name":"Uncletopia | Chicago | 2 | All Maps | STV","players":null},{"server_id":402,"name":"Uncletopia | Chicago | 3 | All Maps","name_short":"chi-3","host":"chi-1.us.uncletopia.com","port":27035,"enabled":true,"region":"us-central","cc":"us","latitude":41.881832,"longitude":-87.62318,"reserved":0,"last_update":"0001-01-01T00:00:00Z","name_a2s":"Uncletopia | Chicago | 3 | All Maps","protocol":17,"map":"koth_viaduct","folder":"tf","game":"Team Fortress","app_id":440,"player_count":0,"max_players":24,"Bots":0,"server_type":"Dedicated","server_os":"Linux","password":true,"vac":true,"version":"7961495","steam_id":85568392924515191,"keywords":["cp","nocrits","nodmgspread","uncletopia"],"game_id":440,"stv_port":27036,"stv_name":"Uncletopia | Chicago | 3 | All Maps | STV","players":null},{"server_id":403,"name":"Uncletopia | Chicago | 4 | All Maps","name_short":"chi-4","host":"chi-1.us.uncletopia.com","port":27045,"enabled":true,"region":"us-central","cc":"us","latitude":41.881832,"longitude":-87.62318,"reserved":0,"last_update":"0001-01-01T00:00:00Z","name_a2s":"Uncletopia | Chicago | 4 | All Maps","protocol":17,"map":"pl_barnblitz","folder":"tf","game":"Team Fortress","app_id":440,"player_count":24,"max_players":24,"Bots":0,"server_type":"Dedicated","server_os":"Linux","password":true,"vac":true,"version":"7961495","steam_id":85568392924515193,"keywords":["nocrits","nodmgspread","payload","uncletopia"],"game_id":440,"stv_port":27046,"stv_name":"Uncletopia | Chicago | 4 | All Maps | STV","players":[{"user_id":114,"name":"In Your Walls","steam_id":76561198798158647,"connected_time":5074000000000,"state":"active","ping":61},{"user_id":187,"name":"Blargh","steam_id":76561198044095816,"connected_time":1076000000000,"state":"active","ping":60},{"user_id":190,"name":"Smugtori","steam_id":76561198076112284,"connected_time":619000000000,"state":"active","ping":86},{"user_id":198,"name":"LogicGate","steam_id":76561199189481990,"connected_time":181000000000,"state":"active","ping":82},{"user_id":195,"name":"Sicko Mode (Chris Pratt Cover)","steam_id":76561198315786174,"connected_time":535000000000,"state":"active","ping":92},{"user_id":174,"name":"I'mWalkerHere","steam_id":76561199310055450,"connected_time":1805000000000,"state":"active","ping":87},{"user_id":188,"name":"Totouri","steam_id":76561198004229789,"connected_time":940000000000,"state":"active","ping":57},{"user_id":139,"name":"Weerk","steam_id":76561199209543551,"connected_time":3495000000000,"state":"active","ping":81},{"user_id":163,"name":"Cy4nideCutie\u003c3","steam_id":76561198126686695,"connected_time":2340000000000,"state":"active","ping":71},{"user_id":135,"name":"astrobob911","steam_id":76561199099110654,"connected_time":3542000000000,"state":"active","ping":81},{"user_id":176,"name":"bagel cream cheese","steam_id":76561198017954785,"connected_time":1652000000000,"state":"active","ping":72},{"user_id":143,"name":"Plunderphonic","steam_id":76561198062565784,"connected_time":3462000000000,"state":"active","ping":67},{"user_id":196,"name":"NOBODY","steam_id":76561198094578887,"connected_time":292000000000,"state":"active","ping":59},{"user_id":127,"name":"DeadErebus","steam_id":76561198286117045,"connected_time":4614000000000,"state":"active","ping":32},{"user_id":193,"name":"Slip","steam_id":76561199057232579,"connected_time":582000000000,"state":"active","ping":52},{"user_id":189,"name":"BoblinTheGoblin","steam_id":76561199002981323,"connected_time":938000000000,"state":"active","ping":73},{"user_id":183,"name":"Katy","steam_id":76561198079395814,"connected_time":1508000000000,"state":"active","ping":60},{"user_id":109,"name":"dog safe baja blast.","steam_id":76561198294013916,"connected_time":5799000000000,"state":"active","ping":61},{"user_id":177,"name":"Grababy","steam_id":76561198137914000,"connected_time":1630000000000,"state":"active","ping":74},{"user_id":199,"name":"Luucyf3r","steam_id":76561198141820085,"connected_time":178000000000,"state":"active","ping":83},{"user_id":167,"name":"Fudgely","steam_id":76561198039425862,"connected_time":2225000000000,"state":"active","ping":78},{"user_id":200,"name":"START PRAYIN BOY","steam_id":76561198089173996,"connected_time":175000000000,"state":"active","ping":84},{"user_id":197,"name":"KING MACKEREL","steam_id":76561198021004892,"connected_time":271000000000,"state":"active","ping":84},{"user_id":186,"name":"ChocoMcFudgeCake","steam_id":76561197994591295,"connected_time":1288000000000,"state":"active","ping":49}]},{"server_id":36,"name":"Uncletopia | Chicago | 5 | All Maps","name_short":"chi-5","host":"chi-2.us.uncletopia.com","port":27015,"enabled":true,"region":"us-central","cc":"us","latitude":41.881832,"longitude":-87.62318,"reserved":0,"last_update":"0001-01-01T00:00:00Z","name_a2s":"Uncletopia | Chicago | 5 | All Maps","protocol":17,"map":"koth_viaduct","folder":"tf","game":"Team Fortress","app_id":440,"player_count":0,"max_players":24,"Bots":0,"server_type":"Dedicated","server_os":"Linux","password":true,"vac":true,"version":"7961495","steam_id":85568392924866362,"keywords":["cp","nocrits","nodmgspread","uncletopia"],"game_id":440,"stv_port":27016,"stv_name":"Uncletopia | Chicago | 5 | All Maps | STV","players":null},{"server_id":37,"name":"Uncletopia | Chicago | 6 | All Maps","name_short":"chi-6","host":"chi-2.us.uncletopia.com","port":27025,"enabled":true,"region":"us-central","cc":"us","latitude":41.881832,"longitude":-87.62318,"reserved":0,"last_update":"0001-01-01T00:00:00Z","name_a2s":"Uncletopia | Chicago | 6 | All Maps","protocol":17,"map":"cp_mountainlab","folder":"tf","game":"Team Fortress","app_id":440,"player_count":0,"max_players":24,"Bots":0,"server_type":"Dedicated","server_os":"Linux","password":true,"vac":true,"version":"7961495","steam_id":85568392924866363,"keywords":["cp","nocrits","nodmgspread","uncletopia"],"game_id":440,"stv_port":27026,"stv_name":"Uncletopia | Chicago | 6 | All Maps | STV","players":null},{"server_id":38,"name":"Uncletopia | Chicago | 7 | Stopwatch","name_short":"chi-7","host":"chi-2.us.uncletopia.com","port":27035,"enabled":true,"region":"us-central","cc":"us","latitude":41.881832,"longitude":-87.62318,"reserved":0,"last_update":"0001-01-01T00:00:00Z","name_a2s":"Uncletopia | Chicago | 7 | Stopwatch","protocol":17,"map":"pl_badwater","folder":"tf","game":"Team Fortress","app_id":440,"player_count":0,"max_players":24,"Bots":0,"server_type":"Dedicated","server_os":"Linux","password":true,"vac":true,"version":"7961495","steam_id":85568392924866364,"keywords":["nocrits","nodmgspread","payload","uncletopia"],"game_id":440,"stv_port":27036,"stv_name":"Uncletopia | Chicago | 7 | Stopwatch | STV","players":null},{"server_id":39,"name":"Uncletopia | Chicago | 8 | Community","name_short":"chi-8","host":"chi-2.us.uncletopia.com","port":27045,"enabled":true,"region":"us-central","cc":"us","latitude":41.881832,"longitude":-87.62318,"reserved":0,"last_update":"0001-01-01T00:00:00Z","name_a2s":"Uncletopia | Chicago | 8 | Community","protocol":17,"map":"pl_pier","folder":"tf","game":"Team Fortress","app_id":440,"player_count":0,"max_players":24,"Bots":0,"server_type":"Dedicated","server_os":"Linux","password":true,"vac":true,"version":"7961495","steam_id":85568392924866365,"keywords":["nocrits","nodmgspread","payload","uncletopia"],"game_id":440,"stv_port":27046,"stv_name":"Uncletopia | Chicago | 8 | Community | STV","players":null},{"server_id":8,"name":"Uncletopia | Dallas | 1 | All Maps","name_short":"dal-1","host":"dal-1.us.uncletopia.com","port":27015,"enabled":true,"region":"us-central","cc":"us","latitude":32.779167,"longitude":-96.80889,"reserved":0,"last_update":"0001-01-01T00:00:00Z","name_a2s":"Uncletopia | Dallas | 1 | All Maps","protocol":17,"map":"pl_pier","folder":"tf","game":"Team Fortress","app_id":440,"player_count":24,"max_players":24,"Bots":0,"server_type":"Dedicated","server_os":"Linux","password":true,"vac":true,"version":"7961495","steam_id":85568392924469986,"keywords":["nocrits","nodmgspread","payload","uncletopia"],"game_id":440,"stv_port":27016,"stv_name":"Uncletopia | Dallas | 1 | All Maps | STV","players":[{"user_id":134,"name":"the12xu","steam_id":76561198197086561,"connected_time":138000000000,"state":"active","ping":98},{"user_id":83,"name":"Kraftlos","steam_id":76561198074350350,"connected_time":4029000000000,"state":"active","ping":99},{"user_id":133,"name":"pepsi","steam_id":76561198114655857,"connected_time":233000000000,"state":"active","ping":114},{"user_id":131,"name":"hamletespacial","steam_id":76561199084414649,"connected_time":284000000000,"state":"active","ping":66},{"user_id":96,"name":"Major Woody","steam_id":76561198835541533,"connected_time":3301000000000,"state":"active","ping":56},{"user_id":69,"name":"keffers","steam_id":76561198202338796,"connected_time":6109000000000,"state":"active","ping":76},{"user_id":125,"name":"who is gavin?","steam_id":76561198069415057,"connected_time":1136000000000,"state":"active","ping":76},{"user_id":16,"name":"mkl","steam_id":76561197986401685,"connected_time":9278000000000,"state":"active","ping":48},{"user_id":126,"name":"Freddy Fazbear","steam_id":76561198272353440,"connected_time":1124000000000,"state":"active","ping":56},{"user_id":123,"name":"hforce11","steam_id":76561198087647130,"connected_time":1177000000000,"state":"active","ping":76},{"user_id":135,"name":"ena - d","steam_id":76561198072329335,"connected_time":136000000000,"state":"active","ping":132},{"user_id":73,"name":"corviraptor!!!!!!","steam_id":76561198058284392,"connected_time":5647000000000,"state":"active","ping":58},{"user_id":127,"name":"Lemonade Juice","steam_id":76561198402892608,"connected_time":638000000000,"state":"active","ping":77},{"user_id":70,"name":"Moonflower ✦","steam_id":76561198191782483,"connected_time":5988000000000,"state":"active","ping":52},{"user_id":136,"name":"harvey booker","steam_id":76561199384453599,"connected_time":107000000000,"state":"active","ping":67},{"user_id":81,"name":"Dragus","steam_id":76561198032967285,"connected_time":4101000000000,"state":"active","ping":74},{"user_id":137,"name":"the keebler","steam_id":76561199486326945,"connected_time":106000000000,"state":"active","ping":77},{"user_id":113,"name":"Rearranging furniture","steam_id":76561199054971009,"connected_time":2096000000000,"state":"active","ping":51},{"user_id":114,"name":"there is cum in my ramen","steam_id":76561198059815894,"connected_time":2070000000000,"state":"active","ping":73},{"user_id":138,"name":"farfalle","steam_id":76561198882758067,"connected_time":104000000000,"state":"active","ping":80},{"user_id":139,"name":"MasterGeek.MX","steam_id":76561198063355220,"connected_time":94000000000,"state":"active","ping":101},{"user_id":128,"name":"VOLCON","steam_id":76561198116023052,"connected_time":633000000000,"state":"active","ping":72},{"user_id":132,"name":"PIPPIN","steam_id":76561199013202758,"connected_time":263000000000,"state":"active","ping":83},{"user_id":92,"name":"8bean","steam_id":76561198239138132,"connected_time":3870000000000,"state":"active","ping":88}]},{"server_id":108,"name":"Uncletopia | Dallas | 2 | All Maps","name_short":"dal-2","host":"dal-1.us.uncletopia.com","port":27025,"enabled":true,"region":"us-central","cc":"us","latitude":32.779167,"longitude":-96.80889,"reserved":0,"last_update":"0001-01-01T00:00:00Z","name_a2s":"Uncletopia | Dallas | 2 | All Maps","protocol":17,"map":"pl_snowycoast","folder":"tf","game":"Team Fortress","app_id":440,"player_count":24,"max_players":24,"Bots":0,"server_type":"Dedicated","server_os":"Linux","password":true,"vac":true,"version":"7961495","steam_id":85568392924469988,"keywords":["nocrits","nodmgspread","payload","uncletopia"],"game_id":440,"stv_port":27026,"stv_name":"Uncletopia | Dallas | 2 | All Maps | STV","players":[{"user_id":207,"name":"the munch","steam_id":76561199164347838,"connected_time":261000000000,"state":"active","ping":65},{"user_id":140,"name":"Username","steam_id":76561198198918781,"connected_time":5601000000000,"state":"active","ping":105},{"user_id":153,"name":"SanitysEdge","steam_id":76561198130732813,"connected_time":4221000000000,"state":"active","ping":76},{"user_id":178,"name":"Engineer Gaming","steam_id":76561198146456461,"connected_time":2802000000000,"state":"active","ping":114},{"user_id":180,"name":"Sollyz","steam_id":76561198081110786,"connected_time":2722000000000,"state":"active","ping":102},{"user_id":187,"name":"Mint Jelly","steam_id":76561197991286751,"connected_time":2162000000000,"state":"active","ping":92},{"user_id":206,"name":"(TPT) Ghost","steam_id":76561198123262873,"connected_time":329000000000,"state":"active","ping":96},{"user_id":197,"name":"Serenue","steam_id":76561199040361250,"connected_time":901000000000,"state":"active","ping":121},{"user_id":210,"name":"BatMatt","steam_id":76561198045910433,"connected_time":240000000000,"state":"active","ping":51},{"user_id":204,"name":"TheMishu","steam_id":76561199158999294,"connected_time":494000000000,"state":"active","ping":86},{"user_id":120,"name":"Jerk Tryhard (roleplay)","steam_id":76561199470538309,"connected_time":6868000000000,"state":"active","ping":79},{"user_id":125,"name":"Mellou","steam_id":76561198212048740,"connected_time":6031000000000,"state":"active","ping":50},{"user_id":203,"name":"drevott74","steam_id":76561199262592779,"connected_time":583000000000,"state":"active","ping":92},{"user_id":209,"name":"BoyWithTheBeanie","steam_id":76561199435079308,"connected_time":255000000000,"state":"active","ping":161},{"user_id":199,"name":"Xan","steam_id":76561197999855219,"connected_time":815000000000,"state":"active","ping":60},{"user_id":211,"name":"Solan iler","steam_id":76561198809720926,"connected_time":61000000000,"state":"active","ping":67},{"user_id":183,"name":"SHUSH nikoOS","steam_id":76561198180020521,"connected_time":2632000000000,"state":"active","ping":161},{"user_id":193,"name":"Spinch","steam_id":76561198296224166,"connected_time":1142000000000,"state":"active","ping":87},{"user_id":200,"name":"Buttons :)","steam_id":76561198139478534,"connected_time":791000000000,"state":"active","ping":129},{"user_id":159,"name":"Beau","steam_id":76561198162587622,"connected_time":4036000000000,"state":"active","ping":93},{"user_id":173,"name":"cumgoblin","steam_id":76561198113270138,"connected_time":2949000000000,"state":"active","ping":53},{"user_id":171,"name":"Mentally Ill Woman","steam_id":76561198072030567,"connected_time":3038000000000,"state":"active","ping":75},{"user_id":201,"name":"men kisser","steam_id":76561199026721822,"connected_time":775000000000,"state":"active","ping":94},{"user_id":202,"name":"IronCosmo","steam_id":76561198156171221,"connected_time":741000000000,"state":"active","ping":61}]},{"server_id":404,"name":"Uncletopia | Dallas | 3 | All Maps","name_short":"dal-3","host":"dal-1.us.uncletopia.com","port":27035,"enabled":true,"region":"us-central","cc":"us","latitude":32.779167,"longitude":-96.80889,"reserved":0,"last_update":"0001-01-01T00:00:00Z","name_a2s":"Uncletopia | Dallas | 3 | All Maps","protocol":17,"map":"koth_viaduct","folder":"tf","game":"Team Fortress","app_id":440,"player_count":0,"max_players":24,"Bots":0,"server_type":"Dedicated","server_os":"Linux","password":true,"vac":true,"version":"7961495","steam_id":85568392924515219,"keywords":["cp","nocrits","nodmgspread","uncletopia"],"game_id":440,"stv_port":27036,"stv_name":"Uncletopia | Dallas | 3 | All Maps | STV","players":null},{"server_id":405,"name":"Uncletopia | Dallas | 4 | Community","name_short":"dal-4","host":"dal-1.us.uncletopia.com","port":27045,"enabled":true,"region":"us-central","cc":"us","latitude":32.779167,"longitude":-96.80889,"reserved":0,"last_update":"0001-01-01T00:00:00Z","name_a2s":"Uncletopia | Dallas | 4 | Community","protocol":17,"map":"pl_pier","folder":"tf","game":"Team Fortress","app_id":440,"player_count":0,"max_players":24,"Bots":0,"server_type":"Dedicated","server_os":"Linux","password":true,"vac":true,"version":"7961495","steam_id":85568392924515220,"keywords":["nocrits","nodmgspread","payload","uncletopia"],"game_id":440,"stv_port":27046,"stv_name":"Uncletopia | Dallas | 4 | Community | STV","players":null},{"server_id":5,"name":"Uncletopia | Frankfurt | 1 | All Maps","name_short":"frk-1","host":"frk-1.de.uncletopia.com","port":27015,"enabled":true,"region":"eu","cc":"de","latitude":50.110924,"longitude":8.682127,"reserved":0,"last_update":"0001-01-01T00:00:00Z","name_a2s":"Uncletopia | Frankfurt | 1 | All Maps","protocol":17,"map":"pl_upward","folder":"tf","game":"Team Fortress","app_id":440,"player_count":24,"max_players":24,"Bots":0,"server_type":"Dedicated","server_os":"Linux","password":true,"vac":true,"version":"7961495","steam_id":85568392924469989,"keywords":["nocrits","nodmgspread","payload","uncletopia"],"game_id":440,"stv_port":27016,"stv_name":"Uncletopia | Frankfurt | 1 | All Maps | STV","players":[{"user_id":654,"name":"Prox","steam_id":76561198351490981,"connected_time":3191000000000,"state":"active","ping":45},{"user_id":697,"name":"incarnation of paul ball","steam_id":76561198076219289,"connected_time":719000000000,"state":"active","ping":57},{"user_id":677,"name":"Caliban","steam_id":76561197999696839,"connected_time":2370000000000,"state":"active","ping":103},{"user_id":684,"name":"Dellty","steam_id":76561198173944065,"connected_time":1252000000000,"state":"active","ping":45},{"user_id":680,"name":"a meme name","steam_id":76561198363689699,"connected_time":2096000000000,"state":"active","ping":98},{"user_id":668,"name":"Dogwalker","steam_id":76561197985561055,"connected_time":2485000000000,"state":"active","ping":66},{"user_id":703,"name":"Krabs","steam_id":76561198161679477,"connected_time":50000000000,"state":"active","ping":140},{"user_id":669,"name":"Mangophysics","steam_id":76561198328905546,"connected_time":2472000000000,"state":"active","ping":104},{"user_id":692,"name":"engineer drip","steam_id":76561198991032570,"connected_time":868000000000,"state":"active","ping":87},{"user_id":690,"name":"SynthBox3","steam_id":76561199094075745,"connected_time":963000000000,"state":"active","ping":91},{"user_id":702,"name":"Jiant","steam_id":76561198374998274,"connected_time":211000000000,"state":"active","ping":91},{"user_id":704,"name":"Tywhip","steam_id":76561199207545191,"connected_time":27000000000,"state":"active","ping":58},{"user_id":661,"name":"Titut11","steam_id":76561198392505656,"connected_time":2864000000000,"state":"active","ping":69},{"user_id":700,"name":"mp1mp2mp3","steam_id":76561198088967665,"connected_time":402000000000,"state":"active","ping":91},{"user_id":678,"name":"Real (Real)","steam_id":76561198323425034,"connected_time":2247000000000,"state":"active","ping":68},{"user_id":701,"name":"אבא","steam_id":76561198184360615,"connected_time":254000000000,"state":"active","ping":90},{"user_id":632,"name":"Master coitus","steam_id":76561198050416948,"connected_time":6504000000000,"state":"active","ping":53},{"user_id":598,"name":"soney","steam_id":76561198121177512,"connected_time":9017000000000,"state":"active","ping":69},{"user_id":675,"name":"Delayrix","steam_id":76561198812182847,"connected_time":2446000000000,"state":"active","ping":87},{"user_id":649,"name":"Mayor Wank from Wanker Town","steam_id":76561197998253588,"connected_time":4172000000000,"state":"active","ping":49},{"user_id":662,"name":"Tre3","steam_id":76561198054795379,"connected_time":2713000000000,"state":"active","ping":45},{"user_id":698,"name":"The one True Mads","steam_id":76561197999204692,"connected_time":603000000000,"state":"active","ping":71},{"user_id":594,"name":"—ฅ/ᐠ. ̫ .ᐟ\\ฅ—meow","steam_id":76561198010662796,"connected_time":9723000000000,"state":"active","ping":60},{"user_id":699,"name":"krunabomber","steam_id":76561198012946164,"connected_time":600000000000,"state":"active","ping":65}]},{"server_id":110,"name":"Uncletopia | Frankfurt | 2 | All Maps","name_short":"frk-2","host":"frk-1.de.uncletopia.com","port":27025,"enabled":true,"region":"eu","cc":"de","latitude":50.110924,"longitude":8.682127,"reserved":0,"last_update":"0001-01-01T00:00:00Z","name_a2s":"Uncletopia | Frankfurt | 2 | All Maps","protocol":17,"map":"pl_frontier_final","folder":"tf","game":"Team Fortress","app_id":440,"player_count":24,"max_players":24,"Bots":0,"server_type":"Dedicated","server_os":"Linux","password":true,"vac":true,"version":"7961495","steam_id":85568392924469990,"keywords":["nocrits","nodmgspread","payload","uncletopia"],"game_id":440,"stv_port":27026,"stv_name":"Uncletopia | Frankfurt | 2 | All Maps | STV","players":[{"user_id":349,"name":"Osek","steam_id":76561197972646003,"connected_time":1377000000000,"state":"active","ping":65},{"user_id":330,"name":"t","steam_id":76561198046294412,"connected_time":2599000000000,"state":"active","ping":72},{"user_id":302,"name":"Blackchantingrows","steam_id":76561198972312498,"connected_time":4097000000000,"state":"active","ping":73},{"user_id":340,"name":"Hyperwizard of Space Conquest","steam_id":76561198953210459,"connected_time":1580000000000,"state":"active","ping":92},{"user_id":350,"name":"Sparky","steam_id":76561198036754195,"connected_time":1335000000000,"state":"active","ping":39},{"user_id":336,"name":"Banatical Bean","steam_id":76561198122356617,"connected_time":2267000000000,"state":"active","ping":67},{"user_id":311,"name":"Leituga","steam_id":76561198051127598,"connected_time":3321000000000,"state":"active","ping":95},{"user_id":239,"name":"Klifton","steam_id":76561198803743443,"connected_time":7697000000000,"state":"active","ping":70},{"user_id":366,"name":"ash","steam_id":76561198004728744,"connected_time":18000000000,"state":"active","ping":45},{"user_id":355,"name":"Thisisforyou!","steam_id":76561198052113055,"connected_time":1119000000000,"state":"active","ping":117},{"user_id":305,"name":"Kenny","steam_id":76561198994898206,"connected_time":3968000000000,"state":"active","ping":76},{"user_id":343,"name":"lik 21⸸⛤","steam_id":76561198443267978,"connected_time":1548000000000,"state":"active","ping":78},{"user_id":358,"name":"Dream","steam_id":76561198802024369,"connected_time":375000000000,"state":"active","ping":51},{"user_id":364,"name":"Knösta","steam_id":76561198143422139,"connected_time":186000000000,"state":"active","ping":109},{"user_id":345,"name":"Atlas999","steam_id":76561198317072299,"connected_time":1523000000000,"state":"active","ping":65},{"user_id":331,"name":"BedX","steam_id":76561198244005636,"connected_time":2584000000000,"state":"active","ping":76},{"user_id":346,"name":"Leviticus Cornwall","steam_id":76561197993702685,"connected_time":1523000000000,"state":"active","ping":99},{"user_id":332,"name":"JaneDoe","steam_id":76561198067081506,"connected_time":2575000000000,"state":"active","ping":94},{"user_id":361,"name":"Lyell","steam_id":76561198350329389,"connected_time":305000000000,"state":"active","ping":79},{"user_id":362,"name":"DragonflyXL","steam_id":76561198146649957,"connected_time":285000000000,"state":"active","ping":65},{"user_id":333,"name":"Spectre","steam_id":76561198163819482,"connected_time":2566000000000,"state":"active","ping":66},{"user_id":337,"name":"Raven","steam_id":76561198036076305,"connected_time":1952000000000,"state":"active","ping":55},{"user_id":363,"name":"Arcea","steam_id":76561198231093480,"connected_time":284000000000,"state":"active","ping":87},{"user_id":352,"name":"suck my d1ck","steam_id":76561198974553024,"connected_time":1228000000000,"state":"active","ping":108}]},{"server_id":308,"name":"Uncletopia | Frankfurt | 3 | All Maps","name_short":"frk-3","host":"frk-1.de.uncletopia.com","port":27035,"enabled":true,"region":"eu","cc":"de","latitude":50.110924,"longitude":8.682127,"reserved":0,"last_update":"0001-01-01T00:00:00Z","name_a2s":"Uncletopia | Frankfurt | 3 | All Maps","protocol":17,"map":"ctf_2fort","folder":"tf","game":"Team Fortress","app_id":440,"player_count":20,"max_players":24,"Bots":0,"server_type":"Dedicated","server_os":"Linux","password":true,"vac":true,"version":"7961495","steam_id":85568392924504274,"keywords":["ctf","nocrits","nodmgspread","uncletopia"],"game_id":440,"stv_port":27036,"stv_name":"Uncletopia | Frankfurt | 3 | All Maps | STV","players":[{"user_id":495,"name":"guru{Hari}","steam_id":76561197997001681,"connected_time":88000000000,"state":"active","ping":97},{"user_id":496,"name":"the_austria","steam_id":76561198050693903,"connected_time":78000000000,"state":"active","ping":39},{"user_id":471,"name":"Just_Dandy","steam_id":76561199051375257,"connected_time":1654000000000,"state":"active","ping":57},{"user_id":497,"name":"Pats (Gifted items Collector)","steam_id":76561198418538887,"connected_time":8000000000,"state":"spawning","ping":82},{"user_id":498,"name":"r06u3","steam_id":76561198254099253,"connected_time":1000000000,"state":"spawning","ping":95},{"user_id":439,"name":"Watermelon","steam_id":76561198078349914,"connected_time":3419000000000,"state":"active","ping":59},{"user_id":486,"name":"(1)Watermelon","steam_id":76561198130305977,"connected_time":1271000000000,"state":"active","ping":79},{"user_id":492,"name":"Imperial City Guard","steam_id":76561198083355845,"connected_time":599000000000,"state":"active","ping":56},{"user_id":431,"name":"MakeItRainbow","steam_id":76561198045098064,"connected_time":3855000000000,"state":"active","ping":60},{"user_id":487,"name":"Lunarian","steam_id":76561198055811259,"connected_time":1233000000000,"state":"active","ping":65},{"user_id":476,"name":"Kenny Savage","steam_id":76561199049383900,"connected_time":1629000000000,"state":"active","ping":68},{"user_id":450,"name":"Milk Thrower","steam_id":76561198115071980,"connected_time":2336000000000,"state":"active","ping":167},{"user_id":445,"name":"Fikou","steam_id":76561198119383418,"connected_time":2391000000000,"state":"active","ping":61},{"user_id":485,"name":"Isaac Boush","steam_id":76561198179746529,"connected_time":1366000000000,"state":"active","ping":69},{"user_id":468,"name":"rhm","steam_id":76561199438126261,"connected_time":1695000000000,"state":"active","ping":124},{"user_id":401,"name":"Vonacht","steam_id":76561198016033944,"connected_time":5298000000000,"state":"active","ping":63},{"user_id":489,"name":"spappy","steam_id":76561199106707541,"connected_time":845000000000,"state":"active","ping":68},{"user_id":402,"name":"zazuza","steam_id":76561198049820905,"connected_time":5294000000000,"state":"active","ping":74},{"user_id":494,"name":"BONK","steam_id":76561199120275042,"connected_time":215000000000,"state":"active","ping":86},{"user_id":361,"name":"Kavary","steam_id":76561198024792146,"connected_time":7772000000000,"state":"active","ping":77}]},{"server_id":309,"name":"Uncletopia | Frankfurt | 4 | All Maps","name_short":"frk-4","host":"frk-1.de.uncletopia.com","port":27045,"enabled":true,"region":"eu","cc":"de","latitude":50.110924,"longitude":8.682127,"reserved":0,"last_update":"0001-01-01T00:00:00Z","name_a2s":"Uncletopia | Frankfurt | 4 | All Maps","protocol":17,"map":"pl_barnblitz","folder":"tf","game":"Team Fortress","app_id":440,"player_count":24,"max_players":24,"Bots":0,"server_type":"Dedicated","server_os":"Linux","password":true,"vac":true,"version":"7961495","steam_id":85568392924504275,"keywords":["nocrits","nodmgspread","payload","uncletopia"],"game_id":440,"stv_port":27046,"stv_name":"Uncletopia | Frankfurt | 4 | All Maps | STV","players":[{"user_id":293,"name":"President013","steam_id":76561198107233527,"connected_time":1487000000000,"state":"active","ping":85},{"user_id":240,"name":"GMsU | Smiley","steam_id":76561198121494414,"connected_time":5271000000000,"state":"active","ping":88},{"user_id":295,"name":"Acucutl","steam_id":76561198133867096,"connected_time":1438000000000,"state":"active","ping":56},{"user_id":287,"name":"Ephix","steam_id":76561197977164055,"connected_time":2246000000000,"state":"active","ping":45},{"user_id":301,"name":"yardy","steam_id":76561198079410772,"connected_time":219000000000,"state":"active","ping":113},{"user_id":299,"name":"1995 Lexus LS400 II XF20 1UZ-FE","steam_id":76561199036420464,"connected_time":240000000000,"state":"active","ping":74},{"user_id":271,"name":"grr","steam_id":76561199429407130,"connected_time":3398000000000,"state":"active","ping":87},{"user_id":212,"name":"lulu","steam_id":76561199147764133,"connected_time":7458000000000,"state":"active","ping":62},{"user_id":304,"name":"v-dog","steam_id":76561199056583954,"connected_time":194000000000,"state":"active","ping":72},{"user_id":302,"name":"WonderTotoro","steam_id":76561199217889324,"connected_time":214000000000,"state":"active","ping":162},{"user_id":291,"name":"emer","steam_id":76561198001420975,"connected_time":1519000000000,"state":"active","ping":105},{"user_id":248,"name":"\u003e:)","steam_id":76561198095560087,"connected_time":5123000000000,"state":"active","ping":71},{"user_id":195,"name":"GMsU | Acoul","steam_id":76561198229222992,"connected_time":8684000000000,"state":"active","ping":45},{"user_id":272,"name":"GogsCrunchyNuts","steam_id":76561198150599213,"connected_time":3386000000000,"state":"active","ping":98},{"user_id":303,"name":"Raivop","steam_id":76561197980854307,"connected_time":205000000000,"state":"active","ping":92},{"user_id":229,"name":"Technic","steam_id":76561198128096130,"connected_time":6356000000000,"state":"active","ping":44},{"user_id":305,"name":"maki","steam_id":76561198354558052,"connected_time":167000000000,"state":"active","ping":62},{"user_id":306,"name":"tealoverr.190","steam_id":76561199028497703,"connected_time":101000000000,"state":"active","ping":105},{"user_id":292,"name":"Gurgula","steam_id":76561198021253678,"connected_time":1511000000000,"state":"active","ping":63},{"user_id":307,"name":"Clydios","steam_id":76561198332311225,"connected_time":36000000000,"state":"active","ping":76},{"user_id":196,"name":"GMsU | Rebikas","steam_id":76561198077053764,"connected_time":8649000000000,"state":"active","ping":44},{"user_id":297,"name":"3.5 Mefedron Plug","steam_id":76561198969473168,"connected_time":610000000000,"state":"active","ping":86},{"user_id":300,"name":"pakin157","steam_id":76561198035125667,"connected_time":236000000000,"state":"active","ping":78},{"user_id":308,"name":"Atomix","steam_id":76561198127352880,"connected_time":19000000000,"state":"spawning","ping":64}]},{"server_id":310,"name":"Uncletopia | Frankfurt | 5 | All Maps","name_short":"frk-5","host":"frk-1.de.uncletopia.com","port":27055,"enabled":true,"region":"eu","cc":"de","latitude":50.110924,"longitude":8.682127,"reserved":0,"last_update":"0001-01-01T00:00:00Z","name_a2s":"Uncletopia | Frankfurt | 5 | All Maps","protocol":17,"map":"pl_goldrush","folder":"tf","game":"Team Fortress","app_id":440,"player_count":23,"max_players":24,"Bots":0,"server_type":"Dedicated","server_os":"Linux","password":true,"vac":true,"version":"7961495","steam_id":85568392924504277,"keywords":["nocrits","nodmgspread","payload","uncletopia"],"game_id":440,"stv_port":27056,"stv_name":"Uncletopia | Frankfurt | 5 | All Maps | STV","players":[{"user_id":583,"name":"ilyneo","steam_id":76561198136265838,"connected_time":296000000000,"state":"active","ping":60},{"user_id":578,"name":"Kaarma","steam_id":76561198403516503,"connected_time":542000000000,"state":"active","ping":53},{"user_id":543,"name":"---","steam_id":76561198092283741,"connected_time":3096000000000,"state":"active","ping":76},{"user_id":584,"name":"Internetowy Pies","steam_id":76561198005719732,"connected_time":274000000000,"state":"active","ping":60},{"user_id":585,"name":"glunker","steam_id":76561197982523508,"connected_time":232000000000,"state":"active","ping":105},{"user_id":515,"name":"Ralistix","steam_id":76561198051654135,"connected_time":4869000000000,"state":"active","ping":87},{"user_id":562,"name":"1374361948765194813269871","steam_id":76561198147277460,"connected_time":1609000000000,"state":"active","ping":53},{"user_id":569,"name":"Zahn","steam_id":76561198101479964,"connected_time":984000000000,"state":"active","ping":76},{"user_id":587,"name":"Arc","steam_id":76561198805049375,"connected_time":27000000000,"state":"active","ping":57},{"user_id":553,"name":"Skepingawich","steam_id":76561198038736553,"connected_time":2106000000000,"state":"active","ping":61},{"user_id":582,"name":"Doctor Mobius","steam_id":76561197971281806,"connected_time":463000000000,"state":"active","ping":56},{"user_id":511,"name":"Sn1Ch","steam_id":76561198073076943,"connected_time":5435000000000,"state":"active","ping":86},{"user_id":544,"name":"enca55","steam_id":76561198348725257,"connected_time":3077000000000,"state":"active","ping":56},{"user_id":568,"name":"[503. ]captain swiftfingers","steam_id":76561198043684517,"connected_time":1025000000000,"state":"active","ping":72},{"user_id":529,"name":"noot","steam_id":76561198148074472,"connected_time":4626000000000,"state":"active","ping":41},{"user_id":560,"name":"emkoç","steam_id":76561198846782346,"connected_time":1706000000000,"state":"active","ping":118},{"user_id":574,"name":"DiracDeltaFunction","steam_id":76561199201624841,"connected_time":690000000000,"state":"active","ping":83},{"user_id":522,"name":"Murovelho","steam_id":76561198835081622,"connected_time":4759000000000,"state":"active","ping":103},{"user_id":563,"name":"Landan","steam_id":76561198102048004,"connected_time":1601000000000,"state":"active","ping":73},{"user_id":575,"name":"ъуъ","steam_id":76561198798844313,"connected_time":681000000000,"state":"active","ping":90},{"user_id":586,"name":"soup","steam_id":76561198386933065,"connected_time":192000000000,"state":"active","ping":61},{"user_id":488,"name":"Flash","steam_id":76561198067379855,"connected_time":6644000000000,"state":"active","ping":59},{"user_id":580,"name":"gerber local brewery","steam_id":76561198183623117,"connected_time":528000000000,"state":"active","ping":53}]},{"server_id":311,"name":"Uncletopia | Frankfurt | 6 | All Maps","name_short":"frk-6","host":"frk-1.de.uncletopia.com","port":27065,"enabled":true,"region":"eu","cc":"de","latitude":50.110924,"longitude":8.682127,"reserved":0,"last_update":"0001-01-01T00:00:00Z","name_a2s":"Uncletopia | Frankfurt | 6 | All Maps","protocol":17,"map":"cp_snakewater_final1","folder":"tf","game":"Team Fortress","app_id":440,"player_count":24,"max_players":24,"Bots":0,"server_type":"Dedicated","server_os":"Linux","password":true,"vac":true,"version":"7961495","steam_id":85568392924504278,"keywords":["cp","nocrits","nodmgspread","uncletopia"],"game_id":440,"stv_port":27066,"stv_name":"Uncletopia | Frankfurt | 6 | All Maps | STV","players":[{"user_id":334,"name":"Hexagon","steam_id":76561198151205758,"connected_time":8667000000000,"state":"active","ping":46},{"user_id":423,"name":"waluigi","steam_id":76561198215809251,"connected_time":1073000000000,"state":"active","ping":53},{"user_id":274,"name":"SuntanPikachu","steam_id":76561198121242476,"connected_time":12128000000000,"state":"active","ping":68},{"user_id":400,"name":"yes","steam_id":76561198276086010,"connected_time":2785000000000,"state":"active","ping":96},{"user_id":413,"name":"Swagmaster","steam_id":76561198045828392,"connected_time":1974000000000,"state":"active","ping":65},{"user_id":359,"name":"Lembas","steam_id":76561198029909366,"connected_time":5959000000000,"state":"active","ping":103},{"user_id":410,"name":"BlueBlaster","steam_id":76561197995684708,"connected_time":2155000000000,"state":"active","ping":77},{"user_id":419,"name":"󠁳⁧⁧ Kruthal","steam_id":76561198245726582,"connected_time":1412000000000,"state":"active","ping":73},{"user_id":297,"name":"alfus","steam_id":76561198071003109,"connected_time":10466000000000,"state":"active","ping":55},{"user_id":355,"name":"Nick","steam_id":76561198036109469,"connected_time":6877000000000,"state":"active","ping":85},{"user_id":412,"name":"Will","steam_id":76561198173329977,"connected_time":2083000000000,"state":"active","ping":65},{"user_id":420,"name":"Yodawg","steam_id":76561198261933946,"connected_time":1393000000000,"state":"active","ping":57},{"user_id":411,"name":"V63 050","steam_id":76561198097789669,"connected_time":2144000000000,"state":"active","ping":57},{"user_id":424,"name":"Jimmy Poppadopolos","steam_id":76561198044825612,"connected_time":812000000000,"state":"active","ping":56},{"user_id":415,"name":"H-say","steam_id":76561198177400362,"connected_time":1680000000000,"state":"active","ping":82},{"user_id":381,"name":"I Don't Know","steam_id":76561198841011430,"connected_time":4372000000000,"state":"active","ping":51},{"user_id":387,"name":"Merca #savetf2","steam_id":76561198088782472,"connected_time":3609000000000,"state":"active","ping":51},{"user_id":421,"name":"ztrs6","steam_id":76561198314853803,"connected_time":1349000000000,"state":"active","ping":90},{"user_id":417,"name":"CRITICAL_HIT!","steam_id":76561198349330393,"connected_time":1672000000000,"state":"active","ping":62},{"user_id":425,"name":"Razef","steam_id":76561198030309484,"connected_time":769000000000,"state":"active","ping":69},{"user_id":373,"name":"Penis Contortionist","steam_id":76561198073663784,"connected_time":5040000000000,"state":"active","ping":46},{"user_id":426,"name":"Steven_Canada","steam_id":76561199110913666,"connected_time":34000000000,"state":"active","ping":60},{"user_id":422,"name":"Nurse=Leave","steam_id":76561198103323356,"connected_time":1298000000000,"state":"active","ping":52},{"user_id":418,"name":"Lag","steam_id":76561198159360376,"connected_time":1642000000000,"state":"active","ping":60}]},{"server_id":23,"name":"Uncletopia | Frankfurt | 7 | Stopwatch","name_short":"frk-7","host":"frk-1.de.uncletopia.com","port":27075,"enabled":true,"region":"eu","cc":"de","latitude":50.110924,"longitude":8.682127,"reserved":0,"last_update":"0001-01-01T00:00:00Z","name_a2s":"Uncletopia | Frankfurt | 7 | Stopwatch","protocol":17,"map":"workshop/koth_ramjam_rc1.ugc459778887","folder":"tf","game":"Team Fortress","app_id":440,"player_count":0,"max_players":24,"Bots":0,"server_type":"Dedicated","server_os":"Linux","password":true,"vac":true,"version":"7961495","steam_id":85568392924742827,"keywords":["cp","nocrits","nodmgspread","uncletopia"],"game_id":440,"stv_port":27076,"stv_name":"Uncletopia | Frankfurt | 7 | Stopwatch | STV","players":null},{"server_id":24,"name":"Uncletopia | Frankfurt | 8 | Community","name_short":"frk-8","host":"frk-1.de.uncletopia.com","port":27085,"enabled":true,"region":"eu","cc":"de","latitude":50.110924,"longitude":8.682127,"reserved":0,"last_update":"0001-01-01T00:00:00Z","name_a2s":"Uncletopia | Frankfurt | 8 | Community","protocol":17,"map":"workshop/pl_cactuscanyon_redux_final2.ugc2579644293","folder":"tf","game":"Team Fortress","app_id":440,"player_count":0,"max_players":24,"Bots":0,"server_type":"Dedicated","server_os":"Linux","password":true,"vac":true,"version":"7961495","steam_id":85568392924742828,"keywords":["nocrits","nodmgspread","payload","uncletopia"],"game_id":440,"stv_port":27086,"stv_name":"Uncletopia | Frankfurt | 8 | Community | STV","players":null},{"server_id":202,"name":"Uncletopia | Hong Kong | 1 | All Maps","name_short":"hgk-1","host":"hgk-1.hk.uncletopia.com","port":27015,"enabled":true,"region":"asia","cc":"hk","latitude":22.302711,"longitude":114.177216,"reserved":0,"last_update":"0001-01-01T00:00:00Z","name_a2s":"Uncletopia | Hong Kong | 1 | All Maps","protocol":17,"map":"koth_king","folder":"tf","game":"Team Fortress","app_id":440,"player_count":0,"max_players":24,"Bots":0,"server_type":"Dedicated","server_os":"Linux","password":true,"vac":true,"version":"7961495","steam_id":85568392924494504,"keywords":["cp","nocrits","nodmgspread","uncletopia"],"game_id":440,"stv_port":27016,"stv_name":"Uncletopia | Hong Kong | 1 | All Maps | STV","players":null},{"server_id":1,"name":"Uncletopia | Los Angeles | 1 | All Maps","name_short":"lax-1","host":"lax-1.us.uncletopia.com","port":27015,"enabled":true,"region":"us-west","cc":"us","latitude":33.94279,"longitude":-118.41004,"reserved":0,"last_update":"0001-01-01T00:00:00Z","name_a2s":"Uncletopia | Los Angeles | 1 | All Maps","protocol":17,"map":"koth_viaduct","folder":"tf","game":"Team Fortress","app_id":440,"player_count":0,"max_players":24,"Bots":0,"server_type":"Dedicated","server_os":"Linux","password":true,"vac":true,"version":"7961495","steam_id":85568392924469991,"keywords":["cp","nocrits","nodmgspread","uncletopia"],"game_id":440,"stv_port":27016,"stv_name":"Uncletopia | Los Angeles | 1 | All Maps | STV","players":null},{"server_id":112,"name":"Uncletopia | Los Angeles | 2 | All Maps","name_short":"lax-2","host":"lax-1.us.uncletopia.com","port":27025,"enabled":true,"region":"us-west","cc":"us","latitude":33.94279,"longitude":-118.41004,"reserved":0,"last_update":"0001-01-01T00:00:00Z","name_a2s":"Uncletopia | Los Angeles | 2 | All Maps","protocol":17,"map":"koth_viaduct","folder":"tf","game":"Team Fortress","app_id":440,"player_count":0,"max_players":24,"Bots":0,"server_type":"Dedicated","server_os":"Linux","password":true,"vac":true,"version":"7961495","steam_id":85568392924469992,"keywords":["cp","nocrits","nodmgspread","uncletopia"],"game_id":440,"stv_port":27026,"stv_name":"Uncletopia | Los Angeles | 2 | All Maps | STV","players":null},{"server_id":324,"name":"Uncletopia | Los Angeles | 3 | All Maps","name_short":"lax-3","host":"lax-1.us.uncletopia.com","port":27035,"enabled":true,"region":"us-west","cc":"us","latitude":33.94279,"longitude":-118.41004,"reserved":0,"last_update":"0001-01-01T00:00:00Z","name_a2s":"Uncletopia | Los Angeles | 3 | All Maps","protocol":17,"map":"pl_barnblitz","folder":"tf","game":"Team Fortress","app_id":440,"player_count":0,"max_players":24,"Bots":0,"server_type":"Dedicated","server_os":"Linux","password":true,"vac":true,"version":"7961495","steam_id":85568392924510198,"keywords":["nocrits","nodmgspread","payload","uncletopia"],"game_id":440,"stv_port":27036,"stv_name":"Uncletopia | Los Angeles | 3 | All Maps | STV","players":null},{"server_id":25,"name":"Uncletopia | Los Angeles | 4 | Stopwatch","name_short":"lax-4","host":"lax-1.us.uncletopia.com","port":27045,"enabled":true,"region":"us-west","cc":"us","latitude":33.94279,"longitude":-118.41004,"reserved":0,"last_update":"0001-01-01T00:00:00Z","name_a2s":"Uncletopia | Los Angeles | 4 | Stopwatch","protocol":17,"map":"pl_barnblitz","folder":"tf","game":"Team Fortress","app_id":440,"player_count":0,"max_players":24,"Bots":0,"server_type":"Dedicated","server_os":"Linux","password":true,"vac":true,"version":"7961495","steam_id":85568392924510199,"keywords":["nocrits","nodmgspread","payload","uncletopia"],"game_id":440,"stv_port":27046,"stv_name":"Uncletopia | Los Angeles | 4 | Stopwatch | STV","players":null},{"server_id":11,"name":"Uncletopia | London | 1 | All Maps","name_short":"lon-1","host":"lon-1.uk.uncletopia.com","port":27015,"enabled":true,"region":"eu","cc":"gb","latitude":51.509865,"longitude":-0.118092,"reserved":0,"last_update":"0001-01-01T00:00:00Z","name_a2s":"Uncletopia | London | 1 | All Maps","protocol":17,"map":"cp_steel","folder":"tf","game":"Team Fortress","app_id":440,"player_count":25,"max_players":24,"Bots":0,"server_type":"Dedicated","server_os":"Linux","password":true,"vac":true,"version":"7961495","steam_id":85568392924367362,"keywords":["cp","nocrits","nodmgspread","uncletopia"],"game_id":440,"stv_port":27016,"stv_name":"Uncletopia | London | 1 | All Maps | STV","players":[{"user_id":570,"name":"trite","steam_id":76561197983765323,"connected_time":6431000000000,"state":"active","ping":53},{"user_id":621,"name":"Vershal Smershal","steam_id":76561198116223995,"connected_time":3182000000000,"state":"active","ping":60},{"user_id":765,"name":"Tom Jones","steam_id":76561198330040827,"connected_time":392000000000,"state":"active","ping":49},{"user_id":625,"name":"rigel_","steam_id":76561198148640847,"connected_time":2996000000000,"state":"active","ping":90},{"user_id":786,"name":"Çodar","steam_id":76561198235518444,"connected_time":66000000000,"state":"active","ping":36},{"user_id":794,"name":"Fat Pigeon","steam_id":76561198817940142,"connected_time":35000000000,"state":"active","ping":53},{"user_id":782,"name":"owlsie","steam_id":76561198094883280,"connected_time":92000000000,"state":"active","ping":61},{"user_id":796,"name":"Jergu","steam_id":76561198023457541,"connected_time":30000000000,"state":"active","ping":66},{"user_id":650,"name":"e9 4 ever","steam_id":76561198890193313,"connected_time":1453000000000,"state":"active","ping":60},{"user_id":790,"name":"Clown :o)","steam_id":76561198074657015,"connected_time":47000000000,"state":"active","ping":58},{"user_id":637,"name":"❤kaka❤ ^-^","steam_id":76561198451817781,"connected_time":1489000000000,"state":"active","ping":88},{"user_id":799,"name":"TomNoSocks","steam_id":76561198114071046,"connected_time":22000000000,"state":"active","ping":68},{"user_id":640,"name":"Derpina (she/they)","steam_id":76561198106049954,"connected_time":1485000000000,"state":"active","ping":78},{"user_id":784,"name":"impossible whopper eater","steam_id":76561198058641805,"connected_time":80000000000,"state":"active","ping":47},{"user_id":792,"name":"i.kill.four.sport","steam_id":76561198080912087,"connected_time":42000000000,"state":"active","ping":61},{"user_id":645,"name":"pro kilar of nobas","steam_id":76561198079277466,"connected_time":1469000000000,"state":"active","ping":75},{"user_id":604,"name":"Citrus","steam_id":76561198090650837,"connected_time":3975000000000,"state":"active","ping":58},{"user_id":747,"name":"♡ Birdy ♡","steam_id":76561198139632682,"connected_time":594000000000,"state":"active","ping":92},{"user_id":564,"name":"Kahvi","steam_id":76561198723244199,"connected_time":7472000000000,"state":"active","ping":75},{"user_id":801,"name":"whimsy.","steam_id":76561198878171763,"connected_time":1000000000,"state":"spawning","ping":44},{"user_id":785,"name":"GoblinGaming","steam_id":76561198360395476,"connected_time":75000000000,"state":"active","ping":30},{"user_id":789,"name":"Tort","steam_id":76561198329646769,"connected_time":50000000000,"state":"active","ping":55},{"user_id":616,"name":"Bajas","steam_id":76561198179339326,"connected_time":3358000000000,"state":"active","ping":79},{"user_id":647,"name":"Planet Schmanet Janet","steam_id":76561198130270161,"connected_time":1464000000000,"state":"active","ping":60},{"user_id":578,"name":"albert","steam_id":76561198353496134,"connected_time":6205000000000,"state":"active","ping":63}]},{"server_id":114,"name":"Uncletopia | London | 2 | All Maps","name_short":"lon-2","host":"lon-1.uk.uncletopia.com","port":27025,"enabled":true,"region":"eu","cc":"gb","latitude":51.509865,"longitude":-0.118092,"reserved":0,"last_update":"0001-01-01T00:00:00Z","name_a2s":"Uncletopia | London | 2 | All Maps","protocol":17,"map":"pl_upward","folder":"tf","game":"Team Fortress","app_id":440,"player_count":24,"max_players":24,"Bots":0,"server_type":"Dedicated","server_os":"Linux","password":true,"vac":true,"version":"7961495","steam_id":85568392924470941,"keywords":["nocrits","nodmgspread","payload","uncletopia"],"game_id":440,"stv_port":27026,"stv_name":"Uncletopia | London | 2 | All Maps | STV","players":[{"user_id":288,"name":"Ghost","steam_id":76561198110914180,"connected_time":4766000000000,"state":"active","ping":98},{"user_id":305,"name":"Conan","steam_id":76561198158321202,"connected_time":3097000000000,"state":"active","ping":65},{"user_id":326,"name":"FilipeLuk","steam_id":76561198150675438,"connected_time":690000000000,"state":"active","ping":73},{"user_id":280,"name":"QualityRubbish","steam_id":76561198069645046,"connected_time":5399000000000,"state":"active","ping":44},{"user_id":296,"name":"flamingosaurus","steam_id":76561198051455397,"connected_time":3783000000000,"state":"active","ping":45},{"user_id":321,"name":"tafelpoot","steam_id":76561198080036024,"connected_time":1683000000000,"state":"active","ping":54},{"user_id":306,"name":"Zel","steam_id":76561198284520120,"connected_time":2958000000000,"state":"active","ping":52},{"user_id":309,"name":"Violent_Raccoons","steam_id":76561199006002337,"connected_time":2609000000000,"state":"active","ping":53},{"user_id":325,"name":"AWildTamim","steam_id":76561198048060652,"connected_time":791000000000,"state":"active","ping":30},{"user_id":331,"name":"bowchika wowa #SlavaUkraine","steam_id":76561198159564550,"connected_time":135000000000,"state":"active","ping":71},{"user_id":327,"name":"sp00ky","steam_id":76561198809887201,"connected_time":672000000000,"state":"active","ping":53},{"user_id":299,"name":"[SpA]Scatterbrain","steam_id":76561197998639769,"connected_time":3439000000000,"state":"active","ping":46},{"user_id":312,"name":"Gillusion","steam_id":76561198138818087,"connected_time":2373000000000,"state":"active","ping":44},{"user_id":324,"name":"Pyrolander","steam_id":76561198050785450,"connected_time":1294000000000,"state":"active","ping":52},{"user_id":328,"name":"average enjoyer","steam_id":76561198988985546,"connected_time":664000000000,"state":"active","ping":83},{"user_id":329,"name":"Severeburrito16","steam_id":76561198353155991,"connected_time":658000000000,"state":"active","ping":129},{"user_id":193,"name":"soil.dirt.earth","steam_id":76561198014377623,"connected_time":11932000000000,"state":"active","ping":34},{"user_id":323,"name":"Engineer Chad","steam_id":76561199487629652,"connected_time":1417000000000,"state":"active","ping":77},{"user_id":313,"name":"Pvt. Prinny","steam_id":76561198030278562,"connected_time":2351000000000,"state":"active","ping":47},{"user_id":308,"name":"Cool Ranch© Flavoured Pretzel","steam_id":76561198097130024,"connected_time":2728000000000,"state":"active","ping":56},{"user_id":301,"name":"Jombus Quan","steam_id":76561198240560666,"connected_time":3423000000000,"state":"active","ping":56},{"user_id":318,"name":"FoOzTV","steam_id":76561197998636728,"connected_time":2128000000000,"state":"active","ping":57},{"user_id":330,"name":"stonebum","steam_id":76561198057004606,"connected_time":649000000000,"state":"active","ping":58},{"user_id":294,"name":"Coldynator","steam_id":76561198042224175,"connected_time":3858000000000,"state":"active","ping":80}]},{"server_id":320,"name":"Uncletopia | London | 3 | All Maps","name_short":"lon-3","host":"lon-1.uk.uncletopia.com","port":27035,"enabled":true,"region":"eu","cc":"gb","latitude":51.509865,"longitude":-0.118092,"reserved":0,"last_update":"0001-01-01T00:00:00Z","name_a2s":"Uncletopia | London | 3 | All Maps","protocol":17,"map":"pl_upward","folder":"tf","game":"Team Fortress","app_id":440,"player_count":24,"max_players":24,"Bots":0,"server_type":"Dedicated","server_os":"Linux","password":true,"vac":true,"version":"7961495","steam_id":85568392924510192,"keywords":["nocrits","nodmgspread","payload","uncletopia"],"game_id":440,"stv_port":27036,"stv_name":"Uncletopia | London | 3 | All Maps | STV","players":[{"user_id":174,"name":"Beanie","steam_id":76561198173882658,"connected_time":4575000000000,"state":"active","ping":51},{"user_id":219,"name":"Sugardaddy_pep","steam_id":76561198807512589,"connected_time":438000000000,"state":"active","ping":88},{"user_id":220,"name":"Den","steam_id":76561198043835212,"connected_time":246000000000,"state":"active","ping":59},{"user_id":199,"name":"Relic","steam_id":76561199499093258,"connected_time":2359000000000,"state":"active","ping":74},{"user_id":218,"name":"Niyaah","steam_id":76561198110209191,"connected_time":570000000000,"state":"active","ping":59},{"user_id":201,"name":"Amandus","steam_id":76561198036281079,"connected_time":1924000000000,"state":"active","ping":65},{"user_id":213,"name":"TreatFly","steam_id":76561198069707362,"connected_time":899000000000,"state":"active","ping":57},{"user_id":177,"name":"Jersku","steam_id":76561198140994845,"connected_time":4193000000000,"state":"active","ping":75},{"user_id":210,"name":"lillunya ♡","steam_id":76561198330418866,"connected_time":1369000000000,"state":"active","ping":71},{"user_id":215,"name":"(1)crimson","steam_id":76561198208349835,"connected_time":757000000000,"state":"active","ping":68},{"user_id":176,"name":"skittish maiden","steam_id":76561198096856475,"connected_time":4238000000000,"state":"active","ping":50},{"user_id":184,"name":"slippin jimmy","steam_id":76561198090788590,"connected_time":3807000000000,"state":"active","ping":35},{"user_id":197,"name":"Ransu","steam_id":76561198211750823,"connected_time":2715000000000,"state":"active","ping":69},{"user_id":209,"name":"CEO of Racism","steam_id":76561198042317958,"connected_time":1382000000000,"state":"active","ping":65},{"user_id":207,"name":"Crimson","steam_id":76561197987552332,"connected_time":1648000000000,"state":"active","ping":54},{"user_id":204,"name":"an idiot","steam_id":76561198172542535,"connected_time":1831000000000,"state":"active","ping":75},{"user_id":186,"name":"tomboys in skirts","steam_id":76561199017293122,"connected_time":3714000000000,"state":"active","ping":75},{"user_id":151,"name":"Fallen","steam_id":76561199445283186,"connected_time":5911000000000,"state":"active","ping":117},{"user_id":206,"name":"XxBenShapiro420xX","steam_id":76561199229373972,"connected_time":1695000000000,"state":"active","ping":64},{"user_id":169,"name":"smk","steam_id":76561198068027379,"connected_time":5053000000000,"state":"active","ping":78},{"user_id":86,"name":"JSX","steam_id":76561198039097662,"connected_time":9796000000000,"state":"active","ping":75},{"user_id":208,"name":"SG2x [FR]","steam_id":76561198001620401,"connected_time":1434000000000,"state":"active","ping":64},{"user_id":216,"name":"Liko","steam_id":76561197994660517,"connected_time":677000000000,"state":"active","ping":85},{"user_id":205,"name":"gaming (official)","steam_id":76561198106012909,"connected_time":1798000000000,"state":"active","ping":77}]},{"server_id":321,"name":"Uncletopia | London | 4 | All Maps","name_short":"lon-4","host":"lon-1.uk.uncletopia.com","port":27045,"enabled":true,"region":"eu","cc":"gb","latitude":51.509865,"longitude":-0.118092,"reserved":0,"last_update":"0001-01-01T00:00:00Z","name_a2s":"Uncletopia | London | 4 | All Maps","protocol":17,"map":"pl_swiftwater_final1","folder":"tf","game":"Team Fortress","app_id":440,"player_count":24,"max_players":24,"Bots":0,"server_type":"Dedicated","server_os":"Linux","password":true,"vac":true,"version":"7961495","steam_id":85568392924510193,"keywords":["nocrits","nodmgspread","payload","uncletopia"],"game_id":440,"stv_port":27046,"stv_name":"Uncletopia | London | 4 | All Maps | STV","players":[{"user_id":14,"name":"Sad Potato","steam_id":76561198239654762,"connected_time":6369000000000,"state":"active","ping":45},{"user_id":15,"name":"SpicyBoi","steam_id":76561198137845321,"connected_time":6333000000000,"state":"active","ping":60},{"user_id":82,"name":"highest noon","steam_id":76561199103959197,"connected_time":2158000000000,"state":"active","ping":101},{"user_id":97,"name":"♥♥TGA♥♥","steam_id":76561198853016656,"connected_time":424000000000,"state":"active","ping":69},{"user_id":77,"name":"Watcher","steam_id":76561198090298178,"connected_time":2276000000000,"state":"active","ping":56},{"user_id":96,"name":"MrKampfCookie","steam_id":76561198085490175,"connected_time":532000000000,"state":"active","ping":58},{"user_id":50,"name":"Zerius","steam_id":76561198044235220,"connected_time":5152000000000,"state":"active","ping":71},{"user_id":98,"name":"ant753","steam_id":76561198103458889,"connected_time":362000000000,"state":"active","ping":62},{"user_id":99,"name":"Very Original Name","steam_id":76561199159833013,"connected_time":357000000000,"state":"active","ping":122},{"user_id":103,"name":"ThornDrayton","steam_id":76561198141985675,"connected_time":243000000000,"state":"active","ping":56},{"user_id":78,"name":"Reiyo the Interloper","steam_id":76561198155092485,"connected_time":2261000000000,"state":"active","ping":61},{"user_id":88,"name":"JustMayor","steam_id":76561198050515503,"connected_time":1354000000000,"state":"active","ping":94},{"user_id":58,"name":"Plep","steam_id":76561198840259819,"connected_time":4293000000000,"state":"active","ping":60},{"user_id":80,"name":"Duktigafred","steam_id":76561199211222396,"connected_time":2212000000000,"state":"active","ping":69},{"user_id":47,"name":"ruschca","steam_id":76561198041966522,"connected_time":5423000000000,"state":"active","ping":45},{"user_id":72,"name":"Colingaffney","steam_id":76561198197984574,"connected_time":2893000000000,"state":"active","ping":68},{"user_id":92,"name":"Nag","steam_id":76561197970488206,"connected_time":816000000000,"state":"active","ping":69},{"user_id":49,"name":"Ady Pádlo","steam_id":76561198263104437,"connected_time":5280000000000,"state":"active","ping":81},{"user_id":95,"name":"(M.G)reg","steam_id":76561198063153881,"connected_time":634000000000,"state":"active","ping":74},{"user_id":93,"name":"McAtka","steam_id":76561198019759329,"connected_time":658000000000,"state":"active","ping":81},{"user_id":70,"name":"ice","steam_id":76561198011015750,"connected_time":3278000000000,"state":"active","ping":68},{"user_id":52,"name":"2006 Mitsubishi Lancer","steam_id":76561198036632498,"connected_time":5075000000000,"state":"active","ping":43},{"user_id":102,"name":"Larry Penus","steam_id":76561198207546233,"connected_time":296000000000,"state":"active","ping":45},{"user_id":94,"name":"MistrzJaskier","steam_id":76561198069240119,"connected_time":657000000000,"state":"active","ping":90}]},{"server_id":21,"name":"Uncletopia | London | 5 | All Maps","name_short":"lon-5","host":"lon-1.uk.uncletopia.com","port":27055,"enabled":true,"region":"eu","cc":"gb","latitude":51.509865,"longitude":-0.118092,"reserved":0,"last_update":"0001-01-01T00:00:00Z","name_a2s":"Uncletopia | London | 5 | All Maps","protocol":17,"map":"pl_borneo","folder":"tf","game":"Team Fortress","app_id":440,"player_count":22,"max_players":24,"Bots":0,"server_type":"Dedicated","server_os":"Linux","password":true,"vac":true,"version":"7961495","steam_id":85568392924742829,"keywords":["nocrits","nodmgspread","payload","uncletopia"],"game_id":440,"stv_port":27056,"stv_name":"Uncletopia | London | 5 | All Maps | STV","players":[{"user_id":119,"name":"hwleo","steam_id":76561198090848620,"connected_time":344000000000,"state":"active","ping":92},{"user_id":123,"name":"Charlie Brown","steam_id":76561199378865926,"connected_time":138000000000,"state":"active","ping":76},{"user_id":124,"name":"Ozzie","steam_id":76561197992915315,"connected_time":105000000000,"state":"active","ping":75},{"user_id":110,"name":"Gustavo_Fring_6969","steam_id":76561199373610279,"connected_time":1218000000000,"state":"active","ping":96},{"user_id":82,"name":"glyph","steam_id":76561197980736364,"connected_time":3433000000000,"state":"active","ping":78},{"user_id":121,"name":"Holofightz Nene","steam_id":76561198226788392,"connected_time":207000000000,"state":"active","ping":62},{"user_id":122,"name":"Baron","steam_id":76561198021901783,"connected_time":191000000000,"state":"active","ping":62},{"user_id":106,"name":"TamiyaGuy","steam_id":76561197994489789,"connected_time":1353000000000,"state":"active","ping":51},{"user_id":125,"name":"WHUSSKEY","steam_id":76561198137827441,"connected_time":103000000000,"state":"active","ping":77},{"user_id":130,"name":"Nintails","steam_id":76561198075157560,"connected_time":20000000000,"state":"active","ping":47},{"user_id":85,"name":"fernandobmwm355555","steam_id":76561198086609447,"connected_time":3357000000000,"state":"active","ping":60},{"user_id":117,"name":"Industrial Revolution","steam_id":76561198230811124,"connected_time":901000000000,"state":"active","ping":74},{"user_id":90,"name":"Fabric","steam_id":76561198118742661,"connected_time":3044000000000,"state":"active","ping":87},{"user_id":75,"name":"Oak","steam_id":76561198067315672,"connected_time":4114000000000,"state":"active","ping":46},{"user_id":127,"name":"aja","steam_id":76561198972253395,"connected_time":66000000000,"state":"active","ping":58},{"user_id":115,"name":"Castrophy","steam_id":76561198014745908,"connected_time":1022000000000,"state":"active","ping":130},{"user_id":118,"name":"Käärijä","steam_id":76561198126634202,"connected_time":886000000000,"state":"active","ping":60},{"user_id":64,"name":"(MAC) [BN] Crazyking","steam_id":76561198001668616,"connected_time":6088000000000,"state":"active","ping":59},{"user_id":66,"name":"Demicore","steam_id":76561197976922136,"connected_time":5542000000000,"state":"active","ping":69},{"user_id":92,"name":"Ullr","steam_id":76561198140547483,"connected_time":2908000000000,"state":"active","ping":45},{"user_id":94,"name":"Yahn","steam_id":76561198119195982,"connected_time":2756000000000,"state":"active","ping":67},{"user_id":100,"name":"Virgil","steam_id":76561198248786778,"connected_time":2048000000000,"state":"active","ping":111}]},{"server_id":22,"name":"Uncletopia | London | 6 | All Maps","name_short":"lon-6","host":"lon-1.uk.uncletopia.com","port":27065,"enabled":true,"region":"eu","cc":"gb","latitude":51.509865,"longitude":-0.118092,"reserved":0,"last_update":"0001-01-01T00:00:00Z","name_a2s":"Uncletopia | London | 6 | All Maps","protocol":17,"map":"pl_borneo","folder":"tf","game":"Team Fortress","app_id":440,"player_count":23,"max_players":24,"Bots":0,"server_type":"Dedicated","server_os":"Linux","password":true,"vac":true,"version":"7961495","steam_id":85568392924742830,"keywords":["nocrits","nodmgspread","payload","uncletopia"],"game_id":440,"stv_port":27066,"stv_name":"Uncletopia | London | 6 | All Maps | STV","players":[{"user_id":86,"name":"Grimm","steam_id":76561198044684227,"connected_time":2022000000000,"state":"active","ping":60},{"user_id":62,"name":"Minimi","steam_id":76561198873850443,"connected_time":2961000000000,"state":"active","ping":42},{"user_id":77,"name":"MustangCricket","steam_id":76561197963408317,"connected_time":2373000000000,"state":"active","ping":68},{"user_id":105,"name":"DEFENDOR62","steam_id":76561199386703896,"connected_time":211000000000,"state":"active","ping":75},{"user_id":103,"name":"Bzd","steam_id":76561198204521956,"connected_time":301000000000,"state":"active","ping":82},{"user_id":74,"name":"veem04","steam_id":76561198044546800,"connected_time":2445000000000,"state":"active","ping":67},{"user_id":31,"name":"[P-roc] BadJacKS","steam_id":76561197972666377,"connected_time":3855000000000,"state":"active","ping":60},{"user_id":101,"name":"Fisher","steam_id":76561198352854004,"connected_time":499000000000,"state":"active","ping":68},{"user_id":94,"name":"Sodium Inhaler","steam_id":76561198110912558,"connected_time":1315000000000,"state":"active","ping":82},{"user_id":70,"name":"Beta Fish","steam_id":76561198073504861,"connected_time":2706000000000,"state":"active","ping":134},{"user_id":107,"name":"ROX","steam_id":76561198272289320,"connected_time":152000000000,"state":"active","ping":60},{"user_id":40,"name":"obi","steam_id":76561198040154461,"connected_time":3716000000000,"state":"active","ping":66},{"user_id":75,"name":"James","steam_id":76561198168882012,"connected_time":2409000000000,"state":"active","ping":54},{"user_id":42,"name":"Pinkchup","steam_id":76561198106802803,"connected_time":3699000000000,"state":"active","ping":78},{"user_id":106,"name":"Borat","steam_id":76561198122226417,"connected_time":204000000000,"state":"active","ping":42},{"user_id":80,"name":"quickfast","steam_id":76561199438900919,"connected_time":2307000000000,"state":"active","ping":42},{"user_id":85,"name":"HeerDerHeren","steam_id":76561198043810980,"connected_time":2113000000000,"state":"active","ping":68},{"user_id":87,"name":"BRAPPPPPPPPPPP","steam_id":76561198434227694,"connected_time":2022000000000,"state":"active","ping":48},{"user_id":88,"name":"EdenTGG","steam_id":76561198276487677,"connected_time":2012000000000,"state":"active","ping":68},{"user_id":83,"name":"Ninjeg","steam_id":76561197995307947,"connected_time":2180000000000,"state":"active","ping":65},{"user_id":50,"name":"The Boss","steam_id":76561198426522902,"connected_time":3634000000000,"state":"active","ping":53},{"user_id":51,"name":"Alegz","steam_id":76561198287810139,"connected_time":3633000000000,"state":"active","ping":82},{"user_id":91,"name":"Marcel","steam_id":76561198348686648,"connected_time":1439000000000,"state":"active","ping":45}]},{"server_id":40,"name":"Uncletopia | London | 7 | Stopwatch","name_short":"lon-7","host":"lon-1.uk.uncletopia.com","port":27075,"enabled":true,"region":"eu","cc":"gb","latitude":51.509865,"longitude":-0.118092,"reserved":0,"last_update":"0001-01-01T00:00:00Z","name_a2s":"Uncletopia | London | 7 | Stopwatch","protocol":17,"map":"pl_upward","folder":"tf","game":"Team Fortress","app_id":440,"player_count":3,"max_players":24,"Bots":0,"server_type":"Dedicated","server_os":"Linux","password":true,"vac":true,"version":"7961495","steam_id":85568392924964314,"keywords":["nocrits","nodmgspread","payload","uncletopia"],"game_id":440,"stv_port":27076,"stv_name":"Uncletopia | London | 7 | Stopwatch | STV","players":[{"user_id":6,"name":"A_GingerIdiot","steam_id":76561198313306026,"connected_time":3450000000000,"state":"active","ping":60},{"user_id":7,"name":"Tispy","steam_id":76561199207410049,"connected_time":3280000000000,"state":"active","ping":82},{"user_id":26,"name":"Willo2ty","steam_id":76561198820497101,"connected_time":1250000000000,"state":"active","ping":60}]},{"server_id":41,"name":"Uncletopia | London | 8 | Community","name_short":"lon-8","host":"lon-1.uk.uncletopia.com","port":27085,"enabled":true,"region":"eu","cc":"gb","latitude":51.509865,"longitude":-0.118092,"reserved":0,"last_update":"0001-01-01T00:00:00Z","name_a2s":"Uncletopia | London | 8 | Community","protocol":17,"map":"workshop/cp_fulgur_rc2a.ugc2068252300","folder":"tf","game":"Team Fortress","app_id":440,"player_count":0,"max_players":24,"Bots":0,"server_type":"Dedicated","server_os":"Linux","password":true,"vac":true,"version":"7961495","steam_id":85568392924964315,"keywords":["cp","nocrits","nodmgspread","uncletopia"],"game_id":440,"stv_port":27086,"stv_name":"Uncletopia | London | 8 | Community | STV","players":null},{"server_id":300,"name":"Uncletopia | Montréal | 1 | One Thousand Uncles","name_short":"mtl-1","host":"mtl-1.ca.uncletopia.com","port":27015,"enabled":true,"region":"us-east","cc":"ca","latitude":45.50889,"longitude":-73.56167,"reserved":0,"last_update":"0001-01-01T00:00:00Z","name_a2s":"","protocol":0,"map":"","folder":"","game":"","app_id":0,"player_count":8,"max_players":0,"Bots":0,"server_type":"","server_os":"","password":false,"vac":false,"version":"","steam_id":0,"keywords":null,"game_id":0,"stv_port":0,"stv_name":"","players":[{"user_id":89,"name":"Waaagh!","steam_id":76561197995317887,"connected_time":602000000000,"state":"active","ping":38},{"user_id":87,"name":"pan","steam_id":76561199019732036,"connected_time":834000000000,"state":"active","ping":64},{"user_id":86,"name":"Tim the enchanter","steam_id":76561198140046182,"connected_time":928000000000,"state":"active","ping":130},{"user_id":84,"name":"generic blue proto","steam_id":76561199000149623,"connected_time":2871000000000,"state":"active","ping":95},{"user_id":88,"name":"AlejandritoXDS","steam_id":76561199147041246,"connected_time":793000000000,"state":"active","ping":126},{"user_id":90,"name":"WM1 PYRO","steam_id":76561198045893896,"connected_time":555000000000,"state":"active","ping":99},{"user_id":123,"name":"A Terrible Shot","steam_id":76561198045523833,"connected_time":49000000000,"state":"active","ping":71},{"user_id":124,"name":"yes","steam_id":76561199113461290,"connected_time":11000000000,"state":"spawning","ping":76}]},{"server_id":301,"name":"Uncletopia | Montréal | 2 | One Thousand Uncles","name_short":"mtl-2","host":"mtl-1.ca.uncletopia.com","port":27025,"enabled":true,"region":"us-east","cc":"ca","latitude":45.50889,"longitude":-73.56167,"reserved":0,"last_update":"0001-01-01T00:00:00Z","name_a2s":"","protocol":0,"map":"","folder":"","game":"","app_id":0,"player_count":0,"max_players":0,"Bots":0,"server_type":"","server_os":"","password":false,"vac":false,"version":"","steam_id":0,"keywords":null,"game_id":0,"stv_port":0,"stv_name":"","players":null},{"server_id":302,"name":"Uncletopia | Montréal | 3 | One Thousand Uncles","name_short":"mtl-3","host":"mtl-1.ca.uncletopia.com","port":27035,"enabled":true,"region":"us-east","cc":"ca","latitude":45.50889,"longitude":-73.56167,"reserved":0,"last_update":"0001-01-01T00:00:00Z","name_a2s":"","protocol":0,"map":"","folder":"","game":"","app_id":0,"player_count":0,"max_players":0,"Bots":0,"server_type":"","server_os":"","password":false,"vac":false,"version":"","steam_id":0,"keywords":null,"game_id":0,"stv_port":0,"stv_name":"","players":null},{"server_id":13,"name":"Uncletopia | New York City | 1 | All Maps","name_short":"nyc-1","host":"nyc-1.us.uncletopia.com","port":27015,"enabled":true,"region":"us-east","cc":"us","latitude":40.73061,"longitude":-73.93524,"reserved":0,"last_update":"0001-01-01T00:00:00Z","name_a2s":"Uncletopia | New York City | 1 | All Maps","protocol":17,"map":"cp_process_final","folder":"tf","game":"Team Fortress","app_id":440,"player_count":23,"max_players":24,"Bots":0,"server_type":"Dedicated","server_os":"Linux","password":true,"vac":true,"version":"7961495","steam_id":85568392924469993,"keywords":["cp","nocrits","nodmgspread","uncletopia"],"game_id":440,"stv_port":27016,"stv_name":"Uncletopia | New York City | 1 | All Maps | STV","players":[{"user_id":24,"name":"Cyberpunk McDonald's Play Place","steam_id":76561198063512035,"connected_time":2915000000000,"state":"active","ping":32},{"user_id":40,"name":"Nice21","steam_id":76561199427548141,"connected_time":954000000000,"state":"active","ping":74},{"user_id":42,"name":"Cyan","steam_id":76561198430871842,"connected_time":884000000000,"state":"active","ping":50},{"user_id":35,"name":"coups","steam_id":76561198350747953,"connected_time":1522000000000,"state":"active","ping":57},{"user_id":32,"name":"Nexusuxen","steam_id":76561198117547131,"connected_time":1791000000000,"state":"active","ping":85},{"user_id":33,"name":"Menace to Sobriety","steam_id":76561198245103000,"connected_time":1650000000000,"state":"active","ping":54},{"user_id":30,"name":"custodian","steam_id":76561198058793778,"connected_time":1889000000000,"state":"active","ping":56},{"user_id":37,"name":"howard-10973","steam_id":76561198449656454,"connected_time":1428000000000,"state":"active","ping":51},{"user_id":43,"name":"neet","steam_id":76561197968115168,"connected_time":821000000000,"state":"active","ping":48},{"user_id":39,"name":"Allyn","steam_id":76561198999161827,"connected_time":1289000000000,"state":"active","ping":65},{"user_id":45,"name":"TrashBoat","steam_id":76561199089671432,"connected_time":732000000000,"state":"active","ping":98},{"user_id":46,"name":"D.T. Katze","steam_id":76561198002280813,"connected_time":673000000000,"state":"active","ping":60},{"user_id":47,"name":"Just a BLU Toon","steam_id":76561198273199771,"connected_time":653000000000,"state":"active","ping":61},{"user_id":49,"name":"Mike","steam_id":76561198000179928,"connected_time":520000000000,"state":"active","ping":46},{"user_id":50,"name":"DJ_Smooth_KillaGames","steam_id":76561199051362337,"connected_time":481000000000,"state":"active","ping":98},{"user_id":51,"name":"Pyrolandian","steam_id":76561199057252600,"connected_time":453000000000,"state":"active","ping":108},{"user_id":52,"name":"beast from the east","steam_id":76561198267624034,"connected_time":289000000000,"state":"active","ping":59},{"user_id":53,"name":"UwU","steam_id":76561198971629959,"connected_time":286000000000,"state":"active","ping":134},{"user_id":55,"name":"Sea Raider","steam_id":76561198055654064,"connected_time":203000000000,"state":"active","ping":105},{"user_id":56,"name":"Xx_sexyProGamerSniper_Xx","steam_id":76561198864353110,"connected_time":173000000000,"state":"active","ping":65},{"user_id":57,"name":"xx_360SexyTrickshotter_xx","steam_id":76561198184048406,"connected_time":140000000000,"state":"active","ping":113},{"user_id":58,"name":"goofbears","steam_id":76561199100831175,"connected_time":120000000000,"state":"active","ping":65},{"user_id":59,"name":"Wang of Wall St","steam_id":76561198047460598,"connected_time":106000000000,"state":"active","ping":59}]},{"server_id":14,"name":"Uncletopia | New York City | 2 | All Maps","name_short":"nyc-2","host":"nyc-1.us.uncletopia.com","port":27025,"enabled":true,"region":"us-east","cc":"us","latitude":40.73061,"longitude":-73.93524,"reserved":0,"last_update":"0001-01-01T00:00:00Z","name_a2s":"Uncletopia | New York City | 2 | All Maps","protocol":17,"map":"cp_altitude","folder":"tf","game":"Team Fortress","app_id":440,"player_count":19,"max_players":24,"Bots":0,"server_type":"Dedicated","server_os":"Linux","password":true,"vac":true,"version":"7961495","steam_id":85568392924469994,"keywords":["cp","nocrits","nodmgspread","uncletopia"],"game_id":440,"stv_port":27026,"stv_name":"Uncletopia | New York City | 2 | All Maps | STV","players":[{"user_id":107,"name":"ToppiestOfHats #SaveTF2","steam_id":76561199177344996,"connected_time":102000000000,"state":"active","ping":76},{"user_id":96,"name":"jg125","steam_id":76561198824953530,"connected_time":508000000000,"state":"active","ping":173},{"user_id":89,"name":"The Hose on Upward","steam_id":76561197965092192,"connected_time":1089000000000,"state":"active","ping":67},{"user_id":98,"name":"AndrewTron","steam_id":76561198301605457,"connected_time":383000000000,"state":"active","ping":79},{"user_id":11,"name":"Bother","steam_id":76561198336750909,"connected_time":6347000000000,"state":"active","ping":36},{"user_id":108,"name":"The Sorrow of Dandy","steam_id":76561198005551894,"connected_time":100000000000,"state":"active","ping":89},{"user_id":65,"name":"loscemo","steam_id":76561197994884609,"connected_time":3724000000000,"state":"active","ping":57},{"user_id":109,"name":"Fredrick","steam_id":76561197981419964,"connected_time":87000000000,"state":"active","ping":41},{"user_id":92,"name":"Dokkibai","steam_id":76561198355935693,"connected_time":619000000000,"state":"active","ping":64},{"user_id":66,"name":"saurhead","steam_id":76561198132937722,"connected_time":3686000000000,"state":"active","ping":46},{"user_id":94,"name":"Drake the Pixel","steam_id":76561198131824401,"connected_time":592000000000,"state":"active","ping":38},{"user_id":58,"name":"haroomg","steam_id":76561198353028714,"connected_time":4383000000000,"state":"active","ping":157},{"user_id":67,"name":"emotional suppport e-cigarette","steam_id":76561198172120615,"connected_time":3610000000000,"state":"active","ping":33},{"user_id":72,"name":"Crescent","steam_id":76561198095124633,"connected_time":2843000000000,"state":"active","ping":63},{"user_id":95,"name":"Guwop","steam_id":76561197970425737,"connected_time":555000000000,"state":"active","ping":76},{"user_id":64,"name":"guy","steam_id":76561198163306561,"connected_time":4010000000000,"state":"active","ping":74},{"user_id":103,"name":"BIG LION","steam_id":76561198091880358,"connected_time":325000000000,"state":"active","ping":53},{"user_id":70,"name":"Strange Diplomat","steam_id":76561198428191920,"connected_time":3499000000000,"state":"active","ping":120},{"user_id":80,"name":"Mana_Kaktus","steam_id":76561198110468307,"connected_time":2259000000000,"state":"active","ping":90}]},{"server_id":15,"name":"Uncletopia | New York City | 3 | Stopwatch","name_short":"nyc-3","host":"nyc-1.us.uncletopia.com","port":27035,"enabled":true,"region":"us-east","cc":"us","latitude":40.73061,"longitude":-73.93524,"reserved":0,"last_update":"0001-01-01T00:00:00Z","name_a2s":"Uncletopia | New York City | 3 | Stopwatch","protocol":17,"map":"workshop/pl_barnblitz_pro7.ugc582280235","folder":"tf","game":"Team Fortress","app_id":440,"player_count":0,"max_players":24,"Bots":0,"server_type":"Dedicated","server_os":"Linux","password":true,"vac":true,"version":"7961495","steam_id":85568392924742820,"keywords":["nocrits","nodmgspread","payload","uncletopia"],"game_id":440,"stv_port":27036,"stv_name":"Uncletopia | New York City | 3 | Stopwatch | STV","players":null},{"server_id":16,"name":"Uncletopia | New York City | 4 | Community","name_short":"nyc-4","host":"nyc-1.us.uncletopia.com","port":27045,"enabled":true,"region":"us-east","cc":"us","latitude":40.73061,"longitude":-73.93524,"reserved":0,"last_update":"0001-01-01T00:00:00Z","name_a2s":"Uncletopia | New York City | 4 | Community","protocol":17,"map":"workshop/koth_synthetic_rc6a.ugc1549817316","folder":"tf","game":"Team Fortress","app_id":440,"player_count":0,"max_players":24,"Bots":0,"server_type":"Dedicated","server_os":"Linux","password":true,"vac":true,"version":"7961495","steam_id":85568392924742821,"keywords":["cp","nocrits","nodmgspread","uncletopia"],"game_id":440,"stv_port":27046,"stv_name":"Uncletopia | New York City | 4 | Community | STV","players":null},{"server_id":142,"name":"Uncletopia | São Paulo | 1 | All Maps","name_short":"sao-1","host":"sao-1.br.uncletopia.com","port":27015,"enabled":true,"region":"sa","cc":"br","latitude":-23.533773,"longitude":-46.62529,"reserved":0,"last_update":"0001-01-01T00:00:00Z","name_a2s":"Uncletopia | São Paulo | 1 | All Maps","protocol":17,"map":"koth_lakeside_final","folder":"tf","game":"Team Fortress","app_id":440,"player_count":0,"max_players":24,"Bots":0,"server_type":"Dedicated","server_os":"Linux","password":true,"vac":true,"version":"7961495","steam_id":85568392924469996,"keywords":["cp","nocrits","nodmgspread","uncletopia"],"game_id":440,"stv_port":27016,"stv_name":"Uncletopia | São Paulo | 1 | All Maps | STV","players":null},{"server_id":143,"name":"Uncletopia | São Paulo | 2 | Community","name_short":"sao-2","host":"sao-2.br.uncletopia.com","port":27015,"enabled":true,"region":"sa","cc":"br","latitude":-23.533773,"longitude":-46.62529,"reserved":0,"last_update":"0001-01-01T00:00:00Z","name_a2s":"Uncletopia | São Paulo | 2 | Community","protocol":17,"map":"workshop/koth_product_final.ugc454272353","folder":"tf","game":"Team Fortress","app_id":440,"player_count":0,"max_players":24,"Bots":0,"server_type":"Dedicated","server_os":"Linux","password":true,"vac":true,"version":"7961495","steam_id":85568392924485349,"keywords":["cp","nocrits","nodmgspread","uncletopia"],"game_id":440,"stv_port":27016,"stv_name":"Uncletopia | São Paulo | 2 | Community | STV","players":null},{"server_id":7,"name":"Uncletopia | Seattle | 1 | All Maps","name_short":"sea-1","host":"sea-1.us.uncletopia.com","port":27015,"enabled":true,"region":"us-west","cc":"us","latitude":47.608013,"longitude":-122.33517,"reserved":0,"last_update":"0001-01-01T00:00:00Z","name_a2s":"Uncletopia | Seattle | 1 | All Maps","protocol":17,"map":"koth_harvest_final","folder":"tf","game":"Team Fortress","app_id":440,"player_count":14,"max_players":24,"Bots":0,"server_type":"Dedicated","server_os":"Linux","password":true,"vac":true,"version":"7961495","steam_id":85568392924469997,"keywords":["cp","nocrits","nodmgspread","uncletopia"],"game_id":440,"stv_port":27016,"stv_name":"Uncletopia | Seattle | 1 | All Maps | STV","players":[{"user_id":45,"name":"dust | it/she","steam_id":76561198045218909,"connected_time":2324000000000,"state":"active","ping":38},{"user_id":46,"name":"DaddyGalaxy","steam_id":76561198139697796,"connected_time":2243000000000,"state":"active","ping":57},{"user_id":73,"name":"neo :)","steam_id":76561199092954930,"connected_time":147000000000,"state":"active","ping":109},{"user_id":35,"name":"theManMan","steam_id":76561199488457138,"connected_time":2974000000000,"state":"active","ping":45},{"user_id":74,"name":"Rally Racer","steam_id":76561198044613715,"connected_time":73000000000,"state":"active","ping":67},{"user_id":72,"name":"«Dᵃʳᵏ.,,.Tᵉᵐᵖ»","steam_id":76561198018185884,"connected_time":380000000000,"state":"active","ping":44},{"user_id":75,"name":"personal taco trainer","steam_id":76561198064260235,"connected_time":66000000000,"state":"active","ping":97},{"user_id":41,"name":"bark","steam_id":76561197992287250,"connected_time":2728000000000,"state":"active","ping":84},{"user_id":51,"name":"jdm","steam_id":76561199497603020,"connected_time":1584000000000,"state":"active","ping":64},{"user_id":66,"name":"2bcoffee","steam_id":76561198810469767,"connected_time":601000000000,"state":"active","ping":120},{"user_id":56,"name":"no vc no c","steam_id":76561197989503095,"connected_time":1374000000000,"state":"active","ping":150},{"user_id":68,"name":"level 7 firemancer","steam_id":76561198209571677,"connected_time":555000000000,"state":"active","ping":126},{"user_id":67,"name":"SkobeBeef","steam_id":76561198078638948,"connected_time":559000000000,"state":"active","ping":56},{"user_id":69,"name":"uzr","steam_id":76561198799343084,"connected_time":539000000000,"state":"active","ping":75}]},{"server_id":119,"name":"Uncletopia | Seattle | 2 | All Maps","name_short":"sea-2","host":"sea-1.us.uncletopia.com","port":27025,"enabled":true,"region":"us-west","cc":"us","latitude":47.608013,"longitude":-122.33517,"reserved":0,"last_update":"0001-01-01T00:00:00Z","name_a2s":"Uncletopia | Seattle | 2 | All Maps","protocol":17,"map":"cp_process_final","folder":"tf","game":"Team Fortress","app_id":440,"player_count":0,"max_players":24,"Bots":0,"server_type":"Dedicated","server_os":"Linux","password":true,"vac":true,"version":"7961495","steam_id":85568392924469998,"keywords":["cp","nocrits","nodmgspread","uncletopia"],"game_id":440,"stv_port":27026,"stv_name":"Uncletopia | Seattle | 2 | All Maps | STV","players":null},{"server_id":406,"name":"Uncletopia | Seattle | 3 | Stopwatch","name_short":"sea-3","host":"sea-1.us.uncletopia.com","port":27035,"enabled":true,"region":"us-west","cc":"us","latitude":47.608013,"longitude":-122.33517,"reserved":0,"last_update":"0001-01-01T00:00:00Z","name_a2s":"Uncletopia | Seattle | 3 | Stopwatch","protocol":17,"map":"pl_pier","folder":"tf","game":"Team Fortress","app_id":440,"player_count":0,"max_players":24,"Bots":0,"server_type":"Dedicated","server_os":"Linux","password":true,"vac":true,"version":"7961495","steam_id":85568392924515217,"keywords":["nocrits","nodmgspread","payload","uncletopia"],"game_id":440,"stv_port":27036,"stv_name":"Uncletopia | Seattle | 3 | Stopwatch | STV","players":null},{"server_id":17,"name":"Uncletopia | San Francisco | 1 | All Maps","name_short":"sfo-1","host":"sfo-1.us.uncletopia.com","port":27015,"enabled":true,"region":"us-west","cc":"us","latitude":37.77397,"longitude":-122.4313,"reserved":0,"last_update":"0001-01-01T00:00:00Z","name_a2s":"Uncletopia | San Francisco | 1 | All Maps","protocol":17,"map":"koth_cascade","folder":"tf","game":"Team Fortress","app_id":440,"player_count":0,"max_players":24,"Bots":0,"server_type":"Dedicated","server_os":"Linux","password":true,"vac":true,"version":"7961495","steam_id":85568392924469999,"keywords":["cp","nocrits","nodmgspread","uncletopia"],"game_id":440,"stv_port":27016,"stv_name":"Uncletopia | San Francisco | 1 | All Maps | STV","players":null},{"server_id":18,"name":"Uncletopia | San Francisco | 2 | All Maps","name_short":"sfo-2","host":"sfo-1.us.uncletopia.com","port":27025,"enabled":true,"region":"us-west","cc":"us","latitude":37.77397,"longitude":-122.4313,"reserved":0,"last_update":"0001-01-01T00:00:00Z","name_a2s":"Uncletopia | San Francisco | 2 | All Maps","protocol":17,"map":"pl_pier","folder":"tf","game":"Team Fortress","app_id":440,"player_count":24,"max_players":24,"Bots":0,"server_type":"Dedicated","server_os":"Linux","password":true,"vac":true,"version":"7961495","steam_id":85568392924470000,"keywords":["nocrits","nodmgspread","payload","uncletopia"],"game_id":440,"stv_port":27026,"stv_name":"Uncletopia | San Francisco | 2 | All Maps | STV","players":[{"user_id":112,"name":"Supersonic","steam_id":76561198042167127,"connected_time":2007000000000,"state":"active","ping":73},{"user_id":131,"name":"JOHN WICK","steam_id":76561198091877422,"connected_time":760000000000,"state":"active","ping":89},{"user_id":139,"name":"A Guy Named Sheev","steam_id":76561198253358368,"connected_time":363000000000,"state":"active","ping":112},{"user_id":111,"name":"Yokogaijin Jr.","steam_id":76561199124647094,"connected_time":2096000000000,"state":"active","ping":48},{"user_id":142,"name":"Eden","steam_id":76561198081284664,"connected_time":293000000000,"state":"active","ping":57},{"user_id":96,"name":"ronald_stackerusa55","steam_id":76561198150406851,"connected_time":3115000000000,"state":"active","ping":46},{"user_id":100,"name":"Nom Skirrett","steam_id":76561198014600788,"connected_time":2985000000000,"state":"active","ping":86},{"user_id":128,"name":"BlazedBunny","steam_id":76561198243610560,"connected_time":1152000000000,"state":"active","ping":85},{"user_id":86,"name":"Hovg9000","steam_id":76561199191556710,"connected_time":4137000000000,"state":"active","ping":95},{"user_id":110,"name":"Bobby Ray","steam_id":76561198044131188,"connected_time":2136000000000,"state":"active","ping":63},{"user_id":44,"name":"MORE BOUNCE TO THE OUNCE","steam_id":76561198243399336,"connected_time":6335000000000,"state":"active","ping":58},{"user_id":143,"name":"CALsHero09","steam_id":76561198155881095,"connected_time":273000000000,"state":"active","ping":83},{"user_id":123,"name":"professional twelve year old","steam_id":76561198858796870,"connected_time":1405000000000,"state":"active","ping":59},{"user_id":140,"name":"Reed the Flame Shadow","steam_id":76561198348354629,"connected_time":352000000000,"state":"active","ping":58},{"user_id":133,"name":"Rain","steam_id":76561198032318897,"connected_time":687000000000,"state":"active","ping":73},{"user_id":84,"name":"noceof","steam_id":76561198043656816,"connected_time":4181000000000,"state":"active","ping":159},{"user_id":118,"name":"Chinook#savetf2","steam_id":76561198108374034,"connected_time":1845000000000,"state":"active","ping":115},{"user_id":144,"name":"Thequirka","steam_id":76561198968058652,"connected_time":225000000000,"state":"active","ping":71},{"user_id":50,"name":"drank baby","steam_id":76561199483723843,"connected_time":6165000000000,"state":"active","ping":62},{"user_id":109,"name":"Keamy","steam_id":76561199471434875,"connected_time":2435000000000,"state":"active","ping":60},{"user_id":106,"name":"Satori Komeiji","steam_id":76561198158211423,"connected_time":2575000000000,"state":"active","ping":58},{"user_id":134,"name":"jello_hey","steam_id":76561199176327650,"connected_time":665000000000,"state":"active","ping":105},{"user_id":130,"name":"johnny","steam_id":76561198050225055,"connected_time":1086000000000,"state":"active","ping":60},{"user_id":92,"name":"Chimp Peen's Revunge","steam_id":76561198165778514,"connected_time":3429000000000,"state":"active","ping":86}]},{"server_id":19,"name":"Uncletopia | San Francisco | 3 | Stopwatch","name_short":"sfo-3","host":"sfo-1.us.uncletopia.com","port":27035,"enabled":true,"region":"us-west","cc":"us","latitude":37.77397,"longitude":-122.4313,"reserved":0,"last_update":"0001-01-01T00:00:00Z","name_a2s":"Uncletopia | San Francisco | 3 | Stopwatch","protocol":17,"map":"pl_pier","folder":"tf","game":"Team Fortress","app_id":440,"player_count":0,"max_players":24,"Bots":0,"server_type":"Dedicated","server_os":"Linux","password":true,"vac":true,"version":"7961495","steam_id":85568392924742824,"keywords":["nocrits","nodmgspread","payload","uncletopia"],"game_id":440,"stv_port":27036,"stv_name":"Uncletopia | San Francisco | 3 | Stopwatch | STV","players":null},{"server_id":20,"name":"Uncletopia | San Francisco | 4 | Community","name_short":"sfo-4","host":"sfo-1.us.uncletopia.com","port":27045,"enabled":true,"region":"us-west","cc":"us","latitude":37.77397,"longitude":-122.4313,"reserved":0,"last_update":"0001-01-01T00:00:00Z","name_a2s":"Uncletopia | San Francisco | 4 | Community","protocol":17,"map":"pl_pier","folder":"tf","game":"Team Fortress","app_id":440,"player_count":0,"max_players":24,"Bots":0,"server_type":"Dedicated","server_os":"Linux","password":true,"vac":true,"version":"7961495","steam_id":85568392924742826,"keywords":["nocrits","nodmgspread","payload","uncletopia"],"game_id":440,"stv_port":27046,"stv_name":"Uncletopia | San Francisco | 4 | Community | STV","players":null},{"server_id":141,"name":"Uncletopia | Sydney | 1 | All Maps","name_short":"syd-1","host":"syd-1.au.uncletopia.com","port":27015,"enabled":true,"region":"au","cc":"au","latitude":-33.865143,"longitude":151.2099,"reserved":0,"last_update":"0001-01-01T00:00:00Z","name_a2s":"Uncletopia | Sydney | 1 | All Maps","protocol":17,"map":"koth_viaduct","folder":"tf","game":"Team Fortress","app_id":440,"player_count":0,"max_players":24,"Bots":0,"server_type":"Dedicated","server_os":"Linux","password":true,"vac":true,"version":"7961495","steam_id":85568392924470001,"keywords":["cp","nocrits","nodmgspread","uncletopia"],"game_id":440,"stv_port":27016,"stv_name":"Uncletopia | Sydney | 1 | All Maps | STV","players":null},{"server_id":123,"name":"Uncletopia | Sydney | 2 | All Maps","name_short":"syd-2","host":"syd-1.au.uncletopia.com","port":27025,"enabled":true,"region":"au","cc":"au","latitude":-33.865143,"longitude":151.2099,"reserved":0,"last_update":"0001-01-01T00:00:00Z","name_a2s":"Uncletopia | Sydney | 2 | All Maps","protocol":17,"map":"koth_lakeside_final","folder":"tf","game":"Team Fortress","app_id":440,"player_count":0,"max_players":24,"Bots":0,"server_type":"Dedicated","server_os":"Linux","password":true,"vac":true,"version":"7961495","steam_id":85568392924470002,"keywords":["cp","nocrits","nodmgspread","uncletopia"],"game_id":440,"stv_port":27026,"stv_name":"Uncletopia | Sydney | 2 | All Maps | STV","players":null},{"server_id":395,"name":"Uncletopia | Sydney | 3 | All Maps","name_short":"syd-3","host":"syd-1.au.uncletopia.com","port":27035,"enabled":true,"region":"au","cc":"au","latitude":-33.865143,"longitude":151.2099,"reserved":0,"last_update":"0001-01-01T00:00:00Z","name_a2s":"Uncletopia | Sydney | 3 | All Maps","protocol":17,"map":"pl_frontier_final","folder":"tf","game":"Team Fortress","app_id":440,"player_count":0,"max_players":24,"Bots":0,"server_type":"Dedicated","server_os":"Linux","password":true,"vac":true,"version":"7961495","steam_id":85568392925194467,"keywords":["nocrits","nodmgspread","payload","uncletopia"],"game_id":440,"stv_port":27036,"stv_name":"Uncletopia | Sydney | 3 | All Maps | STV","players":null},{"server_id":396,"name":"Uncletopia | Sydney | 4 | All Maps","name_short":"syd-4","host":"syd-1.au.uncletopia.com","port":27045,"enabled":true,"region":"au","cc":"au","latitude":-33.865143,"longitude":151.2099,"reserved":0,"last_update":"0001-01-01T00:00:00Z","name_a2s":"Uncletopia | Sydney | 4 | All Maps","protocol":17,"map":"cp_process_final","folder":"tf","game":"Team Fortress","app_id":440,"player_count":0,"max_players":24,"Bots":0,"server_type":"Dedicated","server_os":"Linux","password":true,"vac":true,"version":"7961495","steam_id":85568392925397958,"keywords":["cp","nocrits","nodmgspread","uncletopia"],"game_id":440,"stv_port":27046,"stv_name":"Uncletopia | Sydney | 4 | All Maps | STV","players":null},{"server_id":58,"name":"Uncletopia | Sydney | 5 | Stopwatch","name_short":"syd-5","host":"syd-1.au.uncletopia.com","port":27055,"enabled":true,"region":"au","cc":"au","latitude":-33.865143,"longitude":151.2099,"reserved":0,"last_update":"0001-01-01T00:00:00Z","name_a2s":"Uncletopia | Sydney | 5 | Stopwatch","protocol":17,"map":"pl_frontier_final","folder":"tf","game":"Team Fortress","app_id":440,"player_count":0,"max_players":24,"Bots":0,"server_type":"Dedicated","server_os":"Linux","password":true,"vac":true,"version":"7961495","steam_id":85568392925397959,"keywords":["nocrits","nodmgspread","payload","uncletopia"],"game_id":440,"stv_port":27056,"stv_name":"Uncletopia | Sydney | 5 | Stopwatch | STV","players":null},{"server_id":59,"name":"Uncletopia | Sydney | 6 | Community","name_short":"syd-6","host":"syd-1.au.uncletopia.com","port":27065,"enabled":true,"region":"au","cc":"au","latitude":-33.865143,"longitude":151.2099,"reserved":0,"last_update":"0001-01-01T00:00:00Z","name_a2s":"Uncletopia | Sydney | 6 | Community","protocol":17,"map":"cp_sunshine","folder":"tf","game":"Team Fortress","app_id":440,"player_count":0,"max_players":24,"Bots":0,"server_type":"Dedicated","server_os":"Linux","password":true,"vac":true,"version":"7961495","steam_id":85568392925397960,"keywords":["cp","nocrits","nodmgspread","uncletopia"],"game_id":440,"stv_port":27066,"stv_name":"Uncletopia | Sydney | 6 | Community | STV","players":null},{"server_id":49,"name":"Uncletopia | Warsaw | 1 | One Thousand Uncles","name_short":"waw-1","host":"waw-1.pl.uncletopia.com","port":27015,"enabled":true,"region":"eu","cc":"pl","latitude":52.2297,"longitude":21.017532,"reserved":0,"last_update":"0001-01-01T00:00:00Z","name_a2s":"Uncletopia | Warsaw | 1 | One Thousand Uncles","protocol":17,"map":"pl_badwater","folder":"tf","game":"Team Fortress","app_id":440,"player_count":29,"max_players":32,"Bots":16,"server_type":"Dedicated","server_os":"Linux","password":true,"vac":true,"version":"7961495","steam_id":85568392925397850,"keywords":["alltalk","bots","danepve","increased_maxplayers","nocrits","norespawntime","payload","uncletopia"],"game_id":440,"stv_port":0,"stv_name":"","players":[{"user_id":564,"name":"[Mann Co]Puzzle Games","steam_id":76561198022078318,"connected_time":4669000000000,"state":"active","ping":73},{"user_id":595,"name":"5UP3R TH30 B4G","steam_id":76561198852348375,"connected_time":2545000000000,"state":"active","ping":63},{"user_id":588,"name":"KipxSateee","steam_id":76561198149158137,"connected_time":3325000000000,"state":"active","ping":66},{"user_id":599,"name":"AftiksPL","steam_id":76561198875182686,"connected_time":2199000000000,"state":"active","ping":48},{"user_id":592,"name":"Mr. Master","steam_id":76561199198569317,"connected_time":3009000000000,"state":"active","ping":74},{"user_id":600,"name":"MetalSight","steam_id":76561198257781711,"connected_time":2145000000000,"state":"active","ping":49},{"user_id":635,"name":"demo flower","steam_id":76561199401272759,"connected_time":246000000000,"state":"active","ping":74},{"user_id":602,"name":"Valoxi","steam_id":76561197995042938,"connected_time":1837000000000,"state":"active","ping":70},{"user_id":622,"name":"Kotlet schabowy","steam_id":76561198048983509,"connected_time":1493000000000,"state":"active","ping":43},{"user_id":451,"name":"the baddest boy in btd5","steam_id":76561199487914508,"connected_time":10714000000000,"state":"active","ping":47},{"user_id":627,"name":"Bartis","steam_id":76561198119512221,"connected_time":961000000000,"state":"active","ping":71},{"user_id":637,"name":"mushro0","steam_id":76561198999393173,"connected_time":135000000000,"state":"active","ping":146},{"user_id":633,"name":"Womanticore","steam_id":76561199235582031,"connected_time":418000000000,"state":"active","ping":257}]},{"server_id":50,"name":"Uncletopia | Warsaw | 2 | One Thousand Uncles","name_short":"waw-2","host":"waw-1.pl.uncletopia.com","port":27025,"enabled":true,"region":"eu","cc":"pl","latitude":52.2297,"longitude":21.017532,"reserved":0,"last_update":"0001-01-01T00:00:00Z","name_a2s":"Uncletopia | Warsaw | 2 | One Thousand Uncles","protocol":17,"map":"pl_thundermountain","folder":"tf","game":"Team Fortress","app_id":440,"player_count":22,"max_players":32,"Bots":16,"server_type":"Dedicated","server_os":"Linux","password":true,"vac":true,"version":"7961495","steam_id":85568392925397851,"keywords":["alltalk","bots","danepve","increased_maxplayers","nocrits","norespawntime","payload","uncletopia"],"game_id":440,"stv_port":0,"stv_name":"","players":[{"user_id":330,"name":"jackthegreenlade","steam_id":76561199468264132,"connected_time":1266000000000,"state":"active","ping":80},{"user_id":347,"name":"KaruBiznjek","steam_id":76561198043898118,"connected_time":1241000000000,"state":"active","ping":81},{"user_id":352,"name":"veceneri_panda","steam_id":76561199277502955,"connected_time":272000000000,"state":"active","ping":127},{"user_id":350,"name":"Sir Kiops","steam_id":76561198022769275,"connected_time":561000000000,"state":"active","ping":103},{"user_id":351,"name":"The Troglodyte","steam_id":76561199119744358,"connected_time":339000000000,"state":"active","ping":70},{"user_id":353,"name":"Piquesque","steam_id":76561198286763046,"connected_time":160000000000,"state":"active","ping":117}]},{"server_id":51,"name":"Uncletopia | Warsaw | 3 | All Maps","name_short":"waw-3","host":"waw-1.pl.uncletopia.com","port":27035,"enabled":true,"region":"eu","cc":"pl","latitude":52.2297,"longitude":21.017532,"reserved":0,"last_update":"0001-01-01T00:00:00Z","name_a2s":"Uncletopia | Warsaw | 3 | All Maps","protocol":17,"map":"pl_swiftwater_final1","folder":"tf","game":"Team Fortress","app_id":440,"player_count":0,"max_players":24,"Bots":0,"server_type":"Dedicated","server_os":"Linux","password":true,"vac":true,"version":"7961495","steam_id":85568392925397852,"keywords":["nocrits","nodmgspread","payload","uncletopia"],"game_id":440,"stv_port":27036,"stv_name":"Uncletopia | Warsaw | 3 | All Maps | STV","players":null},{"server_id":52,"name":"Uncletopia | Warsaw | 4 | All Maps","name_short":"waw-4","host":"waw-1.pl.uncletopia.com","port":27045,"enabled":true,"region":"eu","cc":"pl","latitude":52.2297,"longitude":21.017532,"reserved":0,"last_update":"0001-01-01T00:00:00Z","name_a2s":"Uncletopia | Warsaw | 4 | All Maps","protocol":17,"map":"koth_cascade","folder":"tf","game":"Team Fortress","app_id":440,"player_count":0,"max_players":24,"Bots":0,"server_type":"Dedicated","server_os":"Linux","password":true,"vac":true,"version":"7961495","steam_id":85568392925397853,"keywords":["cp","nocrits","nodmgspread","uncletopia"],"game_id":440,"stv_port":27046,"stv_name":"Uncletopia | Warsaw | 4 | All Maps | STV","players":null},{"server_id":53,"name":"Uncletopia | Warsaw | 5 | Stopwatch","name_short":"waw-5","host":"waw-1.pl.uncletopia.com","port":27055,"enabled":true,"region":"eu","cc":"pl","latitude":52.2297,"longitude":21.017532,"reserved":0,"last_update":"0001-01-01T00:00:00Z","name_a2s":"Uncletopia | Warsaw | 5 | Stopwatch","protocol":17,"map":"pl_swiftwater_final1","folder":"tf","game":"Team Fortress","app_id":440,"player_count":24,"max_players":24,"Bots":0,"server_type":"Dedicated","server_os":"Linux","password":true,"vac":true,"version":"7961495","steam_id":85568392925397854,"keywords":["nocrits","nodmgspread","payload","uncletopia"],"game_id":440,"stv_port":27056,"stv_name":"Uncletopia | Warsaw | 5 | Stopwatch | STV","players":[{"user_id":88,"name":"DudeoftheRock","steam_id":76561198059401865,"connected_time":2831000000000,"state":"active","ping":81},{"user_id":105,"name":"Evisnodim","steam_id":76561198210616983,"connected_time":2041000000000,"state":"active","ping":113},{"user_id":95,"name":"totalynotToast","steam_id":76561198384625892,"connected_time":2622000000000,"state":"active","ping":50},{"user_id":122,"name":"Uncle Stan","steam_id":76561198102848849,"connected_time":1113000000000,"state":"active","ping":69},{"user_id":120,"name":"Vi100 Dol7","steam_id":76561198118137461,"connected_time":1493000000000,"state":"active","ping":88},{"user_id":128,"name":"Doomcraft282","steam_id":76561198380330197,"connected_time":685000000000,"state":"active","ping":53},{"user_id":91,"name":"LǘcКγ کŦriкξ","steam_id":76561198057723275,"connected_time":2763000000000,"state":"active","ping":73},{"user_id":119,"name":"CurlyPaty - [YouTube]","steam_id":76561198125025171,"connected_time":1531000000000,"state":"active","ping":30},{"user_id":129,"name":"Watcher_Vib","steam_id":76561198120462727,"connected_time":555000000000,"state":"active","ping":60},{"user_id":133,"name":"FloridaMan","steam_id":76561199220767924,"connected_time":173000000000,"state":"active","ping":172},{"user_id":92,"name":"Dragon Gaming TF2","steam_id":76561198083299674,"connected_time":2737000000000,"state":"active","ping":101},{"user_id":86,"name":"Spinya","steam_id":76561198086653667,"connected_time":2879000000000,"state":"active","ping":80},{"user_id":24,"name":"Redsy","steam_id":76561198360088412,"connected_time":5086000000000,"state":"active","ping":117},{"user_id":111,"name":"Lyxfex","steam_id":76561198050166082,"connected_time":1845000000000,"state":"active","ping":156},{"user_id":130,"name":"angelosnik","steam_id":76561198063053942,"connected_time":501000000000,"state":"active","ping":117},{"user_id":131,"name":"[ahoy-polka]","steam_id":76561199063624073,"connected_time":471000000000,"state":"active","ping":69},{"user_id":134,"name":"tiamat","steam_id":76561198116027948,"connected_time":105000000000,"state":"active","ping":54},{"user_id":112,"name":"KUPOOOO","steam_id":76561198088963031,"connected_time":1823000000000,"state":"active","ping":90},{"user_id":124,"name":"FoxKyo","steam_id":76561198038651735,"connected_time":1014000000000,"state":"active","ping":170},{"user_id":100,"name":"bluvajs","steam_id":76561198935573279,"connected_time":2425000000000,"state":"active","ping":47},{"user_id":113,"name":"Ankmar le Touffu","steam_id":76561198169381436,"connected_time":1814000000000,"state":"active","ping":70},{"user_id":132,"name":"Doobloon","steam_id":76561199354240457,"connected_time":258000000000,"state":"active","ping":84},{"user_id":114,"name":"Pepeville","steam_id":76561198085869941,"connected_time":1766000000000,"state":"active","ping":86},{"user_id":115,"name":"ShadowTwin","steam_id":76561198046658200,"connected_time":1764000000000,"state":"active","ping":89}]},{"server_id":54,"name":"Uncletopia | Warsaw | 6 | Community","name_short":"waw-6","host":"waw-1.pl.uncletopia.com","port":27065,"enabled":true,"region":"eu","cc":"pl","latitude":52.2297,"longitude":21.017532,"reserved":0,"last_update":"0001-01-01T00:00:00Z","name_a2s":"Uncletopia | Warsaw | 6 | Community","protocol":17,"map":"workshop/cp_indulge.ugc528106646","folder":"tf","game":"Team Fortress","app_id":440,"player_count":0,"max_players":24,"Bots":0,"server_type":"Dedicated","server_os":"Linux","password":true,"vac":true,"version":"7961495","steam_id":85568392925397856,"keywords":["cp","nocrits","nodmgspread","uncletopia"],"game_id":440,"stv_port":27066,"stv_name":"Uncletopia | Warsaw | 6 | Community | STV","players":null}]}