{"status":true,"message":"","result":[{"server_id":9,"name":"Uncletopia | Atlanta | 1 | All Maps","name_short":"atl-1","host":"atl-1.us.uncletopia.com","port":27015,"enabled":true,"region":"us-east","cc":"us","latitude":33.753746,"longitude":-84.38633,"reserved":0,"last_update":"0001-01-01T00:00:00Z","name_a2s":"Uncletopia | Atlanta | 1 | All Maps","protocol":17,"map":"koth_nucleus","folder":"tf","game":"Team Fortress","app_id":440,"player_count":24,"max_players":24,"Bots":0,"server_type":"Dedicated","server_os":"Linux","password":true,"vac":true,"version":"7695204","steam_id":85568392924469982,"keywords":["cp","nocrits","nodmgspread","uncletopia"],"game_id":440,"stv_port":27016,"stv_name":"Uncletopia | Atlanta | 1 | All Maps | STV","players":[{"user_id":456,"name":"ATL1 | eish","steam_id":76561198089463603,"connected_time":1832000000000,"state":"active","ping":100},{"user_id":433,"name":"Avo","steam_id":76561197993340494,"connected_time":6131000000000,"state":"active","ping":59},{"user_id":437,"name":"ATL1 | Vee (very jolly and cool","steam_id":76561198330432889,"connected_time":5943000000000,"state":"active","ping":57},{"user_id":459,"name":"IZISOO","steam_id":76561198970380577,"connected_time":1799000000000,"state":"active","ping":62},{"user_id":430,"name":"com lag","steam_id":76561198019019392,"connected_time":6218000000000,"state":"active","ping":62},{"user_id":457,"name":"stink","steam_id":76561198099318923,"connected_time":1824000000000,"state":"active","ping":85},{"user_id":471,"name":"FemboyNate","steam_id":76561198146636410,"connected_time":384000000000,"state":"active","ping":52},{"user_id":468,"name":"--_Cook_--","steam_id":76561198080855748,"connected_time":739000000000,"state":"active","ping":53},{"user_id":453,"name":"♥ Ranman ♥","steam_id":76561198042144492,"connected_time":2523000000000,"state":"active","ping":40},{"user_id":473,"name":"im mean","steam_id":76561199209403512,"connected_time":30000000000,"state":"spawning","ping":50},{"user_id":450,"name":"Save your wifi","steam_id":76561198286147372,"connected_time":4529000000000,"state":"active","ping":50},{"user_id":461,"name":"Zhong Xina 钟新娜","steam_id":76561198044022060,"connected_time":1750000000000,"state":"active","ping":54},{"user_id":465,"name":"Smoky","steam_id":76561198418262145,"connected_time":1385000000000,"state":"active","ping":96},{"user_id":442,"name":"Intro Bonito","steam_id":76561198119478838,"connected_time":5191000000000,"state":"active","ping":56},{"user_id":439,"name":"basil","steam_id":76561198075758026,"connected_time":5859000000000,"state":"active","ping":79},{"user_id":405,"name":"ATL1 | Psionic Present","steam_id":76561198151019322,"connected_time":8035000000000,"state":"active","ping":70},{"user_id":440,"name":"cola","steam_id":76561198374390458,"connected_time":5800000000000,"state":"active","ping":53},{"user_id":420,"name":"p_picklelol","steam_id":76561198129434533,"connected_time":7269000000000,"state":"active","ping":63},{"user_id":472,"name":"KillerGodzilla","steam_id":76561198049361161,"connected_time":202000000000,"state":"active","ping":75},{"user_id":416,"name":"☙ Corrupt ❧","steam_id":76561197977631915,"connected_time":7452000000000,"state":"active","ping":46},{"user_id":470,"name":"Tannenbaum Trotsky","steam_id":76561199101638460,"connected_time":681000000000,"state":"active","ping":87},{"user_id":441,"name":"merry mommy","steam_id":76561199230929836,"connected_time":5629000000000,"state":"active","ping":86},{"user_id":454,"name":"luxin","steam_id":76561198399383047,"connected_time":2121000000000,"state":"active","ping":51},{"user_id":422,"name":"DingDongAnalog","steam_id":76561198850181994,"connected_time":7148000000000,"state":"active","ping":105}]},{"server_id":400,"name":"Uncletopia | Atlanta | 3 | All Maps","name_short":"atl-3","host":"atl-1.us.uncletopia.com","port":27035,"enabled":true,"region":"us-east","cc":"us","latitude":33.753746,"longitude":-84.38633,"reserved":0,"last_update":"0001-01-01T00:00:00Z","name_a2s":"Uncletopia | Atlanta | 3 | All Maps","protocol":17,"map":"cp_dustbowl","folder":"tf","game":"Team Fortress","app_id":440,"player_count":0,"max_players":24,"Bots":0,"server_type":"Dedicated","server_os":"Linux","password":true,"vac":true,"version":"7695204","steam_id":85568392924515187,"keywords":["cp","nocrits","nodmgspread","uncletopia"],"game_id":440,"stv_port":27036,"stv_name":"Uncletopia | Atlanta | 3 | All Maps | STV","players":null},{"server_id":401,"name":"Uncletopia | Atlanta | 4 | No Payload","name_short":"atl-4","host":"atl-1.us.uncletopia.com","port":27045,"enabled":true,"region":"us-east","cc":"us","latitude":33.753746,"longitude":-84.38633,"reserved":0,"last_update":"0001-01-01T00:00:00Z","name_a2s":"Uncletopia | Atlanta | 4 | No Payload","protocol":17,"map":"koth_sawmill","folder":"tf","game":"Team Fortress","app_id":440,"player_count":0,"max_players":24,"Bots":0,"server_type":"Dedicated","server_os":"Linux","password":true,"vac":true,"version":"7695204","steam_id":85568392924515188,"keywords":["cp","nocrits","nodmgspread","uncletopia"],"game_id":440,"stv_port":27046,"stv_name":"Uncletopia | Atlanta | 4 | No Payload | STV","players":null},{"server_id":2,"name":"Uncletopia | Chicago | 1 | All Maps","name_short":"chi-1","host":"chi-1.us.uncletopia.com","port":27015,"enabled":true,"region":"us-central","cc":"us","latitude":41.881832,"longitude":-87.62318,"reserved":0,"last_update":"0001-01-01T00:00:00Z","name_a2s":"Uncletopia | Chicago | 1 | All Maps","protocol":17,"map":"koth_lakeside_final","folder":"tf","game":"Team Fortress","app_id":440,"player_count":23,"max_players":24,"Bots":0,"server_type":"Dedicated","server_os":"Linux","password":true,"vac":true,"version":"7695204","steam_id":85568392924469984,"keywords":["cp","nocrits","nodmgspread","uncletopia"],"game_id":440,"stv_port":27016,"stv_name":"Uncletopia | Chicago | 1 | All Maps | STV","players":[{"user_id":508,"name":"Mythical Lag","steam_id":76561198347031281,"connected_time":8212000000000,"state":"active","ping":69},{"user_id":589,"name":"FigBaguette","steam_id":76561198076596803,"connected_time":1123000000000,"state":"active","ping":105},{"user_id":517,"name":"ÒwÓ","steam_id":76561197997304387,"connected_time":6645000000000,"state":"active","ping":74},{"user_id":465,"name":"Ben Shapiro Gaming","steam_id":76561198113651011,"connected_time":10230000000000,"state":"active","ping":60},{"user_id":590,"name":"Major Woody","steam_id":76561198835541533,"connected_time":1104000000000,"state":"active","ping":73},{"user_id":605,"name":"MazapanCabon28","steam_id":76561199243339919,"connected_time":39000000000,"state":"active","ping":109},{"user_id":585,"name":"yitz","steam_id":76561198375575841,"connected_time":2719000000000,"state":"active","ping":55},{"user_id":606,"name":"Mitchu The Bidness Man","steam_id":76561198102494381,"connected_time":39000000000,"state":"active","ping":60},{"user_id":591,"name":"Sarah Tonin","steam_id":76561198263707757,"connected_time":1102000000000,"state":"active","ping":60},{"user_id":592,"name":"M249 | Spectre","steam_id":76561198118334485,"connected_time":1019000000000,"state":"active","ping":58},{"user_id":536,"name":"Legion","steam_id":76561199036242643,"connected_time":6028000000000,"state":"active","ping":63},{"user_id":602,"name":"Off Brand Articuno","steam_id":76561198085888959,"connected_time":254000000000,"state":"active","ping":55},{"user_id":595,"name":"nayhoo","steam_id":76561198047813960,"connected_time":995000000000,"state":"active","ping":80},{"user_id":603,"name":"BOT Bot","steam_id":76561197995225620,"connected_time":226000000000,"state":"active","ping":69},{"user_id":578,"name":"im not drunk","steam_id":76561198025723087,"connected_time":3074000000000,"state":"active","ping":75},{"user_id":555,"name":"09robcraft2","steam_id":76561199073189184,"connected_time":4669000000000,"state":"active","ping":88},{"user_id":538,"name":"Noodlebox","steam_id":76561197993846770,"connected_time":5879000000000,"state":"active","ping":94},{"user_id":558,"name":"lyra","steam_id":76561198200002859,"connected_time":4572000000000,"state":"active","ping":60},{"user_id":604,"name":"statistic","steam_id":76561198095111680,"connected_time":172000000000,"state":"active","ping":66},{"user_id":597,"name":"rlty","steam_id":76561198009395055,"connected_time":934000000000,"state":"active","ping":63},{"user_id":579,"name":"valky","steam_id":76561198046033522,"connected_time":3065000000000,"state":"active","ping":90},{"user_id":600,"name":"Ironwatsas","steam_id":76561197976805685,"connected_time":773000000000,"state":"active","ping":63},{"user_id":608,"name":"DSM-IVCE","steam_id":76561199438515797,"connected_time":4000000000,"state":"spawning","ping":126}]},{"server_id":106,"name":"Uncletopia | Chicago | 2 | All Maps","name_short":"chi-2","host":"chi-1.us.uncletopia.com","port":27025,"enabled":true,"region":"us-central","cc":"us","latitude":41.881832,"longitude":-87.62318,"reserved":0,"last_update":"0001-01-01T00:00:00Z","name_a2s":"Uncletopia | Chicago | 2 | All Maps","protocol":17,"map":"ctf_turbine","folder":"tf","game":"Team Fortress","app_id":440,"player_count":16,"max_players":24,"Bots":0,"server_type":"Dedicated","server_os":"Linux","password":true,"vac":true,"version":"7695204","steam_id":85568392924469985,"keywords":["ctf","nocrits","nodmgspread","uncletopia"],"game_id":440,"stv_port":27026,"stv_name":"Uncletopia | Chicago | 2 | All Maps | STV","players":[{"user_id":524,"name":"gyozaking","steam_id":76561197972312696,"connected_time":1127000000000,"state":"active","ping":40},{"user_id":532,"name":"Souper Scott","steam_id":76561198045518926,"connected_time":322000000000,"state":"active","ping":50},{"user_id":535,"name":"the \"good\" guy (f2p)","steam_id":76561199198571528,"connected_time":175000000000,"state":"active","ping":247},{"user_id":529,"name":"manz","steam_id":76561198059065906,"connected_time":820000000000,"state":"active","ping":59},{"user_id":516,"name":"disser","steam_id":76561198344531355,"connected_time":1633000000000,"state":"active","ping":81},{"user_id":534,"name":"irishladd778","steam_id":76561199281709499,"connected_time":196000000000,"state":"active","ping":84},{"user_id":528,"name":"Clouudy","steam_id":76561198272978882,"connected_time":1016000000000,"state":"active","ping":59},{"user_id":415,"name":"Lomba","steam_id":76561198136329102,"connected_time":7847000000000,"state":"active","ping":70},{"user_id":537,"name":"Sharkron","steam_id":76561198264401076,"connected_time":72000000000,"state":"active","ping":92},{"user_id":476,"name":"Domino Jones","steam_id":76561198202195792,"connected_time":3767000000000,"state":"active","ping":53},{"user_id":512,"name":"superbad","steam_id":76561198065913973,"connected_time":1766000000000,"state":"active","ping":105},{"user_id":416,"name":"taky0n","steam_id":76561198103759716,"connected_time":7847000000000,"state":"active","ping":63},{"user_id":437,"name":"Grimm","steam_id":76561198355935693,"connected_time":5839000000000,"state":"active","ping":44},{"user_id":500,"name":"Sunmist","steam_id":76561198027784824,"connected_time":2820000000000,"state":"active","ping":75},{"user_id":531,"name":"The Sand Doctor","steam_id":76561199166176718,"connected_time":674000000000,"state":"active","ping":109},{"user_id":514,"name":"bubby chungas","steam_id":76561198151652135,"connected_time":1748000000000,"state":"active","ping":81}]},{"server_id":402,"name":"Uncletopia | Chicago | 3 | All Maps","name_short":"chi-3","host":"chi-1.us.uncletopia.com","port":27035,"enabled":true,"region":"us-central","cc":"us","latitude":41.881832,"longitude":-87.62318,"reserved":0,"last_update":"0001-01-01T00:00:00Z","name_a2s":"Uncletopia | Chicago | 3 | All Maps","protocol":17,"map":"pl_upward","folder":"tf","game":"Team Fortress","app_id":440,"player_count":22,"max_players":24,"Bots":0,"server_type":"Dedicated","server_os":"Linux","password":true,"vac":true,"version":"7695204","steam_id":85568392924515191,"keywords":["nocrits","nodmgspread","payload","uncletopia"],"game_id":440,"stv_port":27036,"stv_name":"Uncletopia | Chicago | 3 | All Maps | STV","players":[{"user_id":382,"name":"slayy","steam_id":76561197994492154,"connected_time":1037000000000,"state":"active","ping":161},{"user_id":383,"name":"Muffin","steam_id":76561198050715053,"connected_time":987000000000,"state":"active","ping":73},{"user_id":365,"name":"Plate","steam_id":76561198013720285,"connected_time":4039000000000,"state":"active","ping":61},{"user_id":358,"name":"Bowl","steam_id":76561198133931159,"connected_time":4956000000000,"state":"active","ping":54},{"user_id":387,"name":"Psychromaniac","steam_id":76561198012215214,"connected_time":821000000000,"state":"active","ping":96},{"user_id":385,"name":"feed me cheeseburgers","steam_id":76561198325980914,"connected_time":956000000000,"state":"active","ping":77},{"user_id":386,"name":"tears","steam_id":76561199108860327,"connected_time":904000000000,"state":"active","ping":63},{"user_id":393,"name":"Abysl","steam_id":76561198991216341,"connected_time":276000000000,"state":"active","ping":73},{"user_id":388,"name":"chilis baby back ribs","steam_id":76561198813516435,"connected_time":708000000000,"state":"active","ping":96},{"user_id":395,"name":"Crazy Hamburger","steam_id":76561198023395301,"connected_time":28000000000,"state":"active","ping":93},{"user_id":374,"name":"scooterre","steam_id":76561198055068182,"connected_time":2441000000000,"state":"active","ping":50},{"user_id":372,"name":"TriM","steam_id":76561198048332533,"connected_time":2971000000000,"state":"active","ping":51},{"user_id":396,"name":"Rurigade Towers","steam_id":76561198148598905,"connected_time":21000000000,"state":"active","ping":101},{"user_id":397,"name":"Fraglin","steam_id":76561198124964000,"connected_time":8000000000,"state":"spawning","ping":78},{"user_id":364,"name":"King Cotton","steam_id":76561198292444376,"connected_time":4162000000000,"state":"active","ping":72},{"user_id":376,"name":"Depresso Amber","steam_id":76561198074209737,"connected_time":2412000000000,"state":"active","ping":59},{"user_id":377,"name":"{FITH}™ Halcyon","steam_id":76561198049132808,"connected_time":2388000000000,"state":"active","ping":91},{"user_id":398,"name":"demon sin_k4rma","steam_id":76561198869287223,"connected_time":3000000000,"state":"spawning","ping":68},{"user_id":353,"name":"b2brawler","steam_id":76561198037174169,"connected_time":5626000000000,"state":"active","ping":34},{"user_id":354,"name":"BALL FART BARON","steam_id":76561198410061750,"connected_time":5616000000000,"state":"active","ping":51},{"user_id":380,"name":"p1ss","steam_id":76561198271748906,"connected_time":1789000000000,"state":"active","ping":56},{"user_id":379,"name":"México","steam_id":76561198238059280,"connected_time":2234000000000,"state":"active","ping":105}]},{"server_id":403,"name":"Uncletopia | Chicago | 4 | All Maps","name_short":"chi-4","host":"chi-1.us.uncletopia.com","port":27045,"enabled":true,"region":"us-central","cc":"us","latitude":41.881832,"longitude":-87.62318,"reserved":0,"last_update":"0001-01-01T00:00:00Z","name_a2s":"Uncletopia | Chicago | 4 | All Maps","protocol":17,"map":"cp_foundry","folder":"tf","game":"Team Fortress","app_id":440,"player_count":24,"max_players":24,"Bots":0,"server_type":"Dedicated","server_os":"Linux","password":true,"vac":true,"version":"7695204","steam_id":85568392924515193,"keywords":["cp","nocrits","nodmgspread","uncletopia"],"game_id":440,"stv_port":27046,"stv_name":"Uncletopia | Chicago | 4 | All Maps | STV","players":[{"user_id":498,"name":"STrong Bomber","steam_id":76561198805051139,"connected_time":91000000000,"state":"active","ping":322},{"user_id":387,"name":"Assilio","steam_id":76561198371102414,"connected_time":10406000000000,"state":"active","ping":74},{"user_id":480,"name":"Kzjytsugn","steam_id":76561198130241974,"connected_time":1034000000000,"state":"active","ping":80},{"user_id":451,"name":"mkwiiallpro","steam_id":76561198312645614,"connected_time":4220000000000,"state":"active","ping":60},{"user_id":449,"name":"atserc","steam_id":76561197997570349,"connected_time":4261000000000,"state":"active","ping":92},{"user_id":481,"name":"Smooby","steam_id":76561198066045106,"connected_time":613000000000,"state":"active","ping":68},{"user_id":477,"name":"SmileyTrashBoi","steam_id":76561199095976183,"connected_time":1463000000000,"state":"active","ping":73},{"user_id":484,"name":"hbmack","steam_id":76561199109097602,"connected_time":478000000000,"state":"active","ping":133},{"user_id":479,"name":"groond","steam_id":76561198309426720,"connected_time":1106000000000,"state":"active","ping":60},{"user_id":374,"name":"Horus","steam_id":76561198166215370,"connected_time":11447000000000,"state":"active","ping":101},{"user_id":457,"name":"_Lusty_","steam_id":76561198876948142,"connected_time":4029000000000,"state":"active","ping":65},{"user_id":483,"name":"Snort","steam_id":76561198352282908,"connected_time":574000000000,"state":"active","ping":57},{"user_id":491,"name":"chinomun","steam_id":76561198095813431,"connected_time":160000000000,"state":"active","ping":61},{"user_id":485,"name":"BigWhiteDelight","steam_id":76561198005301688,"connected_time":409000000000,"state":"active","ping":75},{"user_id":492,"name":"Mom","steam_id":76561198056001916,"connected_time":156000000000,"state":"active","ping":48},{"user_id":488,"name":"Kng","steam_id":76561198993248203,"connected_time":328000000000,"state":"active","ping":72},{"user_id":423,"name":"badass skeleten","steam_id":76561198198460711,"connected_time":7896000000000,"state":"active","ping":50},{"user_id":489,"name":"STAROID","steam_id":76561198069740897,"connected_time":289000000000,"state":"active","ping":69},{"user_id":424,"name":"Pierce","steam_id":76561198043747953,"connected_time":7865000000000,"state":"active","ping":60},{"user_id":490,"name":"Grease monkey","steam_id":76561199229169396,"connected_time":282000000000,"state":"active","ping":67},{"user_id":493,"name":"lilcheezymac","steam_id":76561198057570369,"connected_time":156000000000,"state":"active","ping":82},{"user_id":494,"name":"Tia","steam_id":76561198051245477,"connected_time":133000000000,"state":"active","ping":43},{"user_id":497,"name":"St. Michael","steam_id":76561198037611052,"connected_time":112000000000,"state":"active","ping":72},{"user_id":496,"name":"pissing golem","steam_id":76561198112520837,"connected_time":125000000000,"state":"active","ping":50}]},{"server_id":36,"name":"Uncletopia | Chicago | 5 | All Maps","name_short":"chi-5","host":"chi-2.us.uncletopia.com","port":27015,"enabled":true,"region":"us-central","cc":"us","latitude":41.881832,"longitude":-87.62318,"reserved":0,"last_update":"0001-01-01T00:00:00Z","name_a2s":"Uncletopia | Chicago | 5 | All Maps","protocol":17,"map":"pl_frontier_final","folder":"tf","game":"Team Fortress","app_id":440,"player_count":23,"max_players":24,"Bots":0,"server_type":"Dedicated","server_os":"Linux","password":true,"vac":true,"version":"7695204","steam_id":85568392924866362,"keywords":["nocrits","nodmgspread","payload","uncletopia"],"game_id":440,"stv_port":27016,"stv_name":"Uncletopia | Chicago | 5 | All Maps | STV","players":[{"user_id":436,"name":"Newt","steam_id":76561198842909288,"connected_time":2726000000000,"state":"active","ping":110},{"user_id":465,"name":"WalrusNyetheBonkGuy","steam_id":76561197995626774,"connected_time":247000000000,"state":"active","ping":111},{"user_id":414,"name":"Kevin Y.","steam_id":76561198364331423,"connected_time":3969000000000,"state":"active","ping":84},{"user_id":448,"name":"mayonnaise","steam_id":76561198120753890,"connected_time":1495000000000,"state":"active","ping":71},{"user_id":450,"name":"Kyaaaaa!!!","steam_id":76561198066384337,"connected_time":1370000000000,"state":"active","ping":58},{"user_id":458,"name":"Strange Child","steam_id":76561198082523009,"connected_time":797000000000,"state":"active","ping":63},{"user_id":461,"name":"lamadre07","steam_id":76561198067337453,"connected_time":507000000000,"state":"active","ping":90},{"user_id":462,"name":"VerSaKa","steam_id":76561198052392540,"connected_time":459000000000,"state":"active","ping":77},{"user_id":446,"name":"Family Guy Funny Moments","steam_id":76561198847752839,"connected_time":2054000000000,"state":"active","ping":105},{"user_id":452,"name":"Hopeless Egg","steam_id":76561199022530317,"connected_time":1308000000000,"state":"active","ping":71},{"user_id":466,"name":"Pandanator13","steam_id":76561199203491997,"connected_time":237000000000,"state":"active","ping":57},{"user_id":425,"name":"poobis-130 inbound","steam_id":76561198123287268,"connected_time":3305000000000,"state":"active","ping":45},{"user_id":460,"name":"Rockgraham101","steam_id":76561198171740458,"connected_time":657000000000,"state":"active","ping":74},{"user_id":467,"name":"trans gaming troll (she/her)","steam_id":76561198085410622,"connected_time":192000000000,"state":"active","ping":103},{"user_id":468,"name":"a crazy hobo","steam_id":76561198289650060,"connected_time":171000000000,"state":"active","ping":87},{"user_id":469,"name":"POWER IN MISERY","steam_id":76561198032008701,"connected_time":167000000000,"state":"active","ping":62},{"user_id":470,"name":"Sporp","steam_id":76561197987957133,"connected_time":137000000000,"state":"active","ping":87},{"user_id":442,"name":"RelativeToZero","steam_id":76561198175875733,"connected_time":2222000000000,"state":"active","ping":113},{"user_id":443,"name":"Murk Wahlberg","steam_id":76561198131467867,"connected_time":2218000000000,"state":"active","ping":90},{"user_id":382,"name":"Mischief of Rats","steam_id":76561198106307068,"connected_time":7150000000000,"state":"active","ping":51},{"user_id":454,"name":"Storm Of The North","steam_id":76561198077359548,"connected_time":1274000000000,"state":"active","ping":57},{"user_id":472,"name":"Lore","steam_id":76561198098407538,"connected_time":72000000000,"state":"active","ping":56},{"user_id":456,"name":"Pizza Party","steam_id":76561198165730754,"connected_time":1132000000000,"state":"active","ping":73}]},{"server_id":37,"name":"Uncletopia | Chicago | 6 | All Maps","name_short":"chi-6","host":"chi-2.us.uncletopia.com","port":27025,"enabled":true,"region":"us-central","cc":"us","latitude":41.881832,"longitude":-87.62318,"reserved":0,"last_update":"0001-01-01T00:00:00Z","name_a2s":"Uncletopia | Chicago | 6 | All Maps","protocol":17,"map":"pl_badwater","folder":"tf","game":"Team Fortress","app_id":440,"player_count":24,"max_players":24,"Bots":0,"server_type":"Dedicated","server_os":"Linux","password":true,"vac":true,"version":"7695204","steam_id":85568392924866363,"keywords":["nocrits","nodmgspread","payload","uncletopia"],"game_id":440,"stv_port":27026,"stv_name":"Uncletopia | Chicago | 6 | All Maps | STV","players":[{"user_id":219,"name":"AlecTheNecrophiliac","steam_id":76561198010019214,"connected_time":6385000000000,"state":"active","ping":44},{"user_id":231,"name":"lanoc","steam_id":76561198055415367,"connected_time":5297000000000,"state":"active","ping":61},{"user_id":287,"name":"java","steam_id":76561198030276792,"connected_time":1083000000000,"state":"active","ping":62},{"user_id":286,"name":"Mangoman","steam_id":76561198046624252,"connected_time":1128000000000,"state":"active","ping":105},{"user_id":291,"name":"Stressmelo","steam_id":76561199204445185,"connected_time":858000000000,"state":"active","ping":74},{"user_id":283,"name":"Moshi Man","steam_id":76561198038249762,"connected_time":1540000000000,"state":"active","ping":46},{"user_id":289,"name":"Dreadout5","steam_id":76561198090331903,"connected_time":1067000000000,"state":"active","ping":60},{"user_id":285,"name":"Rat","steam_id":76561198128926034,"connected_time":1229000000000,"state":"active","ping":75},{"user_id":220,"name":"AlecTheNefarious","steam_id":76561198035291230,"connected_time":6383000000000,"state":"active","ping":61},{"user_id":267,"name":"sithreis","steam_id":76561198000564263,"connected_time":3083000000000,"state":"active","ping":74},{"user_id":290,"name":"Branz","steam_id":76561198076632143,"connected_time":1027000000000,"state":"active","ping":81},{"user_id":272,"name":"Benjy52 | YT","steam_id":76561198055093844,"connected_time":2123000000000,"state":"active","ping":79},{"user_id":232,"name":"clio","steam_id":76561198141700569,"connected_time":5294000000000,"state":"active","ping":71},{"user_id":282,"name":"deg vegas","steam_id":76561199195205705,"connected_time":1602000000000,"state":"active","ping":80},{"user_id":280,"name":"Wukey","steam_id":76561197969001266,"connected_time":1892000000000,"state":"active","ping":59},{"user_id":284,"name":"macaroni zamboni","steam_id":76561198127149121,"connected_time":1500000000000,"state":"active","ping":83},{"user_id":244,"name":"BOATS","steam_id":76561198084018402,"connected_time":4387000000000,"state":"active","ping":57},{"user_id":295,"name":"Zack","steam_id":76561198308083836,"connected_time":119000000000,"state":"active","ping":81},{"user_id":268,"name":"Lemur","steam_id":76561198065300466,"connected_time":3058000000000,"state":"active","ping":74},{"user_id":296,"name":"supreme theymab swag","steam_id":76561198042085959,"connected_time":58000000000,"state":"active","ping":169},{"user_id":293,"name":"alure","steam_id":76561198273394754,"connected_time":685000000000,"state":"active","ping":60},{"user_id":279,"name":"mulch","steam_id":76561198067711979,"connected_time":1900000000000,"state":"active","ping":46},{"user_id":297,"name":"quacked!","steam_id":76561198970819395,"connected_time":1000000000,"state":"spawning","ping":59},{"user_id":263,"name":"Preston","steam_id":76561198059794321,"connected_time":4121000000000,"state":"active","ping":78}]},{"server_id":38,"name":"Uncletopia | Chicago | 7 | No Payload","name_short":"chi-7","host":"chi-2.us.uncletopia.com","port":27035,"enabled":true,"region":"us-central","cc":"us","latitude":41.881832,"longitude":-87.62318,"reserved":0,"last_update":"0001-01-01T00:00:00Z","name_a2s":"Uncletopia | Chicago | 7 | No Payload","protocol":17,"map":"cp_badlands","folder":"tf","game":"Team Fortress","app_id":440,"player_count":23,"max_players":24,"Bots":0,"server_type":"Dedicated","server_os":"Linux","password":true,"vac":true,"version":"7695204","steam_id":85568392924866364,"keywords":["cp","nocrits","nodmgspread","uncletopia"],"game_id":440,"stv_port":27036,"stv_name":"Uncletopia | Chicago | 7 | No Payload | STV","players":[{"user_id":153,"name":"TheBloodMoon","steam_id":76561198443717843,"connected_time":1455000000000,"state":"active","ping":63},{"user_id":144,"name":"pocastillo","steam_id":76561198145900131,"connected_time":2246000000000,"state":"active","ping":48},{"user_id":154,"name":"Alltrex","steam_id":76561198202254225,"connected_time":1436000000000,"state":"active","ping":90},{"user_id":71,"name":"TheAilingSword","steam_id":76561198250350844,"connected_time":8048000000000,"state":"active","ping":60},{"user_id":157,"name":"primordialheath","steam_id":76561199386942638,"connected_time":888000000000,"state":"active","ping":58},{"user_id":158,"name":"Alex Narex","steam_id":76561198814364412,"connected_time":812000000000,"state":"active","ping":109},{"user_id":156,"name":"Jorjor Wel","steam_id":76561198059689125,"connected_time":967000000000,"state":"active","ping":91},{"user_id":145,"name":"A used self heating flesh-light","steam_id":76561198069918221,"connected_time":2157000000000,"state":"active","ping":62},{"user_id":119,"name":"totally not a pile of beans","steam_id":76561198119851931,"connected_time":4212000000000,"state":"active","ping":69},{"user_id":159,"name":"DarkForce8","steam_id":76561198853892261,"connected_time":808000000000,"state":"active","ping":106},{"user_id":160,"name":"Gavilán","steam_id":76561198285212453,"connected_time":706000000000,"state":"active","ping":95},{"user_id":165,"name":"tkeati","steam_id":76561198056356574,"connected_time":296000000000,"state":"active","ping":90},{"user_id":162,"name":"Papa Squat","steam_id":76561198045011208,"connected_time":596000000000,"state":"active","ping":66},{"user_id":151,"name":"mago","steam_id":76561198880309324,"connected_time":1937000000000,"state":"active","ping":68},{"user_id":146,"name":"Colin102004","steam_id":76561198202384334,"connected_time":2148000000000,"state":"active","ping":48},{"user_id":163,"name":"druhnk on da weekend","steam_id":76561198039435603,"connected_time":574000000000,"state":"active","ping":68},{"user_id":147,"name":"Menachem","steam_id":76561198041226420,"connected_time":2133000000000,"state":"active","ping":48},{"user_id":73,"name":"Anarchy","steam_id":76561199062545363,"connected_time":7813000000000,"state":"active","ping":173},{"user_id":152,"name":"[ESS] Cinderace","steam_id":76561198132899671,"connected_time":1868000000000,"state":"active","ping":52},{"user_id":74,"name":"Retrowave","steam_id":76561198061921346,"connected_time":7801000000000,"state":"active","ping":60},{"user_id":155,"name":"Fachedin","steam_id":76561198041850415,"connected_time":1318000000000,"state":"active","ping":110},{"user_id":149,"name":"Elias","steam_id":76561198031295139,"connected_time":2047000000000,"state":"active","ping":91},{"user_id":166,"name":"EvenNine","steam_id":76561198207745293,"connected_time":11000000000,"state":"active","ping":139}]},{"server_id":39,"name":"Uncletopia | Chicago | 8 | Community","name_short":"chi-8","host":"chi-2.us.uncletopia.com","port":27045,"enabled":true,"region":"us-central","cc":"us","latitude":41.881832,"longitude":-87.62318,"reserved":0,"last_update":"0001-01-01T00:00:00Z","name_a2s":"Uncletopia | Chicago | 8 | Community","protocol":17,"map":"workshop/pl_vigil_rc9.ugc1266210012","folder":"tf","game":"Team Fortress","app_id":440,"player_count":0,"max_players":24,"Bots":0,"server_type":"Dedicated","server_os":"Linux","password":true,"vac":true,"version":"7695204","steam_id":85568392924866365,"keywords":["nocrits","nodmgspread","payload","uncletopia"],"game_id":440,"stv_port":27046,"stv_name":"Uncletopia | Chicago | 8 | Community | STV","players":null},{"server_id":8,"name":"Uncletopia | Dallas | 1 | All Maps","name_short":"dal-1","host":"dal-1.us.uncletopia.com","port":27015,"enabled":true,"region":"us-central","cc":"us","latitude":32.779167,"longitude":-96.80889,"reserved":0,"last_update":"0001-01-01T00:00:00Z","name_a2s":"Uncletopia | Dallas | 1 | All Maps","protocol":17,"map":"pl_borneo","folder":"tf","game":"Team Fortress","app_id":440,"player_count":22,"max_players":24,"Bots":0,"server_type":"Dedicated","server_os":"Linux","password":true,"vac":true,"version":"7695204","steam_id":85568392924469986,"keywords":["nocrits","nodmgspread","payload","uncletopia"],"game_id":440,"stv_port":27016,"stv_name":"Uncletopia | Dallas | 1 | All Maps | STV","players":[{"user_id":496,"name":"Arrythmia","steam_id":76561198093748123,"connected_time":689000000000,"state":"active","ping":97},{"user_id":491,"name":"GregGaming098","steam_id":76561198882415360,"connected_time":1060000000000,"state":"active","ping":106},{"user_id":475,"name":"Emma","steam_id":76561198318093783,"connected_time":2543000000000,"state":"active","ping":60},{"user_id":464,"name":"Glitch51","steam_id":76561198217050353,"connected_time":3332000000000,"state":"active","ping":106},{"user_id":466,"name":"Nyyrikki","steam_id":76561198093411560,"connected_time":3249000000000,"state":"active","ping":75},{"user_id":486,"name":"Luna","steam_id":76561198075944196,"connected_time":1807000000000,"state":"active","ping":66},{"user_id":469,"name":"Krow","steam_id":76561198010392099,"connected_time":2957000000000,"state":"active","ping":49},{"user_id":488,"name":"Pulso Fumi","steam_id":76561198114229349,"connected_time":1423000000000,"state":"active","ping":93},{"user_id":484,"name":"ZM","steam_id":76561198143340983,"connected_time":1814000000000,"state":"active","ping":89},{"user_id":423,"name":"+","steam_id":76561198262422184,"connected_time":6541000000000,"state":"active","ping":51},{"user_id":494,"name":"Zorlovo","steam_id":76561198006443283,"connected_time":730000000000,"state":"active","ping":74},{"user_id":500,"name":"sord⚔","steam_id":76561198103337487,"connected_time":625000000000,"state":"active","ping":74},{"user_id":499,"name":"Snakeye3490","steam_id":76561198197060503,"connected_time":639000000000,"state":"active","ping":48},{"user_id":493,"name":"Phos","steam_id":76561198122339506,"connected_time":893000000000,"state":"active","ping":65},{"user_id":461,"name":"kermitcreeper(ZAZA)","steam_id":76561199222829972,"connected_time":3497000000000,"state":"active","ping":63},{"user_id":495,"name":"PUNCHWOODBOSS9","steam_id":76561198374089246,"connected_time":700000000000,"state":"active","ping":94},{"user_id":498,"name":"girl penis mysterious","steam_id":76561198041708891,"connected_time":647000000000,"state":"active","ping":89},{"user_id":483,"name":"Rock Kickass","steam_id":76561198450510841,"connected_time":2301000000000,"state":"active","ping":79},{"user_id":467,"name":"Imrgrim","steam_id":76561198135866481,"connected_time":3131000000000,"state":"active","ping":63},{"user_id":492,"name":"I am a mooshroom","steam_id":76561198104198295,"connected_time":1016000000000,"state":"active","ping":54},{"user_id":381,"name":"Van Tastic","steam_id":76561198063855523,"connected_time":9379000000000,"state":"active","ping":44},{"user_id":502,"name":"Shmoopy","steam_id":76561198030459152,"connected_time":339000000000,"state":"active","ping":74}]},{"server_id":108,"name":"Uncletopia | Dallas | 2 | All Maps","name_short":"dal-2","host":"dal-1.us.uncletopia.com","port":27025,"enabled":true,"region":"us-central","cc":"us","latitude":32.779167,"longitude":-96.80889,"reserved":0,"last_update":"0001-01-01T00:00:00Z","name_a2s":"Uncletopia | Dallas | 2 | All Maps","protocol":17,"map":"pl_frontier_final","folder":"tf","game":"Team Fortress","app_id":440,"player_count":25,"max_players":24,"Bots":0,"server_type":"Dedicated","server_os":"Linux","password":true,"vac":true,"version":"7695204","steam_id":85568392924469988,"keywords":["nocrits","nodmgspread","payload","uncletopia"],"game_id":440,"stv_port":27026,"stv_name":"Uncletopia | Dallas | 2 | All Maps | STV","players":[{"user_id":429,"name":"instantcovfefe","steam_id":76561198341232601,"connected_time":539000000000,"state":"active","ping":108},{"user_id":427,"name":"Kazmirl | Youtuber","steam_id":76561198116008410,"connected_time":586000000000,"state":"active","ping":109},{"user_id":430,"name":"Captain Innocuous","steam_id":76561197968982943,"connected_time":525000000000,"state":"active","ping":84},{"user_id":423,"name":"sollarious101","steam_id":76561199086649385,"connected_time":1280000000000,"state":"active","ping":43},{"user_id":406,"name":"Mr.Purple","steam_id":76561198842658377,"connected_time":2532000000000,"state":"active","ping":65},{"user_id":431,"name":"Periergos","steam_id":76561198062030412,"connected_time":428000000000,"state":"active","ping":49},{"user_id":398,"name":"Mani","steam_id":76561198139428711,"connected_time":3614000000000,"state":"active","ping":45},{"user_id":396,"name":"ccat","steam_id":76561198281773224,"connected_time":3704000000000,"state":"active","ping":79},{"user_id":378,"name":"Demoknight Gaming Bruh","steam_id":76561198094127235,"connected_time":5005000000000,"state":"active","ping":66},{"user_id":407,"name":"auby","steam_id":76561198088024854,"connected_time":2530000000000,"state":"active","ping":59},{"user_id":409,"name":"Starlie","steam_id":76561198102100102,"connected_time":2380000000000,"state":"active","ping":142},{"user_id":422,"name":"Addy \u003c3","steam_id":76561198045819723,"connected_time":1320000000000,"state":"active","ping":86},{"user_id":410,"name":"Whatrus","steam_id":76561198340908301,"connected_time":2335000000000,"state":"active","ping":88},{"user_id":432,"name":"Minato_ok","steam_id":76561198128627902,"connected_time":415000000000,"state":"active","ping":74},{"user_id":412,"name":"Karma's Kringle Caper","steam_id":76561198059385185,"connected_time":2218000000000,"state":"active","ping":94},{"user_id":433,"name":"lean drinker","steam_id":76561198977852048,"connected_time":409000000000,"state":"active","ping":64},{"user_id":434,"name":"Squiliam","steam_id":76561198025278006,"connected_time":401000000000,"state":"active","ping":55},{"user_id":443,"name":"key to my kidneys","steam_id":76561198133360797,"connected_time":108000000000,"state":"active","ping":95},{"user_id":424,"name":"Anhkrehg","steam_id":76561197963201684,"connected_time":991000000000,"state":"active","ping":106},{"user_id":436,"name":"paradise pd on netflix","steam_id":76561198083497855,"connected_time":345000000000,"state":"active","ping":75},{"user_id":439,"name":"catgirl giantess in heat","steam_id":76561198439042583,"connected_time":307000000000,"state":"active","ping":64},{"user_id":440,"name":"Potato PC","steam_id":76561197994217512,"connected_time":307000000000,"state":"active","ping":84},{"user_id":374,"name":"snugthebug","steam_id":76561198030964222,"connected_time":5348000000000,"state":"active","ping":89},{"user_id":417,"name":"DORATHEEXPLORER","steam_id":76561198124773931,"connected_time":2151000000000,"state":"active","ping":77},{"user_id":446,"name":"Sad Sapling","steam_id":76561198075612150,"connected_time":15000000000,"state":"spawning","ping":133}]},{"server_id":5,"name":"Uncletopia | Frankfurt | 1 | All Maps","name_short":"frk-1","host":"frk-1.de.uncletopia.com","port":27015,"enabled":true,"region":"eu","cc":"de","latitude":50.110924,"longitude":8.682127,"reserved":0,"last_update":"0001-01-01T00:00:00Z","name_a2s":"Uncletopia | Frankfurt | 1 | All Maps","protocol":17,"map":"koth_viaduct","folder":"tf","game":"Team Fortress","app_id":440,"player_count":0,"max_players":24,"Bots":0,"server_type":"Dedicated","server_os":"Linux","password":true,"vac":true,"version":"7695204","steam_id":85568392924469989,"keywords":["cp","nocrits","nodmgspread","uncletopia"],"game_id":440,"stv_port":0,"stv_name":"","players":null},{"server_id":110,"name":"Uncletopia | Frankfurt | 2 | All Maps","name_short":"frk-2","host":"frk-1.de.uncletopia.com","port":27025,"enabled":true,"region":"eu","cc":"de","latitude":50.110924,"longitude":8.682127,"reserved":0,"last_update":"0001-01-01T00:00:00Z","name_a2s":"Uncletopia | Frankfurt | 2 | All Maps","protocol":17,"map":"cp_altitude","folder":"tf","game":"Team Fortress","app_id":440,"player_count":0,"max_players":24,"Bots":0,"server_type":"Dedicated","server_os":"Linux","password":true,"vac":true,"version":"7695204","steam_id":85568392924469990,"keywords":["cp","nocrits","nodmgspread","uncletopia"],"game_id":440,"stv_port":0,"stv_name":"","players":null},{"server_id":308,"name":"Uncletopia | Frankfurt | 3 | All Maps","name_short":"frk-3","host":"frk-1.de.uncletopia.com","port":27035,"enabled":true,"region":"eu","cc":"de","latitude":50.110924,"longitude":8.682127,"reserved":0,"last_update":"0001-01-01T00:00:00Z","name_a2s":"Uncletopia | Frankfurt | 3 | All Maps","protocol":17,"map":"pl_badwater","folder":"tf","game":"Team Fortress","app_id":440,"player_count":0,"max_players":24,"Bots":0,"server_type":"Dedicated","server_os":"Linux","password":true,"vac":true,"version":"7695204","steam_id":85568392924504274,"keywords":["nocrits","nodmgspread","payload","uncletopia"],"game_id":440,"stv_port":0,"stv_name":"","players":null},{"server_id":309,"name":"Uncletopia | Frankfurt | 4 | All Maps","name_short":"frk-4","host":"frk-1.de.uncletopia.com","port":27045,"enabled":true,"region":"eu","cc":"de","latitude":50.110924,"longitude":8.682127,"reserved":0,"last_update":"0001-01-01T00:00:00Z","name_a2s":"Uncletopia | Frankfurt | 4 | All Maps","protocol":17,"map":"koth_highpass","folder":"tf","game":"Team Fortress","app_id":440,"player_count":0,"max_players":24,"Bots":0,"server_type":"Dedicated","server_os":"Linux","password":true,"vac":true,"version":"7695204","steam_id":85568392924504275,"keywords":["cp","nocrits","nodmgspread","uncletopia"],"game_id":440,"stv_port":0,"stv_name":"","players":null},{"server_id":310,"name":"Uncletopia | Frankfurt | 5 | All Maps","name_short":"frk-5","host":"frk-1.de.uncletopia.com","port":27055,"enabled":true,"region":"eu","cc":"de","latitude":50.110924,"longitude":8.682127,"reserved":0,"last_update":"0001-01-01T00:00:00Z","name_a2s":"Uncletopia | Frankfurt | 5 | All Maps","protocol":17,"map":"koth_highpass","folder":"tf","game":"Team Fortress","app_id":440,"player_count":0,"max_players":24,"Bots":0,"server_type":"Dedicated","server_os":"Linux","password":true,"vac":true,"version":"7695204","steam_id":85568392924504277,"keywords":["cp","nocrits","nodmgspread","uncletopia"],"game_id":440,"stv_port":27056,"stv_name":"Uncletopia | Frankfurt | 5 | All Maps | STV","players":null},{"server_id":311,"name":"Uncletopia | Frankfurt | 6 | All Maps","name_short":"frk-6","host":"frk-1.de.uncletopia.com","port":27065,"enabled":true,"region":"eu","cc":"de","latitude":50.110924,"longitude":8.682127,"reserved":0,"last_update":"0001-01-01T00:00:00Z","name_a2s":"Uncletopia | Frankfurt | 6 | All Maps","protocol":17,"map":"pl_barnblitz","folder":"tf","game":"Team Fortress","app_id":440,"player_count":0,"max_players":24,"Bots":0,"server_type":"Dedicated","server_os":"Linux","password":true,"vac":true,"version":"7695204","steam_id":85568392924504278,"keywords":["nocrits","nodmgspread","payload","uncletopia"],"game_id":440,"stv_port":0,"stv_name":"","players":null},{"server_id":23,"name":"Uncletopia | Frankfurt | 7 | No Payload","name_short":"frk-7","host":"frk-1.de.uncletopia.com","port":27075,"enabled":true,"region":"eu","cc":"de","latitude":50.110924,"longitude":8.682127,"reserved":0,"last_update":"0001-01-01T00:00:00Z","name_a2s":"Uncletopia | Frankfurt | 7 | No Payload","protocol":17,"map":"pl_snowycoast","folder":"tf","game":"Team Fortress","app_id":440,"player_count":0,"max_players":24,"Bots":0,"server_type":"Dedicated","server_os":"Linux","password":true,"vac":true,"version":"7695204","steam_id":85568392924742827,"keywords":["nocrits","nodmgspread","payload","uncletopia"],"game_id":440,"stv_port":0,"stv_name":"","players":null},{"server_id":24,"name":"Uncletopia | Frankfurt | 8 | Community","name_short":"frk-8","host":"frk-1.de.uncletopia.com","port":27085,"enabled":true,"region":"eu","cc":"de","latitude":50.110924,"longitude":8.682127,"reserved":0,"last_update":"0001-01-01T00:00:00Z","name_a2s":"Uncletopia | Frankfurt | 8 | Community","protocol":17,"map":"koth_lakeside_final","folder":"tf","game":"Team Fortress","app_id":440,"player_count":0,"max_players":24,"Bots":0,"server_type":"Dedicated","server_os":"Linux","password":true,"vac":true,"version":"7695204","steam_id":85568392924742828,"keywords":["cp","nocrits","nodmgspread","uncletopia"],"game_id":440,"stv_port":0,"stv_name":"","players":null},{"server_id":202,"name":"Uncletopia | Hong Kong | 1 | All Maps","name_short":"hgk-1","host":"hgk-1.hk.uncletopia.com","port":27015,"enabled":true,"region":"asia","cc":"hk","latitude":22.302711,"longitude":114.177216,"reserved":0,"last_update":"0001-01-01T00:00:00Z","name_a2s":"Uncletopia | Hong Kong | 1 | All Maps","protocol":17,"map":"pl_thundermountain","folder":"tf","game":"Team Fortress","app_id":440,"player_count":23,"max_players":24,"Bots":0,"server_type":"Dedicated","server_os":"Linux","password":true,"vac":true,"version":"7695204","steam_id":85568392924494504,"keywords":["nocrits","nodmgspread","payload","uncletopia"],"game_id":440,"stv_port":27016,"stv_name":"Uncletopia | Hong Kong | 1 | All Maps | STV","players":[{"user_id":227,"name":"Lym0n","steam_id":76561199192420260,"connected_time":2091000000000,"state":"active","ping":105},{"user_id":232,"name":"water tastes good","steam_id":76561199375947670,"connected_time":1856000000000,"state":"active","ping":64},{"user_id":256,"name":"big poo (training arc)","steam_id":76561199104552936,"connected_time":846000000000,"state":"active","ping":69},{"user_id":190,"name":"Kiyomi","steam_id":76561198240627872,"connected_time":4209000000000,"state":"active","ping":49},{"user_id":142,"name":"Not So Balanced","steam_id":76561199404958139,"connected_time":6925000000000,"state":"active","ping":124},{"user_id":249,"name":"iced","steam_id":76561198999114004,"connected_time":1080000000000,"state":"active","ping":92},{"user_id":191,"name":"2232","steam_id":76561198074339034,"connected_time":4196000000000,"state":"active","ping":73},{"user_id":257,"name":"yona2656","steam_id":76561199057881909,"connected_time":765000000000,"state":"active","ping":101},{"user_id":261,"name":"turd'","steam_id":76561199006212966,"connected_time":540000000000,"state":"active","ping":88},{"user_id":252,"name":"ProgressorBread24","steam_id":76561199070629046,"connected_time":941000000000,"state":"active","ping":180},{"user_id":259,"name":"Violezine","steam_id":76561199000502615,"connected_time":647000000000,"state":"active","ping":78},{"user_id":251,"name":"Gab","steam_id":76561198863909723,"connected_time":973000000000,"state":"active","ping":72},{"user_id":194,"name":"MS PowerPoint","steam_id":76561198369523192,"connected_time":4045000000000,"state":"active","ping":62},{"user_id":199,"name":"timmy.1366","steam_id":76561199065433547,"connected_time":3797000000000,"state":"active","ping":69},{"user_id":237,"name":"LazyGuyEythan (SethEythan)","steam_id":76561198100007906,"connected_time":1627000000000,"state":"active","ping":97},{"user_id":253,"name":"CaptainBozo","steam_id":76561199151959977,"connected_time":939000000000,"state":"active","ping":55},{"user_id":262,"name":"Spskza","steam_id":76561199385504837,"connected_time":534000000000,"state":"active","ping":112},{"user_id":263,"name":"xaldin","steam_id":76561198128679753,"connected_time":481000000000,"state":"active","ping":85},{"user_id":264,"name":"KamiKaze","steam_id":76561198403423470,"connected_time":470000000000,"state":"active","ping":75},{"user_id":265,"name":"Paradoxu","steam_id":76561198394407876,"connected_time":467000000000,"state":"active","ping":79},{"user_id":209,"name":"煙海 | Enkai","steam_id":76561198050460825,"connected_time":3247000000000,"state":"active","ping":83},{"user_id":210,"name":"brizzard","steam_id":76561198048438653,"connected_time":3245000000000,"state":"active","ping":54},{"user_id":267,"name":"singsongup777","steam_id":76561199426431630,"connected_time":355000000000,"state":"active","ping":93}]},{"server_id":1,"name":"Uncletopia | Los Angeles | 1 | All Maps","name_short":"lax-1","host":"lax-1.us.uncletopia.com","port":27015,"enabled":true,"region":"us-west","cc":"us","latitude":33.94279,"longitude":-118.41004,"reserved":0,"last_update":"0001-01-01T00:00:00Z","name_a2s":"Uncletopia | Los Angeles | 1 | All Maps","protocol":17,"map":"cp_altitude","folder":"tf","game":"Team Fortress","app_id":440,"player_count":24,"max_players":24,"Bots":0,"server_type":"Dedicated","server_os":"Linux","password":true,"vac":true,"version":"7695204","steam_id":85568392924469991,"keywords":["cp","nocrits","nodmgspread","uncletopia"],"game_id":440,"stv_port":27016,"stv_name":"Uncletopia | Los Angeles | 1 | All Maps | STV","players":[{"user_id":188,"name":"NygesOverlord_TTV","steam_id":76561198139236154,"connected_time":936000000000,"state":"active","ping":93},{"user_id":172,"name":"EatSomeBEES","steam_id":76561198047334307,"connected_time":2710000000000,"state":"active","ping":77},{"user_id":190,"name":"swag","steam_id":76561198176152633,"connected_time":755000000000,"state":"active","ping":75},{"user_id":171,"name":"ASSCII | kymeira","steam_id":76561198340743816,"connected_time":2749000000000,"state":"active","ping":48},{"user_id":94,"name":"Mao Zedong","steam_id":76561199156131540,"connected_time":8158000000000,"state":"active","ping":127},{"user_id":177,"name":"Super Mighty G","steam_id":76561198020932806,"connected_time":2469000000000,"state":"active","ping":46},{"user_id":152,"name":"Skadoosh","steam_id":76561198144771234,"connected_time":4331000000000,"state":"active","ping":48},{"user_id":184,"name":"Omega E ^The Player^","steam_id":76561198092321592,"connected_time":1288000000000,"state":"active","ping":53},{"user_id":193,"name":"oil","steam_id":76561198099980149,"connected_time":734000000000,"state":"active","ping":49},{"user_id":178,"name":"SQbuilder","steam_id":76561198076473375,"connected_time":2388000000000,"state":"active","ping":37},{"user_id":154,"name":"TüCold","steam_id":76561198111278197,"connected_time":4323000000000,"state":"active","ping":66},{"user_id":196,"name":"The Caretaker","steam_id":76561198125241411,"connected_time":43000000000,"state":"active","ping":69},{"user_id":192,"name":"jumbert","steam_id":76561198355231658,"connected_time":750000000000,"state":"active","ping":82},{"user_id":185,"name":"The Gremlin","steam_id":76561198419066993,"connected_time":1241000000000,"state":"active","ping":113},{"user_id":174,"name":"Amadeus","steam_id":76561198160047173,"connected_time":2685000000000,"state":"active","ping":68},{"user_id":194,"name":"video games","steam_id":76561198334059206,"connected_time":716000000000,"state":"active","ping":60},{"user_id":186,"name":"Mrangryface98","steam_id":76561198036776117,"connected_time":1239000000000,"state":"active","ping":85},{"user_id":180,"name":"Sykes10","steam_id":76561198279623105,"connected_time":2041000000000,"state":"active","ping":47},{"user_id":181,"name":"Damo","steam_id":76561197979442728,"connected_time":2040000000000,"state":"active","ping":62},{"user_id":195,"name":"Plasic74x","steam_id":76561199058981206,"connected_time":709000000000,"state":"active","ping":109},{"user_id":187,"name":"A Can of Arizona Green Tea","steam_id":76561198062481133,"connected_time":1158000000000,"state":"active","ping":91},{"user_id":169,"name":"For Whom The Taco Bell Trolls","steam_id":76561198418288939,"connected_time":2771000000000,"state":"active","ping":59},{"user_id":182,"name":"FROYO b4nny","steam_id":76561197970669109,"connected_time":1967000000000,"state":"active","ping":54},{"user_id":189,"name":"Saucy Santana(hater blockers on","steam_id":76561198148912147,"connected_time":888000000000,"state":"active","ping":35}]},{"server_id":112,"name":"Uncletopia | Los Angeles | 2 | All Maps","name_short":"lax-2","host":"lax-1.us.uncletopia.com","port":27025,"enabled":true,"region":"us-west","cc":"us","latitude":33.94279,"longitude":-118.41004,"reserved":0,"last_update":"0001-01-01T00:00:00Z","name_a2s":"Uncletopia | Los Angeles | 2 | All Maps","protocol":17,"map":"koth_viaduct","folder":"tf","game":"Team Fortress","app_id":440,"player_count":1,"max_players":24,"Bots":0,"server_type":"Dedicated","server_os":"Linux","password":true,"vac":true,"version":"7695204","steam_id":85568392924469992,"keywords":["cp","nocrits","nodmgspread","uncletopia"],"game_id":440,"stv_port":27026,"stv_name":"Uncletopia | Los Angeles | 2 | All Maps | STV","players":[{"user_id":19,"name":"(TTV)-Matrix_kun","steam_id":76561199126328014,"connected_time":390000000000,"state":"active","ping":47}]},{"server_id":324,"name":"Uncletopia | Los Angeles | 3 | All Maps","name_short":"lax-3","host":"lax-1.us.uncletopia.com","port":27035,"enabled":true,"region":"us-west","cc":"us","latitude":33.94279,"longitude":-118.41004,"reserved":0,"last_update":"0001-01-01T00:00:00Z","name_a2s":"Uncletopia | Los Angeles | 3 | All Maps","protocol":17,"map":"koth_cascade","folder":"tf","game":"Team Fortress","app_id":440,"player_count":0,"max_players":24,"Bots":0,"server_type":"Dedicated","server_os":"Linux","password":true,"vac":true,"version":"7695204","steam_id":85568392924510198,"keywords":["cp","nocrits","nodmgspread","uncletopia"],"game_id":440,"stv_port":27036,"stv_name":"Uncletopia | Los Angeles | 3 | All Maps | STV","players":null},{"server_id":25,"name":"Uncletopia | Los Angeles | 4 | No Payload","name_short":"lax-4","host":"lax-1.us.uncletopia.com","port":27045,"enabled":true,"region":"us-west","cc":"us","latitude":33.94279,"longitude":-118.41004,"reserved":0,"last_update":"0001-01-01T00:00:00Z","name_a2s":"Uncletopia | Los Angeles | 4 | No Payload","protocol":17,"map":"ctf_doublecross","folder":"tf","game":"Team Fortress","app_id":440,"player_count":0,"max_players":24,"Bots":0,"server_type":"Dedicated","server_os":"Linux","password":true,"vac":true,"version":"7695204","steam_id":85568392924510199,"keywords":["ctf","nocrits","nodmgspread","uncletopia"],"game_id":440,"stv_port":27046,"stv_name":"Uncletopia | Los Angeles | 4 | No Payload | STV","players":null},{"server_id":11,"name":"Uncletopia | London | 1 | All Maps","name_short":"lon-1","host":"lon-1.uk.uncletopia.com","port":27015,"enabled":true,"region":"eu","cc":"gb","latitude":51.509865,"longitude":-0.118092,"reserved":0,"last_update":"0001-01-01T00:00:00Z","name_a2s":"Uncletopia | London | 1 | All Maps","protocol":17,"map":"pl_upward","folder":"tf","game":"Team Fortress","app_id":440,"player_count":0,"max_players":24,"Bots":0,"server_type":"Dedicated","server_os":"Linux","password":true,"vac":true,"version":"7695204","steam_id":85568392924367362,"keywords":["nocrits","nodmgspread","payload","uncletopia"],"game_id":440,"stv_port":0,"stv_name":"","players":null},{"server_id":114,"name":"Uncletopia | London | 2 | All Maps","name_short":"lon-2","host":"lon-1.uk.uncletopia.com","port":27025,"enabled":true,"region":"eu","cc":"gb","latitude":51.509865,"longitude":-0.118092,"reserved":0,"last_update":"0001-01-01T00:00:00Z","name_a2s":"Uncletopia | London | 2 | All Maps","protocol":17,"map":"cp_sunshine","folder":"tf","game":"Team Fortress","app_id":440,"player_count":0,"max_players":24,"Bots":0,"server_type":"Dedicated","server_os":"Linux","password":true,"vac":true,"version":"7695204","steam_id":85568392924470941,"keywords":["cp","nocrits","nodmgspread","uncletopia"],"game_id":440,"stv_port":0,"stv_name":"","players":null},{"server_id":320,"name":"Uncletopia | London | 3 | All Maps","name_short":"lon-3","host":"lon-1.uk.uncletopia.com","port":27035,"enabled":true,"region":"eu","cc":"gb","latitude":51.509865,"longitude":-0.118092,"reserved":0,"last_update":"0001-01-01T00:00:00Z","name_a2s":"Uncletopia | London | 3 | All Maps","protocol":17,"map":"cp_process_final","folder":"tf","game":"Team Fortress","app_id":440,"player_count":0,"max_players":24,"Bots":0,"server_type":"Dedicated","server_os":"Linux","password":true,"vac":true,"version":"7695204","steam_id":85568392924510192,"keywords":["cp","nocrits","nodmgspread","uncletopia"],"game_id":440,"stv_port":0,"stv_name":"","players":null},{"server_id":321,"name":"Uncletopia | London | 4 | All Maps","name_short":"lon-4","host":"lon-1.uk.uncletopia.com","port":27045,"enabled":true,"region":"eu","cc":"gb","latitude":51.509865,"longitude":-0.118092,"reserved":0,"last_update":"0001-01-01T00:00:00Z","name_a2s":"Uncletopia | London | 4 | All Maps","protocol":17,"map":"koth_viaduct","folder":"tf","game":"Team Fortress","app_id":440,"player_count":0,"max_players":24,"Bots":0,"server_type":"Dedicated","server_os":"Linux","password":true,"vac":true,"version":"7695204","steam_id":85568392924510193,"keywords":["cp","nocrits","nodmgspread","uncletopia"],"game_id":440,"stv_port":0,"stv_name":"","players":null},{"server_id":21,"name":"Uncletopia | London | 5 | All Maps","name_short":"lon-5","host":"lon-1.uk.uncletopia.com","port":27055,"enabled":true,"region":"eu","cc":"gb","latitude":51.509865,"longitude":-0.118092,"reserved":0,"last_update":"0001-01-01T00:00:00Z","name_a2s":"Uncletopia | London | 5 | All Maps","protocol":17,"map":"koth_cascade","folder":"tf","game":"Team Fortress","app_id":440,"player_count":0,"max_players":24,"Bots":0,"server_type":"Dedicated","server_os":"Linux","password":true,"vac":true,"version":"7695204","steam_id":85568392924742829,"keywords":["cp","nocrits","nodmgspread","uncletopia"],"game_id":440,"stv_port":0,"stv_name":"","players":null},{"server_id":22,"name":"Uncletopia | London | 6 | All Maps","name_short":"lon-6","host":"lon-1.uk.uncletopia.com","port":27065,"enabled":true,"region":"eu","cc":"gb","latitude":51.509865,"longitude":-0.118092,"reserved":0,"last_update":"0001-01-01T00:00:00Z","name_a2s":"Uncletopia | London | 6 | All Maps","protocol":17,"map":"pl_pier","folder":"tf","game":"Team Fortress","app_id":440,"player_count":0,"max_players":24,"Bots":0,"server_type":"Dedicated","server_os":"Linux","password":true,"vac":true,"version":"7695204","steam_id":85568392924742830,"keywords":["nocrits","nodmgspread","payload","uncletopia"],"game_id":440,"stv_port":0,"stv_name":"","players":null},{"server_id":40,"name":"Uncletopia | London | 7 | No Payload","name_short":"lon-7","host":"lon-1.uk.uncletopia.com","port":27075,"enabled":true,"region":"eu","cc":"gb","latitude":51.509865,"longitude":-0.118092,"reserved":0,"last_update":"0001-01-01T00:00:00Z","name_a2s":"Uncletopia | London | 7 | No Payload","protocol":17,"map":"cp_snakewater_final1","folder":"tf","game":"Team Fortress","app_id":440,"player_count":0,"max_players":24,"Bots":0,"server_type":"Dedicated","server_os":"Linux","password":true,"vac":true,"version":"7695204","steam_id":85568392924964314,"keywords":["cp","nocrits","nodmgspread","uncletopia"],"game_id":440,"stv_port":0,"stv_name":"","players":null},{"server_id":41,"name":"Uncletopia | London | 8 | Community","name_short":"lon-8","host":"lon-1.uk.uncletopia.com","port":27085,"enabled":true,"region":"eu","cc":"gb","latitude":51.509865,"longitude":-0.118092,"reserved":0,"last_update":"0001-01-01T00:00:00Z","name_a2s":"Uncletopia | London | 8 | Community","protocol":17,"map":"cp_dustbowl","folder":"tf","game":"Team Fortress","app_id":440,"player_count":0,"max_players":24,"Bots":0,"server_type":"Dedicated","server_os":"Linux","password":true,"vac":true,"version":"7695204","steam_id":85568392924964315,"keywords":["cp","nocrits","nodmgspread","uncletopia"],"game_id":440,"stv_port":0,"stv_name":"","players":null},{"server_id":300,"name":"Uncletopia | Montréal | 1 | All Maps","name_short":"mtl-1","host":"mtl-1.ca.uncletopia.com","port":27015,"enabled":true,"region":"us-east","cc":"ca","latitude":45.50889,"longitude":-73.56167,"reserved":0,"last_update":"0001-01-01T00:00:00Z","name_a2s":"Uncletopia | Montréal | 1 | All Maps","protocol":17,"map":"koth_highpass","folder":"tf","game":"Team Fortress","app_id":440,"player_count":0,"max_players":24,"Bots":0,"server_type":"Dedicated","server_os":"Linux","password":true,"vac":true,"version":"7695204","steam_id":85568392924500087,"keywords":["cp","nocrits","nodmgspread","uncletopia"],"game_id":440,"stv_port":27016,"stv_name":"Uncletopia | Montréal | 1 | All Maps | STV","players":null},{"server_id":301,"name":"Uncletopia | Montréal | 2 | All Maps","name_short":"mtl-2","host":"mtl-1.ca.uncletopia.com","port":27025,"enabled":true,"region":"us-east","cc":"ca","latitude":45.50889,"longitude":-73.56167,"reserved":0,"last_update":"0001-01-01T00:00:00Z","name_a2s":"Uncletopia | Montréal | 2 | All Maps","protocol":17,"map":"koth_lakeside_final","folder":"tf","game":"Team Fortress","app_id":440,"player_count":0,"max_players":24,"Bots":0,"server_type":"Dedicated","server_os":"Linux","password":true,"vac":true,"version":"7695204","steam_id":85568392924500088,"keywords":["cp","nocrits","nodmgspread","uncletopia"],"game_id":440,"stv_port":27026,"stv_name":"Uncletopia | Montréal | 2 | All Maps | STV","players":null},{"server_id":302,"name":"Uncletopia | Montréal | 3 | All Maps","name_short":"mtl-3","host":"mtl-1.ca.uncletopia.com","port":27035,"enabled":true,"region":"us-east","cc":"ca","latitude":45.50889,"longitude":-73.56167,"reserved":0,"last_update":"0001-01-01T00:00:00Z","name_a2s":"Uncletopia | Montréal | 3 | All Maps","protocol":17,"map":"koth_viaduct","folder":"tf","game":"Team Fortress","app_id":440,"player_count":0,"max_players":24,"Bots":0,"server_type":"Dedicated","server_os":"Linux","password":true,"vac":true,"version":"7695204","steam_id":85568392924500089,"keywords":["cp","nocrits","nodmgspread","uncletopia"],"game_id":440,"stv_port":0,"stv_name":"","players":null},{"server_id":303,"name":"Uncletopia | Montréal | 4 | No Payload","name_short":"mtl-4","host":"mtl-1.ca.uncletopia.com","port":27045,"enabled":true,"region":"us-east","cc":"ca","latitude":45.50889,"longitude":-73.56167,"reserved":0,"last_update":"0001-01-01T00:00:00Z","name_a2s":"Uncletopia | Montréal | 4 | No Payload","protocol":17,"map":"cp_standin_final","folder":"tf","game":"Team Fortress","app_id":440,"player_count":0,"max_players":24,"Bots":0,"server_type":"Dedicated","server_os":"Linux","password":true,"vac":true,"version":"7695204","steam_id":85568392924500090,"keywords":["cp","nocrits","nodmgspread","uncletopia"],"game_id":440,"stv_port":27046,"stv_name":"Uncletopia | Montréal | 4 | No Payload | STV","players":null},{"server_id":13,"name":"Uncletopia | New York City | 1 | All Maps","name_short":"nyc-1","host":"nyc-1.us.uncletopia.com","port":27015,"enabled":true,"region":"us-east","cc":"us","latitude":40.73061,"longitude":-73.93524,"reserved":0,"last_update":"0001-01-01T00:00:00Z","name_a2s":"Uncletopia | New York City | 1 | All Maps","protocol":17,"map":"pl_frontier_final","folder":"tf","game":"Team Fortress","app_id":440,"player_count":24,"max_players":24,"Bots":0,"server_type":"Dedicated","server_os":"Linux","password":true,"vac":true,"version":"7695204","steam_id":85568392924469993,"keywords":["nocrits","nodmgspread","payload","uncletopia"],"game_id":440,"stv_port":27016,"stv_name":"Uncletopia | New York City | 1 | All Maps | STV","players":[{"user_id":496,"name":"baby man?","steam_id":76561198101640057,"connected_time":1184000000000,"state":"active","ping":64},{"user_id":469,"name":"Kezner","steam_id":76561198993951071,"connected_time":3344000000000,"state":"active","ping":41},{"user_id":463,"name":"Fish Fisherman","steam_id":76561198018656022,"connected_time":3701000000000,"state":"active","ping":48},{"user_id":501,"name":"Marc G","steam_id":76561198062650363,"connected_time":198000000000,"state":"active","ping":80},{"user_id":499,"name":"Vaporeon","steam_id":76561198107058140,"connected_time":963000000000,"state":"active","ping":53},{"user_id":471,"name":"Gorilla","steam_id":76561198214897880,"connected_time":3050000000000,"state":"active","ping":45},{"user_id":505,"name":"Insane Alcoholic GF","steam_id":76561198081944653,"connected_time":33000000000,"state":"active","ping":78},{"user_id":479,"name":"Blorpulous","steam_id":76561198271422231,"connected_time":1964000000000,"state":"active","ping":82},{"user_id":493,"name":"Toaster1337","steam_id":76561198103706881,"connected_time":1234000000000,"state":"active","ping":132},{"user_id":467,"name":"Sudo","steam_id":76561198123714026,"connected_time":3603000000000,"state":"active","ping":124},{"user_id":480,"name":"Kivertsy","steam_id":76561199162661290,"connected_time":1947000000000,"state":"active","ping":61},{"user_id":492,"name":"ShadBad","steam_id":76561198248287390,"connected_time":1376000000000,"state":"active","ping":135},{"user_id":481,"name":"Carsen","steam_id":76561198225481404,"connected_time":1903000000000,"state":"active","ping":56},{"user_id":459,"name":"Pomegranate88","steam_id":76561198056385456,"connected_time":3768000000000,"state":"active","ping":60},{"user_id":423,"name":"Minion Bob","steam_id":76561198023938170,"connected_time":5752000000000,"state":"active","ping":65},{"user_id":438,"name":"CounterCraft","steam_id":76561197994940522,"connected_time":5206000000000,"state":"active","ping":41},{"user_id":491,"name":"Beef Wellington","steam_id":76561197995635241,"connected_time":1462000000000,"state":"active","ping":85},{"user_id":500,"name":"Uhonlapjanteszika","steam_id":76561199431280503,"connected_time":950000000000,"state":"active","ping":52},{"user_id":498,"name":"Cheeseball999","steam_id":76561198058685847,"connected_time":1131000000000,"state":"active","ping":85},{"user_id":504,"name":"schizoplays","steam_id":76561199043827112,"connected_time":174000000000,"state":"active","ping":77},{"user_id":473,"name":"WitheringLeo","steam_id":76561198046722918,"connected_time":2684000000000,"state":"active","ping":52},{"user_id":485,"name":"flappyflap2","steam_id":76561198285048973,"connected_time":1791000000000,"state":"active","ping":44},{"user_id":488,"name":"Scooter O'Boyl","steam_id":76561197971687069,"connected_time":1647000000000,"state":"active","ping":50},{"user_id":490,"name":"hop","steam_id":76561198039914843,"connected_time":1622000000000,"state":"active","ping":51}]},{"server_id":14,"name":"Uncletopia | New York City | 2 | All Maps","name_short":"nyc-2","host":"nyc-1.us.uncletopia.com","port":27025,"enabled":true,"region":"us-east","cc":"us","latitude":40.73061,"longitude":-73.93524,"reserved":0,"last_update":"0001-01-01T00:00:00Z","name_a2s":"Uncletopia | New York City | 2 | All Maps","protocol":17,"map":"pl_snowycoast","folder":"tf","game":"Team Fortress","app_id":440,"player_count":24,"max_players":24,"Bots":0,"server_type":"Dedicated","server_os":"Linux","password":true,"vac":true,"version":"7695204","steam_id":85568392924469994,"keywords":["nocrits","nodmgspread","payload","uncletopia"],"game_id":440,"stv_port":27026,"stv_name":"Uncletopia | New York City | 2 | All Maps | STV","players":[{"user_id":532,"name":"Azrazel","steam_id":76561198821691005,"connected_time":631000000000,"state":"active","ping":63},{"user_id":470,"name":"jamey431","steam_id":76561198076043961,"connected_time":5560000000000,"state":"active","ping":132},{"user_id":519,"name":"Ignalis","steam_id":76561198025662927,"connected_time":1909000000000,"state":"active","ping":55},{"user_id":504,"name":"tame","steam_id":76561198925005855,"connected_time":2776000000000,"state":"active","ping":182},{"user_id":529,"name":"FCV96","steam_id":76561198059068377,"connected_time":806000000000,"state":"active","ping":59},{"user_id":537,"name":"Phazon","steam_id":76561198107688563,"connected_time":261000000000,"state":"active","ping":124},{"user_id":533,"name":"sowithout.","steam_id":76561199033471811,"connected_time":597000000000,"state":"active","ping":51},{"user_id":477,"name":"The Fortress From Team Fortress","steam_id":76561198081422503,"connected_time":4417000000000,"state":"active","ping":85},{"user_id":502,"name":"Epi","steam_id":76561198041175008,"connected_time":2859000000000,"state":"active","ping":150},{"user_id":534,"name":"Skizzo","steam_id":76561198271050573,"connected_time":563000000000,"state":"active","ping":64},{"user_id":496,"name":"joyboy","steam_id":76561198116908911,"connected_time":3285000000000,"state":"active","ping":51},{"user_id":527,"name":"reigN","steam_id":76561198013425876,"connected_time":1089000000000,"state":"active","ping":73},{"user_id":508,"name":"Madrox Who?","steam_id":76561197988859134,"connected_time":2541000000000,"state":"active","ping":78},{"user_id":480,"name":"1ncel","steam_id":76561198950243192,"connected_time":4396000000000,"state":"active","ping":73},{"user_id":483,"name":"RyanDCB [Real]","steam_id":76561198040138739,"connected_time":4348000000000,"state":"active","ping":74},{"user_id":535,"name":"warm","steam_id":76561198022960795,"connected_time":522000000000,"state":"active","ping":115},{"user_id":517,"name":"Captain Zyrin","steam_id":76561197983121824,"connected_time":1967000000000,"state":"active","ping":81},{"user_id":514,"name":"poopfeast420","steam_id":76561198137740187,"connected_time":2001000000000,"state":"active","ping":57},{"user_id":536,"name":"rumes","steam_id":76561198349219467,"connected_time":494000000000,"state":"active","ping":104},{"user_id":488,"name":"Rein","steam_id":76561198300340427,"connected_time":4114000000000,"state":"active","ping":68},{"user_id":469,"name":"Sargeant","steam_id":76561198077066612,"connected_time":5601000000000,"state":"active","ping":128},{"user_id":490,"name":"u/unhinged_person","steam_id":76561198085839920,"connected_time":3956000000000,"state":"active","ping":57},{"user_id":518,"name":"Anti-Hero","steam_id":76561198042570322,"connected_time":1965000000000,"state":"active","ping":84},{"user_id":525,"name":"Wario Smoking Weed (real)","steam_id":76561198056175175,"connected_time":1163000000000,"state":"active","ping":84}]},{"server_id":15,"name":"Uncletopia | New York City | 3 | All Maps","name_short":"nyc-3","host":"nyc-1.us.uncletopia.com","port":27035,"enabled":true,"region":"us-east","cc":"us","latitude":40.73061,"longitude":-73.93524,"reserved":0,"last_update":"0001-01-01T00:00:00Z","name_a2s":"Uncletopia | New York City | 3 | All Maps","protocol":17,"map":"pl_snowycoast","folder":"tf","game":"Team Fortress","app_id":440,"player_count":0,"max_players":24,"Bots":0,"server_type":"Dedicated","server_os":"Linux","password":true,"vac":true,"version":"7695204","steam_id":85568392924742820,"keywords":["nocrits","nodmgspread","payload","uncletopia"],"game_id":440,"stv_port":27036,"stv_name":"Uncletopia | New York City | 3 | All Maps | STV","players":null},{"server_id":16,"name":"Uncletopia | New York City | 4 | Community","name_short":"nyc-4","host":"nyc-1.us.uncletopia.com","port":27045,"enabled":true,"region":"us-east","cc":"us","latitude":40.73061,"longitude":-73.93524,"reserved":0,"last_update":"0001-01-01T00:00:00Z","name_a2s":"Uncletopia | New York City | 4 | Community","protocol":17,"map":"workshop/koth_product_final.ugc454272353","folder":"tf","game":"Team Fortress","app_id":440,"player_count":0,"max_players":24,"Bots":0,"server_type":"Dedicated","server_os":"Linux","password":true,"vac":true,"version":"7695204","steam_id":85568392924742821,"keywords":["cp","nocrits","nodmgspread","uncletopia"],"game_id":440,"stv_port":27046,"stv_name":"Uncletopia | New York City | 4 | Community | STV","players":null},{"server_id":142,"name":"Uncletopia | São Paulo | 1 | All Maps","name_short":"sao-1","host":"sao-1.br.uncletopia.com","port":27015,"enabled":true,"region":"sa","cc":"br","latitude":-23.533773,"longitude":-46.62529,"reserved":0,"last_update":"0001-01-01T00:00:00Z","name_a2s":"Uncletopia | São Paulo | 1 | All Maps","protocol":17,"map":"cp_process_final","folder":"tf","game":"Team Fortress","app_id":440,"player_count":0,"max_players":24,"Bots":0,"server_type":"Dedicated","server_os":"Linux","password":true,"vac":true,"version":"7695204","steam_id":85568392924469996,"keywords":["cp","nocrits","nodmgspread","uncletopia"],"game_id":440,"stv_port":27016,"stv_name":"Uncletopia | São Paulo | 1 | All Maps | STV","players":null},{"server_id":143,"name":"Uncletopia | São Paulo | 2 | All Maps","name_short":"sao-2","host":"sao-2.br.uncletopia.com","port":27015,"enabled":true,"region":"sa","cc":"br","latitude":-23.533773,"longitude":-46.62529,"reserved":0,"last_update":"0001-01-01T00:00:00Z","name_a2s":"Uncletopia | São Paulo | 2 | All Maps","protocol":17,"map":"koth_harvest_final","folder":"tf","game":"Team Fortress","app_id":440,"player_count":0,"max_players":24,"Bots":0,"server_type":"Dedicated","server_os":"Linux","password":true,"vac":true,"version":"7695204","steam_id":85568392924485349,"keywords":["cp","nocrits","nodmgspread","uncletopia"],"game_id":440,"stv_port":27016,"stv_name":"Uncletopia | São Paulo | 2 | All Maps | STV","players":null},{"server_id":7,"name":"Uncletopia | Seattle | 1 | All Maps","name_short":"sea-1","host":"sea-1.us.uncletopia.com","port":27015,"enabled":true,"region":"us-west","cc":"us","latitude":47.608013,"longitude":-122.33517,"reserved":0,"last_update":"0001-01-01T00:00:00Z","name_a2s":"Uncletopia | Seattle | 1 | All Maps","protocol":17,"map":"pl_upward","folder":"tf","game":"Team Fortress","app_id":440,"player_count":24,"max_players":24,"Bots":0,"server_type":"Dedicated","server_os":"Linux","password":true,"vac":true,"version":"7695204","steam_id":85568392924469997,"keywords":["nocrits","nodmgspread","payload","uncletopia"],"game_id":440,"stv_port":27016,"stv_name":"Uncletopia | Seattle | 1 | All Maps | STV","players":[{"user_id":330,"name":"Mason","steam_id":76561198125358775,"connected_time":5932000000000,"state":"active","ping":61},{"user_id":443,"name":"American freedom bird","steam_id":76561198366142388,"connected_time":1932000000000,"state":"active","ping":81},{"user_id":457,"name":"8Ball","steam_id":76561198168881494,"connected_time":727000000000,"state":"active","ping":76},{"user_id":445,"name":"bad spy player","steam_id":76561198873699671,"connected_time":1862000000000,"state":"active","ping":38},{"user_id":467,"name":"Juntao","steam_id":76561199389584938,"connected_time":84000000000,"state":"active","ping":45},{"user_id":446,"name":"Tavasi","steam_id":76561198085338087,"connected_time":1851000000000,"state":"active","ping":59},{"user_id":448,"name":"Lord Hater","steam_id":76561199158148782,"connected_time":1536000000000,"state":"active","ping":63},{"user_id":456,"name":"dougrocks421","steam_id":76561198165063918,"connected_time":729000000000,"state":"active","ping":37},{"user_id":332,"name":"Wormy Getting Coal","steam_id":76561198054539200,"connected_time":5901000000000,"state":"active","ping":53},{"user_id":432,"name":"Dr. Karl, the AUS Science Guy","steam_id":76561198031278747,"connected_time":2515000000000,"state":"active","ping":50},{"user_id":450,"name":"Sniff","steam_id":76561198010270922,"connected_time":1505000000000,"state":"active","ping":44},{"user_id":449,"name":"8core","steam_id":76561198131163454,"connected_time":1514000000000,"state":"active","ping":84},{"user_id":465,"name":"Ayayahuasca","steam_id":76561199002906056,"connected_time":250000000000,"state":"active","ping":48},{"user_id":435,"name":"cholo","steam_id":76561198066091050,"connected_time":2306000000000,"state":"active","ping":49},{"user_id":437,"name":"lol","steam_id":76561198026491738,"connected_time":2293000000000,"state":"active","ping":80},{"user_id":444,"name":"indec","steam_id":76561198978404397,"connected_time":1927000000000,"state":"active","ping":53},{"user_id":466,"name":"skuffee","steam_id":76561198132380868,"connected_time":117000000000,"state":"active","ping":59},{"user_id":424,"name":"Sailor","steam_id":76561199081983517,"connected_time":3290000000000,"state":"active","ping":93},{"user_id":402,"name":"FRANKY!!!","steam_id":76561199211305343,"connected_time":4022000000000,"state":"active","ping":70},{"user_id":464,"name":"Mom","steam_id":76561198207936000,"connected_time":340000000000,"state":"active","ping":66},{"user_id":459,"name":"The Shaq Attack","steam_id":76561198075285534,"connected_time":726000000000,"state":"active","ping":39},{"user_id":427,"name":"Many Bees' Chilling","steam_id":76561198079641282,"connected_time":3256000000000,"state":"active","ping":52},{"user_id":258,"name":"mumbles","steam_id":76561197994528974,"connected_time":7230000000000,"state":"active","ping":87},{"user_id":282,"name":"Syrup","steam_id":76561198004623229,"connected_time":6827000000000,"state":"active","ping":91}]},{"server_id":119,"name":"Uncletopia | Seattle | 2 | All Maps","name_short":"sea-2","host":"sea-1.us.uncletopia.com","port":27025,"enabled":true,"region":"us-west","cc":"us","latitude":47.608013,"longitude":-122.33517,"reserved":0,"last_update":"0001-01-01T00:00:00Z","name_a2s":"Uncletopia | Seattle | 2 | All Maps","protocol":17,"map":"pl_swiftwater_final1","folder":"tf","game":"Team Fortress","app_id":440,"player_count":24,"max_players":24,"Bots":0,"server_type":"Dedicated","server_os":"Linux","password":true,"vac":true,"version":"7695204","steam_id":85568392924469998,"keywords":["nocrits","nodmgspread","payload","uncletopia"],"game_id":440,"stv_port":27026,"stv_name":"Uncletopia | Seattle | 2 | All Maps | STV","players":[{"user_id":503,"name":"gorlab","steam_id":76561198025089694,"connected_time":4190000000000,"state":"active","ping":59},{"user_id":527,"name":"Smiling","steam_id":76561198293407075,"connected_time":2962000000000,"state":"active","ping":88},{"user_id":552,"name":"HOG RIDER","steam_id":76561198298589502,"connected_time":42000000000,"state":"active","ping":80},{"user_id":529,"name":"Furious George","steam_id":76561198405111646,"connected_time":2689000000000,"state":"active","ping":66},{"user_id":465,"name":"tayzik","steam_id":76561199391478575,"connected_time":7799000000000,"state":"active","ping":63},{"user_id":525,"name":"N0_J0K3","steam_id":76561198287102197,"connected_time":3107000000000,"state":"active","ping":115},{"user_id":550,"name":"Frank","steam_id":76561198126681511,"connected_time":150000000000,"state":"active","ping":78},{"user_id":548,"name":"`o2","steam_id":76561197992030936,"connected_time":234000000000,"state":"active","ping":120},{"user_id":536,"name":"IntravenusDeMilo","steam_id":76561197970629020,"connected_time":1409000000000,"state":"active","ping":46},{"user_id":549,"name":"seuchenvater","steam_id":76561198109077293,"connected_time":224000000000,"state":"active","ping":47},{"user_id":547,"name":"KellyKapoor","steam_id":76561198040828123,"connected_time":238000000000,"state":"active","ping":49},{"user_id":515,"name":"ordinaryJoe","steam_id":76561198139822390,"connected_time":3514000000000,"state":"active","ping":51},{"user_id":537,"name":"PossumInASock","steam_id":76561198057138795,"connected_time":1382000000000,"state":"active","ping":88},{"user_id":528,"name":"M4 Sherman","steam_id":76561198011096132,"connected_time":2748000000000,"state":"active","ping":63},{"user_id":532,"name":"NJP","steam_id":76561198090275891,"connected_time":1813000000000,"state":"active","ping":65},{"user_id":454,"name":"snorlax_gamer","steam_id":76561199084972996,"connected_time":9188000000000,"state":"active","ping":58},{"user_id":464,"name":"DJHyper777","steam_id":76561198304548526,"connected_time":7816000000000,"state":"active","ping":66},{"user_id":456,"name":"General Fisticuffs","steam_id":76561198255721392,"connected_time":9037000000000,"state":"active","ping":111},{"user_id":492,"name":"Pronounced30","steam_id":76561198070127606,"connected_time":5707000000000,"state":"active","ping":136},{"user_id":489,"name":"Gunslinger Rafa","steam_id":76561198070140106,"connected_time":5817000000000,"state":"active","ping":47},{"user_id":538,"name":"ferby","steam_id":76561198028229594,"connected_time":1363000000000,"state":"active","ping":73},{"user_id":540,"name":"Sierra Foxtrot","steam_id":76561197996667382,"connected_time":722000000000,"state":"active","ping":97},{"user_id":375,"name":"Soap","steam_id":76561198074619142,"connected_time":14735000000000,"state":"active","ping":109},{"user_id":544,"name":"Butterton","steam_id":76561198833286517,"connected_time":347000000000,"state":"active","ping":86}]},{"server_id":17,"name":"Uncletopia | San Francisco | 1 | All Maps","name_short":"sfo-1","host":"sfo-1.us.uncletopia.com","port":27015,"enabled":true,"region":"us-west","cc":"us","latitude":37.77397,"longitude":-122.4313,"reserved":0,"last_update":"0001-01-01T00:00:00Z","name_a2s":"Uncletopia | San Francisco | 1 | All Maps","protocol":17,"map":"pl_barnblitz","folder":"tf","game":"Team Fortress","app_id":440,"player_count":24,"max_players":24,"Bots":0,"server_type":"Dedicated","server_os":"Linux","password":true,"vac":true,"version":"7695204","steam_id":85568392924469999,"keywords":["nocrits","nodmgspread","payload","uncletopia"],"game_id":440,"stv_port":27016,"stv_name":"Uncletopia | San Francisco | 1 | All Maps | STV","players":[{"user_id":135,"name":"eyeball","steam_id":76561198307697528,"connected_time":1108000000000,"state":"active","ping":62},{"user_id":40,"name":"Spooks ☆","steam_id":76561198118095626,"connected_time":6767000000000,"state":"active","ping":67},{"user_id":117,"name":"Moyshen24","steam_id":76561199210510557,"connected_time":3192000000000,"state":"active","ping":61},{"user_id":107,"name":"real","steam_id":76561198156053300,"connected_time":3399000000000,"state":"active","ping":64},{"user_id":139,"name":"BobBallin","steam_id":76561198355299724,"connected_time":590000000000,"state":"active","ping":48},{"user_id":144,"name":"defcon","steam_id":76561198100656328,"connected_time":333000000000,"state":"active","ping":114},{"user_id":130,"name":"Luffa Rigno","steam_id":76561197998700507,"connected_time":1569000000000,"state":"active","ping":57},{"user_id":75,"name":"Wacks","steam_id":76561198079476100,"connected_time":5703000000000,"state":"active","ping":51},{"user_id":118,"name":"devils nightmare","steam_id":76561198068136765,"connected_time":2768000000000,"state":"active","ping":52},{"user_id":109,"name":"Verde","steam_id":76561198035623915,"connected_time":3343000000000,"state":"active","ping":105},{"user_id":86,"name":"pt","steam_id":76561198143023330,"connected_time":5033000000000,"state":"active","ping":59},{"user_id":126,"name":"Charles Lazar","steam_id":76561198343459749,"connected_time":1944000000000,"state":"active","ping":56},{"user_id":140,"name":"Alvaron Steelcaller","steam_id":76561198043845306,"connected_time":584000000000,"state":"active","ping":53},{"user_id":87,"name":"El Gato Paranoico","steam_id":76561198116567116,"connected_time":5029000000000,"state":"active","ping":103},{"user_id":88,"name":"Idontknow","steam_id":76561199207044048,"connected_time":4984000000000,"state":"active","ping":56},{"user_id":96,"name":"Flyingcat9000","steam_id":76561198179561797,"connected_time":4364000000000,"state":"active","ping":37},{"user_id":143,"name":"BoddhosDaughter","steam_id":76561198140202317,"connected_time":465000000000,"state":"active","ping":102},{"user_id":114,"name":"LOBER","steam_id":76561198057253404,"connected_time":3282000000000,"state":"active","ping":104},{"user_id":98,"name":"Rich Money McNickelson","steam_id":76561198352427247,"connected_time":4174000000000,"state":"active","ping":64},{"user_id":137,"name":"muddy","steam_id":76561198035015260,"connected_time":707000000000,"state":"active","ping":82},{"user_id":125,"name":"JacenHan","steam_id":76561198077796718,"connected_time":2263000000000,"state":"active","ping":64},{"user_id":142,"name":"bubbles","steam_id":76561198040940902,"connected_time":500000000000,"state":"active","ping":44},{"user_id":101,"name":"Papi Nacho","steam_id":76561198170128009,"connected_time":3678000000000,"state":"active","ping":59},{"user_id":133,"name":"Taffy","steam_id":76561198276612538,"connected_time":1461000000000,"state":"active","ping":48}]},{"server_id":18,"name":"Uncletopia | San Francisco | 2 | All Maps","name_short":"sfo-2","host":"sfo-1.us.uncletopia.com","port":27025,"enabled":true,"region":"us-west","cc":"us","latitude":37.77397,"longitude":-122.4313,"reserved":0,"last_update":"0001-01-01T00:00:00Z","name_a2s":"Uncletopia | San Francisco | 2 | All Maps","protocol":17,"map":"pl_borneo","folder":"tf","game":"Team Fortress","app_id":440,"player_count":24,"max_players":24,"Bots":0,"server_type":"Dedicated","server_os":"Linux","password":true,"vac":true,"version":"7695204","steam_id":85568392924470000,"keywords":["nocrits","nodmgspread","payload","uncletopia"],"game_id":440,"stv_port":27026,"stv_name":"Uncletopia | San Francisco | 2 | All Maps | STV","players":[{"user_id":579,"name":"I'm sorry in advance","steam_id":76561198087380785,"connected_time":51000000000,"state":"active","ping":68},{"user_id":540,"name":"Dmon","steam_id":76561198032702087,"connected_time":5528000000000,"state":"active","ping":46},{"user_id":564,"name":"JDizzle","steam_id":76561199122696841,"connected_time":1567000000000,"state":"active","ping":71},{"user_id":557,"name":"IzzyHoP","steam_id":76561197995927883,"connected_time":2466000000000,"state":"active","ping":62},{"user_id":570,"name":"tS | maxgb2000","steam_id":76561198079886300,"connected_time":789000000000,"state":"active","ping":94},{"user_id":555,"name":"happer","steam_id":76561198018252253,"connected_time":2951000000000,"state":"active","ping":53},{"user_id":576,"name":"Epic Cleveland","steam_id":76561198079468469,"connected_time":260000000000,"state":"active","ping":95},{"user_id":560,"name":"Kenpachi","steam_id":76561198803824764,"connected_time":2414000000000,"state":"active","ping":82},{"user_id":573,"name":"Leskili","steam_id":76561198013712526,"connected_time":513000000000,"state":"active","ping":64},{"user_id":575,"name":"brae","steam_id":76561198047126327,"connected_time":315000000000,"state":"active","ping":80},{"user_id":516,"name":"Kitto","steam_id":76561198053851877,"connected_time":7735000000000,"state":"active","ping":58},{"user_id":566,"name":"{ᴛʀ_ᴄᴇʀᴘ} shullers","steam_id":76561198889997809,"connected_time":897000000000,"state":"active","ping":53},{"user_id":541,"name":"Dogg wader","steam_id":76561199090314340,"connected_time":5516000000000,"state":"active","ping":71},{"user_id":574,"name":"Jessica (16 yo girl) xoxo","steam_id":76561198073699764,"connected_time":362000000000,"state":"active","ping":62},{"user_id":567,"name":"Fred","steam_id":76561197983870604,"connected_time":892000000000,"state":"active","ping":62},{"user_id":521,"name":"xxashketchup712","steam_id":76561198067232540,"connected_time":7241000000000,"state":"active","ping":125},{"user_id":578,"name":"court appointed hype man","steam_id":76561198069199626,"connected_time":145000000000,"state":"active","ping":64},{"user_id":565,"name":"Timebomb2134","steam_id":76561199065629825,"connected_time":1204000000000,"state":"active","ping":61},{"user_id":460,"name":"MG","steam_id":76561197980131846,"connected_time":11299000000000,"state":"active","ping":55},{"user_id":281,"name":"tweet","steam_id":76561198166515735,"connected_time":23275000000000,"state":"active","ping":47},{"user_id":569,"name":"austin powders","steam_id":76561198312234907,"connected_time":796000000000,"state":"active","ping":64},{"user_id":572,"name":"huiei","steam_id":76561198073763735,"connected_time":539000000000,"state":"active","ping":53},{"user_id":563,"name":"The Clown","steam_id":76561199085524751,"connected_time":1703000000000,"state":"active","ping":61},{"user_id":556,"name":"jimmy outlaw","steam_id":76561198070380402,"connected_time":2779000000000,"state":"active","ping":93}]},{"server_id":19,"name":"Uncletopia | San Francisco | 3 | No Payload","name_short":"sfo-3","host":"sfo-1.us.uncletopia.com","port":27035,"enabled":true,"region":"us-west","cc":"us","latitude":37.77397,"longitude":-122.4313,"reserved":0,"last_update":"0001-01-01T00:00:00Z","name_a2s":"Uncletopia | San Francisco | 3 | No Payload","protocol":17,"map":"plr_hightower","folder":"tf","game":"Team Fortress","app_id":440,"player_count":0,"max_players":24,"Bots":0,"server_type":"Dedicated","server_os":"Linux","password":true,"vac":true,"version":"7695204","steam_id":85568392924742824,"keywords":["nocrits","nodmgspread","payload","uncletopia"],"game_id":440,"stv_port":27036,"stv_name":"Uncletopia | San Francisco | 3 | No Payload | STV","players":null},{"server_id":20,"name":"Uncletopia | San Francisco | 4 | Community","name_short":"sfo-4","host":"sfo-1.us.uncletopia.com","port":27045,"enabled":true,"region":"us-west","cc":"us","latitude":37.77397,"longitude":-122.4313,"reserved":0,"last_update":"0001-01-01T00:00:00Z","name_a2s":"Uncletopia | San Francisco | 4 | Community","protocol":17,"map":"koth_highpass","folder":"tf","game":"Team Fortress","app_id":440,"player_count":0,"max_players":24,"Bots":0,"server_type":"Dedicated","server_os":"Linux","password":true,"vac":true,"version":"7695204","steam_id":85568392924742826,"keywords":["cp","nocrits","nodmgspread","uncletopia"],"game_id":440,"stv_port":0,"stv_name":"","players":null},{"server_id":141,"name":"Uncletopia | Sydney | 1 | All Maps","name_short":"syd-1","host":"syd-1.au.uncletopia.com","port":27015,"enabled":true,"region":"au","cc":"au","latitude":-33.865143,"longitude":151.2099,"reserved":0,"last_update":"0001-01-01T00:00:00Z","name_a2s":"Uncletopia | Sydney | 1 | All Maps","protocol":17,"map":"pl_pier","folder":"tf","game":"Team Fortress","app_id":440,"player_count":0,"max_players":24,"Bots":0,"server_type":"Dedicated","server_os":"Linux","password":true,"vac":true,"version":"7695204","steam_id":85568392924470001,"keywords":["nocrits","nodmgspread","payload","uncletopia"],"game_id":440,"stv_port":27016,"stv_name":"Uncletopia | Sydney | 1 | All Maps | STV","players":null},{"server_id":123,"name":"Uncletopia | Sydney | 2 | All Maps","name_short":"syd-2","host":"syd-1.au.uncletopia.com","port":27025,"enabled":true,"region":"au","cc":"au","latitude":-33.865143,"longitude":151.2099,"reserved":0,"last_update":"0001-01-01T00:00:00Z","name_a2s":"Uncletopia | Sydney | 2 | All Maps","protocol":17,"map":"pl_frontier_final","folder":"tf","game":"Team Fortress","app_id":440,"player_count":24,"max_players":24,"Bots":0,"server_type":"Dedicated","server_os":"Linux","password":true,"vac":true,"version":"7695204","steam_id":85568392924470002,"keywords":["nocrits","nodmgspread","payload","uncletopia"],"game_id":440,"stv_port":27026,"stv_name":"Uncletopia | Sydney | 2 | All Maps | STV","players":[{"user_id":319,"name":"Charm","steam_id":76561198028891054,"connected_time":3252000000000,"state":"active","ping":61},{"user_id":356,"name":"zed","steam_id":76561198321373101,"connected_time":105000000000,"state":"active","ping":44},{"user_id":347,"name":"Mama Origami","steam_id":76561198330338645,"connected_time":476000000000,"state":"active","ping":60},{"user_id":320,"name":"Macca","steam_id":76561198010207998,"connected_time":2713000000000,"state":"active","ping":54},{"user_id":323,"name":"Pompadouraus","steam_id":76561198327530525,"connected_time":2700000000000,"state":"active","ping":75},{"user_id":357,"name":"J''''","steam_id":76561198047565137,"connected_time":68000000000,"state":"active","ping":62},{"user_id":350,"name":"obfusc","steam_id":76561199388029472,"connected_time":331000000000,"state":"active","ping":64},{"user_id":338,"name":"Atomic Gush","steam_id":76561198139543256,"connected_time":1396000000000,"state":"active","ping":60},{"user_id":344,"name":"CouldBeKarlos","steam_id":76561198956180767,"connected_time":904000000000,"state":"active","ping":45},{"user_id":348,"name":"billabong jim","steam_id":76561198887985240,"connected_time":369000000000,"state":"active","ping":105},{"user_id":349,"name":"Emchua","steam_id":76561198128159719,"connected_time":366000000000,"state":"active","ping":52},{"user_id":330,"name":"Abyss (she/her)","steam_id":76561198049213583,"connected_time":2239000000000,"state":"active","ping":62},{"user_id":240,"name":"Mooty","steam_id":76561198301293435,"connected_time":9522000000000,"state":"active","ping":55},{"user_id":358,"name":"korn","steam_id":76561198022563294,"connected_time":61000000000,"state":"active","ping":103},{"user_id":267,"name":"TheSaltyKoi","steam_id":76561198816704624,"connected_time":7534000000000,"state":"active","ping":61},{"user_id":352,"name":"dumbvent","steam_id":76561198190062810,"connected_time":287000000000,"state":"active","ping":58},{"user_id":332,"name":"LilCringe","steam_id":76561198171135461,"connected_time":2034000000000,"state":"active","ping":56},{"user_id":359,"name":"OBI","steam_id":76561198300017538,"connected_time":36000000000,"state":"active","ping":61},{"user_id":316,"name":"Bayonet Enthusiast","steam_id":76561198088904161,"connected_time":3542000000000,"state":"active","ping":59},{"user_id":322,"name":"Phoish","steam_id":76561198442526296,"connected_time":2707000000000,"state":"active","ping":62},{"user_id":333,"name":"table","steam_id":76561199218095319,"connected_time":1803000000000,"state":"active","ping":52},{"user_id":315,"name":"Schizo Joshua Graham","steam_id":76561198136604959,"connected_time":3625000000000,"state":"active","ping":62},{"user_id":354,"name":"max","steam_id":76561199237694314,"connected_time":246000000000,"state":"active","ping":74},{"user_id":343,"name":"Dark_Angel","steam_id":76561198248798154,"connected_time":1115000000000,"state":"active","ping":64}]},{"server_id":395,"name":"Uncletopia | Sydney | 3 | All Maps","name_short":"syd-3","host":"syd-1.au.uncletopia.com","port":27035,"enabled":true,"region":"au","cc":"au","latitude":-33.865143,"longitude":151.2099,"reserved":0,"last_update":"0001-01-01T00:00:00Z","name_a2s":"Uncletopia | Sydney | 3 | All Maps","protocol":17,"map":"pl_badwater","folder":"tf","game":"Team Fortress","app_id":440,"player_count":24,"max_players":24,"Bots":0,"server_type":"Dedicated","server_os":"Linux","password":true,"vac":true,"version":"7695204","steam_id":85568392925194467,"keywords":["nocrits","nodmgspread","payload","uncletopia"],"game_id":440,"stv_port":27036,"stv_name":"Uncletopia | Sydney | 3 | All Maps | STV","players":[{"user_id":149,"name":"Detergent Burger","steam_id":76561198362462506,"connected_time":166000000000,"state":"active","ping":64},{"user_id":126,"name":"krandlez` (Any/All)","steam_id":76561198044839726,"connected_time":1567000000000,"state":"active","ping":32},{"user_id":141,"name":"burfdae boi","steam_id":76561199000827969,"connected_time":616000000000,"state":"active","ping":40},{"user_id":150,"name":"dax","steam_id":76561198840121830,"connected_time":160000000000,"state":"active","ping":62},{"user_id":136,"name":"low iq player","steam_id":76561198241303512,"connected_time":830000000000,"state":"active","ping":54},{"user_id":137,"name":"Iggy","steam_id":76561198801469956,"connected_time":799000000000,"state":"active","ping":58},{"user_id":154,"name":"F2P nob","steam_id":76561198224841384,"connected_time":36000000000,"state":"active","ping":261},{"user_id":132,"name":"SuperNova","steam_id":76561198418441094,"connected_time":1059000000000,"state":"active","ping":46},{"user_id":103,"name":"♥ Sharpy \u003e v \u003c","steam_id":76561198091613743,"connected_time":3143000000000,"state":"active","ping":91},{"user_id":140,"name":"spoiledbanana238","steam_id":76561198054804209,"connected_time":653000000000,"state":"active","ping":88},{"user_id":139,"name":"Shreds","steam_id":76561198190776095,"connected_time":700000000000,"state":"active","ping":61},{"user_id":114,"name":"whiteshaq","steam_id":76561198131988811,"connected_time":2466000000000,"state":"active","ping":75},{"user_id":128,"name":"24 Carat Horse Necklace","steam_id":76561198254802111,"connected_time":1500000000000,"state":"active","ping":56},{"user_id":147,"name":"AfroMeerkat","steam_id":76561197995499647,"connected_time":462000000000,"state":"active","ping":57},{"user_id":142,"name":"Van","steam_id":76561198027324852,"connected_time":583000000000,"state":"active","ping":71},{"user_id":146,"name":"MadmansHat","steam_id":76561199063185304,"connected_time":467000000000,"state":"active","ping":78},{"user_id":138,"name":"THE_YEETERNATOR123","steam_id":76561198803724233,"connected_time":792000000000,"state":"active","ping":56},{"user_id":151,"name":"ANiceCupOfJam","steam_id":76561199256914958,"connected_time":124000000000,"state":"active","ping":57},{"user_id":144,"name":"Worst Sniper","steam_id":76561198025733081,"connected_time":523000000000,"state":"active","ping":75},{"user_id":72,"name":"✻Fяostbite","steam_id":76561198035353612,"connected_time":5250000000000,"state":"active","ping":60},{"user_id":145,"name":"KeeperOfBalance","steam_id":76561198028070089,"connected_time":518000000000,"state":"active","ping":79},{"user_id":152,"name":"Phat Vector","steam_id":76561199142748153,"connected_time":106000000000,"state":"active","ping":75},{"user_id":76,"name":"Glaistig Uaine","steam_id":76561198056798610,"connected_time":5221000000000,"state":"active","ping":85},{"user_id":153,"name":"Bill Nye","steam_id":76561198312898168,"connected_time":97000000000,"state":"active","ping":69}]},{"server_id":396,"name":"Uncletopia | Sydney | 4 | All Maps","name_short":"syd-4","host":"syd-1.au.uncletopia.com","port":27045,"enabled":true,"region":"au","cc":"au","latitude":-33.865143,"longitude":151.2099,"reserved":0,"last_update":"0001-01-01T00:00:00Z","name_a2s":"Uncletopia | Sydney | 4 | All Maps","protocol":17,"map":"koth_lakeside_final","folder":"tf","game":"Team Fortress","app_id":440,"player_count":0,"max_players":24,"Bots":0,"server_type":"Dedicated","server_os":"Linux","password":true,"vac":true,"version":"7695204","steam_id":85568392925397958,"keywords":["cp","nocrits","nodmgspread","uncletopia"],"game_id":440,"stv_port":27046,"stv_name":"Uncletopia | Sydney | 4 | All Maps | STV","players":null},{"server_id":58,"name":"Uncletopia | Sydney | 5 | No Payload","name_short":"syd-5","host":"syd-1.au.uncletopia.com","port":27055,"enabled":true,"region":"au","cc":"au","latitude":-33.865143,"longitude":151.2099,"reserved":0,"last_update":"0001-01-01T00:00:00Z","name_a2s":"Uncletopia | Sydney | 5 | No Payload","protocol":17,"map":"cp_snakewater_final1","folder":"tf","game":"Team Fortress","app_id":440,"player_count":0,"max_players":24,"Bots":0,"server_type":"Dedicated","server_os":"Linux","password":true,"vac":true,"version":"7695204","steam_id":85568392925397959,"keywords":["cp","nocrits","nodmgspread","uncletopia"],"game_id":440,"stv_port":27056,"stv_name":"Uncletopia | Sydney | 5 | No Payload | STV","players":null},{"server_id":59,"name":"Uncletopia | Sydney | 6 | Community","name_short":"syd-6","host":"syd-1.au.uncletopia.com","port":27065,"enabled":true,"region":"au","cc":"au","latitude":-33.865143,"longitude":151.2099,"reserved":0,"last_update":"0001-01-01T00:00:00Z","name_a2s":"Uncletopia | Sydney | 6 | Community","protocol":17,"map":"workshop/koth_product_final.ugc454272353","folder":"tf","game":"Team Fortress","app_id":440,"player_count":0,"max_players":24,"Bots":0,"server_type":"Dedicated","server_os":"Linux","password":true,"vac":true,"version":"7695204","steam_id":85568392925397960,"keywords":["cp","nocrits","nodmgspread","uncletopia"],"game_id":440,"stv_port":27066,"stv_name":"Uncletopia | Sydney | 6 | Community | STV","players":null},{"server_id":49,"name":"Uncletopia | Warsaw | 1 | All Maps","name_short":"waw-1","host":"waw-1.pl.uncletopia.com","port":27015,"enabled":true,"region":"eu","cc":"pl","latitude":52.2297,"longitude":21.017532,"reserved":0,"last_update":"0001-01-01T00:00:00Z","name_a2s":"Uncletopia | Warsaw | 1 | All Maps","protocol":17,"map":"pl_frontier_final","folder":"tf","game":"Team Fortress","app_id":440,"player_count":0,"max_players":24,"Bots":0,"server_type":"Dedicated","server_os":"Linux","password":true,"vac":true,"version":"7695204","steam_id":85568392925397850,"keywords":["nocrits","nodmgspread","payload","uncletopia"],"game_id":440,"stv_port":0,"stv_name":"","players":null},{"server_id":50,"name":"Uncletopia | Warsaw | 2 | All Maps","name_short":"waw-2","host":"waw-1.pl.uncletopia.com","port":27025,"enabled":true,"region":"eu","cc":"pl","latitude":52.2297,"longitude":21.017532,"reserved":0,"last_update":"0001-01-01T00:00:00Z","name_a2s":"Uncletopia | Warsaw | 2 | All Maps","protocol":17,"map":"cp_snakewater_final1","folder":"tf","game":"Team Fortress","app_id":440,"player_count":0,"max_players":24,"Bots":0,"server_type":"Dedicated","server_os":"Linux","password":true,"vac":true,"version":"7695204","steam_id":85568392925397851,"keywords":["cp","nocrits","nodmgspread","uncletopia"],"game_id":440,"stv_port":0,"stv_name":"","players":null},{"server_id":51,"name":"Uncletopia | Warsaw | 3 | All Maps","name_short":"waw-3","host":"waw-1.pl.uncletopia.com","port":27035,"enabled":true,"region":"eu","cc":"pl","latitude":52.2297,"longitude":21.017532,"reserved":0,"last_update":"0001-01-01T00:00:00Z","name_a2s":"Uncletopia | Warsaw | 3 | All Maps","protocol":17,"map":"pl_barnblitz","folder":"tf","game":"Team Fortress","app_id":440,"player_count":0,"max_players":24,"Bots":0,"server_type":"Dedicated","server_os":"Linux","password":true,"vac":true,"version":"7695204","steam_id":85568392925397852,"keywords":["nocrits","nodmgspread","payload","uncletopia"],"game_id":440,"stv_port":0,"stv_name":"","players":null},{"server_id":52,"name":"Uncletopia | Warsaw | 4 | All Maps","name_short":"waw-4","host":"waw-1.pl.uncletopia.com","port":27045,"enabled":true,"region":"eu","cc":"pl","latitude":52.2297,"longitude":21.017532,"reserved":0,"last_update":"0001-01-01T00:00:00Z","name_a2s":"Uncletopia | Warsaw | 4 | All Maps","protocol":17,"map":"cp_altitude","folder":"tf","game":"Team Fortress","app_id":440,"player_count":0,"max_players":24,"Bots":0,"server_type":"Dedicated","server_os":"Linux","password":true,"vac":true,"version":"7695204","steam_id":85568392925397853,"keywords":["cp","nocrits","nodmgspread","uncletopia"],"game_id":440,"stv_port":0,"stv_name":"","players":null},{"server_id":53,"name":"Uncletopia | Warsaw | 5 | No Payload","name_short":"waw-5","host":"waw-1.pl.uncletopia.com","port":27055,"enabled":true,"region":"eu","cc":"pl","latitude":52.2297,"longitude":21.017532,"reserved":0,"last_update":"0001-01-01T00:00:00Z","name_a2s":"Uncletopia | Warsaw | 5 | No Payload","protocol":17,"map":"pl_badwater","folder":"tf","game":"Team Fortress","app_id":440,"player_count":0,"max_players":24,"Bots":0,"server_type":"Dedicated","server_os":"Linux","password":true,"vac":true,"version":"7695204","steam_id":85568392925397854,"keywords":["nocrits","nodmgspread","payload","uncletopia"],"game_id":440,"stv_port":0,"stv_name":"","players":null},{"server_id":54,"name":"Uncletopia | Warsaw | 6 | Community","name_short":"waw-6","host":"waw-1.pl.uncletopia.com","port":27065,"enabled":true,"region":"eu","cc":"pl","latitude":52.2297,"longitude":21.017532,"reserved":0,"last_update":"0001-01-01T00:00:00Z","name_a2s":"Uncletopia | Warsaw | 6 | Community","protocol":17,"map":"pl_barnblitz","folder":"tf","game":"Team Fortress","app_id":440,"player_count":0,"max_players":24,"Bots":0,"server_type":"Dedicated","server_os":"Linux","password":true,"vac":true,"version":"7695204","steam_id":85568392925397856,"keywords":["nocrits","nodmgspread","payload","uncletopia"],"game_id":440,"stv_port":0,"stv_name":"","players":null}]}