{"status":true,"message":"","result":[{"server_id":9,"name":"Uncletopia | Atlanta | 1 | All Maps","name_short":"atl-1","host":"atl-1.us.uncletopia.com","port":27015,"enabled":true,"region":"us-east","cc":"us","latitude":33.753746,"longitude":-84.38633,"reserved":0,"last_update":"0001-01-01T00:00:00Z","name_a2s":"Uncletopia | Atlanta | 1 | All Maps","protocol":17,"map":"koth_king","folder":"tf","game":"Team Fortress","app_id":440,"player_count":24,"max_players":24,"Bots":0,"server_type":"Dedicated","server_os":"Linux","password":true,"vac":true,"version":"7961495","steam_id":85568392924469982,"keywords":["cp","nocrits","nodmgspread","uncletopia"],"game_id":440,"stv_port":27016,"stv_name":"Uncletopia | Atlanta | 1 | All Maps | STV","players":[{"user_id":62,"name":"mayhem","steam_id":76561199246637881,"connected_time":1424000000000,"state":"active","ping":55},{"user_id":68,"name":"Steven","steam_id":76561198075526342,"connected_time":931000000000,"state":"active","ping":71},{"user_id":65,"name":"Whompert","steam_id":76561198042939624,"connected_time":1070000000000,"state":"active","ping":68},{"user_id":60,"name":"you","steam_id":76561198017228729,"connected_time":1819000000000,"state":"active","ping":75},{"user_id":67,"name":"BotchyAlarm8","steam_id":76561198092682129,"connected_time":976000000000,"state":"active","ping":72},{"user_id":77,"name":"KDBite","steam_id":76561198139098949,"connected_time":505000000000,"state":"active","ping":69},{"user_id":25,"name":"Jeramosa","steam_id":76561198811000094,"connected_time":3938000000000,"state":"active","ping":88},{"user_id":78,"name":"Shuu","steam_id":76561199199180558,"connected_time":461000000000,"state":"active","ping":65},{"user_id":84,"name":"maxxuss [AiRe]","steam_id":76561197999155912,"connected_time":250000000000,"state":"active","ping":60},{"user_id":43,"name":"MinimanC","steam_id":76561198071475084,"connected_time":3299000000000,"state":"active","ping":73},{"user_id":83,"name":"Pango","steam_id":76561198069811545,"connected_time":294000000000,"state":"active","ping":40},{"user_id":85,"name":"Dreszerg","steam_id":76561198838757422,"connected_time":140000000000,"state":"active","ping":81},{"user_id":50,"name":"Ok-Par","steam_id":76561199221067945,"connected_time":2771000000000,"state":"active","ping":130},{"user_id":22,"name":"Oxygen User","steam_id":76561199111975528,"connected_time":3971000000000,"state":"active","ping":61},{"user_id":86,"name":"Intro Bonito","steam_id":76561198119478838,"connected_time":97000000000,"state":"active","ping":48},{"user_id":71,"name":"Nari","steam_id":76561198052362380,"connected_time":806000000000,"state":"active","ping":99},{"user_id":58,"name":"Za_Billy","steam_id":76561198141530923,"connected_time":2208000000000,"state":"active","ping":68},{"user_id":72,"name":"Jerich","steam_id":76561198394593386,"connected_time":718000000000,"state":"active","ping":106},{"user_id":79,"name":"frank","steam_id":76561198137777483,"connected_time":423000000000,"state":"active","ping":87},{"user_id":51,"name":"Zaro","steam_id":76561198433849006,"connected_time":2750000000000,"state":"active","ping":46},{"user_id":80,"name":"shaderoses","steam_id":76561198070800500,"connected_time":407000000000,"state":"active","ping":65},{"user_id":32,"name":"carly","steam_id":76561198094118479,"connected_time":3912000000000,"state":"active","ping":104},{"user_id":81,"name":"grandes pechos naturales","steam_id":76561198194471251,"connected_time":373000000000,"state":"active","ping":45},{"user_id":64,"name":"FIJI","steam_id":76561198126087725,"connected_time":1089000000000,"state":"active","ping":67}]},{"server_id":104,"name":"Uncletopia | Atlanta | 2 | All Maps","name_short":"atl-2","host":"atl-1.us.uncletopia.com","port":27025,"enabled":true,"region":"us-east","cc":"us","latitude":33.753746,"longitude":-84.38633,"reserved":0,"last_update":"0001-01-01T00:00:00Z","name_a2s":"Uncletopia | Atlanta | 2 | All Maps","protocol":17,"map":"pl_badwater","folder":"tf","game":"Team Fortress","app_id":440,"player_count":1,"max_players":24,"Bots":0,"server_type":"Dedicated","server_os":"Linux","password":true,"vac":true,"version":"7961495","steam_id":85568392924469983,"keywords":["nocrits","nodmgspread","payload","uncletopia"],"game_id":440,"stv_port":27026,"stv_name":"Uncletopia | Atlanta | 2 | All Maps | STV","players":[{"user_id":13,"name":"Oligamer3690","steam_id":76561198827869629,"connected_time":25000000000,"state":"spawning","ping":148}]},{"server_id":400,"name":"Uncletopia | Atlanta | 3 | Stopwatch","name_short":"atl-3","host":"atl-1.us.uncletopia.com","port":27035,"enabled":true,"region":"us-east","cc":"us","latitude":33.753746,"longitude":-84.38633,"reserved":0,"last_update":"0001-01-01T00:00:00Z","name_a2s":"Uncletopia | Atlanta | 3 | Stopwatch","protocol":17,"map":"cp_process_final","folder":"tf","game":"Team Fortress","app_id":440,"player_count":0,"max_players":24,"Bots":0,"server_type":"Dedicated","server_os":"Linux","password":true,"vac":true,"version":"7961495","steam_id":85568392924515187,"keywords":["cp","nocrits","nodmgspread","uncletopia"],"game_id":440,"stv_port":27036,"stv_name":"Uncletopia | Atlanta | 3 | Stopwatch | STV","players":null},{"server_id":401,"name":"Uncletopia | Atlanta | 4 | Community","name_short":"atl-4","host":"atl-1.us.uncletopia.com","port":27045,"enabled":true,"region":"us-east","cc":"us","latitude":33.753746,"longitude":-84.38633,"reserved":0,"last_update":"0001-01-01T00:00:00Z","name_a2s":"Uncletopia | Atlanta | 4 | Community","protocol":17,"map":"workshop/pl_phoenix_b4a.ugc2969509359","folder":"tf","game":"Team Fortress","app_id":440,"player_count":0,"max_players":24,"Bots":0,"server_type":"Dedicated","server_os":"Linux","password":true,"vac":true,"version":"7961495","steam_id":85568392924515188,"keywords":["nocrits","nodmgspread","payload","uncletopia"],"game_id":440,"stv_port":27046,"stv_name":"Uncletopia | Atlanta | 4 | Community | STV","players":null},{"server_id":2,"name":"Uncletopia | Chicago | 1 | All Maps","name_short":"chi-1","host":"chi-1.us.uncletopia.com","port":27015,"enabled":true,"region":"us-central","cc":"us","latitude":41.881832,"longitude":-87.62318,"reserved":0,"last_update":"0001-01-01T00:00:00Z","name_a2s":"Uncletopia | Chicago | 1 | All Maps","protocol":17,"map":"pl_frontier_final","folder":"tf","game":"Team Fortress","app_id":440,"player_count":24,"max_players":24,"Bots":0,"server_type":"Dedicated","server_os":"Linux","password":true,"vac":true,"version":"7961495","steam_id":85568392924469984,"keywords":["nocrits","nodmgspread","payload","uncletopia"],"game_id":440,"stv_port":27016,"stv_name":"Uncletopia | Chicago | 1 | All Maps | STV","players":[{"user_id":152,"name":"Toasterduds","steam_id":76561198163477584,"connected_time":1016000000000,"state":"active","ping":114},{"user_id":168,"name":"no more fucks to give","steam_id":76561199129974320,"connected_time":42000000000,"state":"spawning","ping":29},{"user_id":111,"name":"okay","steam_id":76561198024973008,"connected_time":4808000000000,"state":"active","ping":69},{"user_id":134,"name":"Battalion's Backup","steam_id":76561198066153777,"connected_time":2969000000000,"state":"active","ping":38},{"user_id":161,"name":"cookies","steam_id":76561198280864779,"connected_time":159000000000,"state":"active","ping":60},{"user_id":162,"name":"mustard gas!","steam_id":76561199089824757,"connected_time":155000000000,"state":"active","ping":87},{"user_id":136,"name":"Dr. Bodacious","steam_id":76561199122205825,"connected_time":2929000000000,"state":"active","ping":66},{"user_id":163,"name":"gmaay","steam_id":76561199104911185,"connected_time":147000000000,"state":"active","ping":72},{"user_id":138,"name":"Bacchus","steam_id":76561199056815356,"connected_time":2875000000000,"state":"active","ping":64},{"user_id":150,"name":"Tom","steam_id":76561198070630154,"connected_time":1722000000000,"state":"active","ping":88},{"user_id":164,"name":"Tommy Pickles (Very ____)","steam_id":76561198391261463,"connected_time":132000000000,"state":"active","ping":70},{"user_id":165,"name":"Nolan","steam_id":76561198169648081,"connected_time":108000000000,"state":"active","ping":88},{"user_id":104,"name":"Siz","steam_id":76561198072962154,"connected_time":5433000000000,"state":"active","ping":65},{"user_id":151,"name":"Basket of Whistles","steam_id":76561198038541306,"connected_time":1670000000000,"state":"active","ping":73},{"user_id":160,"name":"triangleman","steam_id":76561198972733542,"connected_time":187000000000,"state":"active","ping":56},{"user_id":149,"name":"hearthian","steam_id":76561198113235260,"connected_time":1729000000000,"state":"active","ping":93},{"user_id":156,"name":"Prsm","steam_id":76561198053344995,"connected_time":731000000000,"state":"active","ping":58},{"user_id":31,"name":"voltageG","steam_id":76561198107165710,"connected_time":9533000000000,"state":"active","ping":71},{"user_id":158,"name":"poorman #1 sniper","steam_id":76561198447884169,"connected_time":371000000000,"state":"active","ping":38},{"user_id":166,"name":"PageBoiSkull","steam_id":76561198237353578,"connected_time":104000000000,"state":"active","ping":106},{"user_id":167,"name":"YOU WHAT?!","steam_id":76561198418679471,"connected_time":100000000000,"state":"active","ping":62},{"user_id":144,"name":"Enemy goblin","steam_id":76561198045793516,"connected_time":2550000000000,"state":"active","ping":54},{"user_id":145,"name":"Fuegan Ra","steam_id":76561198287923849,"connected_time":2537000000000,"state":"active","ping":55},{"user_id":148,"name":"SoftAvocado","steam_id":76561198278375987,"connected_time":1828000000000,"state":"active","ping":79}]},{"server_id":106,"name":"Uncletopia | Chicago | 2 | All Maps","name_short":"chi-2","host":"chi-1.us.uncletopia.com","port":27025,"enabled":true,"region":"us-central","cc":"us","latitude":41.881832,"longitude":-87.62318,"reserved":0,"last_update":"0001-01-01T00:00:00Z","name_a2s":"Uncletopia | Chicago | 2 | All Maps","protocol":17,"map":"pl_borneo","folder":"tf","game":"Team Fortress","app_id":440,"player_count":24,"max_players":24,"Bots":0,"server_type":"Dedicated","server_os":"Linux","password":true,"vac":true,"version":"7961495","steam_id":85568392924469985,"keywords":["nocrits","nodmgspread","payload","uncletopia"],"game_id":440,"stv_port":27026,"stv_name":"Uncletopia | Chicago | 2 | All Maps | STV","players":[{"user_id":241,"name":"corntent","steam_id":76561198824847948,"connected_time":2670000000000,"state":"active","ping":60},{"user_id":218,"name":"NighttimeNap","steam_id":76561198149183514,"connected_time":4319000000000,"state":"active","ping":108},{"user_id":282,"name":"mz.maggie4","steam_id":76561198866614956,"connected_time":63000000000,"state":"active","ping":90},{"user_id":6,"name":"daemon","steam_id":76561198001541433,"connected_time":23173000000000,"state":"active","ping":59},{"user_id":171,"name":"Brandino!","steam_id":76561198000446932,"connected_time":8749000000000,"state":"active","ping":81},{"user_id":277,"name":"hunrah","steam_id":76561198185509070,"connected_time":534000000000,"state":"active","ping":54},{"user_id":280,"name":"kite","steam_id":76561198346516392,"connected_time":267000000000,"state":"active","ping":72},{"user_id":214,"name":"divingmule","steam_id":76561197966679724,"connected_time":4561000000000,"state":"active","ping":63},{"user_id":283,"name":"Butthole Cafeteria","steam_id":76561197986078333,"connected_time":17000000000,"state":"active","ping":237},{"user_id":256,"name":"t.tv/ibbKitty  ∑:3","steam_id":76561198110858518,"connected_time":1542000000000,"state":"active","ping":60},{"user_id":274,"name":"Gheeotine","steam_id":76561198010181698,"connected_time":842000000000,"state":"active","ping":90},{"user_id":253,"name":"Radium","steam_id":76561198195881339,"connected_time":1721000000000,"state":"active","ping":64},{"user_id":258,"name":"Boofenshmirtz","steam_id":76561198071649858,"connected_time":1520000000000,"state":"active","ping":74},{"user_id":281,"name":"slep.py","steam_id":76561197988287144,"connected_time":176000000000,"state":"active","ping":47},{"user_id":250,"name":"Whimsy!","steam_id":76561197989578836,"connected_time":1931000000000,"state":"active","ping":90},{"user_id":261,"name":"Jamie (controller)","steam_id":76561198058840477,"connected_time":1363000000000,"state":"active","ping":95},{"user_id":268,"name":"Morgster","steam_id":76561198131697761,"connected_time":1048000000000,"state":"active","ping":72},{"user_id":211,"name":"Fredrick","steam_id":76561197981419964,"connected_time":4855000000000,"state":"active","ping":61},{"user_id":275,"name":"Nathan","steam_id":76561198127924646,"connected_time":688000000000,"state":"active","ping":89},{"user_id":228,"name":"crab","steam_id":76561199094011002,"connected_time":3656000000000,"state":"active","ping":49},{"user_id":278,"name":"airballer","steam_id":76561198165899125,"connected_time":533000000000,"state":"active","ping":72},{"user_id":264,"name":"Deoxis110","steam_id":76561198997269000,"connected_time":1238000000000,"state":"active","ping":131},{"user_id":270,"name":"milkmanjoe","steam_id":76561199273891607,"connected_time":1036000000000,"state":"active","ping":66},{"user_id":226,"name":"Lmnop","steam_id":76561198038458838,"connected_time":4028000000000,"state":"active","ping":56}]},{"server_id":402,"name":"Uncletopia | Chicago | 3 | All Maps","name_short":"chi-3","host":"chi-1.us.uncletopia.com","port":27035,"enabled":true,"region":"us-central","cc":"us","latitude":41.881832,"longitude":-87.62318,"reserved":0,"last_update":"0001-01-01T00:00:00Z","name_a2s":"Uncletopia | Chicago | 3 | All Maps","protocol":17,"map":"cp_metalworks","folder":"tf","game":"Team Fortress","app_id":440,"player_count":21,"max_players":24,"Bots":0,"server_type":"Dedicated","server_os":"Linux","password":true,"vac":true,"version":"7961495","steam_id":85568392924515191,"keywords":["cp","nocrits","nodmgspread","uncletopia"],"game_id":440,"stv_port":27036,"stv_name":"Uncletopia | Chicago | 3 | All Maps | STV","players":[{"user_id":55,"name":"Quansen","steam_id":76561198151594550,"connected_time":528000000000,"state":"active","ping":46},{"user_id":33,"name":"ゲームは終わりました","steam_id":76561198328234905,"connected_time":1651000000000,"state":"active","ping":157},{"user_id":9,"name":"gillmore.samuel","steam_id":76561198109742336,"connected_time":3437000000000,"state":"active","ping":55},{"user_id":56,"name":"RedReimu","steam_id":76561199211311731,"connected_time":499000000000,"state":"active","ping":110},{"user_id":14,"name":"Fresh Lychee","steam_id":76561198045399559,"connected_time":2259000000000,"state":"active","ping":54},{"user_id":13,"name":"The World's Softest Sandwich","steam_id":76561198015577707,"connected_time":2501000000000,"state":"active","ping":79},{"user_id":61,"name":"CyberKing","steam_id":76561198891407538,"connected_time":227000000000,"state":"active","ping":58},{"user_id":62,"name":"Training Bot [Easy]","steam_id":76561199119473164,"connected_time":205000000000,"state":"active","ping":71},{"user_id":58,"name":"Kartyac","steam_id":76561197991069005,"connected_time":302000000000,"state":"active","ping":75},{"user_id":67,"name":"biden cart 15 dollars","steam_id":76561198253731826,"connected_time":137000000000,"state":"active","ping":57},{"user_id":59,"name":"inshallah","steam_id":76561198165212575,"connected_time":266000000000,"state":"active","ping":62},{"user_id":64,"name":"joyeuxnoelle","steam_id":76561198062423120,"connected_time":185000000000,"state":"active","ping":63},{"user_id":49,"name":"Captain Malarkey","steam_id":76561198869924281,"connected_time":1070000000000,"state":"active","ping":81},{"user_id":28,"name":"Ryan","steam_id":76561198370312678,"connected_time":1750000000000,"state":"active","ping":64},{"user_id":65,"name":"GrunerJunge","steam_id":76561199492836198,"connected_time":183000000000,"state":"active","ping":75},{"user_id":53,"name":"Scrux","steam_id":76561198129763115,"connected_time":806000000000,"state":"active","ping":108},{"user_id":66,"name":"Sappho of Lesbos","steam_id":76561198115931381,"connected_time":140000000000,"state":"active","ping":61},{"user_id":70,"name":"Grimm - (RIP Rick May/Kitty0706","steam_id":76561199050642411,"connected_time":45000000000,"state":"active","ping":89},{"user_id":50,"name":"fawn covered in paint thinner","steam_id":76561198043684960,"connected_time":993000000000,"state":"active","ping":65},{"user_id":54,"name":"mechinventor6711","steam_id":76561198348155156,"connected_time":593000000000,"state":"active","ping":70},{"user_id":43,"name":"menonamed","steam_id":76561198199564382,"connected_time":1567000000000,"state":"active","ping":70}]},{"server_id":403,"name":"Uncletopia | Chicago | 4 | All Maps","name_short":"chi-4","host":"chi-1.us.uncletopia.com","port":27045,"enabled":true,"region":"us-central","cc":"us","latitude":41.881832,"longitude":-87.62318,"reserved":0,"last_update":"0001-01-01T00:00:00Z","name_a2s":"Uncletopia | Chicago | 4 | All Maps","protocol":17,"map":"pl_badwater","folder":"tf","game":"Team Fortress","app_id":440,"player_count":24,"max_players":24,"Bots":0,"server_type":"Dedicated","server_os":"Linux","password":true,"vac":true,"version":"7961495","steam_id":85568392924515193,"keywords":["nocrits","nodmgspread","payload","uncletopia"],"game_id":440,"stv_port":27046,"stv_name":"Uncletopia | Chicago | 4 | All Maps | STV","players":[{"user_id":97,"name":"Apina Nautiskelija","steam_id":76561198391622919,"connected_time":568000000000,"state":"active","ping":154},{"user_id":100,"name":"The Heart","steam_id":76561198271979288,"connected_time":420000000000,"state":"active","ping":43},{"user_id":85,"name":"definitely not cris","steam_id":76561198930426710,"connected_time":1183000000000,"state":"active","ping":76},{"user_id":103,"name":"alcovenant","steam_id":76561198066247487,"connected_time":94000000000,"state":"active","ping":63},{"user_id":93,"name":"Pledged","steam_id":76561198055445036,"connected_time":882000000000,"state":"active","ping":65},{"user_id":78,"name":"indi","steam_id":76561198045917538,"connected_time":2294000000000,"state":"active","ping":47},{"user_id":87,"name":"StudioMania (#SAVETF2)","steam_id":76561198211315795,"connected_time":1171000000000,"state":"active","ping":68},{"user_id":56,"name":"Communist Killing Candy Cactus\ufffd","steam_id":76561198074980635,"connected_time":3664000000000,"state":"active","ping":116},{"user_id":40,"name":"Nukem","steam_id":76561198166236574,"connected_time":4145000000000,"state":"active","ping":77},{"user_id":90,"name":"carrot cake","steam_id":76561198055174915,"connected_time":945000000000,"state":"active","ping":69},{"user_id":73,"name":"P.T. Barnum's Redemption Arc","steam_id":76561198136789464,"connected_time":2427000000000,"state":"active","ping":63},{"user_id":104,"name":"Blink","steam_id":76561197986181277,"connected_time":86000000000,"state":"active","ping":45},{"user_id":29,"name":"I cooka a da pizza","steam_id":76561198126121555,"connected_time":4390000000000,"state":"active","ping":49},{"user_id":19,"name":"Your Loyal Familiar","steam_id":76561198106476075,"connected_time":4511000000000,"state":"active","ping":78},{"user_id":92,"name":"Drachma","steam_id":76561198007310514,"connected_time":905000000000,"state":"active","ping":66},{"user_id":42,"name":"Chelo Jengo","steam_id":76561198426191363,"connected_time":4132000000000,"state":"active","ping":68},{"user_id":49,"name":"Zeboto","steam_id":76561198078054459,"connected_time":4027000000000,"state":"active","ping":67},{"user_id":80,"name":"Kalioc","steam_id":76561198042557843,"connected_time":2266000000000,"state":"active","ping":86},{"user_id":86,"name":"GooseWithAGibus","steam_id":76561198131567365,"connected_time":1180000000000,"state":"active","ping":76},{"user_id":99,"name":"Vintage","steam_id":76561198091786007,"connected_time":538000000000,"state":"active","ping":71},{"user_id":88,"name":"TRIPLE AAARON","steam_id":76561198066835150,"connected_time":1117000000000,"state":"active","ping":60},{"user_id":105,"name":"nonagon infinity","steam_id":76561198397662124,"connected_time":57000000000,"state":"active","ping":91},{"user_id":106,"name":"Augustus Gloop","steam_id":76561198145561348,"connected_time":51000000000,"state":"active","ping":63},{"user_id":83,"name":"ThatGamingKiwi","steam_id":76561199170522237,"connected_time":1533000000000,"state":"active","ping":75}]},{"server_id":36,"name":"Uncletopia | Chicago | 5 | All Maps","name_short":"chi-5","host":"chi-2.us.uncletopia.com","port":27015,"enabled":true,"region":"us-central","cc":"us","latitude":41.881832,"longitude":-87.62318,"reserved":0,"last_update":"0001-01-01T00:00:00Z","name_a2s":"Uncletopia | Chicago | 5 | All Maps","protocol":17,"map":"cp_gorge","folder":"tf","game":"Team Fortress","app_id":440,"player_count":0,"max_players":24,"Bots":0,"server_type":"Dedicated","server_os":"Linux","password":true,"vac":true,"version":"7961495","steam_id":85568392924866362,"keywords":["cp","nocrits","nodmgspread","uncletopia"],"game_id":440,"stv_port":27016,"stv_name":"Uncletopia | Chicago | 5 | All Maps | STV","players":null},{"server_id":37,"name":"Uncletopia | Chicago | 6 | All Maps","name_short":"chi-6","host":"chi-2.us.uncletopia.com","port":27025,"enabled":true,"region":"us-central","cc":"us","latitude":41.881832,"longitude":-87.62318,"reserved":0,"last_update":"0001-01-01T00:00:00Z","name_a2s":"Uncletopia | Chicago | 6 | All Maps","protocol":17,"map":"pl_upward","folder":"tf","game":"Team Fortress","app_id":440,"player_count":0,"max_players":24,"Bots":0,"server_type":"Dedicated","server_os":"Linux","password":true,"vac":true,"version":"7961495","steam_id":85568392924866363,"keywords":["nocrits","nodmgspread","payload","uncletopia"],"game_id":440,"stv_port":27026,"stv_name":"Uncletopia | Chicago | 6 | All Maps | STV","players":null},{"server_id":38,"name":"Uncletopia | Chicago | 7 | Stopwatch","name_short":"chi-7","host":"chi-2.us.uncletopia.com","port":27035,"enabled":true,"region":"us-central","cc":"us","latitude":41.881832,"longitude":-87.62318,"reserved":0,"last_update":"0001-01-01T00:00:00Z","name_a2s":"Uncletopia | Chicago | 7 | Stopwatch","protocol":17,"map":"workshop/koth_ashville_final.ugc2130459942","folder":"tf","game":"Team Fortress","app_id":440,"player_count":0,"max_players":24,"Bots":0,"server_type":"Dedicated","server_os":"Linux","password":true,"vac":true,"version":"7961495","steam_id":85568392924866364,"keywords":["cp","nocrits","nodmgspread","uncletopia"],"game_id":440,"stv_port":27036,"stv_name":"Uncletopia | Chicago | 7 | Stopwatch | STV","players":null},{"server_id":39,"name":"Uncletopia | Chicago | 8 | Community","name_short":"chi-8","host":"chi-2.us.uncletopia.com","port":27045,"enabled":true,"region":"us-central","cc":"us","latitude":41.881832,"longitude":-87.62318,"reserved":0,"last_update":"0001-01-01T00:00:00Z","name_a2s":"Uncletopia | Chicago | 8 | Community","protocol":17,"map":"workshop/cp_caldera_rc3.ugc2834196889","folder":"tf","game":"Team Fortress","app_id":440,"player_count":0,"max_players":24,"Bots":0,"server_type":"Dedicated","server_os":"Linux","password":true,"vac":true,"version":"7961495","steam_id":85568392924866365,"keywords":["cp","nocrits","nodmgspread","uncletopia"],"game_id":440,"stv_port":27046,"stv_name":"Uncletopia | Chicago | 8 | Community | STV","players":null},{"server_id":8,"name":"Uncletopia | Dallas | 1 | All Maps","name_short":"dal-1","host":"dal-1.us.uncletopia.com","port":27015,"enabled":true,"region":"us-central","cc":"us","latitude":32.779167,"longitude":-96.80889,"reserved":0,"last_update":"0001-01-01T00:00:00Z","name_a2s":"Uncletopia | Dallas | 1 | All Maps","protocol":17,"map":"koth_viaduct","folder":"tf","game":"Team Fortress","app_id":440,"player_count":16,"max_players":24,"Bots":0,"server_type":"Dedicated","server_os":"Linux","password":true,"vac":true,"version":"7961495","steam_id":85568392924469986,"keywords":["cp","nocrits","nodmgspread","uncletopia"],"game_id":440,"stv_port":27016,"stv_name":"Uncletopia | Dallas | 1 | All Maps | STV","players":[{"user_id":201,"name":"luigigario","steam_id":76561198881262416,"connected_time":78000000000,"state":"active","ping":98},{"user_id":176,"name":"a fuddruckers","steam_id":76561198092656099,"connected_time":1703000000000,"state":"active","ping":45},{"user_id":100,"name":"DMM","steam_id":76561198065426171,"connected_time":7879000000000,"state":"active","ping":50},{"user_id":180,"name":"Mr. Hankey","steam_id":76561198872852200,"connected_time":1411000000000,"state":"active","ping":129},{"user_id":181,"name":"Transfem Bumblebee","steam_id":76561198119393205,"connected_time":1397000000000,"state":"active","ping":50},{"user_id":200,"name":"i farted something fierce","steam_id":76561199016285746,"connected_time":226000000000,"state":"active","ping":59},{"user_id":183,"name":"GrantTheMedicYT","steam_id":76561199077176696,"connected_time":1355000000000,"state":"active","ping":74},{"user_id":141,"name":"dadgummit","steam_id":76561198005806915,"connected_time":4631000000000,"state":"active","ping":75},{"user_id":159,"name":"Op banana","steam_id":76561198303231451,"connected_time":2981000000000,"state":"active","ping":46},{"user_id":194,"name":"Boring","steam_id":76561198827219701,"connected_time":671000000000,"state":"active","ping":180},{"user_id":197,"name":"mark","steam_id":76561198223421912,"connected_time":307000000000,"state":"active","ping":85},{"user_id":186,"name":"Blade Racer","steam_id":76561198155896703,"connected_time":1331000000000,"state":"active","ping":73},{"user_id":195,"name":"Wooden E","steam_id":76561198020308956,"connected_time":565000000000,"state":"active","ping":64},{"user_id":189,"name":"kaimann_25","steam_id":76561198867926098,"connected_time":1204000000000,"state":"active","ping":72},{"user_id":198,"name":"TheAsianMeatball","steam_id":76561198336926133,"connected_time":301000000000,"state":"active","ping":62},{"user_id":153,"name":"Rob","steam_id":76561199187786660,"connected_time":3371000000000,"state":"active","ping":42}]},{"server_id":108,"name":"Uncletopia | Dallas | 2 | All Maps","name_short":"dal-2","host":"dal-1.us.uncletopia.com","port":27025,"enabled":true,"region":"us-central","cc":"us","latitude":32.779167,"longitude":-96.80889,"reserved":0,"last_update":"0001-01-01T00:00:00Z","name_a2s":"Uncletopia | Dallas | 2 | All Maps","protocol":17,"map":"cp_dustbowl","folder":"tf","game":"Team Fortress","app_id":440,"player_count":0,"max_players":24,"Bots":0,"server_type":"Dedicated","server_os":"Linux","password":true,"vac":true,"version":"7961495","steam_id":85568392924469988,"keywords":["cp","nocrits","nodmgspread","uncletopia"],"game_id":440,"stv_port":27026,"stv_name":"Uncletopia | Dallas | 2 | All Maps | STV","players":null},{"server_id":404,"name":"Uncletopia | Dallas | 3 | All Maps","name_short":"dal-3","host":"dal-1.us.uncletopia.com","port":27035,"enabled":true,"region":"us-central","cc":"us","latitude":32.779167,"longitude":-96.80889,"reserved":0,"last_update":"0001-01-01T00:00:00Z","name_a2s":"Uncletopia | Dallas | 3 | All Maps","protocol":17,"map":"pl_upward","folder":"tf","game":"Team Fortress","app_id":440,"player_count":24,"max_players":24,"Bots":0,"server_type":"Dedicated","server_os":"Linux","password":true,"vac":true,"version":"7961495","steam_id":85568392924515219,"keywords":["nocrits","nodmgspread","payload","uncletopia"],"game_id":440,"stv_port":27036,"stv_name":"Uncletopia | Dallas | 3 | All Maps | STV","players":[{"user_id":9,"name":"♥ Tomboy ♥","steam_id":76561198069881436,"connected_time":8376000000000,"state":"active","ping":74},{"user_id":100,"name":"the.land.of.avalon","steam_id":76561198245431668,"connected_time":731000000000,"state":"active","ping":75},{"user_id":79,"name":"Catgirl Explise","steam_id":76561198044413891,"connected_time":1644000000000,"state":"active","ping":278},{"user_id":84,"name":"Rick Assley","steam_id":76561198365019199,"connected_time":1498000000000,"state":"active","ping":102},{"user_id":73,"name":"transfem atsuko kagari","steam_id":76561198217402847,"connected_time":2177000000000,"state":"active","ping":88},{"user_id":103,"name":"Secret Tunnel","steam_id":76561198272403112,"connected_time":533000000000,"state":"active","ping":76},{"user_id":91,"name":"nufyivuyda","steam_id":76561199499476489,"connected_time":1017000000000,"state":"active","ping":96},{"user_id":92,"name":"Squagol","steam_id":76561197987486159,"connected_time":979000000000,"state":"active","ping":70},{"user_id":19,"name":"Cazadon","steam_id":76561198131331701,"connected_time":6267000000000,"state":"active","ping":53},{"user_id":20,"name":"Sammi The Hylir","steam_id":76561198129848053,"connected_time":6232000000000,"state":"active","ping":179},{"user_id":71,"name":"Cam","steam_id":76561198139174433,"connected_time":2397000000000,"state":"active","ping":67},{"user_id":93,"name":"asm_ghost","steam_id":76561199205363547,"connected_time":944000000000,"state":"active","ping":120},{"user_id":52,"name":"Woods","steam_id":76561198440012069,"connected_time":4419000000000,"state":"active","ping":99},{"user_id":66,"name":"Certified Hood Classic","steam_id":76561199086159354,"connected_time":3276000000000,"state":"active","ping":55},{"user_id":106,"name":"Wounded","steam_id":76561199440954924,"connected_time":53000000000,"state":"spawning","ping":227},{"user_id":101,"name":"Birby","steam_id":76561198884009768,"connected_time":643000000000,"state":"active","ping":118},{"user_id":95,"name":"(Ô)Ô)Wandering Singer(Ô(Ô)","steam_id":76561198126477141,"connected_time":851000000000,"state":"active","ping":96},{"user_id":105,"name":"Gargathor the Entity Catcher","steam_id":76561198189429665,"connected_time":418000000000,"state":"active","ping":70},{"user_id":102,"name":"TOTALLY HARDCORE","steam_id":76561198842311643,"connected_time":582000000000,"state":"active","ping":45},{"user_id":98,"name":"GuyGoom","steam_id":76561198254522178,"connected_time":770000000000,"state":"active","ping":75},{"user_id":99,"name":"reject drugs and embrace God","steam_id":76561198452519031,"connected_time":755000000000,"state":"active","ping":110},{"user_id":104,"name":"skullface","steam_id":76561198353704776,"connected_time":486000000000,"state":"active","ping":46},{"user_id":43,"name":"Peluche Marisa","steam_id":76561199011452659,"connected_time":5119000000000,"state":"active","ping":112},{"user_id":45,"name":"Dr.Blunt","steam_id":76561198096333958,"connected_time":4866000000000,"state":"active","ping":81}]},{"server_id":405,"name":"Uncletopia | Dallas | 4 | Community","name_short":"dal-4","host":"dal-1.us.uncletopia.com","port":27045,"enabled":true,"region":"us-central","cc":"us","latitude":32.779167,"longitude":-96.80889,"reserved":0,"last_update":"0001-01-01T00:00:00Z","name_a2s":"Uncletopia | Dallas | 4 | Community","protocol":17,"map":"workshop/pl_vigil_rc10.ugc1266210012","folder":"tf","game":"Team Fortress","app_id":440,"player_count":0,"max_players":24,"Bots":0,"server_type":"Dedicated","server_os":"Linux","password":true,"vac":true,"version":"7961495","steam_id":85568392924515220,"keywords":["nocrits","nodmgspread","payload","uncletopia"],"game_id":440,"stv_port":27046,"stv_name":"Uncletopia | Dallas | 4 | Community | STV","players":null},{"server_id":5,"name":"Uncletopia | Frankfurt | 1 | All Maps","name_short":"frk-1","host":"frk-1.de.uncletopia.com","port":27015,"enabled":true,"region":"eu","cc":"de","latitude":50.110924,"longitude":8.682127,"reserved":0,"last_update":"0001-01-01T00:00:00Z","name_a2s":"Uncletopia | Frankfurt | 1 | All Maps","protocol":17,"map":"pl_snowycoast","folder":"tf","game":"Team Fortress","app_id":440,"player_count":24,"max_players":24,"Bots":0,"server_type":"Dedicated","server_os":"Linux","password":true,"vac":true,"version":"7961495","steam_id":85568392924469989,"keywords":["nocrits","nodmgspread","payload","uncletopia"],"game_id":440,"stv_port":27016,"stv_name":"Uncletopia | Frankfurt | 1 | All Maps | STV","players":[{"user_id":458,"name":"watch thief","steam_id":76561198036730191,"connected_time":3402000000000,"state":"active","ping":60},{"user_id":500,"name":"РеДаНоВеЦ ^_^","steam_id":76561199032612973,"connected_time":1217000000000,"state":"active","ping":63},{"user_id":505,"name":"sex tf2","steam_id":76561198147874568,"connected_time":1059000000000,"state":"active","ping":117},{"user_id":522,"name":"dispensuh","steam_id":76561199217601719,"connected_time":515000000000,"state":"active","ping":260},{"user_id":513,"name":"Playback_time","steam_id":76561198349426598,"connected_time":839000000000,"state":"active","ping":54},{"user_id":512,"name":"go play rimworld","steam_id":76561199397932924,"connected_time":874000000000,"state":"active","ping":65},{"user_id":531,"name":"aaaaaa","steam_id":76561198086304421,"connected_time":79000000000,"state":"active","ping":88},{"user_id":518,"name":"Kenny Savage","steam_id":76561199049383900,"connected_time":595000000000,"state":"active","ping":69},{"user_id":528,"name":"Juno","steam_id":76561198960480730,"connected_time":307000000000,"state":"active","ping":63},{"user_id":493,"name":"bottomest g","steam_id":76561198138928548,"connected_time":1395000000000,"state":"active","ping":55},{"user_id":465,"name":"Transcendence Fernando","steam_id":76561197987115316,"connected_time":3192000000000,"state":"active","ping":60},{"user_id":478,"name":"Philosophos_Alpha","steam_id":76561198951264580,"connected_time":2814000000000,"state":"active","ping":96},{"user_id":525,"name":"Vonk","steam_id":76561199080400526,"connected_time":480000000000,"state":"active","ping":103},{"user_id":530,"name":"Hatador","steam_id":76561198074501986,"connected_time":221000000000,"state":"active","ping":47},{"user_id":521,"name":"January 2035","steam_id":76561198011749653,"connected_time":516000000000,"state":"active","ping":62},{"user_id":508,"name":"Doctor Rudy G. Numpad","steam_id":76561198440881106,"connected_time":963000000000,"state":"active","ping":70},{"user_id":509,"name":"TheOxideGamer","steam_id":76561199445897326,"connected_time":938000000000,"state":"active","ping":89},{"user_id":529,"name":"r","steam_id":76561198239927434,"connected_time":286000000000,"state":"active","ping":55},{"user_id":514,"name":"Sheev","steam_id":76561198828371209,"connected_time":839000000000,"state":"active","ping":74},{"user_id":515,"name":"POOTIS","steam_id":76561199509295107,"connected_time":838000000000,"state":"active","ping":154},{"user_id":426,"name":"Charlie Brown","steam_id":76561199378865926,"connected_time":4971000000000,"state":"active","ping":81},{"user_id":527,"name":"Stenhård Kuk","steam_id":76561198163141957,"connected_time":410000000000,"state":"active","ping":59},{"user_id":480,"name":"VolcanicArts","steam_id":76561198063453246,"connected_time":2185000000000,"state":"active","ping":61},{"user_id":519,"name":"Matt the Waffling-Iron","steam_id":76561198044066043,"connected_time":584000000000,"state":"active","ping":97}]},{"server_id":110,"name":"Uncletopia | Frankfurt | 2 | All Maps","name_short":"frk-2","host":"frk-1.de.uncletopia.com","port":27025,"enabled":true,"region":"eu","cc":"de","latitude":50.110924,"longitude":8.682127,"reserved":0,"last_update":"0001-01-01T00:00:00Z","name_a2s":"Uncletopia | Frankfurt | 2 | All Maps","protocol":17,"map":"pl_badwater","folder":"tf","game":"Team Fortress","app_id":440,"player_count":24,"max_players":24,"Bots":0,"server_type":"Dedicated","server_os":"Linux","password":true,"vac":true,"version":"7961495","steam_id":85568392924469990,"keywords":["nocrits","nodmgspread","payload","uncletopia"],"game_id":440,"stv_port":27026,"stv_name":"Uncletopia | Frankfurt | 2 | All Maps | STV","players":[{"user_id":331,"name":"Ween :0","steam_id":76561198073607799,"connected_time":930000000000,"state":"active","ping":75},{"user_id":269,"name":"Mancomb Seepgood","steam_id":76561197974116369,"connected_time":4206000000000,"state":"active","ping":51},{"user_id":329,"name":"Generál Kiwi","steam_id":76561198255946537,"connected_time":1008000000000,"state":"active","ping":40},{"user_id":295,"name":"HopeDaGamer","steam_id":76561199487262348,"connected_time":2860000000000,"state":"active","ping":108},{"user_id":325,"name":"Purrplehaze","steam_id":76561198297604298,"connected_time":1535000000000,"state":"active","ping":59},{"user_id":201,"name":"Gordon Birdman","steam_id":76561198013382324,"connected_time":8992000000000,"state":"active","ping":63},{"user_id":318,"name":"Leviticus Cornwall","steam_id":76561197993702685,"connected_time":1818000000000,"state":"active","ping":99},{"user_id":320,"name":"I.C. Wiener","steam_id":76561197999912254,"connected_time":1768000000000,"state":"active","ping":80},{"user_id":326,"name":"YEAH BUDDDYYYYY!!","steam_id":76561197988733568,"connected_time":1471000000000,"state":"active","ping":60},{"user_id":287,"name":"I have no duck and I must quack","steam_id":76561198061920656,"connected_time":3134000000000,"state":"active","ping":70},{"user_id":324,"name":"Carpetspill","steam_id":76561198240023406,"connected_time":1561000000000,"state":"active","ping":176},{"user_id":305,"name":"Bgm_","steam_id":76561198056452044,"connected_time":2420000000000,"state":"active","ping":60},{"user_id":314,"name":"Miku.Hatsune.2007","steam_id":76561198199687607,"connected_time":2016000000000,"state":"active","ping":76},{"user_id":332,"name":"deth_cd","steam_id":76561198311004531,"connected_time":910000000000,"state":"active","ping":57},{"user_id":321,"name":"nordstream bomber","steam_id":76561199401283123,"connected_time":1605000000000,"state":"active","ping":62},{"user_id":330,"name":"papa Sloath","steam_id":76561198046382160,"connected_time":948000000000,"state":"active","ping":60},{"user_id":327,"name":",","steam_id":76561198347020945,"connected_time":1310000000000,"state":"active","ping":83},{"user_id":333,"name":"MEDiUM","steam_id":76561198112328561,"connected_time":876000000000,"state":"active","ping":78},{"user_id":308,"name":"Kekka","steam_id":76561198068667960,"connected_time":2374000000000,"state":"active","ping":59},{"user_id":300,"name":"Xx_LudZip_xX","steam_id":76561198321008764,"connected_time":2786000000000,"state":"active","ping":53},{"user_id":316,"name":"iktb","steam_id":76561199011496812,"connected_time":1927000000000,"state":"active","ping":100},{"user_id":260,"name":"Snowy","steam_id":76561198169992461,"connected_time":5023000000000,"state":"active","ping":54},{"user_id":303,"name":"dongus","steam_id":76561198042774930,"connected_time":2672000000000,"state":"active","ping":62},{"user_id":264,"name":"Einsamer_Keks","steam_id":76561198148828509,"connected_time":4721000000000,"state":"active","ping":47}]},{"server_id":308,"name":"Uncletopia | Frankfurt | 3 | All Maps","name_short":"frk-3","host":"frk-1.de.uncletopia.com","port":27035,"enabled":true,"region":"eu","cc":"de","latitude":50.110924,"longitude":8.682127,"reserved":0,"last_update":"0001-01-01T00:00:00Z","name_a2s":"Uncletopia | Frankfurt | 3 | All Maps","protocol":17,"map":"cp_mercenarypark","folder":"tf","game":"Team Fortress","app_id":440,"player_count":22,"max_players":24,"Bots":0,"server_type":"Dedicated","server_os":"Linux","password":true,"vac":true,"version":"7961495","steam_id":85568392924504274,"keywords":["cp","nocrits","nodmgspread","uncletopia"],"game_id":440,"stv_port":27036,"stv_name":"Uncletopia | Frankfurt | 3 | All Maps | STV","players":[{"user_id":178,"name":"Blackgdkcb","steam_id":76561199027950389,"connected_time":2679000000000,"state":"active","ping":60},{"user_id":221,"name":"wlg ✿ | ETF2L.org","steam_id":76561198971840184,"connected_time":65000000000,"state":"active","ping":48},{"user_id":187,"name":"I LOVE THE BISON","steam_id":76561199265289808,"connected_time":1927000000000,"state":"active","ping":115},{"user_id":204,"name":"Monkey","steam_id":76561199008411791,"connected_time":1041000000000,"state":"active","ping":57},{"user_id":218,"name":"tealoverr.190","steam_id":76561199028497703,"connected_time":267000000000,"state":"active","ping":99},{"user_id":99,"name":"LivEssense","steam_id":76561198052476979,"connected_time":7551000000000,"state":"active","ping":75},{"user_id":216,"name":"Sw00zy","steam_id":76561198152525193,"connected_time":494000000000,"state":"active","ping":75},{"user_id":198,"name":"tallen","steam_id":76561198061708595,"connected_time":1355000000000,"state":"active","ping":78},{"user_id":199,"name":"Murovelho","steam_id":76561198835081622,"connected_time":1324000000000,"state":"active","ping":90},{"user_id":206,"name":"duckington duck","steam_id":76561199157117063,"connected_time":978000000000,"state":"active","ping":51},{"user_id":214,"name":"Chopperson_","steam_id":76561198873728497,"connected_time":662000000000,"state":"active","ping":114},{"user_id":219,"name":"brtaba","steam_id":76561198796334790,"connected_time":247000000000,"state":"active","ping":61},{"user_id":225,"name":"Bubu the femboy ♥","steam_id":76561199119253607,"connected_time":6000000000,"state":"spawning","ping":60},{"user_id":217,"name":"Skyrider of Spaceways","steam_id":76561197991678236,"connected_time":337000000000,"state":"active","ping":135},{"user_id":222,"name":"emil","steam_id":76561198267694601,"connected_time":65000000000,"state":"active","ping":59},{"user_id":211,"name":"sotry","steam_id":76561198098107663,"connected_time":857000000000,"state":"active","ping":58},{"user_id":152,"name":"_Chelik_","steam_id":76561199076069284,"connected_time":4021000000000,"state":"active","ping":89},{"user_id":213,"name":"Cezaru7252","steam_id":76561198815955374,"connected_time":791000000000,"state":"active","ping":96},{"user_id":195,"name":"Laitse","steam_id":76561198073247480,"connected_time":1518000000000,"state":"active","ping":92},{"user_id":163,"name":"btrayed","steam_id":76561199498456546,"connected_time":3581000000000,"state":"active","ping":62},{"user_id":131,"name":"Yuval","steam_id":76561198241802390,"connected_time":5069000000000,"state":"active","ping":100},{"user_id":190,"name":"jeff","steam_id":76561198272815746,"connected_time":1746000000000,"state":"active","ping":53}]},{"server_id":309,"name":"Uncletopia | Frankfurt | 4 | All Maps","name_short":"frk-4","host":"frk-1.de.uncletopia.com","port":27045,"enabled":true,"region":"eu","cc":"de","latitude":50.110924,"longitude":8.682127,"reserved":0,"last_update":"0001-01-01T00:00:00Z","name_a2s":"Uncletopia | Frankfurt | 4 | All Maps","protocol":17,"map":"pl_pier","folder":"tf","game":"Team Fortress","app_id":440,"player_count":24,"max_players":24,"Bots":0,"server_type":"Dedicated","server_os":"Linux","password":true,"vac":true,"version":"7961495","steam_id":85568392924504275,"keywords":["nocrits","nodmgspread","payload","uncletopia"],"game_id":440,"stv_port":27046,"stv_name":"Uncletopia | Frankfurt | 4 | All Maps | STV","players":[{"user_id":260,"name":"SoaCrow","steam_id":76561198069420717,"connected_time":1531000000000,"state":"active","ping":60},{"user_id":246,"name":"Natsuki","steam_id":76561198986191491,"connected_time":1954000000000,"state":"active","ping":99},{"user_id":238,"name":"Nymph","steam_id":76561198042801329,"connected_time":2294000000000,"state":"active","ping":56},{"user_id":233,"name":"The spit taster","steam_id":76561198338129578,"connected_time":3320000000000,"state":"active","ping":60},{"user_id":259,"name":"fl1p","steam_id":76561198148565659,"connected_time":1645000000000,"state":"active","ping":82},{"user_id":240,"name":"Finnish Farmer","steam_id":76561198205366043,"connected_time":2084000000000,"state":"active","ping":86},{"user_id":274,"name":"Sweetcheesus","steam_id":76561198022299033,"connected_time":825000000000,"state":"active","ping":55},{"user_id":280,"name":"Bagel","steam_id":76561198167747447,"connected_time":49000000000,"state":"active","ping":149},{"user_id":271,"name":"Pringles","steam_id":76561198120850843,"connected_time":1056000000000,"state":"active","ping":78},{"user_id":244,"name":"Angry Team Fortress 2 Nerd","steam_id":76561198970762992,"connected_time":1995000000000,"state":"active","ping":75},{"user_id":254,"name":"big lady","steam_id":76561197971716998,"connected_time":1806000000000,"state":"active","ping":48},{"user_id":272,"name":"stegosaurus sex","steam_id":76561199120843402,"connected_time":979000000000,"state":"active","ping":58},{"user_id":277,"name":"♂ Necronomico ♂","steam_id":76561198079272212,"connected_time":454000000000,"state":"active","ping":76},{"user_id":269,"name":"OH NO UNO","steam_id":76561198031845464,"connected_time":1256000000000,"state":"active","ping":68},{"user_id":249,"name":"Duktigafred","steam_id":76561199211222396,"connected_time":1918000000000,"state":"active","ping":63},{"user_id":250,"name":"levap","steam_id":76561197987688539,"connected_time":1906000000000,"state":"active","ping":79},{"user_id":278,"name":"Smartest Person In the Universe","steam_id":76561199444636848,"connected_time":429000000000,"state":"active","ping":61},{"user_id":279,"name":"Mate4","steam_id":76561198312176715,"connected_time":111000000000,"state":"active","ping":73},{"user_id":275,"name":"_3tHeR_","steam_id":76561199109870743,"connected_time":508000000000,"state":"active","ping":56},{"user_id":216,"name":"ChesseKnight","steam_id":76561198102476339,"connected_time":4089000000000,"state":"active","ping":84},{"user_id":273,"name":"pyrofightermag","steam_id":76561198089228732,"connected_time":957000000000,"state":"active","ping":60},{"user_id":276,"name":"smell_my_cheese","steam_id":76561198008517427,"connected_time":504000000000,"state":"active","ping":60},{"user_id":261,"name":"Thundercracker__","steam_id":76561199163505476,"connected_time":1456000000000,"state":"active","ping":72},{"user_id":258,"name":"Skulk","steam_id":76561198068994987,"connected_time":1738000000000,"state":"active","ping":74}]},{"server_id":310,"name":"Uncletopia | Frankfurt | 5 | All Maps","name_short":"frk-5","host":"frk-1.de.uncletopia.com","port":27055,"enabled":true,"region":"eu","cc":"de","latitude":50.110924,"longitude":8.682127,"reserved":0,"last_update":"0001-01-01T00:00:00Z","name_a2s":"Uncletopia | Frankfurt | 5 | All Maps","protocol":17,"map":"pl_frontier_final","folder":"tf","game":"Team Fortress","app_id":440,"player_count":24,"max_players":24,"Bots":0,"server_type":"Dedicated","server_os":"Linux","password":true,"vac":true,"version":"7961495","steam_id":85568392924504277,"keywords":["nocrits","nodmgspread","payload","uncletopia"],"game_id":440,"stv_port":27056,"stv_name":"Uncletopia | Frankfurt | 5 | All Maps | STV","players":[{"user_id":528,"name":"Fier Zadiste","steam_id":76561198203256418,"connected_time":60000000000,"state":"active","ping":88},{"user_id":510,"name":"sixhundredseventy","steam_id":76561199441772083,"connected_time":937000000000,"state":"active","ping":57},{"user_id":520,"name":"Bobo (mute)","steam_id":76561198052308399,"connected_time":512000000000,"state":"active","ping":57},{"user_id":521,"name":"FLAKEZ4REAL","steam_id":76561197978361391,"connected_time":286000000000,"state":"active","ping":73},{"user_id":517,"name":"hhhhfffgghhgff","steam_id":76561199117996151,"connected_time":648000000000,"state":"active","ping":136},{"user_id":522,"name":"VIN WEASEL","steam_id":76561198014387066,"connected_time":222000000000,"state":"active","ping":52},{"user_id":491,"name":"lulu","steam_id":76561199147764133,"connected_time":1644000000000,"state":"active","ping":72},{"user_id":513,"name":"GG riser","steam_id":76561198279621400,"connected_time":752000000000,"state":"active","ping":83},{"user_id":487,"name":"Kili","steam_id":76561198138456346,"connected_time":1756000000000,"state":"active","ping":60},{"user_id":497,"name":"porta","steam_id":76561198876318011,"connected_time":1516000000000,"state":"active","ping":45},{"user_id":498,"name":"Rayco","steam_id":76561198048013129,"connected_time":1504000000000,"state":"active","ping":67},{"user_id":514,"name":"kirisame","steam_id":76561198273358760,"connected_time":737000000000,"state":"active","ping":61},{"user_id":526,"name":"Cepakas","steam_id":76561198878369698,"connected_time":107000000000,"state":"active","ping":80},{"user_id":481,"name":"Largo","steam_id":76561198844368927,"connected_time":2026000000000,"state":"active","ping":75},{"user_id":500,"name":"thwee","steam_id":76561199133739473,"connected_time":1497000000000,"state":"active","ping":78},{"user_id":527,"name":"Ujin","steam_id":76561197995386642,"connected_time":92000000000,"state":"active","ping":77},{"user_id":523,"name":"Ardello","steam_id":76561198864484125,"connected_time":199000000000,"state":"spawning","ping":221},{"user_id":524,"name":"Saint","steam_id":76561198003296382,"connected_time":195000000000,"state":"active","ping":63},{"user_id":489,"name":"citronous","steam_id":76561198093290934,"connected_time":1713000000000,"state":"active","ping":59},{"user_id":503,"name":"Gandhi36","steam_id":76561198863280994,"connected_time":1469000000000,"state":"active","ping":68},{"user_id":504,"name":"azzy","steam_id":76561198061293740,"connected_time":1428000000000,"state":"active","ping":86},{"user_id":519,"name":"stonebum","steam_id":76561198057004606,"connected_time":534000000000,"state":"active","ping":54},{"user_id":506,"name":"Shawty","steam_id":76561198256704286,"connected_time":1369000000000,"state":"active","ping":67},{"user_id":525,"name":"Labracababrador","steam_id":76561198255280285,"connected_time":188000000000,"state":"active","ping":82}]},{"server_id":311,"name":"Uncletopia | Frankfurt | 6 | All Maps","name_short":"frk-6","host":"frk-1.de.uncletopia.com","port":27065,"enabled":true,"region":"eu","cc":"de","latitude":50.110924,"longitude":8.682127,"reserved":0,"last_update":"0001-01-01T00:00:00Z","name_a2s":"Uncletopia | Frankfurt | 6 | All Maps","protocol":17,"map":"pl_borneo","folder":"tf","game":"Team Fortress","app_id":440,"player_count":24,"max_players":24,"Bots":0,"server_type":"Dedicated","server_os":"Linux","password":true,"vac":true,"version":"7961495","steam_id":85568392924504278,"keywords":["nocrits","nodmgspread","payload","uncletopia"],"game_id":440,"stv_port":27066,"stv_name":"Uncletopia | Frankfurt | 6 | All Maps | STV","players":[{"user_id":282,"name":"Rei Ayanami","steam_id":76561198405980575,"connected_time":2911000000000,"state":"active","ping":68},{"user_id":309,"name":"warforge3","steam_id":76561199276024310,"connected_time":1089000000000,"state":"active","ping":93},{"user_id":225,"name":"Efter","steam_id":76561198302457901,"connected_time":6630000000000,"state":"active","ping":89},{"user_id":317,"name":"Adushka","steam_id":76561198053095808,"connected_time":439000000000,"state":"active","ping":74},{"user_id":324,"name":"sam_","steam_id":76561198814734120,"connected_time":264000000000,"state":"active","ping":117},{"user_id":268,"name":"skai -TA-","steam_id":76561198184881255,"connected_time":3726000000000,"state":"active","ping":70},{"user_id":300,"name":"generic alias","steam_id":76561198271607226,"connected_time":1796000000000,"state":"active","ping":93},{"user_id":307,"name":"Akisян","steam_id":76561198078706435,"connected_time":1142000000000,"state":"active","ping":69},{"user_id":305,"name":"Maximilian1359","steam_id":76561198152439608,"connected_time":1153000000000,"state":"active","ping":50},{"user_id":284,"name":"Sumbody","steam_id":76561198155371407,"connected_time":2892000000000,"state":"active","ping":112},{"user_id":312,"name":"I Love Filtered Water","steam_id":76561198016042113,"connected_time":801000000000,"state":"active","ping":71},{"user_id":326,"name":"Fluffy","steam_id":76561198084447725,"connected_time":31000000000,"state":"active","ping":57},{"user_id":313,"name":"Hoffa","steam_id":76561197963748995,"connected_time":784000000000,"state":"active","ping":70},{"user_id":321,"name":"Tyren","steam_id":76561198993747516,"connected_time":352000000000,"state":"active","ping":64},{"user_id":314,"name":"Pabs :D","steam_id":76561198000016962,"connected_time":711000000000,"state":"active","ping":60},{"user_id":323,"name":"Waffel","steam_id":76561198113552009,"connected_time":320000000000,"state":"active","ping":98},{"user_id":327,"name":"Dictatorial Karelian","steam_id":76561198196736457,"connected_time":20000000000,"state":"spawning","ping":77},{"user_id":306,"name":"Xydran","steam_id":76561198042397402,"connected_time":1152000000000,"state":"active","ping":59},{"user_id":310,"name":"mesλ","steam_id":76561198324582918,"connected_time":1062000000000,"state":"active","ping":101},{"user_id":319,"name":"Sad!","steam_id":76561198057537774,"connected_time":410000000000,"state":"active","ping":69},{"user_id":275,"name":"Shireco","steam_id":76561198084899921,"connected_time":3364000000000,"state":"active","ping":117},{"user_id":322,"name":"skull issue","steam_id":76561198343328308,"connected_time":328000000000,"state":"active","ping":55},{"user_id":171,"name":"ggwp","steam_id":76561199141037141,"connected_time":9021000000000,"state":"active","ping":77},{"user_id":325,"name":"simeswipe","steam_id":76561198188471097,"connected_time":95000000000,"state":"active","ping":77}]},{"server_id":23,"name":"Uncletopia | Frankfurt | 7 | Stopwatch","name_short":"frk-7","host":"frk-1.de.uncletopia.com","port":27075,"enabled":true,"region":"eu","cc":"de","latitude":50.110924,"longitude":8.682127,"reserved":0,"last_update":"0001-01-01T00:00:00Z","name_a2s":"Uncletopia | Frankfurt | 7 | Stopwatch","protocol":17,"map":"workshop/koth_clearcut_b15.ugc2107050255","folder":"tf","game":"Team Fortress","app_id":440,"player_count":0,"max_players":24,"Bots":0,"server_type":"Dedicated","server_os":"Linux","password":true,"vac":true,"version":"7961495","steam_id":85568392924742827,"keywords":["cp","nocrits","nodmgspread","uncletopia"],"game_id":440,"stv_port":27076,"stv_name":"Uncletopia | Frankfurt | 7 | Stopwatch | STV","players":null},{"server_id":24,"name":"Uncletopia | Frankfurt | 8 | Community","name_short":"frk-8","host":"frk-1.de.uncletopia.com","port":27085,"enabled":true,"region":"eu","cc":"de","latitude":50.110924,"longitude":8.682127,"reserved":0,"last_update":"0001-01-01T00:00:00Z","name_a2s":"Uncletopia | Frankfurt | 8 | Community","protocol":17,"map":"workshop/koth_relic_rc3.ugc2965301326","folder":"tf","game":"Team Fortress","app_id":440,"player_count":2,"max_players":24,"Bots":0,"server_type":"Dedicated","server_os":"Linux","password":true,"vac":true,"version":"7961495","steam_id":85568392924742828,"keywords":["cp","nocrits","nodmgspread","uncletopia"],"game_id":440,"stv_port":27086,"stv_name":"Uncletopia | Frankfurt | 8 | Community | STV","players":[{"user_id":37,"name":"Bebr@","steam_id":76561199379181746,"connected_time":737000000000,"state":"active","ping":66},{"user_id":38,"name":"kg.bismarcks","steam_id":76561199038408166,"connected_time":712000000000,"state":"active","ping":62}]},{"server_id":202,"name":"Uncletopia | Hong Kong | 1 | All Maps","name_short":"hgk-1","host":"hgk-1.hk.uncletopia.com","port":27015,"enabled":true,"region":"asia","cc":"hk","latitude":22.302711,"longitude":114.177216,"reserved":0,"last_update":"0001-01-01T00:00:00Z","name_a2s":"Uncletopia | Hong Kong | 1 | All Maps","protocol":17,"map":"koth_cascade","folder":"tf","game":"Team Fortress","app_id":440,"player_count":0,"max_players":24,"Bots":0,"server_type":"Dedicated","server_os":"Linux","password":true,"vac":true,"version":"7961495","steam_id":85568392924494504,"keywords":["cp","nocrits","nodmgspread","uncletopia"],"game_id":440,"stv_port":27016,"stv_name":"Uncletopia | Hong Kong | 1 | All Maps | STV","players":null},{"server_id":1,"name":"Uncletopia | Los Angeles | 1 | All Maps","name_short":"lax-1","host":"lax-1.us.uncletopia.com","port":27015,"enabled":true,"region":"us-west","cc":"us","latitude":33.94279,"longitude":-118.41004,"reserved":0,"last_update":"0001-01-01T00:00:00Z","name_a2s":"Uncletopia | Los Angeles | 1 | All Maps","protocol":17,"map":"koth_lakeside_final","folder":"tf","game":"Team Fortress","app_id":440,"player_count":0,"max_players":24,"Bots":0,"server_type":"Dedicated","server_os":"Linux","password":true,"vac":true,"version":"7961495","steam_id":85568392924469991,"keywords":["cp","nocrits","nodmgspread","uncletopia"],"game_id":440,"stv_port":27016,"stv_name":"Uncletopia | Los Angeles | 1 | All Maps | STV","players":null},{"server_id":112,"name":"Uncletopia | Los Angeles | 2 | All Maps","name_short":"lax-2","host":"lax-1.us.uncletopia.com","port":27025,"enabled":true,"region":"us-west","cc":"us","latitude":33.94279,"longitude":-118.41004,"reserved":0,"last_update":"0001-01-01T00:00:00Z","name_a2s":"Uncletopia | Los Angeles | 2 | All Maps","protocol":17,"map":"koth_lazarus","folder":"tf","game":"Team Fortress","app_id":440,"player_count":0,"max_players":24,"Bots":0,"server_type":"Dedicated","server_os":"Linux","password":true,"vac":true,"version":"7961495","steam_id":85568392924469992,"keywords":["cp","nocrits","nodmgspread","uncletopia"],"game_id":440,"stv_port":27026,"stv_name":"Uncletopia | Los Angeles | 2 | All Maps | STV","players":null},{"server_id":324,"name":"Uncletopia | Los Angeles | 3 | All Maps","name_short":"lax-3","host":"lax-1.us.uncletopia.com","port":27035,"enabled":true,"region":"us-west","cc":"us","latitude":33.94279,"longitude":-118.41004,"reserved":0,"last_update":"0001-01-01T00:00:00Z","name_a2s":"Uncletopia | Los Angeles | 3 | All Maps","protocol":17,"map":"cp_steel","folder":"tf","game":"Team Fortress","app_id":440,"player_count":17,"max_players":24,"Bots":0,"server_type":"Dedicated","server_os":"Linux","password":true,"vac":true,"version":"7961495","steam_id":85568392924510198,"keywords":["cp","nocrits","nodmgspread","uncletopia"],"game_id":440,"stv_port":27036,"stv_name":"Uncletopia | Los Angeles | 3 | All Maps | STV","players":[{"user_id":3,"name":"Hectic_Puppy (bday in 3 DAYS)","steam_id":76561198111645213,"connected_time":12118000000000,"state":"active","ping":48},{"user_id":134,"name":"An00bis","steam_id":76561198044084508,"connected_time":280000000000,"state":"active","ping":45},{"user_id":135,"name":"NGsterson","steam_id":76561198162108154,"connected_time":217000000000,"state":"active","ping":92},{"user_id":117,"name":"Kazoo","steam_id":76561199229748300,"connected_time":2691000000000,"state":"active","ping":59},{"user_id":132,"name":"YoyoMama","steam_id":76561198260113828,"connected_time":1242000000000,"state":"active","ping":60},{"user_id":125,"name":"SolarusD","steam_id":76561198029279861,"connected_time":2054000000000,"state":"active","ping":59},{"user_id":123,"name":"Insomniac","steam_id":76561199180653046,"connected_time":2149000000000,"state":"active","ping":160},{"user_id":50,"name":"ReDeMpTioN","steam_id":76561197963635567,"connected_time":7057000000000,"state":"active","ping":45},{"user_id":121,"name":"Penne","steam_id":76561198982393756,"connected_time":2308000000000,"state":"active","ping":136},{"user_id":136,"name":"footp","steam_id":76561198001027361,"connected_time":185000000000,"state":"active","ping":106},{"user_id":137,"name":"real singles in your area","steam_id":76561198004625126,"connected_time":96000000000,"state":"active","ping":54},{"user_id":138,"name":"esoobac","steam_id":76561198010370396,"connected_time":90000000000,"state":"active","ping":74},{"user_id":139,"name":"DinoCare","steam_id":76561198810958881,"connected_time":81000000000,"state":"active","ping":51},{"user_id":140,"name":"Barack Obama Gaming","steam_id":76561198129242016,"connected_time":65000000000,"state":"active","ping":73},{"user_id":130,"name":"Genius Meme","steam_id":76561198162911254,"connected_time":1668000000000,"state":"active","ping":63},{"user_id":133,"name":"glock41982","steam_id":76561198025107915,"connected_time":405000000000,"state":"active","ping":49},{"user_id":99,"name":"carson","steam_id":76561198273784854,"connected_time":4111000000000,"state":"active","ping":155}]},{"server_id":25,"name":"Uncletopia | Los Angeles | 4 | Stopwatch","name_short":"lax-4","host":"lax-1.us.uncletopia.com","port":27045,"enabled":true,"region":"us-west","cc":"us","latitude":33.94279,"longitude":-118.41004,"reserved":0,"last_update":"0001-01-01T00:00:00Z","name_a2s":"Uncletopia | Los Angeles | 4 | Stopwatch","protocol":17,"map":"workshop/koth_product_final.ugc454272353","folder":"tf","game":"Team Fortress","app_id":440,"player_count":0,"max_players":24,"Bots":0,"server_type":"Dedicated","server_os":"Linux","password":true,"vac":true,"version":"7961495","steam_id":85568392924510199,"keywords":["cp","nocrits","nodmgspread","uncletopia"],"game_id":440,"stv_port":27046,"stv_name":"Uncletopia | Los Angeles | 4 | Stopwatch | STV","players":null},{"server_id":11,"name":"Uncletopia | London | 1 | All Maps","name_short":"lon-1","host":"lon-1.uk.uncletopia.com","port":27015,"enabled":true,"region":"eu","cc":"gb","latitude":51.509865,"longitude":-0.118092,"reserved":0,"last_update":"0001-01-01T00:00:00Z","name_a2s":"Uncletopia | London | 1 | All Maps","protocol":17,"map":"pl_barnblitz","folder":"tf","game":"Team Fortress","app_id":440,"player_count":24,"max_players":24,"Bots":0,"server_type":"Dedicated","server_os":"Linux","password":true,"vac":true,"version":"7961495","steam_id":85568392924367362,"keywords":["nocrits","nodmgspread","payload","uncletopia"],"game_id":440,"stv_port":27016,"stv_name":"Uncletopia | London | 1 | All Maps | STV","players":[{"user_id":483,"name":"K-ófer","steam_id":76561198070712918,"connected_time":1980000000000,"state":"active","ping":89},{"user_id":484,"name":"Totally_faraam","steam_id":76561199230162663,"connected_time":1973000000000,"state":"active","ping":140},{"user_id":505,"name":"gibb (heLP HELP HELP)","steam_id":76561198074097655,"connected_time":656000000000,"state":"active","ping":60},{"user_id":490,"name":"BriLLz","steam_id":76561198142440806,"connected_time":1821000000000,"state":"active","ping":78},{"user_id":446,"name":"Haha?","steam_id":76561198056882245,"connected_time":4921000000000,"state":"active","ping":35},{"user_id":494,"name":"meatsoupcube","steam_id":76561198276802249,"connected_time":1558000000000,"state":"active","ping":101},{"user_id":492,"name":"t.tv/whimsybun","steam_id":76561198878171763,"connected_time":1700000000000,"state":"active","ping":53},{"user_id":509,"name":"mrrobsa","steam_id":76561197971287215,"connected_time":346000000000,"state":"active","ping":62},{"user_id":465,"name":"hmscole09","steam_id":76561198811362788,"connected_time":3386000000000,"state":"active","ping":53},{"user_id":467,"name":"simpleaspossible","steam_id":76561198044827000,"connected_time":3339000000000,"state":"active","ping":44},{"user_id":431,"name":"ABSOLUTE UNIT","steam_id":76561197972287320,"connected_time":6899000000000,"state":"active","ping":79},{"user_id":499,"name":"mr.resetti","steam_id":76561198974520642,"connected_time":987000000000,"state":"active","ping":79},{"user_id":507,"name":"Laru","steam_id":76561197998838438,"connected_time":484000000000,"state":"active","ping":88},{"user_id":469,"name":"Haghehog","steam_id":76561198075729793,"connected_time":3334000000000,"state":"active","ping":132},{"user_id":470,"name":"❖ RazzorBee","steam_id":76561198092493838,"connected_time":3332000000000,"state":"active","ping":105},{"user_id":500,"name":"LOBZIK","steam_id":76561198114830120,"connected_time":986000000000,"state":"active","ping":77},{"user_id":495,"name":"System","steam_id":76561199442503973,"connected_time":1557000000000,"state":"active","ping":62},{"user_id":491,"name":"⸸aura⸸","steam_id":76561198066258544,"connected_time":1798000000000,"state":"active","ping":62},{"user_id":501,"name":"luma","steam_id":76561198081649669,"connected_time":980000000000,"state":"active","ping":77},{"user_id":502,"name":"katz","steam_id":76561198271797380,"connected_time":979000000000,"state":"active","ping":51},{"user_id":475,"name":"slippin jimmy","steam_id":76561198090788590,"connected_time":3207000000000,"state":"active","ping":45},{"user_id":496,"name":"ExotiiC ☯","steam_id":76561198046149866,"connected_time":1055000000000,"state":"active","ping":68},{"user_id":481,"name":"ein","steam_id":76561198152162834,"connected_time":2308000000000,"state":"active","ping":106},{"user_id":504,"name":"Mig_Chungus","steam_id":76561198053410265,"connected_time":819000000000,"state":"active","ping":69}]},{"server_id":114,"name":"Uncletopia | London | 2 | All Maps","name_short":"lon-2","host":"lon-1.uk.uncletopia.com","port":27025,"enabled":true,"region":"eu","cc":"gb","latitude":51.509865,"longitude":-0.118092,"reserved":0,"last_update":"0001-01-01T00:00:00Z","name_a2s":"Uncletopia | London | 2 | All Maps","protocol":17,"map":"koth_viaduct","folder":"tf","game":"Team Fortress","app_id":440,"player_count":24,"max_players":24,"Bots":0,"server_type":"Dedicated","server_os":"Linux","password":true,"vac":true,"version":"7961495","steam_id":85568392924470941,"keywords":["cp","nocrits","nodmgspread","uncletopia"],"game_id":440,"stv_port":27026,"stv_name":"Uncletopia | London | 2 | All Maps | STV","players":[{"user_id":167,"name":"Dr. Sus","steam_id":76561198344435644,"connected_time":2831000000000,"state":"active","ping":62},{"user_id":212,"name":"Pocky Chomper","steam_id":76561198800333841,"connected_time":426000000000,"state":"active","ping":155},{"user_id":202,"name":"Олексій | UA","steam_id":76561198802594676,"connected_time":863000000000,"state":"active","ping":63},{"user_id":144,"name":"Bladi","steam_id":76561198083358434,"connected_time":3480000000000,"state":"active","ping":89},{"user_id":190,"name":"AidenQG","steam_id":76561198864678536,"connected_time":1515000000000,"state":"active","ping":63},{"user_id":207,"name":"The legendery balls","steam_id":76561199139344747,"connected_time":660000000000,"state":"active","ping":102},{"user_id":199,"name":"Artakir","steam_id":76561198291746440,"connected_time":1070000000000,"state":"active","ping":83},{"user_id":208,"name":"lordd2647","steam_id":76561199433534405,"connected_time":660000000000,"state":"active","ping":77},{"user_id":215,"name":"Ve stylu","steam_id":76561198218257120,"connected_time":352000000000,"state":"active","ping":76},{"user_id":184,"name":"cislastar","steam_id":76561198027202375,"connected_time":2006000000000,"state":"active","ping":65},{"user_id":206,"name":"GunGuy","steam_id":76561198124510978,"connected_time":700000000000,"state":"active","ping":43},{"user_id":186,"name":"ScudFXX","steam_id":76561198136603848,"connected_time":1968000000000,"state":"active","ping":54},{"user_id":219,"name":"Nithle","steam_id":76561198025372740,"connected_time":81000000000,"state":"active","ping":31},{"user_id":203,"name":"Vamp_Moira_TTV","steam_id":76561198206111420,"connected_time":823000000000,"state":"active","ping":69},{"user_id":216,"name":"NOne","steam_id":76561198002359947,"connected_time":346000000000,"state":"active","ping":82},{"user_id":171,"name":"Andy","steam_id":76561198046918834,"connected_time":2600000000000,"state":"active","ping":62},{"user_id":217,"name":"Skelet","steam_id":76561198051685232,"connected_time":290000000000,"state":"active","ping":45},{"user_id":196,"name":"Cormdawg","steam_id":76561198336483216,"connected_time":1318000000000,"state":"active","ping":51},{"user_id":179,"name":"TheBeardedM1G","steam_id":76561198040208946,"connected_time":2195000000000,"state":"active","ping":45},{"user_id":113,"name":"Zamorocian","steam_id":76561198076604017,"connected_time":5062000000000,"state":"active","ping":37},{"user_id":218,"name":"armadillo","steam_id":76561198324656652,"connected_time":136000000000,"state":"active","ping":53},{"user_id":210,"name":"SirDirtbag","steam_id":76561198091890855,"connected_time":616000000000,"state":"active","ping":78},{"user_id":201,"name":"LILY-CHAN","steam_id":76561198035085893,"connected_time":1043000000000,"state":"active","ping":100},{"user_id":200,"name":"waitrose gaming","steam_id":76561198011450253,"connected_time":1070000000000,"state":"active","ping":51}]},{"server_id":320,"name":"Uncletopia | London | 3 | All Maps","name_short":"lon-3","host":"lon-1.uk.uncletopia.com","port":27035,"enabled":true,"region":"eu","cc":"gb","latitude":51.509865,"longitude":-0.118092,"reserved":0,"last_update":"0001-01-01T00:00:00Z","name_a2s":"Uncletopia | London | 3 | All Maps","protocol":17,"map":"pl_badwater","folder":"tf","game":"Team Fortress","app_id":440,"player_count":23,"max_players":24,"Bots":0,"server_type":"Dedicated","server_os":"Linux","password":true,"vac":true,"version":"7961495","steam_id":85568392924510192,"keywords":["nocrits","nodmgspread","payload","uncletopia"],"game_id":440,"stv_port":27036,"stv_name":"Uncletopia | London | 3 | All Maps | STV","players":[{"user_id":575,"name":"Toca","steam_id":76561198039582547,"connected_time":648000000000,"state":"active","ping":59},{"user_id":565,"name":"Armitage Shanks","steam_id":76561198129755592,"connected_time":1174000000000,"state":"active","ping":44},{"user_id":552,"name":"Ross from F.R.I.E.N.D.S.","steam_id":76561198008511665,"connected_time":1685000000000,"state":"active","ping":57},{"user_id":572,"name":"Gillusion","steam_id":76561198138818087,"connected_time":816000000000,"state":"active","ping":45},{"user_id":563,"name":"SirNeeco \u003c3","steam_id":76561198103014203,"connected_time":1273000000000,"state":"active","ping":62},{"user_id":576,"name":"ксюша","steam_id":76561199149307190,"connected_time":627000000000,"state":"active","ping":75},{"user_id":577,"name":"SissifiedBlackGuy","steam_id":76561199509261527,"connected_time":626000000000,"state":"active","ping":112},{"user_id":584,"name":"regret message","steam_id":76561198327380063,"connected_time":71000000000,"state":"active","ping":87},{"user_id":562,"name":"cheese_man_","steam_id":76561198086617728,"connected_time":1300000000000,"state":"active","ping":58},{"user_id":569,"name":"Javier dorsaless","steam_id":76561198179324075,"connected_time":1050000000000,"state":"active","ping":64},{"user_id":570,"name":"night.s","steam_id":76561198326287823,"connected_time":1039000000000,"state":"active","ping":75},{"user_id":494,"name":"abra-kablam","steam_id":76561198195857751,"connected_time":4189000000000,"state":"active","ping":75},{"user_id":582,"name":"Indomitable Truck-sama","steam_id":76561198826861582,"connected_time":339000000000,"state":"active","ping":62},{"user_id":541,"name":"Kaza","steam_id":76561198033509686,"connected_time":2079000000000,"state":"active","ping":63},{"user_id":579,"name":"femboy swaggot","steam_id":76561199509191236,"connected_time":622000000000,"state":"active","ping":151},{"user_id":543,"name":"Personano","steam_id":76561198994355577,"connected_time":2061000000000,"state":"active","ping":46},{"user_id":580,"name":"Littleyoshifan","steam_id":76561198445491045,"connected_time":619000000000,"state":"active","ping":48},{"user_id":581,"name":"ⓅⓁⓈ | Pink Panther","steam_id":76561198046434381,"connected_time":600000000000,"state":"active","ping":46},{"user_id":574,"name":"giclure :;","steam_id":76561197986362828,"connected_time":664000000000,"state":"active","ping":81},{"user_id":555,"name":"SuportSub99","steam_id":76561198127688900,"connected_time":1612000000000,"state":"active","ping":44},{"user_id":549,"name":"small-brained bipedal primate","steam_id":76561198061220702,"connected_time":1839000000000,"state":"active","ping":54},{"user_id":564,"name":"lord-carlos","steam_id":76561198025150761,"connected_time":1269000000000,"state":"active","ping":60},{"user_id":567,"name":"Smarge","steam_id":76561198120035423,"connected_time":1162000000000,"state":"active","ping":42}]},{"server_id":321,"name":"Uncletopia | London | 4 | All Maps","name_short":"lon-4","host":"lon-1.uk.uncletopia.com","port":27045,"enabled":true,"region":"eu","cc":"gb","latitude":51.509865,"longitude":-0.118092,"reserved":0,"last_update":"0001-01-01T00:00:00Z","name_a2s":"Uncletopia | London | 4 | All Maps","protocol":17,"map":"cp_process_final","folder":"tf","game":"Team Fortress","app_id":440,"player_count":0,"max_players":24,"Bots":0,"server_type":"Dedicated","server_os":"Linux","password":true,"vac":true,"version":"7961495","steam_id":85568392924510193,"keywords":["cp","nocrits","nodmgspread","uncletopia"],"game_id":440,"stv_port":27046,"stv_name":"Uncletopia | London | 4 | All Maps | STV","players":null},{"server_id":21,"name":"Uncletopia | London | 5 | All Maps","name_short":"lon-5","host":"lon-1.uk.uncletopia.com","port":27055,"enabled":true,"region":"eu","cc":"gb","latitude":51.509865,"longitude":-0.118092,"reserved":0,"last_update":"0001-01-01T00:00:00Z","name_a2s":"Uncletopia | London | 5 | All Maps","protocol":17,"map":"pl_swiftwater_final1","folder":"tf","game":"Team Fortress","app_id":440,"player_count":24,"max_players":24,"Bots":0,"server_type":"Dedicated","server_os":"Linux","password":true,"vac":true,"version":"7961495","steam_id":85568392924742829,"keywords":["nocrits","nodmgspread","payload","uncletopia"],"game_id":440,"stv_port":27056,"stv_name":"Uncletopia | London | 5 | All Maps | STV","players":[{"user_id":433,"name":"Bobirulez","steam_id":76561198009125458,"connected_time":1789000000000,"state":"active","ping":75},{"user_id":413,"name":"CalzoneCarl456","steam_id":76561198846982793,"connected_time":4004000000000,"state":"active","ping":49},{"user_id":424,"name":"I am on the TF2 Scoreboard...","steam_id":76561198043850884,"connected_time":2657000000000,"state":"active","ping":54},{"user_id":443,"name":"cinny","steam_id":76561198832112629,"connected_time":1307000000000,"state":"active","ping":87},{"user_id":391,"name":"Edsuedi","steam_id":76561198074722832,"connected_time":5159000000000,"state":"active","ping":62},{"user_id":431,"name":"astra","steam_id":76561198042980579,"connected_time":1790000000000,"state":"active","ping":67},{"user_id":446,"name":"SausageRoll","steam_id":76561197994072622,"connected_time":1221000000000,"state":"active","ping":49},{"user_id":392,"name":"static","steam_id":76561198836825741,"connected_time":5148000000000,"state":"active","ping":33},{"user_id":387,"name":"sareena","steam_id":76561198810194062,"connected_time":5288000000000,"state":"active","ping":74},{"user_id":423,"name":"Bajas","steam_id":76561198179339326,"connected_time":2695000000000,"state":"active","ping":85},{"user_id":390,"name":"RAT BASTARD","steam_id":76561199195985387,"connected_time":5177000000000,"state":"active","ping":98},{"user_id":434,"name":"Locke","steam_id":76561198339408300,"connected_time":1771000000000,"state":"active","ping":70},{"user_id":281,"name":"fence_","steam_id":76561198150386379,"connected_time":12218000000000,"state":"active","ping":48},{"user_id":451,"name":"Vince","steam_id":76561199103000131,"connected_time":256000000000,"state":"active","ping":45},{"user_id":411,"name":"medick","steam_id":76561199380849468,"connected_time":4234000000000,"state":"active","ping":72},{"user_id":448,"name":"extrableu99","steam_id":76561199465342124,"connected_time":1004000000000,"state":"active","ping":92},{"user_id":442,"name":"Cassbacca","steam_id":76561198088403209,"connected_time":1321000000000,"state":"active","ping":49},{"user_id":373,"name":"TranvesTito","steam_id":76561198140034262,"connected_time":6203000000000,"state":"active","ping":87},{"user_id":223,"name":"The Subway Scientist","steam_id":76561198193757646,"connected_time":13832000000000,"state":"active","ping":47},{"user_id":453,"name":"jean","steam_id":76561198060780111,"connected_time":147000000000,"state":"active","ping":75},{"user_id":436,"name":"Solymr ibn Wali Barad","steam_id":76561198044008976,"connected_time":1726000000000,"state":"active","ping":63},{"user_id":447,"name":"Dr. Funkenstein","steam_id":76561197977816210,"connected_time":1079000000000,"state":"active","ping":54},{"user_id":450,"name":"Fat Pigeon","steam_id":76561198817940142,"connected_time":287000000000,"state":"active","ping":48},{"user_id":438,"name":"Blar","steam_id":76561198042438229,"connected_time":1622000000000,"state":"active","ping":54}]},{"server_id":22,"name":"Uncletopia | London | 6 | All Maps","name_short":"lon-6","host":"lon-1.uk.uncletopia.com","port":27065,"enabled":true,"region":"eu","cc":"gb","latitude":51.509865,"longitude":-0.118092,"reserved":0,"last_update":"0001-01-01T00:00:00Z","name_a2s":"Uncletopia | London | 6 | All Maps","protocol":17,"map":"pl_borneo","folder":"tf","game":"Team Fortress","app_id":440,"player_count":22,"max_players":24,"Bots":0,"server_type":"Dedicated","server_os":"Linux","password":true,"vac":true,"version":"7961495","steam_id":85568392924742830,"keywords":["nocrits","nodmgspread","payload","uncletopia"],"game_id":440,"stv_port":27066,"stv_name":"Uncletopia | London | 6 | All Maps | STV","players":[{"user_id":136,"name":"Pickle Rick","steam_id":76561199088496811,"connected_time":108000000000,"state":"active","ping":101},{"user_id":121,"name":"Snail","steam_id":76561198883228947,"connected_time":1052000000000,"state":"active","ping":135},{"user_id":101,"name":"skilltissues","steam_id":76561198025828664,"connected_time":2256000000000,"state":"active","ping":47},{"user_id":124,"name":"1 toke 4 mars bars","steam_id":76561198056460000,"connected_time":762000000000,"state":"active","ping":48},{"user_id":96,"name":"gαвє ησëℓ","steam_id":76561198067342352,"connected_time":2629000000000,"state":"active","ping":60},{"user_id":122,"name":"Oak","steam_id":76561198067315672,"connected_time":863000000000,"state":"active","ping":45},{"user_id":81,"name":"scungo","steam_id":76561198316654855,"connected_time":3162000000000,"state":"active","ping":158},{"user_id":140,"name":"qiberino","steam_id":76561199014227778,"connected_time":31000000000,"state":"active","ping":77},{"user_id":137,"name":"Tort","steam_id":76561198329646769,"connected_time":104000000000,"state":"active","ping":56},{"user_id":111,"name":"asu","steam_id":76561197994492154,"connected_time":1645000000000,"state":"active","ping":75},{"user_id":138,"name":"Equin","steam_id":76561199507248694,"connected_time":101000000000,"state":"active","ping":60},{"user_id":100,"name":"Dan Dan the Furious","steam_id":76561198091032527,"connected_time":2324000000000,"state":"active","ping":59},{"user_id":129,"name":"SoN","steam_id":76561199383437138,"connected_time":603000000000,"state":"active","ping":128},{"user_id":117,"name":"Rogernuke","steam_id":76561198312815194,"connected_time":1389000000000,"state":"active","ping":67},{"user_id":118,"name":"Assassin+","steam_id":76561197994310420,"connected_time":1251000000000,"state":"active","ping":73},{"user_id":112,"name":"Falafel","steam_id":76561198043344845,"connected_time":1591000000000,"state":"active","ping":60},{"user_id":106,"name":"stun","steam_id":76561198276681691,"connected_time":2028000000000,"state":"active","ping":54},{"user_id":116,"name":"alicheek_86","steam_id":76561198253553809,"connected_time":1405000000000,"state":"active","ping":70},{"user_id":120,"name":"MeBandae","steam_id":76561198910770432,"connected_time":1113000000000,"state":"active","ping":60},{"user_id":105,"name":"PROFILE NAME","steam_id":76561198180056982,"connected_time":2200000000000,"state":"active","ping":56},{"user_id":131,"name":"lawn","steam_id":76561198001243486,"connected_time":423000000000,"state":"active","ping":41},{"user_id":76,"name":"Anabolic minion","steam_id":76561198377533237,"connected_time":3371000000000,"state":"active","ping":72}]},{"server_id":40,"name":"Uncletopia | London | 7 | Stopwatch","name_short":"lon-7","host":"lon-1.uk.uncletopia.com","port":27075,"enabled":true,"region":"eu","cc":"gb","latitude":51.509865,"longitude":-0.118092,"reserved":0,"last_update":"0001-01-01T00:00:00Z","name_a2s":"Uncletopia | London | 7 | Stopwatch","protocol":17,"map":"workshop/pl_vigil_rc10.ugc1266210012","folder":"tf","game":"Team Fortress","app_id":440,"player_count":2,"max_players":24,"Bots":0,"server_type":"Dedicated","server_os":"Linux","password":true,"vac":true,"version":"7961495","steam_id":85568392924964314,"keywords":["nocrits","nodmgspread","payload","uncletopia"],"game_id":440,"stv_port":27076,"stv_name":"Uncletopia | London | 7 | Stopwatch | STV","players":[{"user_id":6,"name":"Sir Crust","steam_id":76561199122077146,"connected_time":196000000000,"state":"active","ping":50},{"user_id":7,"name":"Hotdogs","steam_id":76561199112737347,"connected_time":195000000000,"state":"active","ping":73}]},{"server_id":41,"name":"Uncletopia | London | 8 | Community","name_short":"lon-8","host":"lon-1.uk.uncletopia.com","port":27085,"enabled":true,"region":"eu","cc":"gb","latitude":51.509865,"longitude":-0.118092,"reserved":0,"last_update":"0001-01-01T00:00:00Z","name_a2s":"Uncletopia | London | 8 | Community","protocol":17,"map":"workshop/rd_asteroid_redux_b1.ugc2154902912","folder":"tf","game":"Team Fortress","app_id":440,"player_count":0,"max_players":24,"Bots":0,"server_type":"Dedicated","server_os":"Linux","password":true,"vac":true,"version":"7961495","steam_id":85568392924964315,"keywords":["beta","nocrits","nodmgspread","rd","uncletopia"],"game_id":440,"stv_port":27086,"stv_name":"Uncletopia | London | 8 | Community | STV","players":null},{"server_id":300,"name":"Uncletopia | Montréal | 1 | One Thousand Uncles","name_short":"mtl-1","host":"mtl-1.ca.uncletopia.com","port":27015,"enabled":true,"region":"us-east","cc":"ca","latitude":45.50889,"longitude":-73.56167,"reserved":0,"last_update":"0001-01-01T00:00:00Z","name_a2s":"Uncletopia | Montréal | 1 | One Thousand Uncles","protocol":17,"map":"pl_thundermountain","folder":"tf","game":"Team Fortress","app_id":440,"player_count":26,"max_players":32,"Bots":20,"server_type":"Dedicated","server_os":"Linux","password":true,"vac":true,"version":"7961495","steam_id":85568392924500087,"keywords":["alltalk","bots","danepve","increased_maxplayers","norespawntime","payload","uncletopia"],"game_id":440,"stv_port":0,"stv_name":"","players":[{"user_id":156,"name":"puffy","steam_id":76561198411347037,"connected_time":2830000000000,"state":"active","ping":60},{"user_id":159,"name":"zmanvic","steam_id":76561198008389885,"connected_time":1918000000000,"state":"active","ping":69},{"user_id":160,"name":"Watong","steam_id":76561199074388745,"connected_time":1841000000000,"state":"active","ping":181},{"user_id":164,"name":"St. Arnold of Soissons","steam_id":76561197974133892,"connected_time":953000000000,"state":"active","ping":68},{"user_id":166,"name":"meme_lad21","steam_id":76561199229567068,"connected_time":743000000000,"state":"active","ping":95},{"user_id":105,"name":"Soviet Hoovy™","steam_id":76561198367792271,"connected_time":4391000000000,"state":"active","ping":66}]},{"server_id":301,"name":"Uncletopia | Montréal | 2 | One Thousand Uncles","name_short":"mtl-2","host":"mtl-1.ca.uncletopia.com","port":27025,"enabled":true,"region":"us-east","cc":"ca","latitude":45.50889,"longitude":-73.56167,"reserved":0,"last_update":"0001-01-01T00:00:00Z","name_a2s":"Uncletopia | Montréal | 2 | One Thousand Uncles","protocol":17,"map":"cp_mossrock","folder":"tf","game":"Team Fortress","app_id":440,"player_count":0,"max_players":32,"Bots":0,"server_type":"Dedicated","server_os":"Linux","password":true,"vac":true,"version":"7961495","steam_id":85568392924500088,"keywords":["alltalk","cp","danepve","increased_maxplayers","norespawntime","uncletopia"],"game_id":440,"stv_port":0,"stv_name":"","players":null},{"server_id":302,"name":"Uncletopia | Montréal | 3 | One Thousand Uncles","name_short":"mtl-3","host":"mtl-1.ca.uncletopia.com","port":27035,"enabled":true,"region":"us-east","cc":"ca","latitude":45.50889,"longitude":-73.56167,"reserved":0,"last_update":"0001-01-01T00:00:00Z","name_a2s":"Uncletopia | Montréal | 3 | One Thousand Uncles","protocol":17,"map":"pl_pier","folder":"tf","game":"Team Fortress","app_id":440,"player_count":0,"max_players":32,"Bots":0,"server_type":"Dedicated","server_os":"Linux","password":true,"vac":true,"version":"7961495","steam_id":85568392924500089,"keywords":["alltalk","danepve","increased_maxplayers","norespawntime","payload","uncletopia"],"game_id":440,"stv_port":0,"stv_name":"","players":null},{"server_id":13,"name":"Uncletopia | New York City | 1 | All Maps","name_short":"nyc-1","host":"nyc-1.us.uncletopia.com","port":27015,"enabled":true,"region":"us-east","cc":"us","latitude":40.73061,"longitude":-73.93524,"reserved":0,"last_update":"0001-01-01T00:00:00Z","name_a2s":"Uncletopia | New York City | 1 | All Maps","protocol":17,"map":"cp_gravelpit","folder":"tf","game":"Team Fortress","app_id":440,"player_count":19,"max_players":24,"Bots":0,"server_type":"Dedicated","server_os":"Linux","password":true,"vac":true,"version":"7961495","steam_id":85568392924469993,"keywords":["cp","nocrits","nodmgspread","uncletopia"],"game_id":440,"stv_port":27016,"stv_name":"Uncletopia | New York City | 1 | All Maps | STV","players":[{"user_id":230,"name":"Disco Fever","steam_id":76561198069532215,"connected_time":2053000000000,"state":"active","ping":48},{"user_id":219,"name":"Havel The Rock","steam_id":76561198086844531,"connected_time":3126000000000,"state":"active","ping":100},{"user_id":256,"name":"Lemurian","steam_id":76561198324118507,"connected_time":64000000000,"state":"active","ping":75},{"user_id":232,"name":"Large Wooden Sign","steam_id":76561198368951702,"connected_time":2016000000000,"state":"active","ping":44},{"user_id":211,"name":"tommy","steam_id":76561198111753974,"connected_time":3823000000000,"state":"active","ping":30},{"user_id":244,"name":"Average Blahaj Enjoyer","steam_id":76561198045653074,"connected_time":1025000000000,"state":"active","ping":154},{"user_id":217,"name":"Sean","steam_id":76561198023624342,"connected_time":3352000000000,"state":"active","ping":63},{"user_id":253,"name":"Order for Delivery","steam_id":76561198070850386,"connected_time":309000000000,"state":"active","ping":77},{"user_id":254,"name":"Hi, I'm Jesus","steam_id":76561198015327152,"connected_time":92000000000,"state":"active","ping":57},{"user_id":250,"name":"Reflector","steam_id":76561198078999855,"connected_time":659000000000,"state":"active","ping":84},{"user_id":206,"name":"SmiGuy","steam_id":76561198058474433,"connected_time":4204000000000,"state":"active","ping":44},{"user_id":224,"name":"Nickname","steam_id":76561197982841838,"connected_time":2966000000000,"state":"active","ping":73},{"user_id":155,"name":"OdysseyTen","steam_id":76561198133082665,"connected_time":7685000000000,"state":"active","ping":71},{"user_id":255,"name":"chunKymunKy","steam_id":76561199386103968,"connected_time":90000000000,"state":"active","ping":72},{"user_id":212,"name":"LordZ19","steam_id":76561198401058967,"connected_time":3808000000000,"state":"active","ping":44},{"user_id":208,"name":"Nabsin","steam_id":76561198208345304,"connected_time":4183000000000,"state":"active","ping":53},{"user_id":252,"name":"emotional suppport e-cigarette","steam_id":76561198172120615,"connected_time":431000000000,"state":"active","ping":37},{"user_id":238,"name":"Jeremiah Finch","steam_id":76561198046899113,"connected_time":1917000000000,"state":"active","ping":87},{"user_id":215,"name":"the keebler","steam_id":76561199486326945,"connected_time":3725000000000,"state":"active","ping":68}]},{"server_id":14,"name":"Uncletopia | New York City | 2 | All Maps","name_short":"nyc-2","host":"nyc-1.us.uncletopia.com","port":27025,"enabled":true,"region":"us-east","cc":"us","latitude":40.73061,"longitude":-73.93524,"reserved":0,"last_update":"0001-01-01T00:00:00Z","name_a2s":"Uncletopia | New York City | 2 | All Maps","protocol":17,"map":"pl_goldrush","folder":"tf","game":"Team Fortress","app_id":440,"player_count":18,"max_players":24,"Bots":0,"server_type":"Dedicated","server_os":"Linux","password":true,"vac":true,"version":"7961495","steam_id":85568392924469994,"keywords":["nocrits","nodmgspread","payload","uncletopia"],"game_id":440,"stv_port":27026,"stv_name":"Uncletopia | New York City | 2 | All Maps | STV","players":[{"user_id":237,"name":"defund teachers salaries","steam_id":76561199107134575,"connected_time":249000000000,"state":"active","ping":83},{"user_id":204,"name":"Pixeled","steam_id":76561198088917077,"connected_time":1842000000000,"state":"active","ping":75},{"user_id":231,"name":"Slime Rancher 2 Enjoyer","steam_id":76561199171272762,"connected_time":447000000000,"state":"active","ping":65},{"user_id":232,"name":"Captain Coochie","steam_id":76561198441729702,"connected_time":403000000000,"state":"active","ping":95},{"user_id":233,"name":"Timmy The Tyrant","steam_id":76561199156409732,"connected_time":350000000000,"state":"active","ping":80},{"user_id":234,"name":"Teamfortressfunnymomments#5","steam_id":76561198971629959,"connected_time":343000000000,"state":"active","ping":146},{"user_id":235,"name":"DigitalTheAlchemist","steam_id":76561198380873323,"connected_time":332000000000,"state":"active","ping":60},{"user_id":238,"name":"Rummy the Blargh-gineer","steam_id":76561197997192800,"connected_time":240000000000,"state":"active","ping":60},{"user_id":225,"name":"..!","steam_id":76561198882483441,"connected_time":960000000000,"state":"active","ping":77},{"user_id":241,"name":"Barry","steam_id":76561198371953939,"connected_time":195000000000,"state":"active","ping":64},{"user_id":223,"name":"Chord","steam_id":76561198110874021,"connected_time":1103000000000,"state":"active","ping":78},{"user_id":194,"name":"Xx_gam3rberg_xX","steam_id":76561199035781025,"connected_time":2225000000000,"state":"active","ping":61},{"user_id":242,"name":"Monolith","steam_id":76561198267202529,"connected_time":162000000000,"state":"active","ping":130},{"user_id":243,"name":"chilis baby back ribs","steam_id":76561198813516435,"connected_time":153000000000,"state":"active","ping":106},{"user_id":206,"name":"Oh, it's Zach","steam_id":76561198103309672,"connected_time":1797000000000,"state":"active","ping":73},{"user_id":244,"name":"The Fiend","steam_id":76561199229771413,"connected_time":22000000000,"state":"active","ping":83},{"user_id":221,"name":"The Alex","steam_id":76561198044016385,"connected_time":1181000000000,"state":"active","ping":77},{"user_id":213,"name":"you forgot the sauce","steam_id":76561198387016713,"connected_time":1449000000000,"state":"active","ping":50}]},{"server_id":15,"name":"Uncletopia | New York City | 3 | Stopwatch","name_short":"nyc-3","host":"nyc-1.us.uncletopia.com","port":27035,"enabled":true,"region":"us-east","cc":"us","latitude":40.73061,"longitude":-73.93524,"reserved":0,"last_update":"0001-01-01T00:00:00Z","name_a2s":"Uncletopia | New York City | 3 | Stopwatch","protocol":17,"map":"pl_upward","folder":"tf","game":"Team Fortress","app_id":440,"player_count":0,"max_players":24,"Bots":0,"server_type":"Dedicated","server_os":"Linux","password":true,"vac":true,"version":"7961495","steam_id":85568392924742820,"keywords":["nocrits","nodmgspread","payload","uncletopia"],"game_id":440,"stv_port":27036,"stv_name":"Uncletopia | New York City | 3 | Stopwatch | STV","players":null},{"server_id":16,"name":"Uncletopia | New York City | 4 | Community","name_short":"nyc-4","host":"nyc-1.us.uncletopia.com","port":27045,"enabled":true,"region":"us-east","cc":"us","latitude":40.73061,"longitude":-73.93524,"reserved":0,"last_update":"0001-01-01T00:00:00Z","name_a2s":"Uncletopia | New York City | 4 | Community","protocol":17,"map":"workshop/pl_shoreleave_rc2.ugc1238849347","folder":"tf","game":"Team Fortress","app_id":440,"player_count":0,"max_players":24,"Bots":0,"server_type":"Dedicated","server_os":"Linux","password":true,"vac":true,"version":"7961495","steam_id":85568392924742821,"keywords":["nocrits","nodmgspread","payload","uncletopia"],"game_id":440,"stv_port":27046,"stv_name":"Uncletopia | New York City | 4 | Community | STV","players":null},{"server_id":142,"name":"Uncletopia | São Paulo | 1 | All Maps","name_short":"sao-1","host":"sao-1.br.uncletopia.com","port":27015,"enabled":true,"region":"sa","cc":"br","latitude":-23.533773,"longitude":-46.62529,"reserved":0,"last_update":"0001-01-01T00:00:00Z","name_a2s":"Uncletopia | São Paulo | 1 | All Maps","protocol":17,"map":"koth_viaduct","folder":"tf","game":"Team Fortress","app_id":440,"player_count":0,"max_players":24,"Bots":0,"server_type":"Dedicated","server_os":"Linux","password":true,"vac":true,"version":"7961495","steam_id":85568392924469996,"keywords":["cp","nocrits","nodmgspread","uncletopia"],"game_id":440,"stv_port":27016,"stv_name":"Uncletopia | São Paulo | 1 | All Maps | STV","players":null},{"server_id":143,"name":"Uncletopia | São Paulo | 2 | Community","name_short":"sao-2","host":"sao-2.br.uncletopia.com","port":27015,"enabled":true,"region":"sa","cc":"br","latitude":-23.533773,"longitude":-46.62529,"reserved":0,"last_update":"0001-01-01T00:00:00Z","name_a2s":"Uncletopia | São Paulo | 2 | Community","protocol":17,"map":"workshop/koth_slaughter_rc1.ugc1712845210","folder":"tf","game":"Team Fortress","app_id":440,"player_count":2,"max_players":24,"Bots":0,"server_type":"Dedicated","server_os":"Linux","password":true,"vac":true,"version":"7961495","steam_id":85568392924485349,"keywords":["cp","nocrits","nodmgspread","uncletopia"],"game_id":440,"stv_port":27016,"stv_name":"Uncletopia | São Paulo | 2 | Community | STV","players":[{"user_id":6,"name":"SmoggySkewball","steam_id":76561198428665466,"connected_time":2943000000000,"state":"active","ping":93},{"user_id":8,"name":"twistedVodka","steam_id":76561199429163241,"connected_time":1963000000000,"state":"active","ping":70}]},{"server_id":7,"name":"Uncletopia | Seattle | 1 | All Maps","name_short":"sea-1","host":"sea-1.us.uncletopia.com","port":27015,"enabled":true,"region":"us-west","cc":"us","latitude":47.608013,"longitude":-122.33517,"reserved":0,"last_update":"0001-01-01T00:00:00Z","name_a2s":"Uncletopia | Seattle | 1 | All Maps","protocol":17,"map":"koth_lakeside_final","folder":"tf","game":"Team Fortress","app_id":440,"player_count":0,"max_players":24,"Bots":0,"server_type":"Dedicated","server_os":"Linux","password":true,"vac":true,"version":"7961495","steam_id":85568392924469997,"keywords":["cp","nocrits","nodmgspread","uncletopia"],"game_id":440,"stv_port":27016,"stv_name":"Uncletopia | Seattle | 1 | All Maps | STV","players":null},{"server_id":119,"name":"Uncletopia | Seattle | 2 | All Maps","name_short":"sea-2","host":"sea-1.us.uncletopia.com","port":27025,"enabled":true,"region":"us-west","cc":"us","latitude":47.608013,"longitude":-122.33517,"reserved":0,"last_update":"0001-01-01T00:00:00Z","name_a2s":"Uncletopia | Seattle | 2 | All Maps","protocol":17,"map":"cp_mountainlab","folder":"tf","game":"Team Fortress","app_id":440,"player_count":0,"max_players":24,"Bots":0,"server_type":"Dedicated","server_os":"Linux","password":true,"vac":true,"version":"7961495","steam_id":85568392924469998,"keywords":["cp","nocrits","nodmgspread","uncletopia"],"game_id":440,"stv_port":27026,"stv_name":"Uncletopia | Seattle | 2 | All Maps | STV","players":null},{"server_id":406,"name":"Uncletopia | Seattle | 3 | Stopwatch","name_short":"sea-3","host":"sea-1.us.uncletopia.com","port":27035,"enabled":true,"region":"us-west","cc":"us","latitude":47.608013,"longitude":-122.33517,"reserved":0,"last_update":"0001-01-01T00:00:00Z","name_a2s":"Uncletopia | Seattle | 3 | Stopwatch","protocol":17,"map":"cp_gullywash_final1","folder":"tf","game":"Team Fortress","app_id":440,"player_count":0,"max_players":24,"Bots":0,"server_type":"Dedicated","server_os":"Linux","password":true,"vac":true,"version":"7961495","steam_id":85568392924515217,"keywords":["cp","nocrits","nodmgspread","uncletopia"],"game_id":440,"stv_port":27036,"stv_name":"Uncletopia | Seattle | 3 | Stopwatch | STV","players":null},{"server_id":17,"name":"Uncletopia | San Francisco | 1 | All Maps","name_short":"sfo-1","host":"sfo-1.us.uncletopia.com","port":27015,"enabled":true,"region":"us-west","cc":"us","latitude":37.77397,"longitude":-122.4313,"reserved":0,"last_update":"0001-01-01T00:00:00Z","name_a2s":"Uncletopia | San Francisco | 1 | All Maps","protocol":17,"map":"cp_dustbowl","folder":"tf","game":"Team Fortress","app_id":440,"player_count":0,"max_players":24,"Bots":0,"server_type":"Dedicated","server_os":"Linux","password":true,"vac":true,"version":"7961495","steam_id":85568392924469999,"keywords":["cp","nocrits","nodmgspread","uncletopia"],"game_id":440,"stv_port":27016,"stv_name":"Uncletopia | San Francisco | 1 | All Maps | STV","players":null},{"server_id":18,"name":"Uncletopia | San Francisco | 2 | All Maps","name_short":"sfo-2","host":"sfo-1.us.uncletopia.com","port":27025,"enabled":true,"region":"us-west","cc":"us","latitude":37.77397,"longitude":-122.4313,"reserved":0,"last_update":"0001-01-01T00:00:00Z","name_a2s":"Uncletopia | San Francisco | 2 | All Maps","protocol":17,"map":"pl_hoodoo_final","folder":"tf","game":"Team Fortress","app_id":440,"player_count":0,"max_players":24,"Bots":0,"server_type":"Dedicated","server_os":"Linux","password":true,"vac":true,"version":"7961495","steam_id":85568392924470000,"keywords":["nocrits","nodmgspread","payload","uncletopia"],"game_id":440,"stv_port":27026,"stv_name":"Uncletopia | San Francisco | 2 | All Maps | STV","players":null},{"server_id":19,"name":"Uncletopia | San Francisco | 3 | Stopwatch","name_short":"sfo-3","host":"sfo-1.us.uncletopia.com","port":27035,"enabled":true,"region":"us-west","cc":"us","latitude":37.77397,"longitude":-122.4313,"reserved":0,"last_update":"0001-01-01T00:00:00Z","name_a2s":"Uncletopia | San Francisco | 3 | Stopwatch","protocol":17,"map":"workshop/koth_clearcut_b15.ugc2107050255","folder":"tf","game":"Team Fortress","app_id":440,"player_count":0,"max_players":24,"Bots":0,"server_type":"Dedicated","server_os":"Linux","password":true,"vac":true,"version":"7961495","steam_id":85568392924742824,"keywords":["cp","nocrits","nodmgspread","uncletopia"],"game_id":440,"stv_port":27036,"stv_name":"Uncletopia | San Francisco | 3 | Stopwatch | STV","players":null},{"server_id":20,"name":"Uncletopia | San Francisco | 4 | Community","name_short":"sfo-4","host":"sfo-1.us.uncletopia.com","port":27045,"enabled":true,"region":"us-west","cc":"us","latitude":37.77397,"longitude":-122.4313,"reserved":0,"last_update":"0001-01-01T00:00:00Z","name_a2s":"Uncletopia | San Francisco | 4 | Community","protocol":17,"map":"workshop/pl_vigil_rc10.ugc1266210012","folder":"tf","game":"Team Fortress","app_id":440,"player_count":0,"max_players":24,"Bots":0,"server_type":"Dedicated","server_os":"Linux","password":true,"vac":true,"version":"7961495","steam_id":85568392924742826,"keywords":["nocrits","nodmgspread","payload","uncletopia"],"game_id":440,"stv_port":27046,"stv_name":"Uncletopia | San Francisco | 4 | Community | STV","players":null},{"server_id":141,"name":"Uncletopia | Sydney | 1 | All Maps","name_short":"syd-1","host":"syd-1.au.uncletopia.com","port":27015,"enabled":true,"region":"au","cc":"au","latitude":-33.865143,"longitude":151.2099,"reserved":0,"last_update":"0001-01-01T00:00:00Z","name_a2s":"Uncletopia | Sydney | 1 | All Maps","protocol":17,"map":"cp_altitude","folder":"tf","game":"Team Fortress","app_id":440,"player_count":0,"max_players":24,"Bots":0,"server_type":"Dedicated","server_os":"Linux","password":true,"vac":true,"version":"7961495","steam_id":85568392924470001,"keywords":["cp","nocrits","nodmgspread","uncletopia"],"game_id":440,"stv_port":27016,"stv_name":"Uncletopia | Sydney | 1 | All Maps | STV","players":null},{"server_id":123,"name":"Uncletopia | Sydney | 2 | All Maps","name_short":"syd-2","host":"syd-1.au.uncletopia.com","port":27025,"enabled":true,"region":"au","cc":"au","latitude":-33.865143,"longitude":151.2099,"reserved":0,"last_update":"0001-01-01T00:00:00Z","name_a2s":"Uncletopia | Sydney | 2 | All Maps","protocol":17,"map":"pl_swiftwater_final1","folder":"tf","game":"Team Fortress","app_id":440,"player_count":0,"max_players":24,"Bots":0,"server_type":"Dedicated","server_os":"Linux","password":true,"vac":true,"version":"7961495","steam_id":85568392924470002,"keywords":["nocrits","nodmgspread","payload","uncletopia"],"game_id":440,"stv_port":27026,"stv_name":"Uncletopia | Sydney | 2 | All Maps | STV","players":null},{"server_id":395,"name":"Uncletopia | Sydney | 3 | All Maps","name_short":"syd-3","host":"syd-1.au.uncletopia.com","port":27035,"enabled":true,"region":"au","cc":"au","latitude":-33.865143,"longitude":151.2099,"reserved":0,"last_update":"0001-01-01T00:00:00Z","name_a2s":"Uncletopia | Sydney | 3 | All Maps","protocol":17,"map":"koth_highpass","folder":"tf","game":"Team Fortress","app_id":440,"player_count":0,"max_players":24,"Bots":0,"server_type":"Dedicated","server_os":"Linux","password":true,"vac":true,"version":"7961495","steam_id":85568392925194467,"keywords":["cp","nocrits","nodmgspread","uncletopia"],"game_id":440,"stv_port":27036,"stv_name":"Uncletopia | Sydney | 3 | All Maps | STV","players":null},{"server_id":396,"name":"Uncletopia | Sydney | 4 | All Maps","name_short":"syd-4","host":"syd-1.au.uncletopia.com","port":27045,"enabled":true,"region":"au","cc":"au","latitude":-33.865143,"longitude":151.2099,"reserved":0,"last_update":"0001-01-01T00:00:00Z","name_a2s":"Uncletopia | Sydney | 4 | All Maps","protocol":17,"map":"koth_cascade","folder":"tf","game":"Team Fortress","app_id":440,"player_count":0,"max_players":24,"Bots":0,"server_type":"Dedicated","server_os":"Linux","password":true,"vac":true,"version":"7961495","steam_id":85568392925397958,"keywords":["cp","nocrits","nodmgspread","uncletopia"],"game_id":440,"stv_port":27046,"stv_name":"Uncletopia | Sydney | 4 | All Maps | STV","players":null},{"server_id":58,"name":"Uncletopia | Sydney | 5 | Stopwatch","name_short":"syd-5","host":"syd-1.au.uncletopia.com","port":27055,"enabled":true,"region":"au","cc":"au","latitude":-33.865143,"longitude":151.2099,"reserved":0,"last_update":"0001-01-01T00:00:00Z","name_a2s":"Uncletopia | Sydney | 5 | Stopwatch","protocol":17,"map":"workshop/koth_product_final.ugc454272353","folder":"tf","game":"Team Fortress","app_id":440,"player_count":0,"max_players":24,"Bots":0,"server_type":"Dedicated","server_os":"Linux","password":true,"vac":true,"version":"7961495","steam_id":85568392925397959,"keywords":["cp","nocrits","nodmgspread","uncletopia"],"game_id":440,"stv_port":27056,"stv_name":"Uncletopia | Sydney | 5 | Stopwatch | STV","players":null},{"server_id":59,"name":"Uncletopia | Sydney | 6 | Community","name_short":"syd-6","host":"syd-1.au.uncletopia.com","port":27065,"enabled":true,"region":"au","cc":"au","latitude":-33.865143,"longitude":151.2099,"reserved":0,"last_update":"0001-01-01T00:00:00Z","name_a2s":"Uncletopia | Sydney | 6 | Community","protocol":17,"map":"workshop/cp_mannbase_rc2a.ugc1900737467","folder":"tf","game":"Team Fortress","app_id":440,"player_count":0,"max_players":24,"Bots":0,"server_type":"Dedicated","server_os":"Linux","password":true,"vac":true,"version":"7961495","steam_id":85568392925397960,"keywords":["cp","nocrits","nodmgspread","uncletopia"],"game_id":440,"stv_port":27066,"stv_name":"Uncletopia | Sydney | 6 | Community | STV","players":null},{"server_id":49,"name":"Uncletopia | Warsaw | 1 | One Thousand Uncles","name_short":"waw-1","host":"waw-1.pl.uncletopia.com","port":27015,"enabled":true,"region":"eu","cc":"pl","latitude":52.2297,"longitude":21.017532,"reserved":0,"last_update":"0001-01-01T00:00:00Z","name_a2s":"Uncletopia | Warsaw | 1 | One Thousand Uncles","protocol":17,"map":"cp_dustbowl","folder":"tf","game":"Team Fortress","app_id":440,"player_count":0,"max_players":32,"Bots":0,"server_type":"Dedicated","server_os":"Linux","password":true,"vac":true,"version":"7961495","steam_id":85568392925397850,"keywords":["alltalk","cp","danepve","increased_maxplayers","norespawntime","uncletopia"],"game_id":440,"stv_port":0,"stv_name":"","players":null},{"server_id":50,"name":"Uncletopia | Warsaw | 2 | One Thousand Uncles","name_short":"waw-2","host":"waw-1.pl.uncletopia.com","port":27025,"enabled":true,"region":"eu","cc":"pl","latitude":52.2297,"longitude":21.017532,"reserved":0,"last_update":"0001-01-01T00:00:00Z","name_a2s":"Uncletopia | Warsaw | 2 | One Thousand Uncles","protocol":17,"map":"pl_upward","folder":"tf","game":"Team Fortress","app_id":440,"player_count":32,"max_players":32,"Bots":20,"server_type":"Dedicated","server_os":"Linux","password":true,"vac":true,"version":"7961495","steam_id":85568392925397851,"keywords":["alltalk","bots","danepve","increased_maxplayers","norespawntime","payload","uncletopia"],"game_id":440,"stv_port":0,"stv_name":"","players":[{"user_id":509,"name":"Galzra87","steam_id":76561198063414443,"connected_time":3193000000000,"state":"active","ping":90},{"user_id":511,"name":"facetious dog","steam_id":76561198095289436,"connected_time":3073000000000,"state":"active","ping":65},{"user_id":494,"name":"Squidiot","steam_id":76561198042754907,"connected_time":3897000000000,"state":"active","ping":76},{"user_id":503,"name":"The one True Mads","steam_id":76561197999204692,"connected_time":3478000000000,"state":"active","ping":81},{"user_id":516,"name":"ОберштурмЧурка","steam_id":76561198249134828,"connected_time":1875000000000,"state":"active","ping":61},{"user_id":530,"name":"Pascal Darras","steam_id":76561198052136478,"connected_time":342000000000,"state":"active","ping":72},{"user_id":525,"name":"luckyastroman","steam_id":76561199027500574,"connected_time":1247000000000,"state":"active","ping":50},{"user_id":527,"name":"krembergs","steam_id":76561198329728890,"connected_time":978000000000,"state":"active","ping":120},{"user_id":514,"name":"pomson gaming","steam_id":76561199149216429,"connected_time":2164000000000,"state":"active","ping":97},{"user_id":523,"name":"Kotlin","steam_id":76561198443331716,"connected_time":1361000000000,"state":"active","ping":66},{"user_id":512,"name":"AnalBypass1989","steam_id":76561198052356557,"connected_time":3041000000000,"state":"active","ping":135},{"user_id":529,"name":"Kaia Brodbecker","steam_id":76561198294109951,"connected_time":846000000000,"state":"active","ping":103}]},{"server_id":51,"name":"Uncletopia | Warsaw | 3 | All Maps","name_short":"waw-3","host":"waw-1.pl.uncletopia.com","port":27035,"enabled":true,"region":"eu","cc":"pl","latitude":52.2297,"longitude":21.017532,"reserved":0,"last_update":"0001-01-01T00:00:00Z","name_a2s":"Uncletopia | Warsaw | 3 | All Maps","protocol":17,"map":"cp_altitude","folder":"tf","game":"Team Fortress","app_id":440,"player_count":3,"max_players":24,"Bots":0,"server_type":"Dedicated","server_os":"Linux","password":true,"vac":true,"version":"7961495","steam_id":85568392925397852,"keywords":["cp","nocrits","nodmgspread","uncletopia"],"game_id":440,"stv_port":27036,"stv_name":"Uncletopia | Warsaw | 3 | All Maps | STV","players":[{"user_id":9,"name":"Grahamer","steam_id":76561198395106232,"connected_time":753000000000,"state":"active","ping":102},{"user_id":12,"name":"1SPACE1","steam_id":76561199012243478,"connected_time":543000000000,"state":"active","ping":104},{"user_id":13,"name":"housing crisis#savetf2","steam_id":76561198119984382,"connected_time":229000000000,"state":"active","ping":59}]},{"server_id":52,"name":"Uncletopia | Warsaw | 4 | All Maps","name_short":"waw-4","host":"waw-1.pl.uncletopia.com","port":27045,"enabled":true,"region":"eu","cc":"pl","latitude":52.2297,"longitude":21.017532,"reserved":0,"last_update":"0001-01-01T00:00:00Z","name_a2s":"Uncletopia | Warsaw | 4 | All Maps","protocol":17,"map":"koth_viaduct","folder":"tf","game":"Team Fortress","app_id":440,"player_count":0,"max_players":24,"Bots":0,"server_type":"Dedicated","server_os":"Linux","password":true,"vac":true,"version":"7961495","steam_id":85568392925397853,"keywords":["cp","nocrits","nodmgspread","uncletopia"],"game_id":440,"stv_port":27046,"stv_name":"Uncletopia | Warsaw | 4 | All Maps | STV","players":null},{"server_id":53,"name":"Uncletopia | Warsaw | 5 | Stopwatch","name_short":"waw-5","host":"waw-1.pl.uncletopia.com","port":27055,"enabled":true,"region":"eu","cc":"pl","latitude":52.2297,"longitude":21.017532,"reserved":0,"last_update":"0001-01-01T00:00:00Z","name_a2s":"Uncletopia | Warsaw | 5 | Stopwatch","protocol":17,"map":"workshop/koth_product_final.ugc454272353","folder":"tf","game":"Team Fortress","app_id":440,"player_count":0,"max_players":24,"Bots":0,"server_type":"Dedicated","server_os":"Linux","password":true,"vac":true,"version":"7961495","steam_id":85568392925397854,"keywords":["cp","nocrits","nodmgspread","uncletopia"],"game_id":440,"stv_port":27056,"stv_name":"Uncletopia | Warsaw | 5 | Stopwatch | STV","players":null},{"server_id":54,"name":"Uncletopia | Warsaw | 6 | Community","name_short":"waw-6","host":"waw-1.pl.uncletopia.com","port":27065,"enabled":true,"region":"eu","cc":"pl","latitude":52.2297,"longitude":21.017532,"reserved":0,"last_update":"0001-01-01T00:00:00Z","name_a2s":"Uncletopia | Warsaw | 6 | Community","protocol":17,"map":"workshop/cp_fulgur_rc2a.ugc2068252300","folder":"tf","game":"Team Fortress","app_id":440,"player_count":0,"max_players":24,"Bots":0,"server_type":"Dedicated","server_os":"Linux","password":true,"vac":true,"version":"7961495","steam_id":85568392925397856,"keywords":["cp","nocrits","nodmgspread","uncletopia"],"game_id":440,"stv_port":27066,"stv_name":"Uncletopia | Warsaw | 6 | Community | STV","players":null}]}