{"status":true,"message":"","result":[{"server_id":9,"name":"Uncletopia | Atlanta | 1 | All Maps","name_short":"atl-1","host":"atl-1.us.uncletopia.com","port":27015,"enabled":true,"region":"us-east","cc":"us","latitude":33.753746,"longitude":-84.38633,"reserved":0,"last_update":"0001-01-01T00:00:00Z","name_a2s":"Uncletopia | Atlanta | 1 | All Maps","protocol":17,"map":"cp_dustbowl","folder":"tf","game":"Team Fortress","app_id":440,"player_count":24,"max_players":24,"Bots":0,"server_type":"Dedicated","server_os":"Linux","password":true,"vac":true,"version":"7961495","steam_id":85568392924469982,"keywords":["cp","nocrits","nodmgspread","uncletopia"],"game_id":440,"stv_port":27016,"stv_name":"Uncletopia | Atlanta | 1 | All Maps | STV","players":[{"user_id":402,"name":"plutonium isotope","steam_id":76561198319442494,"connected_time":275000000000,"state":"active","ping":100},{"user_id":309,"name":"Neptune˖⁺｡˚⋆˙♥","steam_id":76561199054203198,"connected_time":5839000000000,"state":"active","ping":70},{"user_id":382,"name":"tgirl swag","steam_id":76561198128164970,"connected_time":1856000000000,"state":"active","ping":106},{"user_id":300,"name":"b4nny sewer spot on process","steam_id":76561198982810452,"connected_time":6701000000000,"state":"active","ping":83},{"user_id":377,"name":"leonardo_12","steam_id":76561199082937249,"connected_time":2152000000000,"state":"active","ping":90},{"user_id":409,"name":"Pop","steam_id":76561199012562851,"connected_time":68000000000,"state":"active","ping":86},{"user_id":379,"name":"lil hog","steam_id":76561199230929836,"connected_time":2078000000000,"state":"active","ping":85},{"user_id":407,"name":"BIG HOG","steam_id":76561198079923652,"connected_time":89000000000,"state":"active","ping":71},{"user_id":403,"name":"Dr.Inkmix(femboy medic!)","steam_id":76561198854070384,"connected_time":261000000000,"state":"active","ping":111},{"user_id":405,"name":"big steve","steam_id":76561199037050183,"connected_time":97000000000,"state":"active","ping":78},{"user_id":408,"name":"row","steam_id":76561198040946044,"connected_time":82000000000,"state":"active","ping":61},{"user_id":398,"name":"Pango","steam_id":76561198069811545,"connected_time":946000000000,"state":"active","ping":46},{"user_id":401,"name":"ma0re","steam_id":76561199231971506,"connected_time":852000000000,"state":"active","ping":64},{"user_id":331,"name":"Heathcliff","steam_id":76561198044288534,"connected_time":4432000000000,"state":"active","ping":77},{"user_id":366,"name":"PewPew","steam_id":76561198011299099,"connected_time":3367000000000,"state":"active","ping":63},{"user_id":397,"name":"The Professor","steam_id":76561198113760863,"connected_time":951000000000,"state":"active","ping":60},{"user_id":361,"name":"Spiceitwithred","steam_id":76561198313150295,"connected_time":3704000000000,"state":"active","ping":124},{"user_id":367,"name":"Techno Priest","steam_id":76561198129254533,"connected_time":3342000000000,"state":"active","ping":76},{"user_id":399,"name":"friday night freddies","steam_id":76561198968337022,"connected_time":939000000000,"state":"active","ping":57},{"user_id":356,"name":"freyja","steam_id":76561198249206656,"connected_time":3977000000000,"state":"active","ping":76},{"user_id":396,"name":"Tay1Qr","steam_id":76561198082809935,"connected_time":1069000000000,"state":"active","ping":64},{"user_id":297,"name":"joe","steam_id":76561198045781320,"connected_time":6941000000000,"state":"active","ping":64},{"user_id":389,"name":"Lilith","steam_id":76561198125102885,"connected_time":1553000000000,"state":"active","ping":63},{"user_id":406,"name":"Mug","steam_id":76561199282207802,"connected_time":96000000000,"state":"active","ping":77}]},{"server_id":104,"name":"Uncletopia | Atlanta | 2 | All Maps","name_short":"atl-2","host":"atl-1.us.uncletopia.com","port":27025,"enabled":true,"region":"us-east","cc":"us","latitude":33.753746,"longitude":-84.38633,"reserved":0,"last_update":"0001-01-01T00:00:00Z","name_a2s":"Uncletopia | Atlanta | 2 | All Maps","protocol":17,"map":"pl_borneo","folder":"tf","game":"Team Fortress","app_id":440,"player_count":24,"max_players":24,"Bots":0,"server_type":"Dedicated","server_os":"Linux","password":true,"vac":true,"version":"7961495","steam_id":85568392924469983,"keywords":["nocrits","nodmgspread","payload","uncletopia"],"game_id":440,"stv_port":27026,"stv_name":"Uncletopia | Atlanta | 2 | All Maps | STV","players":[{"user_id":254,"name":"Gustavo Fring","steam_id":76561198132807405,"connected_time":1193000000000,"state":"active","ping":81},{"user_id":248,"name":"TwistyBoi","steam_id":76561198201410603,"connected_time":1630000000000,"state":"active","ping":58},{"user_id":234,"name":"nonagon infinity","steam_id":76561198397662124,"connected_time":2760000000000,"state":"active","ping":99},{"user_id":259,"name":"Swag Messiah (official)","steam_id":76561198400058665,"connected_time":238000000000,"state":"active","ping":70},{"user_id":241,"name":"Acro","steam_id":76561198092451804,"connected_time":2232000000000,"state":"active","ping":63},{"user_id":252,"name":"brg","steam_id":76561197998415548,"connected_time":1311000000000,"state":"active","ping":72},{"user_id":263,"name":"gamingandnaming","steam_id":76561198981737120,"connected_time":13000000000,"state":"active","ping":88},{"user_id":230,"name":"Oxygen User","steam_id":76561199111975528,"connected_time":3001000000000,"state":"active","ping":66},{"user_id":255,"name":"Manny Heffley","steam_id":76561198135137213,"connected_time":1005000000000,"state":"active","ping":67},{"user_id":251,"name":"Prsm","steam_id":76561198053344995,"connected_time":1342000000000,"state":"active","ping":59},{"user_id":242,"name":"Crusty","steam_id":76561198843376034,"connected_time":2215000000000,"state":"active","ping":35},{"user_id":114,"name":"rf","steam_id":76561198195359229,"connected_time":11063000000000,"state":"active","ping":100},{"user_id":222,"name":"21","steam_id":76561199184578185,"connected_time":3695000000000,"state":"active","ping":164},{"user_id":256,"name":"Drapph","steam_id":76561199384213314,"connected_time":375000000000,"state":"active","ping":99},{"user_id":260,"name":"Peanuts","steam_id":76561198041978557,"connected_time":228000000000,"state":"active","ping":95},{"user_id":196,"name":"mrbeast109385079350229083479082","steam_id":76561198370687830,"connected_time":5244000000000,"state":"active","ping":72},{"user_id":246,"name":"fregley","steam_id":76561198060070002,"connected_time":1812000000000,"state":"active","ping":77},{"user_id":229,"name":"Cerise","steam_id":76561198332526383,"connected_time":3514000000000,"state":"active","ping":96},{"user_id":258,"name":"sumerian death metal warrior","steam_id":76561198997380708,"connected_time":266000000000,"state":"active","ping":96},{"user_id":213,"name":"Duncan","steam_id":76561198042148095,"connected_time":4735000000000,"state":"active","ping":66},{"user_id":235,"name":"god's cutest warrior","steam_id":76561198058574934,"connected_time":2752000000000,"state":"active","ping":77},{"user_id":239,"name":"Exetior","steam_id":76561198978688451,"connected_time":2300000000000,"state":"active","ping":55},{"user_id":247,"name":"Robo","steam_id":76561199106531261,"connected_time":1767000000000,"state":"active","ping":64},{"user_id":262,"name":"Other Players, My One Weakness","steam_id":76561197989247588,"connected_time":200000000000,"state":"active","ping":87}]},{"server_id":400,"name":"Uncletopia | Atlanta | 3 | Stopwatch","name_short":"atl-3","host":"atl-1.us.uncletopia.com","port":27035,"enabled":true,"region":"us-east","cc":"us","latitude":33.753746,"longitude":-84.38633,"reserved":0,"last_update":"0001-01-01T00:00:00Z","name_a2s":"Uncletopia | Atlanta | 3 | Stopwatch","protocol":17,"map":"pl_swiftwater_final1","folder":"tf","game":"Team Fortress","app_id":440,"player_count":0,"max_players":24,"Bots":0,"server_type":"Dedicated","server_os":"Linux","password":true,"vac":true,"version":"7961495","steam_id":85568392924515187,"keywords":["nocrits","nodmgspread","payload","uncletopia"],"game_id":440,"stv_port":27036,"stv_name":"Uncletopia | Atlanta | 3 | Stopwatch | STV","players":null},{"server_id":401,"name":"Uncletopia | Atlanta | 4 | Community","name_short":"atl-4","host":"atl-1.us.uncletopia.com","port":27045,"enabled":true,"region":"us-east","cc":"us","latitude":33.753746,"longitude":-84.38633,"reserved":0,"last_update":"0001-01-01T00:00:00Z","name_a2s":"Uncletopia | Atlanta | 4 | Community","protocol":17,"map":"workshop/cp_fulgur_rc2a.ugc2068252300","folder":"tf","game":"Team Fortress","app_id":440,"player_count":0,"max_players":24,"Bots":0,"server_type":"Dedicated","server_os":"Linux","password":true,"vac":true,"version":"7961495","steam_id":85568392924515188,"keywords":["cp","nocrits","nodmgspread","uncletopia"],"game_id":440,"stv_port":27046,"stv_name":"Uncletopia | Atlanta | 4 | Community | STV","players":null},{"server_id":2,"name":"Uncletopia | Chicago | 1 | All Maps","name_short":"chi-1","host":"chi-1.us.uncletopia.com","port":27015,"enabled":true,"region":"us-central","cc":"us","latitude":41.881832,"longitude":-87.62318,"reserved":0,"last_update":"0001-01-01T00:00:00Z","name_a2s":"Uncletopia | Chicago | 1 | All Maps","protocol":17,"map":"cp_gorge","folder":"tf","game":"Team Fortress","app_id":440,"player_count":24,"max_players":24,"Bots":0,"server_type":"Dedicated","server_os":"Linux","password":true,"vac":true,"version":"7961495","steam_id":85568392924469984,"keywords":["cp","nocrits","nodmgspread","uncletopia"],"game_id":440,"stv_port":27016,"stv_name":"Uncletopia | Chicago | 1 | All Maps | STV","players":[{"user_id":395,"name":"Praise_to_the_Flashlight!","steam_id":76561199001728789,"connected_time":5662000000000,"state":"active","ping":60},{"user_id":410,"name":"♥Bunny♥Slut♥","steam_id":76561198206376851,"connected_time":2812000000000,"state":"active","ping":94},{"user_id":430,"name":"CHIPS","steam_id":76561199085414584,"connected_time":36000000000,"state":"spawning","ping":71},{"user_id":350,"name":"KSupes","steam_id":76561199131995067,"connected_time":9379000000000,"state":"active","ping":47},{"user_id":431,"name":"Kyle Wisdom","steam_id":76561197983040950,"connected_time":36000000000,"state":"spawning","ping":49},{"user_id":351,"name":"mo ge - ko","steam_id":76561198056432756,"connected_time":9360000000000,"state":"active","ping":67},{"user_id":425,"name":".JIFF","steam_id":76561198045181760,"connected_time":1175000000000,"state":"active","ping":59},{"user_id":429,"name":"Ras","steam_id":76561198123546775,"connected_time":257000000000,"state":"active","ping":56},{"user_id":352,"name":"LofiWhore","steam_id":76561198126686695,"connected_time":9332000000000,"state":"active","ping":65},{"user_id":416,"name":"red orb","steam_id":76561199090224667,"connected_time":1935000000000,"state":"active","ping":61},{"user_id":412,"name":"Drooop","steam_id":76561198856700517,"connected_time":2662000000000,"state":"active","ping":70},{"user_id":405,"name":"joseph stalin","steam_id":76561199230441293,"connected_time":4118000000000,"state":"active","ping":76},{"user_id":426,"name":"Stacks63bs","steam_id":76561198067797130,"connected_time":1081000000000,"state":"active","ping":84},{"user_id":407,"name":"Astoriae!","steam_id":76561199090168858,"connected_time":3876000000000,"state":"active","ping":69},{"user_id":411,"name":"Your Local Queer Librarian","steam_id":76561198013077080,"connected_time":2690000000000,"state":"active","ping":49},{"user_id":409,"name":"YourMamaRGR","steam_id":76561198007886268,"connected_time":2828000000000,"state":"active","ping":55},{"user_id":377,"name":"Milkmur","steam_id":76561198210043821,"connected_time":7348000000000,"state":"active","ping":56},{"user_id":376,"name":"Rode hard, put away wet","steam_id":76561198062764039,"connected_time":7472000000000,"state":"active","ping":44},{"user_id":432,"name":"TehOneZoot","steam_id":76561198121944243,"connected_time":32000000000,"state":"active","ping":45},{"user_id":428,"name":"Icybullets","steam_id":76561198950782310,"connected_time":343000000000,"state":"active","ping":62},{"user_id":435,"name":"§øųŕ","steam_id":76561199207947893,"connected_time":2000000000,"state":"spawning","ping":57},{"user_id":418,"name":"SandHanitizer","steam_id":76561198234676500,"connected_time":1429000000000,"state":"active","ping":70},{"user_id":433,"name":"CRAZY DAVE!1!","steam_id":76561198281974391,"connected_time":31000000000,"state":"active","ping":64},{"user_id":422,"name":"Slothycer","steam_id":76561199033313937,"connected_time":1295000000000,"state":"active","ping":86}]},{"server_id":106,"name":"Uncletopia | Chicago | 2 | All Maps","name_short":"chi-2","host":"chi-1.us.uncletopia.com","port":27025,"enabled":true,"region":"us-central","cc":"us","latitude":41.881832,"longitude":-87.62318,"reserved":0,"last_update":"0001-01-01T00:00:00Z","name_a2s":"Uncletopia | Chicago | 2 | All Maps","protocol":17,"map":"pl_badwater","folder":"tf","game":"Team Fortress","app_id":440,"player_count":24,"max_players":24,"Bots":0,"server_type":"Dedicated","server_os":"Linux","password":true,"vac":true,"version":"7961495","steam_id":85568392924469985,"keywords":["nocrits","nodmgspread","payload","uncletopia"],"game_id":440,"stv_port":27026,"stv_name":"Uncletopia | Chicago | 2 | All Maps | STV","players":[{"user_id":606,"name":"Olympic Toe Curling","steam_id":76561198433807531,"connected_time":1663000000000,"state":"active","ping":84},{"user_id":607,"name":"F2P #save TF2","steam_id":76561199404321552,"connected_time":1652000000000,"state":"active","ping":69},{"user_id":620,"name":"Warlord Gandhi","steam_id":76561198075331636,"connected_time":1074000000000,"state":"active","ping":48},{"user_id":605,"name":"✨✨ BOILING PIZZA ✨✨","steam_id":76561198354108114,"connected_time":1722000000000,"state":"active","ping":82},{"user_id":627,"name":"DuckKey","steam_id":76561198904477889,"connected_time":259000000000,"state":"active","ping":58},{"user_id":608,"name":"Sir_Nimble","steam_id":76561198000644590,"connected_time":1640000000000,"state":"active","ping":74},{"user_id":585,"name":"fish (2:3)","steam_id":76561198134331073,"connected_time":3825000000000,"state":"active","ping":107},{"user_id":599,"name":"Hooked","steam_id":76561198007302139,"connected_time":2884000000000,"state":"active","ping":72},{"user_id":619,"name":"Word To Your Mothership","steam_id":76561198034329138,"connected_time":1249000000000,"state":"active","ping":103},{"user_id":554,"name":"Ajax","steam_id":76561197962240140,"connected_time":6355000000000,"state":"active","ping":63},{"user_id":631,"name":"Breezy","steam_id":76561199130895434,"connected_time":153000000000,"state":"active","ping":72},{"user_id":610,"name":"Six Piece Chicken McNobody","steam_id":76561198129848222,"connected_time":1602000000000,"state":"active","ping":64},{"user_id":621,"name":"yELLow","steam_id":76561198178488195,"connected_time":1006000000000,"state":"active","ping":70},{"user_id":623,"name":"DiamondEpsilon","steam_id":76561198203883311,"connected_time":858000000000,"state":"active","ping":78},{"user_id":632,"name":"Gamerbray4","steam_id":76561199388263570,"connected_time":26000000000,"state":"active","ping":69},{"user_id":624,"name":"loscemo","steam_id":76561197994884609,"connected_time":692000000000,"state":"active","ping":68},{"user_id":613,"name":"dark souls boss","steam_id":76561198316610724,"connected_time":1573000000000,"state":"active","ping":86},{"user_id":622,"name":"Oli B\u003eQS/BP/Bulk w/ 1.5k+ keys","steam_id":76561198140316312,"connected_time":1001000000000,"state":"active","ping":57},{"user_id":626,"name":"chicken nucket","steam_id":76561198042831480,"connected_time":626000000000,"state":"active","ping":69},{"user_id":600,"name":"jimmyfnaf172198yay","steam_id":76561198311446636,"connected_time":2873000000000,"state":"active","ping":61},{"user_id":616,"name":"Pixeled","steam_id":76561198088917077,"connected_time":1504000000000,"state":"active","ping":86},{"user_id":629,"name":"Piyono","steam_id":76561197962188504,"connected_time":253000000000,"state":"active","ping":69},{"user_id":556,"name":"the zoo","steam_id":76561198013732450,"connected_time":6335000000000,"state":"active","ping":53},{"user_id":617,"name":"Lia_Rein","steam_id":76561198151569597,"connected_time":1454000000000,"state":"active","ping":150}]},{"server_id":402,"name":"Uncletopia | Chicago | 3 | All Maps","name_short":"chi-3","host":"chi-1.us.uncletopia.com","port":27035,"enabled":true,"region":"us-central","cc":"us","latitude":41.881832,"longitude":-87.62318,"reserved":0,"last_update":"0001-01-01T00:00:00Z","name_a2s":"Uncletopia | Chicago | 3 | All Maps","protocol":17,"map":"pl_snowycoast","folder":"tf","game":"Team Fortress","app_id":440,"player_count":24,"max_players":24,"Bots":0,"server_type":"Dedicated","server_os":"Linux","password":true,"vac":true,"version":"7961495","steam_id":85568392924515191,"keywords":["nocrits","nodmgspread","payload","uncletopia"],"game_id":440,"stv_port":27036,"stv_name":"Uncletopia | Chicago | 3 | All Maps | STV","players":[{"user_id":419,"name":"BrendenMad","steam_id":76561198031250581,"connected_time":1016000000000,"state":"active","ping":49},{"user_id":400,"name":"honked off the bobo","steam_id":76561198123287268,"connected_time":2606000000000,"state":"active","ping":45},{"user_id":418,"name":"Notorious Criminal Prawo Jazdy","steam_id":76561198339011254,"connected_time":1027000000000,"state":"active","ping":76},{"user_id":383,"name":"chunk","steam_id":76561198134775401,"connected_time":4130000000000,"state":"active","ping":56},{"user_id":424,"name":"Gorky Gaming","steam_id":76561198438511115,"connected_time":970000000000,"state":"active","ping":77},{"user_id":429,"name":"Majestic-A","steam_id":76561198988062101,"connected_time":286000000000,"state":"active","ping":91},{"user_id":420,"name":"gala","steam_id":76561199502293462,"connected_time":1004000000000,"state":"active","ping":81},{"user_id":412,"name":"JPSS","steam_id":76561199239530493,"connected_time":1310000000000,"state":"active","ping":90},{"user_id":411,"name":"smuffy","steam_id":76561198091459506,"connected_time":1615000000000,"state":"active","ping":72},{"user_id":392,"name":"Nortel Network Telephone T7316","steam_id":76561198399261089,"connected_time":3198000000000,"state":"active","ping":90},{"user_id":426,"name":"kali","steam_id":76561198131833567,"connected_time":778000000000,"state":"active","ping":107},{"user_id":384,"name":"y0","steam_id":76561198143894333,"connected_time":4121000000000,"state":"active","ping":56},{"user_id":415,"name":"Smashing93","steam_id":76561199058453316,"connected_time":1135000000000,"state":"active","ping":63},{"user_id":413,"name":"Howard Hamlin","steam_id":76561198881039861,"connected_time":1192000000000,"state":"active","ping":50},{"user_id":416,"name":"seedy iris","steam_id":76561198164420174,"connected_time":1093000000000,"state":"active","ping":55},{"user_id":357,"name":"A/funny/dream","steam_id":76561198354481597,"connected_time":6337000000000,"state":"active","ping":98},{"user_id":378,"name":"bird who can't aim","steam_id":76561198062360755,"connected_time":4310000000000,"state":"active","ping":59},{"user_id":421,"name":"DoXis","steam_id":76561198836114258,"connected_time":1002000000000,"state":"active","ping":71},{"user_id":406,"name":"slep.py","steam_id":76561197988287144,"connected_time":1870000000000,"state":"active","ping":43},{"user_id":425,"name":"○","steam_id":76561198034560063,"connected_time":854000000000,"state":"active","ping":71},{"user_id":431,"name":"dak","steam_id":76561198076596506,"connected_time":174000000000,"state":"active","ping":60},{"user_id":432,"name":"GlingGlop95","steam_id":76561198386865528,"connected_time":70000000000,"state":"active","ping":86},{"user_id":397,"name":"Helmet Hands","steam_id":76561197961141994,"connected_time":2889000000000,"state":"active","ping":105},{"user_id":433,"name":"Robot Rocker","steam_id":76561198050718267,"connected_time":44000000000,"state":"spawning","ping":51}]},{"server_id":403,"name":"Uncletopia | Chicago | 4 | All Maps","name_short":"chi-4","host":"chi-1.us.uncletopia.com","port":27045,"enabled":true,"region":"us-central","cc":"us","latitude":41.881832,"longitude":-87.62318,"reserved":0,"last_update":"0001-01-01T00:00:00Z","name_a2s":"Uncletopia | Chicago | 4 | All Maps","protocol":17,"map":"koth_nucleus","folder":"tf","game":"Team Fortress","app_id":440,"player_count":24,"max_players":24,"Bots":0,"server_type":"Dedicated","server_os":"Linux","password":true,"vac":true,"version":"7961495","steam_id":85568392924515193,"keywords":["cp","nocrits","nodmgspread","uncletopia"],"game_id":440,"stv_port":27046,"stv_name":"Uncletopia | Chicago | 4 | All Maps | STV","players":[{"user_id":174,"name":"OaPG","steam_id":76561198213307033,"connected_time":4750000000000,"state":"active","ping":152},{"user_id":231,"name":"grape juice -rng","steam_id":76561198093829623,"connected_time":445000000000,"state":"active","ping":82},{"user_id":238,"name":"ʕ•ᴥ•ʔ the bear","steam_id":76561197989591976,"connected_time":335000000000,"state":"active","ping":77},{"user_id":230,"name":"beats™","steam_id":76561198064425676,"connected_time":448000000000,"state":"active","ping":100},{"user_id":210,"name":"Jade Greenleaf","steam_id":76561198304845413,"connected_time":1542000000000,"state":"active","ping":76},{"user_id":213,"name":"Dead Face","steam_id":76561198857643139,"connected_time":1462000000000,"state":"active","ping":57},{"user_id":224,"name":"Raz3r101","steam_id":76561198302574505,"connected_time":936000000000,"state":"active","ping":69},{"user_id":214,"name":"ancientfunland","steam_id":76561199220174291,"connected_time":1456000000000,"state":"active","ping":81},{"user_id":203,"name":"thecal","steam_id":76561198307893384,"connected_time":2239000000000,"state":"active","ping":49},{"user_id":232,"name":"agless","steam_id":76561198045248344,"connected_time":424000000000,"state":"active","ping":60},{"user_id":215,"name":"♥ Tomboy ♥","steam_id":76561198069881436,"connected_time":1449000000000,"state":"active","ping":87},{"user_id":237,"name":"The Doc K","steam_id":76561198035695029,"connected_time":392000000000,"state":"active","ping":96},{"user_id":216,"name":"Squid","steam_id":76561197970291999,"connected_time":1430000000000,"state":"active","ping":79},{"user_id":233,"name":"D","steam_id":76561198292908619,"connected_time":421000000000,"state":"active","ping":72},{"user_id":234,"name":"yes daddy","steam_id":76561198166100997,"connected_time":414000000000,"state":"active","ping":76},{"user_id":235,"name":"oppenheimer style","steam_id":76561198026664629,"connected_time":410000000000,"state":"active","ping":52},{"user_id":173,"name":"Rukks","steam_id":76561197993918954,"connected_time":4783000000000,"state":"active","ping":88},{"user_id":221,"name":"ultralisk52","steam_id":76561198051666604,"connected_time":1387000000000,"state":"active","ping":62},{"user_id":227,"name":"Merchant","steam_id":76561198130468663,"connected_time":691000000000,"state":"active","ping":59},{"user_id":239,"name":"murph","steam_id":76561198122847065,"connected_time":180000000000,"state":"active","ping":84},{"user_id":192,"name":"Fish Lambert","steam_id":76561198098279668,"connected_time":3448000000000,"state":"active","ping":89},{"user_id":220,"name":"jeb bush","steam_id":76561198450959356,"connected_time":1411000000000,"state":"active","ping":90},{"user_id":226,"name":"Kiradias777","steam_id":76561198067176309,"connected_time":743000000000,"state":"active","ping":65},{"user_id":240,"name":"C4K3","steam_id":76561197996963285,"connected_time":12000000000,"state":"active","ping":254}]},{"server_id":36,"name":"Uncletopia | Chicago | 5 | All Maps","name_short":"chi-5","host":"chi-2.us.uncletopia.com","port":27015,"enabled":true,"region":"us-central","cc":"us","latitude":41.881832,"longitude":-87.62318,"reserved":0,"last_update":"0001-01-01T00:00:00Z","name_a2s":"Uncletopia | Chicago | 5 | All Maps","protocol":17,"map":"pl_pier","folder":"tf","game":"Team Fortress","app_id":440,"player_count":21,"max_players":24,"Bots":0,"server_type":"Dedicated","server_os":"Linux","password":true,"vac":true,"version":"7961495","steam_id":85568392924866362,"keywords":["nocrits","nodmgspread","payload","uncletopia"],"game_id":440,"stv_port":27016,"stv_name":"Uncletopia | Chicago | 5 | All Maps | STV","players":[{"user_id":256,"name":"Fred Ott","steam_id":76561198099088693,"connected_time":2092000000000,"state":"active","ping":71},{"user_id":219,"name":"DrCoeloCephalo","steam_id":76561198102666293,"connected_time":4917000000000,"state":"active","ping":65},{"user_id":262,"name":"roast pig with apple in mouth","steam_id":76561198051353647,"connected_time":1318000000000,"state":"active","ping":56},{"user_id":174,"name":"DerpyNate","steam_id":76561198100249037,"connected_time":9051000000000,"state":"active","ping":45},{"user_id":273,"name":"Crouching Noob Hidden Sniper","steam_id":76561197971328473,"connected_time":530000000000,"state":"active","ping":86},{"user_id":270,"name":"notdoxed","steam_id":76561197992591404,"connected_time":691000000000,"state":"active","ping":46},{"user_id":271,"name":"CRYPTO SCENT WITH A DANK MUSK","steam_id":76561198238639174,"connected_time":633000000000,"state":"active","ping":90},{"user_id":263,"name":"james_bondage","steam_id":76561199476062624,"connected_time":1314000000000,"state":"active","ping":84},{"user_id":260,"name":"OH BOY","steam_id":76561199052273428,"connected_time":1365000000000,"state":"active","ping":47},{"user_id":264,"name":"JACOB","steam_id":76561198211874895,"connected_time":1308000000000,"state":"active","ping":73},{"user_id":272,"name":"floppy muppet","steam_id":76561198003076261,"connected_time":585000000000,"state":"active","ping":81},{"user_id":277,"name":"Masonicle","steam_id":76561198192327657,"connected_time":24000000000,"state":"spawning","ping":74},{"user_id":278,"name":"Spiffo Gaming","steam_id":76561198798341137,"connected_time":14000000000,"state":"spawning","ping":81},{"user_id":169,"name":"Hazeyboi","steam_id":76561198130687838,"connected_time":9539000000000,"state":"active","ping":45},{"user_id":266,"name":"Nicolas Cage Kisses Mace Windu","steam_id":76561198046127710,"connected_time":1265000000000,"state":"active","ping":50},{"user_id":267,"name":"momlovie","steam_id":76561198843933742,"connected_time":1261000000000,"state":"active","ping":69},{"user_id":206,"name":"HumFreY","steam_id":76561198076639682,"connected_time":6055000000000,"state":"active","ping":73},{"user_id":275,"name":"fresco","steam_id":76561199101199477,"connected_time":152000000000,"state":"active","ping":58},{"user_id":175,"name":"Maximum Flame","steam_id":76561198073682529,"connected_time":8980000000000,"state":"active","ping":45},{"user_id":268,"name":"TheWaxyCactus","steam_id":76561198082672132,"connected_time":1261000000000,"state":"active","ping":88},{"user_id":255,"name":"Scoot the Burbs","steam_id":76561198079507179,"connected_time":2131000000000,"state":"active","ping":72}]},{"server_id":37,"name":"Uncletopia | Chicago | 6 | All Maps","name_short":"chi-6","host":"chi-2.us.uncletopia.com","port":27025,"enabled":true,"region":"us-central","cc":"us","latitude":41.881832,"longitude":-87.62318,"reserved":0,"last_update":"0001-01-01T00:00:00Z","name_a2s":"Uncletopia | Chicago | 6 | All Maps","protocol":17,"map":"cp_snakewater_final1","folder":"tf","game":"Team Fortress","app_id":440,"player_count":23,"max_players":24,"Bots":0,"server_type":"Dedicated","server_os":"Linux","password":true,"vac":true,"version":"7961495","steam_id":85568392924866363,"keywords":["cp","nocrits","nodmgspread","uncletopia"],"game_id":440,"stv_port":27026,"stv_name":"Uncletopia | Chicago | 6 | All Maps | STV","players":[{"user_id":159,"name":"Sckuish","steam_id":76561198297216345,"connected_time":883000000000,"state":"active","ping":68},{"user_id":38,"name":"idiotloser","steam_id":76561198054390505,"connected_time":7405000000000,"state":"active","ping":61},{"user_id":138,"name":"L to the OG","steam_id":76561199215811448,"connected_time":2037000000000,"state":"active","ping":74},{"user_id":151,"name":"UltraTrash","steam_id":76561198162800674,"connected_time":1240000000000,"state":"active","ping":58},{"user_id":165,"name":"Biscipline","steam_id":76561198019206178,"connected_time":670000000000,"state":"active","ping":75},{"user_id":164,"name":"ZYNTERLINKED","steam_id":76561198241948526,"connected_time":765000000000,"state":"active","ping":62},{"user_id":152,"name":"ivan","steam_id":76561198033001607,"connected_time":1219000000000,"state":"active","ping":91},{"user_id":162,"name":"nhbiker","steam_id":76561198081277675,"connected_time":847000000000,"state":"active","ping":58},{"user_id":137,"name":"SKForm","steam_id":76561198381500437,"connected_time":2070000000000,"state":"active","ping":57},{"user_id":139,"name":"alixei ♥ mastercoms","steam_id":76561198014557455,"connected_time":2030000000000,"state":"active","ping":57},{"user_id":167,"name":"leonardo doujinshi","steam_id":76561198025810326,"connected_time":625000000000,"state":"active","ping":80},{"user_id":130,"name":"sophie","steam_id":76561198272979713,"connected_time":2492000000000,"state":"active","ping":73},{"user_id":119,"name":"The One True Luke","steam_id":76561198180891187,"connected_time":2785000000000,"state":"active","ping":75},{"user_id":157,"name":"Phoysh","steam_id":76561198137111021,"connected_time":896000000000,"state":"active","ping":99},{"user_id":156,"name":"Brown_Dream","steam_id":76561198975766145,"connected_time":900000000000,"state":"active","ping":86},{"user_id":113,"name":".jpg","steam_id":76561198137237377,"connected_time":3118000000000,"state":"active","ping":71},{"user_id":174,"name":"Ranger","steam_id":76561198171091281,"connected_time":55000000000,"state":"active","ping":54},{"user_id":147,"name":"Jinx","steam_id":76561198389142976,"connected_time":1622000000000,"state":"active","ping":74},{"user_id":170,"name":"yes","steam_id":76561199094011002,"connected_time":518000000000,"state":"active","ping":58},{"user_id":145,"name":"malarkeyman","steam_id":76561198844473584,"connected_time":1908000000000,"state":"active","ping":58},{"user_id":146,"name":"MR. BEEEEEEEEEEEEEAAAAAAAAAAST","steam_id":76561198205346760,"connected_time":1907000000000,"state":"active","ping":44},{"user_id":103,"name":"Skrubs","steam_id":76561198214165563,"connected_time":3989000000000,"state":"active","ping":76}]},{"server_id":38,"name":"Uncletopia | Chicago | 7 | Stopwatch","name_short":"chi-7","host":"chi-2.us.uncletopia.com","port":27035,"enabled":true,"region":"us-central","cc":"us","latitude":41.881832,"longitude":-87.62318,"reserved":0,"last_update":"0001-01-01T00:00:00Z","name_a2s":"Uncletopia | Chicago | 7 | Stopwatch","protocol":17,"map":"koth_highpass","folder":"tf","game":"Team Fortress","app_id":440,"player_count":0,"max_players":24,"Bots":0,"server_type":"Dedicated","server_os":"Linux","password":true,"vac":true,"version":"7961495","steam_id":85568392924866364,"keywords":["cp","nocrits","nodmgspread","uncletopia"],"game_id":440,"stv_port":27036,"stv_name":"Uncletopia | Chicago | 7 | Stopwatch | STV","players":null},{"server_id":39,"name":"Uncletopia | Chicago | 8 | Community","name_short":"chi-8","host":"chi-2.us.uncletopia.com","port":27045,"enabled":true,"region":"us-central","cc":"us","latitude":41.881832,"longitude":-87.62318,"reserved":0,"last_update":"0001-01-01T00:00:00Z","name_a2s":"Uncletopia | Chicago | 8 | Community","protocol":17,"map":"workshop/pl_shoreleave_rc2.ugc1238849347","folder":"tf","game":"Team Fortress","app_id":440,"player_count":0,"max_players":24,"Bots":0,"server_type":"Dedicated","server_os":"Linux","password":true,"vac":true,"version":"7961495","steam_id":85568392924866365,"keywords":["nocrits","nodmgspread","payload","uncletopia"],"game_id":440,"stv_port":27046,"stv_name":"Uncletopia | Chicago | 8 | Community | STV","players":null},{"server_id":8,"name":"Uncletopia | Dallas | 1 | All Maps","name_short":"dal-1","host":"dal-1.us.uncletopia.com","port":27015,"enabled":true,"region":"us-central","cc":"us","latitude":32.779167,"longitude":-96.80889,"reserved":0,"last_update":"0001-01-01T00:00:00Z","name_a2s":"Uncletopia | Dallas | 1 | All Maps","protocol":17,"map":"cp_5gorge","folder":"tf","game":"Team Fortress","app_id":440,"player_count":24,"max_players":24,"Bots":0,"server_type":"Dedicated","server_os":"Linux","password":true,"vac":true,"version":"7961495","steam_id":85568392924469986,"keywords":["cp","nocrits","nodmgspread","uncletopia"],"game_id":440,"stv_port":27016,"stv_name":"Uncletopia | Dallas | 1 | All Maps | STV","players":[{"user_id":274,"name":"MagMattock","steam_id":76561198170411518,"connected_time":424000000000,"state":"active","ping":104},{"user_id":256,"name":"Franticraven177","steam_id":76561198334105579,"connected_time":1422000000000,"state":"active","ping":74},{"user_id":249,"name":"TheBrocklobster","steam_id":76561198039682984,"connected_time":1597000000000,"state":"active","ping":91},{"user_id":243,"name":"A Straw","steam_id":76561199367935846,"connected_time":2656000000000,"state":"active","ping":71},{"user_id":264,"name":"Frosti","steam_id":76561198332850064,"connected_time":1353000000000,"state":"active","ping":93},{"user_id":273,"name":"Whompert","steam_id":76561198042939624,"connected_time":493000000000,"state":"active","ping":93},{"user_id":241,"name":"Mick","steam_id":76561198972619900,"connected_time":3143000000000,"state":"active","ping":48},{"user_id":217,"name":"Burny Sanders","steam_id":76561197961879048,"connected_time":5742000000000,"state":"active","ping":45},{"user_id":275,"name":"shrew","steam_id":76561199066828669,"connected_time":419000000000,"state":"active","ping":87},{"user_id":128,"name":"Elias","steam_id":76561198106431732,"connected_time":11995000000000,"state":"active","ping":58},{"user_id":257,"name":"Dreysidel","steam_id":76561198056496183,"connected_time":1416000000000,"state":"active","ping":100},{"user_id":252,"name":"'mungus","steam_id":76561198022358379,"connected_time":1493000000000,"state":"active","ping":75},{"user_id":253,"name":"Combustible","steam_id":76561198242842394,"connected_time":1481000000000,"state":"active","ping":45},{"user_id":242,"name":"Colossal Falafel","steam_id":76561198108086245,"connected_time":3121000000000,"state":"active","ping":81},{"user_id":227,"name":"Imrgrim","steam_id":76561198135866481,"connected_time":5399000000000,"state":"active","ping":63},{"user_id":265,"name":"otwtomarsoffdabars(spacecore)","steam_id":76561199085974120,"connected_time":1241000000000,"state":"active","ping":102},{"user_id":226,"name":"SD","steam_id":76561198217410988,"connected_time":5424000000000,"state":"active","ping":76},{"user_id":245,"name":"Hashmere","steam_id":76561198002797253,"connected_time":2499000000000,"state":"active","ping":94},{"user_id":266,"name":"doubleshare","steam_id":76561198024472046,"connected_time":1181000000000,"state":"active","ping":87},{"user_id":268,"name":"[SWMG] realrubricae","steam_id":76561198354564001,"connected_time":1096000000000,"state":"active","ping":84},{"user_id":270,"name":"Ice Teea","steam_id":76561198195673201,"connected_time":1047000000000,"state":"active","ping":65},{"user_id":269,"name":"Billosky Time Lord","steam_id":76561199159626560,"connected_time":1093000000000,"state":"active","ping":153},{"user_id":231,"name":"THRONGLER","steam_id":76561198198563466,"connected_time":4891000000000,"state":"active","ping":44},{"user_id":263,"name":"w7j14","steam_id":76561199194856245,"connected_time":1366000000000,"state":"active","ping":67}]},{"server_id":108,"name":"Uncletopia | Dallas | 2 | All Maps","name_short":"dal-2","host":"dal-1.us.uncletopia.com","port":27025,"enabled":true,"region":"us-central","cc":"us","latitude":32.779167,"longitude":-96.80889,"reserved":0,"last_update":"0001-01-01T00:00:00Z","name_a2s":"Uncletopia | Dallas | 2 | All Maps","protocol":17,"map":"pl_pier","folder":"tf","game":"Team Fortress","app_id":440,"player_count":24,"max_players":24,"Bots":0,"server_type":"Dedicated","server_os":"Linux","password":true,"vac":true,"version":"7961495","steam_id":85568392924469988,"keywords":["nocrits","nodmgspread","payload","uncletopia"],"game_id":440,"stv_port":27026,"stv_name":"Uncletopia | Dallas | 2 | All Maps | STV","players":[{"user_id":125,"name":"Crescent","steam_id":76561198095124633,"connected_time":5607000000000,"state":"active","ping":73},{"user_id":194,"name":"Menacing","steam_id":76561198009093788,"connected_time":1678000000000,"state":"active","ping":46},{"user_id":206,"name":"Soapbar","steam_id":76561198081714169,"connected_time":1173000000000,"state":"active","ping":91},{"user_id":220,"name":"You Don't Nomi.","steam_id":76561197969137836,"connected_time":686000000000,"state":"active","ping":84},{"user_id":223,"name":"Furrio","steam_id":76561198174104607,"connected_time":560000000000,"state":"active","ping":69},{"user_id":207,"name":"jello_hey","steam_id":76561199176327650,"connected_time":1147000000000,"state":"active","ping":74},{"user_id":182,"name":"V@nn1e","steam_id":76561199099194994,"connected_time":2496000000000,"state":"active","ping":76},{"user_id":168,"name":"Phosu","steam_id":76561198180162801,"connected_time":3157000000000,"state":"active","ping":61},{"user_id":221,"name":"Kng","steam_id":76561198993248203,"connected_time":664000000000,"state":"active","ping":90},{"user_id":217,"name":"ZombieSlayer77","steam_id":76561199023974356,"connected_time":744000000000,"state":"active","ping":88},{"user_id":225,"name":"Joe Biden","steam_id":76561198056170906,"connected_time":467000000000,"state":"active","ping":103},{"user_id":218,"name":"Major Woody","steam_id":76561198835541533,"connected_time":739000000000,"state":"active","ping":58},{"user_id":222,"name":"Pathara44","steam_id":76561198048238620,"connected_time":569000000000,"state":"active","ping":84},{"user_id":155,"name":"K2f","steam_id":76561198049600563,"connected_time":4222000000000,"state":"active","ping":80},{"user_id":216,"name":"Hanzo P.C.H.U","steam_id":76561199130917163,"connected_time":756000000000,"state":"active","ping":43},{"user_id":212,"name":"Syntaxx","steam_id":76561199235615445,"connected_time":1028000000000,"state":"active","ping":73},{"user_id":215,"name":"tf2player001","steam_id":76561199497314797,"connected_time":778000000000,"state":"active","ping":121},{"user_id":82,"name":"djjones1999","steam_id":76561199121937746,"connected_time":9677000000000,"state":"active","ping":76},{"user_id":202,"name":"dave :3","steam_id":76561198135961731,"connected_time":1390000000000,"state":"active","ping":62},{"user_id":219,"name":"HOVY GAMING (REAL)","steam_id":76561199210311096,"connected_time":725000000000,"state":"active","ping":128},{"user_id":226,"name":"artichoke","steam_id":76561198980994364,"connected_time":211000000000,"state":"active","ping":119},{"user_id":150,"name":"Makowako","steam_id":76561199016565502,"connected_time":4473000000000,"state":"active","ping":91},{"user_id":134,"name":"guy","steam_id":76561198163306561,"connected_time":5131000000000,"state":"active","ping":79},{"user_id":227,"name":"Omyskull","steam_id":76561198131711758,"connected_time":87000000000,"state":"active","ping":191}]},{"server_id":404,"name":"Uncletopia | Dallas | 3 | All Maps","name_short":"dal-3","host":"dal-1.us.uncletopia.com","port":27035,"enabled":true,"region":"us-central","cc":"us","latitude":32.779167,"longitude":-96.80889,"reserved":0,"last_update":"0001-01-01T00:00:00Z","name_a2s":"Uncletopia | Dallas | 3 | All Maps","protocol":17,"map":"cp_dustbowl","folder":"tf","game":"Team Fortress","app_id":440,"player_count":17,"max_players":24,"Bots":0,"server_type":"Dedicated","server_os":"Linux","password":true,"vac":true,"version":"7961495","steam_id":85568392924515219,"keywords":["cp","nocrits","nodmgspread","uncletopia"],"game_id":440,"stv_port":27036,"stv_name":"Uncletopia | Dallas | 3 | All Maps | STV","players":[{"user_id":18,"name":"KiWii","steam_id":76561199013608864,"connected_time":1749000000000,"state":"active","ping":57},{"user_id":19,"name":"undeadbeast10877","steam_id":76561199081954783,"connected_time":1747000000000,"state":"active","ping":145},{"user_id":20,"name":"fluffythemessiah","steam_id":76561199013202758,"connected_time":1700000000000,"state":"active","ping":72},{"user_id":21,"name":"Dogvan","steam_id":76561198176708643,"connected_time":1641000000000,"state":"active","ping":69},{"user_id":22,"name":"Mom","steam_id":76561198207936000,"connected_time":1550000000000,"state":"active","ping":74},{"user_id":42,"name":"StillNotGinger","steam_id":76561198063419189,"connected_time":307000000000,"state":"active","ping":57},{"user_id":25,"name":"Don.Roko","steam_id":76561198297223309,"connected_time":1326000000000,"state":"active","ping":78},{"user_id":26,"name":"zacmattsmith","steam_id":76561199027704149,"connected_time":1165000000000,"state":"active","ping":100},{"user_id":27,"name":"Bomb Squirtle™","steam_id":76561197998931145,"connected_time":954000000000,"state":"active","ping":109},{"user_id":39,"name":"Lobstyr","steam_id":76561198884406859,"connected_time":415000000000,"state":"active","ping":73},{"user_id":33,"name":"Hank Hill","steam_id":76561199083888017,"connected_time":749000000000,"state":"active","ping":44},{"user_id":34,"name":"Señor Woofers","steam_id":76561198039120637,"connected_time":734000000000,"state":"active","ping":80},{"user_id":50,"name":"mkl","steam_id":76561197986401685,"connected_time":83000000000,"state":"active","ping":49},{"user_id":43,"name":"breathing meat donut","steam_id":76561198123566649,"connected_time":288000000000,"state":"active","ping":87},{"user_id":40,"name":"SpyderMonkee777","steam_id":76561198170859026,"connected_time":338000000000,"state":"active","ping":62},{"user_id":52,"name":"YolkOnYou","steam_id":76561198088760655,"connected_time":61000000000,"state":"active","ping":115},{"user_id":47,"name":"I Am Very Schizophrenic","steam_id":76561199107068627,"connected_time":176000000000,"state":"active","ping":75}]},{"server_id":405,"name":"Uncletopia | Dallas | 4 | Community","name_short":"dal-4","host":"dal-1.us.uncletopia.com","port":27045,"enabled":true,"region":"us-central","cc":"us","latitude":32.779167,"longitude":-96.80889,"reserved":0,"last_update":"0001-01-01T00:00:00Z","name_a2s":"Uncletopia | Dallas | 4 | Community","protocol":17,"map":"workshop/koth_slaughter_rc1.ugc1712845210","folder":"tf","game":"Team Fortress","app_id":440,"player_count":0,"max_players":24,"Bots":0,"server_type":"Dedicated","server_os":"Linux","password":true,"vac":true,"version":"7961495","steam_id":85568392924515220,"keywords":["cp","nocrits","nodmgspread","uncletopia"],"game_id":440,"stv_port":27046,"stv_name":"Uncletopia | Dallas | 4 | Community | STV","players":null},{"server_id":5,"name":"Uncletopia | Frankfurt | 1 | All Maps","name_short":"frk-1","host":"frk-1.de.uncletopia.com","port":27015,"enabled":true,"region":"eu","cc":"de","latitude":50.110924,"longitude":8.682127,"reserved":0,"last_update":"0001-01-01T00:00:00Z","name_a2s":"Uncletopia | Frankfurt | 1 | All Maps","protocol":17,"map":"koth_highpass","folder":"tf","game":"Team Fortress","app_id":440,"player_count":0,"max_players":24,"Bots":0,"server_type":"Dedicated","server_os":"Linux","password":true,"vac":true,"version":"7961495","steam_id":85568392924469989,"keywords":["cp","nocrits","nodmgspread","uncletopia"],"game_id":440,"stv_port":27016,"stv_name":"Uncletopia | Frankfurt | 1 | All Maps | STV","players":null},{"server_id":110,"name":"Uncletopia | Frankfurt | 2 | All Maps","name_short":"frk-2","host":"frk-1.de.uncletopia.com","port":27025,"enabled":true,"region":"eu","cc":"de","latitude":50.110924,"longitude":8.682127,"reserved":0,"last_update":"0001-01-01T00:00:00Z","name_a2s":"Uncletopia | Frankfurt | 2 | All Maps","protocol":17,"map":"pl_pier","folder":"tf","game":"Team Fortress","app_id":440,"player_count":0,"max_players":24,"Bots":0,"server_type":"Dedicated","server_os":"Linux","password":true,"vac":true,"version":"7961495","steam_id":85568392924469990,"keywords":["nocrits","nodmgspread","payload","uncletopia"],"game_id":440,"stv_port":27026,"stv_name":"Uncletopia | Frankfurt | 2 | All Maps | STV","players":null},{"server_id":308,"name":"Uncletopia | Frankfurt | 3 | All Maps","name_short":"frk-3","host":"frk-1.de.uncletopia.com","port":27035,"enabled":true,"region":"eu","cc":"de","latitude":50.110924,"longitude":8.682127,"reserved":0,"last_update":"0001-01-01T00:00:00Z","name_a2s":"Uncletopia | Frankfurt | 3 | All Maps","protocol":17,"map":"pl_borneo","folder":"tf","game":"Team Fortress","app_id":440,"player_count":24,"max_players":24,"Bots":0,"server_type":"Dedicated","server_os":"Linux","password":true,"vac":true,"version":"7961495","steam_id":85568392924504274,"keywords":["nocrits","nodmgspread","payload","uncletopia"],"game_id":440,"stv_port":27036,"stv_name":"Uncletopia | Frankfurt | 3 | All Maps | STV","players":[{"user_id":450,"name":"Shadowmann","steam_id":76561198158608309,"connected_time":1670000000000,"state":"active","ping":56},{"user_id":448,"name":"Mattie43","steam_id":76561198012053433,"connected_time":2141000000000,"state":"active","ping":136},{"user_id":463,"name":"Shallaska","steam_id":76561198019030896,"connected_time":479000000000,"state":"active","ping":60},{"user_id":462,"name":"bl4ckm0y","steam_id":76561198032323451,"connected_time":1126000000000,"state":"active","ping":45},{"user_id":433,"name":"Amandus","steam_id":76561198036281079,"connected_time":3242000000000,"state":"active","ping":59},{"user_id":456,"name":"Infantile Pillock","steam_id":76561198283851362,"connected_time":1476000000000,"state":"active","ping":60},{"user_id":467,"name":"PugZ","steam_id":76561198109703793,"connected_time":298000000000,"state":"active","ping":70},{"user_id":434,"name":"Crimson","steam_id":76561197987552332,"connected_time":3235000000000,"state":"active","ping":44},{"user_id":453,"name":"syms","steam_id":76561198066679812,"connected_time":1576000000000,"state":"active","ping":61},{"user_id":454,"name":"H-say","steam_id":76561198177400362,"connected_time":1568000000000,"state":"active","ping":81},{"user_id":416,"name":"Lyncurion","steam_id":76561199260022725,"connected_time":4581000000000,"state":"active","ping":81},{"user_id":425,"name":"Khvicha Kvaraskhelia","steam_id":76561198985309519,"connected_time":4173000000000,"state":"active","ping":79},{"user_id":439,"name":"Mr. Fister","steam_id":76561199096409333,"connected_time":3087000000000,"state":"active","ping":63},{"user_id":455,"name":"pavyonspor","steam_id":76561198116530769,"connected_time":1526000000000,"state":"active","ping":87},{"user_id":396,"name":"PUNK RECORDS","steam_id":76561197999954766,"connected_time":6912000000000,"state":"active","ping":44},{"user_id":460,"name":"else1","steam_id":76561197996558319,"connected_time":1209000000000,"state":"active","ping":74},{"user_id":457,"name":"Vershal Smershal","steam_id":76561198116223995,"connected_time":1419000000000,"state":"active","ping":58},{"user_id":403,"name":"Groucho","steam_id":76561198042888918,"connected_time":6537000000000,"state":"active","ping":54},{"user_id":465,"name":"agent youppii","steam_id":76561198055264447,"connected_time":444000000000,"state":"active","ping":70},{"user_id":466,"name":"Tea Follet","steam_id":76561198852408734,"connected_time":377000000000,"state":"active","ping":72},{"user_id":459,"name":"goop","steam_id":76561198190073005,"connected_time":1405000000000,"state":"active","ping":56},{"user_id":442,"name":"pardner","steam_id":76561198451471161,"connected_time":2921000000000,"state":"active","ping":68},{"user_id":429,"name":"MarJar","steam_id":76561198177339194,"connected_time":3580000000000,"state":"active","ping":63},{"user_id":468,"name":"Vito Corleone ඞ","steam_id":76561198185210193,"connected_time":282000000000,"state":"active","ping":71}]},{"server_id":309,"name":"Uncletopia | Frankfurt | 4 | All Maps","name_short":"frk-4","host":"frk-1.de.uncletopia.com","port":27045,"enabled":true,"region":"eu","cc":"de","latitude":50.110924,"longitude":8.682127,"reserved":0,"last_update":"0001-01-01T00:00:00Z","name_a2s":"Uncletopia | Frankfurt | 4 | All Maps","protocol":17,"map":"pl_frontier_final","folder":"tf","game":"Team Fortress","app_id":440,"player_count":0,"max_players":24,"Bots":0,"server_type":"Dedicated","server_os":"Linux","password":true,"vac":true,"version":"7961495","steam_id":85568392924504275,"keywords":["nocrits","nodmgspread","payload","uncletopia"],"game_id":440,"stv_port":27046,"stv_name":"Uncletopia | Frankfurt | 4 | All Maps | STV","players":null},{"server_id":310,"name":"Uncletopia | Frankfurt | 5 | All Maps","name_short":"frk-5","host":"frk-1.de.uncletopia.com","port":27055,"enabled":true,"region":"eu","cc":"de","latitude":50.110924,"longitude":8.682127,"reserved":0,"last_update":"0001-01-01T00:00:00Z","name_a2s":"Uncletopia | Frankfurt | 5 | All Maps","protocol":17,"map":"pl_barnblitz","folder":"tf","game":"Team Fortress","app_id":440,"player_count":9,"max_players":24,"Bots":0,"server_type":"Dedicated","server_os":"Linux","password":true,"vac":true,"version":"7961495","steam_id":85568392924504277,"keywords":["nocrits","nodmgspread","payload","uncletopia"],"game_id":440,"stv_port":27056,"stv_name":"Uncletopia | Frankfurt | 5 | All Maps | STV","players":[{"user_id":698,"name":"Kisune","steam_id":76561199368978007,"connected_time":93000000000,"state":"spawning","ping":164},{"user_id":685,"name":"/Lovna/","steam_id":76561198881615638,"connected_time":1393000000000,"state":"active","ping":62},{"user_id":695,"name":"Scatter","steam_id":76561198258085271,"connected_time":474000000000,"state":"active","ping":80},{"user_id":687,"name":"Pyro","steam_id":76561199267143939,"connected_time":1209000000000,"state":"active","ping":231},{"user_id":696,"name":"antlionguard","steam_id":76561198072747143,"connected_time":309000000000,"state":"active","ping":106},{"user_id":684,"name":"A Cat","steam_id":76561199015740181,"connected_time":1428000000000,"state":"active","ping":68},{"user_id":692,"name":"Джекет","steam_id":76561198327897125,"connected_time":815000000000,"state":"active","ping":97},{"user_id":662,"name":"kúkalabbi","steam_id":76561198071217539,"connected_time":3357000000000,"state":"active","ping":86},{"user_id":697,"name":"Jetty","steam_id":76561198004885583,"connected_time":288000000000,"state":"active","ping":171}]},{"server_id":311,"name":"Uncletopia | Frankfurt | 6 | All Maps","name_short":"frk-6","host":"frk-1.de.uncletopia.com","port":27065,"enabled":true,"region":"eu","cc":"de","latitude":50.110924,"longitude":8.682127,"reserved":0,"last_update":"0001-01-01T00:00:00Z","name_a2s":"Uncletopia | Frankfurt | 6 | All Maps","protocol":17,"map":"plr_hightower","folder":"tf","game":"Team Fortress","app_id":440,"player_count":0,"max_players":24,"Bots":0,"server_type":"Dedicated","server_os":"Linux","password":true,"vac":true,"version":"7961495","steam_id":85568392924504278,"keywords":["nocrits","nodmgspread","payload","uncletopia"],"game_id":440,"stv_port":27066,"stv_name":"Uncletopia | Frankfurt | 6 | All Maps | STV","players":null},{"server_id":23,"name":"Uncletopia | Frankfurt | 7 | Stopwatch","name_short":"frk-7","host":"frk-1.de.uncletopia.com","port":27075,"enabled":true,"region":"eu","cc":"de","latitude":50.110924,"longitude":8.682127,"reserved":0,"last_update":"0001-01-01T00:00:00Z","name_a2s":"Uncletopia | Frankfurt | 7 | Stopwatch","protocol":17,"map":"workshop/pl_badwater_pro_v12.ugc2142942074","folder":"tf","game":"Team Fortress","app_id":440,"player_count":0,"max_players":24,"Bots":0,"server_type":"Dedicated","server_os":"Linux","password":true,"vac":true,"version":"7961495","steam_id":85568392924742827,"keywords":["nocrits","nodmgspread","payload","uncletopia"],"game_id":440,"stv_port":27076,"stv_name":"Uncletopia | Frankfurt | 7 | Stopwatch | STV","players":null},{"server_id":24,"name":"Uncletopia | Frankfurt | 8 | Community","name_short":"frk-8","host":"frk-1.de.uncletopia.com","port":27085,"enabled":true,"region":"eu","cc":"de","latitude":50.110924,"longitude":8.682127,"reserved":0,"last_update":"0001-01-01T00:00:00Z","name_a2s":"Uncletopia | Frankfurt | 8 | Community","protocol":17,"map":"workshop/cp_alloy_rc3.ugc592805587","folder":"tf","game":"Team Fortress","app_id":440,"player_count":0,"max_players":24,"Bots":0,"server_type":"Dedicated","server_os":"Linux","password":true,"vac":true,"version":"7961495","steam_id":85568392924742828,"keywords":["cp","nocrits","nodmgspread","uncletopia"],"game_id":440,"stv_port":27086,"stv_name":"Uncletopia | Frankfurt | 8 | Community | STV","players":null},{"server_id":202,"name":"Uncletopia | Hong Kong | 1 | All Maps","name_short":"hgk-1","host":"hgk-1.hk.uncletopia.com","port":27015,"enabled":true,"region":"asia","cc":"hk","latitude":22.302711,"longitude":114.177216,"reserved":0,"last_update":"0001-01-01T00:00:00Z","name_a2s":"Uncletopia | Hong Kong | 1 | All Maps","protocol":17,"map":"pl_frontier_final","folder":"tf","game":"Team Fortress","app_id":440,"player_count":0,"max_players":24,"Bots":0,"server_type":"Dedicated","server_os":"Linux","password":true,"vac":true,"version":"7961495","steam_id":85568392924494504,"keywords":["nocrits","nodmgspread","payload","uncletopia"],"game_id":440,"stv_port":27016,"stv_name":"Uncletopia | Hong Kong | 1 | All Maps | STV","players":null},{"server_id":1,"name":"Uncletopia | Los Angeles | 1 | All Maps","name_short":"lax-1","host":"lax-1.us.uncletopia.com","port":27015,"enabled":true,"region":"us-west","cc":"us","latitude":33.94279,"longitude":-118.41004,"reserved":0,"last_update":"0001-01-01T00:00:00Z","name_a2s":"Uncletopia | Los Angeles | 1 | All Maps","protocol":17,"map":"cp_granary","folder":"tf","game":"Team Fortress","app_id":440,"player_count":24,"max_players":24,"Bots":0,"server_type":"Dedicated","server_os":"Linux","password":true,"vac":true,"version":"7961495","steam_id":85568392924469991,"keywords":["cp","nocrits","nodmgspread","uncletopia"],"game_id":440,"stv_port":27016,"stv_name":"Uncletopia | Los Angeles | 1 | All Maps | STV","players":[{"user_id":265,"name":"Jazpy","steam_id":76561198036872545,"connected_time":3460000000000,"state":"active","ping":75},{"user_id":242,"name":"BlazedBunny","steam_id":76561198243610560,"connected_time":4366000000000,"state":"active","ping":113},{"user_id":279,"name":"MythicalP7","steam_id":76561198224785716,"connected_time":2039000000000,"state":"active","ping":72},{"user_id":282,"name":"DesolateCabbage","steam_id":76561198064467423,"connected_time":1949000000000,"state":"active","ping":105},{"user_id":241,"name":"cielael","steam_id":76561198043971956,"connected_time":4740000000000,"state":"active","ping":47},{"user_id":224,"name":"rilby","steam_id":76561198132755619,"connected_time":6920000000000,"state":"active","ping":41},{"user_id":228,"name":"Gumpy","steam_id":76561198144747235,"connected_time":6414000000000,"state":"active","ping":71},{"user_id":266,"name":"D.T. Katze","steam_id":76561198002280813,"connected_time":3447000000000,"state":"active","ping":107},{"user_id":219,"name":"HumbDoe","steam_id":76561198065556553,"connected_time":7198000000000,"state":"active","ping":61},{"user_id":292,"name":"bottom pride burger","steam_id":76561198322247602,"connected_time":230000000000,"state":"active","ping":56},{"user_id":215,"name":"thekraken630","steam_id":76561199088410868,"connected_time":7544000000000,"state":"active","ping":59},{"user_id":288,"name":"BigGoose","steam_id":76561198833281392,"connected_time":1191000000000,"state":"active","ping":73},{"user_id":293,"name":"Andreshatesmondays","steam_id":76561198889349797,"connected_time":230000000000,"state":"active","ping":49},{"user_id":285,"name":"The Weekend","steam_id":76561198191536489,"connected_time":1591000000000,"state":"active","ping":62},{"user_id":263,"name":"reem","steam_id":76561198050767193,"connected_time":3483000000000,"state":"active","ping":46},{"user_id":284,"name":"asscastle 2","steam_id":76561198097330521,"connected_time":1781000000000,"state":"active","ping":93},{"user_id":286,"name":"Wiener Hole Paper Cut","steam_id":76561198000808203,"connected_time":1561000000000,"state":"active","ping":113},{"user_id":287,"name":"gnome zone","steam_id":76561198883349445,"connected_time":1244000000000,"state":"active","ping":64},{"user_id":280,"name":"SunNc","steam_id":76561198097711843,"connected_time":2003000000000,"state":"active","ping":60},{"user_id":278,"name":"Gobthor","steam_id":76561198189422615,"connected_time":2114000000000,"state":"active","ping":146},{"user_id":291,"name":"dAiLyGrInD","steam_id":76561198163531915,"connected_time":360000000000,"state":"active","ping":95},{"user_id":258,"name":"scringo","steam_id":76561198169969030,"connected_time":3646000000000,"state":"active","ping":61},{"user_id":240,"name":"nzippy","steam_id":76561199048618678,"connected_time":4902000000000,"state":"active","ping":78},{"user_id":63,"name":"rat","steam_id":76561198130412963,"connected_time":20493000000000,"state":"active","ping":82}]},{"server_id":112,"name":"Uncletopia | Los Angeles | 2 | All Maps","name_short":"lax-2","host":"lax-1.us.uncletopia.com","port":27025,"enabled":true,"region":"us-west","cc":"us","latitude":33.94279,"longitude":-118.41004,"reserved":0,"last_update":"0001-01-01T00:00:00Z","name_a2s":"Uncletopia | Los Angeles | 2 | All Maps","protocol":17,"map":"cp_process_final","folder":"tf","game":"Team Fortress","app_id":440,"player_count":0,"max_players":24,"Bots":0,"server_type":"Dedicated","server_os":"Linux","password":true,"vac":true,"version":"7961495","steam_id":85568392924469992,"keywords":["cp","nocrits","nodmgspread","uncletopia"],"game_id":440,"stv_port":27026,"stv_name":"Uncletopia | Los Angeles | 2 | All Maps | STV","players":null},{"server_id":324,"name":"Uncletopia | Los Angeles | 3 | All Maps","name_short":"lax-3","host":"lax-1.us.uncletopia.com","port":27035,"enabled":true,"region":"us-west","cc":"us","latitude":33.94279,"longitude":-118.41004,"reserved":0,"last_update":"0001-01-01T00:00:00Z","name_a2s":"Uncletopia | Los Angeles | 3 | All Maps","protocol":17,"map":"pl_snowycoast","folder":"tf","game":"Team Fortress","app_id":440,"player_count":0,"max_players":24,"Bots":0,"server_type":"Dedicated","server_os":"Linux","password":true,"vac":true,"version":"7961495","steam_id":85568392924510198,"keywords":["nocrits","nodmgspread","payload","uncletopia"],"game_id":440,"stv_port":27036,"stv_name":"Uncletopia | Los Angeles | 3 | All Maps | STV","players":null},{"server_id":25,"name":"Uncletopia | Los Angeles | 4 | Stopwatch","name_short":"lax-4","host":"lax-1.us.uncletopia.com","port":27045,"enabled":true,"region":"us-west","cc":"us","latitude":33.94279,"longitude":-118.41004,"reserved":0,"last_update":"0001-01-01T00:00:00Z","name_a2s":"Uncletopia | Los Angeles | 4 | Stopwatch","protocol":17,"map":"pl_barnblitz","folder":"tf","game":"Team Fortress","app_id":440,"player_count":0,"max_players":24,"Bots":0,"server_type":"Dedicated","server_os":"Linux","password":true,"vac":true,"version":"7961495","steam_id":85568392924510199,"keywords":["nocrits","nodmgspread","payload","uncletopia"],"game_id":440,"stv_port":27046,"stv_name":"Uncletopia | Los Angeles | 4 | Stopwatch | STV","players":null},{"server_id":11,"name":"Uncletopia | London | 1 | All Maps","name_short":"lon-1","host":"lon-1.uk.uncletopia.com","port":27015,"enabled":true,"region":"eu","cc":"gb","latitude":51.509865,"longitude":-0.118092,"reserved":0,"last_update":"0001-01-01T00:00:00Z","name_a2s":"Uncletopia | London | 1 | All Maps","protocol":17,"map":"pl_badwater","folder":"tf","game":"Team Fortress","app_id":440,"player_count":24,"max_players":24,"Bots":0,"server_type":"Dedicated","server_os":"Linux","password":true,"vac":true,"version":"7961495","steam_id":85568392924367362,"keywords":["nocrits","nodmgspread","payload","uncletopia"],"game_id":440,"stv_port":27016,"stv_name":"Uncletopia | London | 1 | All Maps | STV","players":[{"user_id":826,"name":"Swedde","steam_id":76561198297296440,"connected_time":2596000000000,"state":"active","ping":73},{"user_id":806,"name":"BreadBubbles","steam_id":76561198174332826,"connected_time":6847000000000,"state":"active","ping":63},{"user_id":658,"name":"KnugenIV","steam_id":76561198127091993,"connected_time":12489000000000,"state":"active","ping":59},{"user_id":597,"name":"Yelowchy","steam_id":76561198199416121,"connected_time":18094000000000,"state":"active","ping":73},{"user_id":867,"name":"Kphi(i)","steam_id":76561198970587061,"connected_time":831000000000,"state":"active","ping":62},{"user_id":782,"name":"fluffy gurl :3","steam_id":76561198139632682,"connected_time":9099000000000,"state":"active","ping":84},{"user_id":862,"name":"whimsy.","steam_id":76561198878171763,"connected_time":1298000000000,"state":"active","ping":49},{"user_id":813,"name":"dec","steam_id":76561198009660168,"connected_time":5713000000000,"state":"active","ping":54},{"user_id":794,"name":"SOPHIIAA (DRINKING GAME PLAYER)","steam_id":76561198443798981,"connected_time":7110000000000,"state":"active","ping":73},{"user_id":866,"name":"WomanGamingtime/Twitchtv","steam_id":76561198403015751,"connected_time":1034000000000,"state":"active","ping":57},{"user_id":633,"name":"ein","steam_id":76561198152162834,"connected_time":15172000000000,"state":"active","ping":98},{"user_id":802,"name":"rigel_","steam_id":76561198148640847,"connected_time":7025000000000,"state":"active","ping":76},{"user_id":550,"name":"shooer!","steam_id":76561198110531281,"connected_time":22452000000000,"state":"active","ping":77},{"user_id":859,"name":"jade","steam_id":76561198298576765,"connected_time":1316000000000,"state":"active","ping":75},{"user_id":825,"name":"ashley","steam_id":76561198448551449,"connected_time":2751000000000,"state":"active","ping":36},{"user_id":816,"name":"beebo","steam_id":76561199120277007,"connected_time":4761000000000,"state":"active","ping":42},{"user_id":779,"name":"gibb (official)","steam_id":76561198074097655,"connected_time":10535000000000,"state":"active","ping":64},{"user_id":860,"name":"Chippo","steam_id":76561198343198306,"connected_time":1316000000000,"state":"active","ping":63},{"user_id":804,"name":"Chase","steam_id":76561198123487596,"connected_time":7016000000000,"state":"active","ping":76},{"user_id":653,"name":"sora","steam_id":76561198096547662,"connected_time":12520000000000,"state":"active","ping":50},{"user_id":814,"name":"Lyra","steam_id":76561198043601838,"connected_time":5212000000000,"state":"active","ping":61},{"user_id":864,"name":"regimiro","steam_id":76561198120457008,"connected_time":1100000000000,"state":"active","ping":51},{"user_id":823,"name":"yousef_kiler","steam_id":76561198074917015,"connected_time":2776000000000,"state":"active","ping":76},{"user_id":870,"name":"∆Rel8ble∆","steam_id":76561199075747014,"connected_time":128000000000,"state":"active","ping":120}]},{"server_id":114,"name":"Uncletopia | London | 2 | All Maps","name_short":"lon-2","host":"lon-1.uk.uncletopia.com","port":27025,"enabled":true,"region":"eu","cc":"gb","latitude":51.509865,"longitude":-0.118092,"reserved":0,"last_update":"0001-01-01T00:00:00Z","name_a2s":"Uncletopia | London | 2 | All Maps","protocol":17,"map":"koth_cascade","folder":"tf","game":"Team Fortress","app_id":440,"player_count":0,"max_players":24,"Bots":0,"server_type":"Dedicated","server_os":"Linux","password":true,"vac":true,"version":"7961495","steam_id":85568392924470941,"keywords":["cp","nocrits","nodmgspread","uncletopia"],"game_id":440,"stv_port":27026,"stv_name":"Uncletopia | London | 2 | All Maps | STV","players":null},{"server_id":320,"name":"Uncletopia | London | 3 | All Maps","name_short":"lon-3","host":"lon-1.uk.uncletopia.com","port":27035,"enabled":true,"region":"eu","cc":"gb","latitude":51.509865,"longitude":-0.118092,"reserved":0,"last_update":"0001-01-01T00:00:00Z","name_a2s":"Uncletopia | London | 3 | All Maps","protocol":17,"map":"koth_viaduct","folder":"tf","game":"Team Fortress","app_id":440,"player_count":0,"max_players":24,"Bots":0,"server_type":"Dedicated","server_os":"Linux","password":true,"vac":true,"version":"7961495","steam_id":85568392924510192,"keywords":["cp","nocrits","nodmgspread","uncletopia"],"game_id":440,"stv_port":27036,"stv_name":"Uncletopia | London | 3 | All Maps | STV","players":null},{"server_id":321,"name":"Uncletopia | London | 4 | All Maps","name_short":"lon-4","host":"lon-1.uk.uncletopia.com","port":27045,"enabled":true,"region":"eu","cc":"gb","latitude":51.509865,"longitude":-0.118092,"reserved":0,"last_update":"0001-01-01T00:00:00Z","name_a2s":"Uncletopia | London | 4 | All Maps","protocol":17,"map":"pl_upward","folder":"tf","game":"Team Fortress","app_id":440,"player_count":20,"max_players":24,"Bots":0,"server_type":"Dedicated","server_os":"Linux","password":true,"vac":true,"version":"7961495","steam_id":85568392924510193,"keywords":["nocrits","nodmgspread","payload","uncletopia"],"game_id":440,"stv_port":27046,"stv_name":"Uncletopia | London | 4 | All Maps | STV","players":[{"user_id":820,"name":"CH1NASKEE","steam_id":76561198021531683,"connected_time":214000000000,"state":"active","ping":102},{"user_id":826,"name":"mümq","steam_id":76561198085153806,"connected_time":89000000000,"state":"active","ping":52},{"user_id":799,"name":"nug","steam_id":76561198055396568,"connected_time":1553000000000,"state":"active","ping":48},{"user_id":795,"name":"rollergirl","steam_id":76561199233979726,"connected_time":1858000000000,"state":"active","ping":84},{"user_id":758,"name":"Feels Good","steam_id":76561198058030054,"connected_time":4050000000000,"state":"active","ping":115},{"user_id":812,"name":"Steen","steam_id":76561198122992510,"connected_time":881000000000,"state":"active","ping":38},{"user_id":824,"name":"bikerkid207","steam_id":76561198390782783,"connected_time":109000000000,"state":"active","ping":121},{"user_id":801,"name":"Gugu gaga","steam_id":76561198161822358,"connected_time":1489000000000,"state":"active","ping":64},{"user_id":827,"name":"Random","steam_id":76561198291681674,"connected_time":62000000000,"state":"active","ping":61},{"user_id":821,"name":"noseb","steam_id":76561199480942903,"connected_time":204000000000,"state":"active","ping":64},{"user_id":750,"name":"randem_","steam_id":76561198338793755,"connected_time":4380000000000,"state":"active","ping":39},{"user_id":784,"name":"Kenny Savage","steam_id":76561199049383900,"connected_time":2737000000000,"state":"active","ping":70},{"user_id":797,"name":"Level 1 Noob","steam_id":76561198088586340,"connected_time":1857000000000,"state":"active","ping":60},{"user_id":773,"name":"why hello there","steam_id":76561198047271252,"connected_time":3661000000000,"state":"active","ping":68},{"user_id":806,"name":"mercedes ben","steam_id":76561198000147423,"connected_time":1227000000000,"state":"active","ping":36},{"user_id":789,"name":"Penis Contortionist","steam_id":76561198073663784,"connected_time":2501000000000,"state":"active","ping":33},{"user_id":818,"name":"JuanPonchoGringo™","steam_id":76561198038046899,"connected_time":586000000000,"state":"active","ping":125},{"user_id":807,"name":"SolidSalt","steam_id":76561198334789026,"connected_time":1186000000000,"state":"active","ping":45},{"user_id":790,"name":"black_lad","steam_id":76561199118646366,"connected_time":2501000000000,"state":"active","ping":147},{"user_id":810,"name":"WinterBucket","steam_id":76561198381313801,"connected_time":912000000000,"state":"active","ping":61}]},{"server_id":21,"name":"Uncletopia | London | 5 | All Maps","name_short":"lon-5","host":"lon-1.uk.uncletopia.com","port":27055,"enabled":true,"region":"eu","cc":"gb","latitude":51.509865,"longitude":-0.118092,"reserved":0,"last_update":"0001-01-01T00:00:00Z","name_a2s":"Uncletopia | London | 5 | All Maps","protocol":17,"map":"pl_badwater","folder":"tf","game":"Team Fortress","app_id":440,"player_count":23,"max_players":24,"Bots":0,"server_type":"Dedicated","server_os":"Linux","password":true,"vac":true,"version":"7961495","steam_id":85568392924742829,"keywords":["nocrits","nodmgspread","payload","uncletopia"],"game_id":440,"stv_port":27056,"stv_name":"Uncletopia | London | 5 | All Maps | STV","players":[{"user_id":597,"name":"Maythorn","steam_id":76561198049709072,"connected_time":2014000000000,"state":"active","ping":134},{"user_id":598,"name":"Kevin Jr.","steam_id":76561198041775029,"connected_time":2006000000000,"state":"active","ping":82},{"user_id":626,"name":"frosty","steam_id":76561198094560834,"connected_time":115000000000,"state":"active","ping":51},{"user_id":625,"name":"f0x","steam_id":76561198072921704,"connected_time":225000000000,"state":"active","ping":49},{"user_id":627,"name":"Keegan","steam_id":76561198051325763,"connected_time":107000000000,"state":"active","ping":87},{"user_id":628,"name":"Dct","steam_id":76561198397105421,"connected_time":90000000000,"state":"active","ping":66},{"user_id":554,"name":"Weegee","steam_id":76561198150308523,"connected_time":4534000000000,"state":"active","ping":48},{"user_id":587,"name":"say gex TF2EASY.COM","steam_id":76561198862535506,"connected_time":2636000000000,"state":"active","ping":75},{"user_id":566,"name":"Kiogeki","steam_id":76561197996707843,"connected_time":3298000000000,"state":"active","ping":39},{"user_id":629,"name":"my mom","steam_id":76561199225201569,"connected_time":84000000000,"state":"active","ping":110},{"user_id":608,"name":"Mono","steam_id":76561198036003162,"connected_time":1492000000000,"state":"active","ping":76},{"user_id":630,"name":"hedon","steam_id":76561198249832770,"connected_time":47000000000,"state":"active","ping":45},{"user_id":620,"name":"CumbustiblePunda","steam_id":76561197974274677,"connected_time":1244000000000,"state":"active","ping":59},{"user_id":631,"name":"⛧turbine⛧","steam_id":76561199148127285,"connected_time":41000000000,"state":"active","ping":79},{"user_id":632,"name":"Professor Brofessor","steam_id":76561198102541181,"connected_time":17000000000,"state":"active","ping":76},{"user_id":622,"name":"John Noob","steam_id":76561197999170026,"connected_time":867000000000,"state":"active","ping":81},{"user_id":509,"name":"yuno appreciator","steam_id":76561198083286511,"connected_time":7363000000000,"state":"active","ping":36},{"user_id":612,"name":"glyph","steam_id":76561197980736364,"connected_time":1364000000000,"state":"active","ping":89},{"user_id":613,"name":"crit hit!","steam_id":76561198112693639,"connected_time":1350000000000,"state":"active","ping":52},{"user_id":565,"name":"CUMDEMON","steam_id":76561198170939887,"connected_time":3361000000000,"state":"active","ping":72},{"user_id":614,"name":"ムngel☯","steam_id":76561198009888169,"connected_time":1339000000000,"state":"active","ping":73},{"user_id":618,"name":"Bill Carr","steam_id":76561198110033943,"connected_time":1279000000000,"state":"active","ping":43},{"user_id":619,"name":"ScampSixteen","steam_id":76561198021771000,"connected_time":1272000000000,"state":"active","ping":52}]},{"server_id":22,"name":"Uncletopia | London | 6 | All Maps","name_short":"lon-6","host":"lon-1.uk.uncletopia.com","port":27065,"enabled":true,"region":"eu","cc":"gb","latitude":51.509865,"longitude":-0.118092,"reserved":0,"last_update":"0001-01-01T00:00:00Z","name_a2s":"Uncletopia | London | 6 | All Maps","protocol":17,"map":"cp_sunshine","folder":"tf","game":"Team Fortress","app_id":440,"player_count":0,"max_players":24,"Bots":0,"server_type":"Dedicated","server_os":"Linux","password":true,"vac":true,"version":"7961495","steam_id":85568392924742830,"keywords":["cp","nocrits","nodmgspread","uncletopia"],"game_id":440,"stv_port":27066,"stv_name":"Uncletopia | London | 6 | All Maps | STV","players":null},{"server_id":40,"name":"Uncletopia | London | 7 | Stopwatch","name_short":"lon-7","host":"lon-1.uk.uncletopia.com","port":27075,"enabled":true,"region":"eu","cc":"gb","latitude":51.509865,"longitude":-0.118092,"reserved":0,"last_update":"0001-01-01T00:00:00Z","name_a2s":"Uncletopia | London | 7 | Stopwatch","protocol":17,"map":"koth_highpass","folder":"tf","game":"Team Fortress","app_id":440,"player_count":0,"max_players":24,"Bots":0,"server_type":"Dedicated","server_os":"Linux","password":true,"vac":true,"version":"7961495","steam_id":85568392924964314,"keywords":["cp","nocrits","nodmgspread","uncletopia"],"game_id":440,"stv_port":27076,"stv_name":"Uncletopia | London | 7 | Stopwatch | STV","players":null},{"server_id":41,"name":"Uncletopia | London | 8 | Community","name_short":"lon-8","host":"lon-1.uk.uncletopia.com","port":27085,"enabled":true,"region":"eu","cc":"gb","latitude":51.509865,"longitude":-0.118092,"reserved":0,"last_update":"0001-01-01T00:00:00Z","name_a2s":"Uncletopia | London | 8 | Community","protocol":17,"map":"workshop/koth_slaughter_rc1.ugc1712845210","folder":"tf","game":"Team Fortress","app_id":440,"player_count":0,"max_players":24,"Bots":0,"server_type":"Dedicated","server_os":"Linux","password":true,"vac":true,"version":"7961495","steam_id":85568392924964315,"keywords":["cp","nocrits","nodmgspread","uncletopia"],"game_id":440,"stv_port":27086,"stv_name":"Uncletopia | London | 8 | Community | STV","players":null},{"server_id":300,"name":"Uncletopia | Montréal | 1 | One Thousand Uncles","name_short":"mtl-1","host":"mtl-1.ca.uncletopia.com","port":27015,"enabled":true,"region":"us-east","cc":"ca","latitude":45.50889,"longitude":-73.56167,"reserved":0,"last_update":"0001-01-01T00:00:00Z","name_a2s":"","protocol":0,"map":"","folder":"","game":"","app_id":0,"player_count":0,"max_players":0,"Bots":0,"server_type":"","server_os":"","password":false,"vac":false,"version":"","steam_id":0,"keywords":null,"game_id":0,"stv_port":0,"stv_name":"","players":null},{"server_id":301,"name":"Uncletopia | Montréal | 2 | One Thousand Uncles","name_short":"mtl-2","host":"mtl-1.ca.uncletopia.com","port":27025,"enabled":true,"region":"us-east","cc":"ca","latitude":45.50889,"longitude":-73.56167,"reserved":0,"last_update":"0001-01-01T00:00:00Z","name_a2s":"","protocol":0,"map":"","folder":"","game":"","app_id":0,"player_count":9,"max_players":0,"Bots":0,"server_type":"","server_os":"","password":false,"vac":false,"version":"","steam_id":0,"keywords":null,"game_id":0,"stv_port":0,"stv_name":"","players":[{"user_id":122,"name":"Willi the Gifter of Chaos","steam_id":76561198066508251,"connected_time":1826000000000,"state":"active","ping":41},{"user_id":123,"name":"Rhutebeer","steam_id":76561198018302761,"connected_time":1639000000000,"state":"active","ping":105},{"user_id":125,"name":"Yankee_Pirate","steam_id":76561198260667117,"connected_time":1393000000000,"state":"active","ping":48},{"user_id":126,"name":"DeepDive","steam_id":76561198140542184,"connected_time":1219000000000,"state":"active","ping":52},{"user_id":114,"name":"gravid baby","steam_id":76561198318646867,"connected_time":5256000000000,"state":"active","ping":49},{"user_id":127,"name":"Jumpingbean061","steam_id":76561198318408205,"connected_time":988000000000,"state":"active","ping":61},{"user_id":128,"name":"Feet Bandit","steam_id":76561199152252878,"connected_time":969000000000,"state":"active","ping":65},{"user_id":131,"name":"sheep","steam_id":76561198172943006,"connected_time":121000000000,"state":"active","ping":71},{"user_id":132,"name":"Room_237","steam_id":76561199135081315,"connected_time":42000000000,"state":"active","ping":51}]},{"server_id":302,"name":"Uncletopia | Montréal | 3 | One Thousand Uncles","name_short":"mtl-3","host":"mtl-1.ca.uncletopia.com","port":27035,"enabled":true,"region":"us-east","cc":"ca","latitude":45.50889,"longitude":-73.56167,"reserved":0,"last_update":"0001-01-01T00:00:00Z","name_a2s":"","protocol":0,"map":"","folder":"","game":"","app_id":0,"player_count":1,"max_players":0,"Bots":0,"server_type":"","server_os":"","password":false,"vac":false,"version":"","steam_id":0,"keywords":null,"game_id":0,"stv_port":0,"stv_name":"","players":[{"user_id":164,"name":"LeWizard","steam_id":76561198019077196,"connected_time":81000000000,"state":"active","ping":63}]},{"server_id":13,"name":"Uncletopia | New York City | 1 | All Maps","name_short":"nyc-1","host":"nyc-1.us.uncletopia.com","port":27015,"enabled":true,"region":"us-east","cc":"us","latitude":40.73061,"longitude":-73.93524,"reserved":0,"last_update":"0001-01-01T00:00:00Z","name_a2s":"Uncletopia | New York City | 1 | All Maps","protocol":17,"map":"koth_lakeside_final","folder":"tf","game":"Team Fortress","app_id":440,"player_count":22,"max_players":24,"Bots":0,"server_type":"Dedicated","server_os":"Linux","password":true,"vac":true,"version":"7961495","steam_id":85568392924469993,"keywords":["cp","nocrits","nodmgspread","uncletopia"],"game_id":440,"stv_port":27016,"stv_name":"Uncletopia | New York City | 1 | All Maps | STV","players":[{"user_id":532,"name":"isaacn311","steam_id":76561198854372577,"connected_time":1355000000000,"state":"active","ping":52},{"user_id":464,"name":"Brawns","steam_id":76561198045190199,"connected_time":5329000000000,"state":"active","ping":56},{"user_id":518,"name":"\"LET'S GO JUAN!\"","steam_id":76561198978797171,"connected_time":1797000000000,"state":"active","ping":63},{"user_id":547,"name":"Esteban Delsin","steam_id":76561198433519639,"connected_time":679000000000,"state":"active","ping":116},{"user_id":548,"name":"makotothompson","steam_id":76561199012033756,"connected_time":658000000000,"state":"active","ping":74},{"user_id":533,"name":"lushtakular","steam_id":76561198840080823,"connected_time":1298000000000,"state":"active","ping":78},{"user_id":567,"name":"Johnny Lawrence #JohnnyMaxxing","steam_id":76561199367141671,"connected_time":15000000000,"state":"active","ping":45},{"user_id":565,"name":"MattJettskie","steam_id":76561199229493583,"connected_time":70000000000,"state":"active","ping":96},{"user_id":517,"name":"Jonah Hill from 21 Jump Street","steam_id":76561198811130843,"connected_time":1838000000000,"state":"active","ping":83},{"user_id":566,"name":"Xenophile","steam_id":76561198044772435,"connected_time":52000000000,"state":"active","ping":123},{"user_id":562,"name":"inphlate","steam_id":76561199016973013,"connected_time":305000000000,"state":"active","ping":60},{"user_id":563,"name":"FamilyMan.Tech()","steam_id":76561198023126781,"connected_time":304000000000,"state":"active","ping":74},{"user_id":535,"name":"Barack Obama","steam_id":76561198142290648,"connected_time":1198000000000,"state":"active","ping":63},{"user_id":550,"name":"Young-OG","steam_id":76561198058800479,"connected_time":654000000000,"state":"active","ping":76},{"user_id":551,"name":"Sully","steam_id":76561198310784589,"connected_time":649000000000,"state":"active","ping":55},{"user_id":544,"name":"MilkToast","steam_id":76561198167959226,"connected_time":898000000000,"state":"active","ping":82},{"user_id":554,"name":"Xocolatl 魔鐘","steam_id":76561198007405067,"connected_time":585000000000,"state":"active","ping":74},{"user_id":536,"name":"Professor 'Iggins","steam_id":76561198064448905,"connected_time":1114000000000,"state":"active","ping":77},{"user_id":557,"name":"my name jeff","steam_id":76561198179816898,"connected_time":572000000000,"state":"active","ping":81},{"user_id":539,"name":"taigaxx","steam_id":76561198202669250,"connected_time":1064000000000,"state":"active","ping":71},{"user_id":543,"name":"-π- BakaD","steam_id":76561197960559169,"connected_time":980000000000,"state":"active","ping":45},{"user_id":558,"name":"Gram Tokers Count Doinkula","steam_id":76561198112811565,"connected_time":571000000000,"state":"active","ping":55}]},{"server_id":14,"name":"Uncletopia | New York City | 2 | All Maps","name_short":"nyc-2","host":"nyc-1.us.uncletopia.com","port":27025,"enabled":true,"region":"us-east","cc":"us","latitude":40.73061,"longitude":-73.93524,"reserved":0,"last_update":"0001-01-01T00:00:00Z","name_a2s":"Uncletopia | New York City | 2 | All Maps","protocol":17,"map":"pl_borneo","folder":"tf","game":"Team Fortress","app_id":440,"player_count":24,"max_players":24,"Bots":0,"server_type":"Dedicated","server_os":"Linux","password":true,"vac":true,"version":"7961495","steam_id":85568392924469994,"keywords":["nocrits","nodmgspread","payload","uncletopia"],"game_id":440,"stv_port":27026,"stv_name":"Uncletopia | New York City | 2 | All Maps | STV","players":[{"user_id":333,"name":"Peepster","steam_id":76561198297854733,"connected_time":2721000000000,"state":"active","ping":80},{"user_id":334,"name":"JeweyDecimals","steam_id":76561198124001480,"connected_time":2718000000000,"state":"active","ping":78},{"user_id":398,"name":"Yeti","steam_id":76561198176049478,"connected_time":0,"state":"connecting","ping":0},{"user_id":365,"name":"Mer","steam_id":76561198192171041,"connected_time":1761000000000,"state":"active","ping":120},{"user_id":382,"name":"Mogwr","steam_id":76561198124942972,"connected_time":1403000000000,"state":"active","ping":64},{"user_id":395,"name":"Dr. Medicine","steam_id":76561198165309820,"connected_time":565000000000,"state":"active","ping":139},{"user_id":387,"name":"Samercam","steam_id":76561198189403190,"connected_time":991000000000,"state":"active","ping":65},{"user_id":390,"name":"Randumb","steam_id":76561199083286636,"connected_time":955000000000,"state":"active","ping":65},{"user_id":393,"name":"Pickles","steam_id":76561198010609340,"connected_time":609000000000,"state":"active","ping":84},{"user_id":336,"name":"Squid's","steam_id":76561198826820952,"connected_time":2609000000000,"state":"active","ping":72},{"user_id":383,"name":"Gaaarp","steam_id":76561198074584362,"connected_time":1204000000000,"state":"active","ping":53},{"user_id":384,"name":"Bootes","steam_id":76561197968255551,"connected_time":1196000000000,"state":"active","ping":52},{"user_id":320,"name":"Пвт Динго","steam_id":76561198119683217,"connected_time":3282000000000,"state":"active","ping":85},{"user_id":378,"name":"Mayonez Bandit","steam_id":76561198116621139,"connected_time":1431000000000,"state":"active","ping":134},{"user_id":397,"name":"DanklyMoist","steam_id":76561198062187821,"connected_time":169000000000,"state":"active","ping":68},{"user_id":396,"name":"emo_sasuke18@yahoo.com","steam_id":76561198361326855,"connected_time":560000000000,"state":"active","ping":75},{"user_id":388,"name":"soluticn","steam_id":76561198093819043,"connected_time":986000000000,"state":"active","ping":42},{"user_id":392,"name":"Dr. Strain","steam_id":76561198078476091,"connected_time":793000000000,"state":"active","ping":54},{"user_id":306,"name":"Miner2495","steam_id":76561198445904523,"connected_time":4365000000000,"state":"active","ping":68},{"user_id":367,"name":"Dragus","steam_id":76561198032967285,"connected_time":1735000000000,"state":"active","ping":70},{"user_id":381,"name":"Novu","steam_id":76561198886997024,"connected_time":1404000000000,"state":"active","ping":75},{"user_id":325,"name":"Slime Rancher 2 Enjoyer","steam_id":76561199171272762,"connected_time":3052000000000,"state":"active","ping":77},{"user_id":321,"name":"Gentoo Linux Gaming","steam_id":76561197999657118,"connected_time":3278000000000,"state":"active","ping":66},{"user_id":342,"name":"AlmondMilk","steam_id":76561198151229725,"connected_time":2515000000000,"state":"active","ping":66}]},{"server_id":15,"name":"Uncletopia | New York City | 3 | Stopwatch","name_short":"nyc-3","host":"nyc-1.us.uncletopia.com","port":27035,"enabled":true,"region":"us-east","cc":"us","latitude":40.73061,"longitude":-73.93524,"reserved":0,"last_update":"0001-01-01T00:00:00Z","name_a2s":"Uncletopia | New York City | 3 | Stopwatch","protocol":17,"map":"workshop/koth_ashville_final.ugc2130459942","folder":"tf","game":"Team Fortress","app_id":440,"player_count":0,"max_players":24,"Bots":0,"server_type":"Dedicated","server_os":"Linux","password":true,"vac":true,"version":"7961495","steam_id":85568392924742820,"keywords":["cp","nocrits","nodmgspread","uncletopia"],"game_id":440,"stv_port":27036,"stv_name":"Uncletopia | New York City | 3 | Stopwatch | STV","players":null},{"server_id":16,"name":"Uncletopia | New York City | 4 | Community","name_short":"nyc-4","host":"nyc-1.us.uncletopia.com","port":27045,"enabled":true,"region":"us-east","cc":"us","latitude":40.73061,"longitude":-73.93524,"reserved":0,"last_update":"0001-01-01T00:00:00Z","name_a2s":"Uncletopia | New York City | 4 | Community","protocol":17,"map":"workshop/cp_mannbase_rc2a.ugc1900737467","folder":"tf","game":"Team Fortress","app_id":440,"player_count":20,"max_players":24,"Bots":0,"server_type":"Dedicated","server_os":"Linux","password":true,"vac":true,"version":"7961495","steam_id":85568392924742821,"keywords":["cp","nocrits","nodmgspread","uncletopia"],"game_id":440,"stv_port":27046,"stv_name":"Uncletopia | New York City | 4 | Community | STV","players":[{"user_id":64,"name":"Pharthus","steam_id":76561198093866050,"connected_time":270000000000,"state":"active","ping":101},{"user_id":56,"name":"Calvin?","steam_id":76561198034069587,"connected_time":588000000000,"state":"active","ping":75},{"user_id":57,"name":"BarrowBaron","steam_id":76561198013633236,"connected_time":565000000000,"state":"active","ping":68},{"user_id":58,"name":"The Potato Romancer","steam_id":76561198204197648,"connected_time":559000000000,"state":"active","ping":114},{"user_id":59,"name":"feleven","steam_id":76561198853721046,"connected_time":550000000000,"state":"active","ping":50},{"user_id":63,"name":"Bheem","steam_id":76561198170453459,"connected_time":292000000000,"state":"active","ping":119},{"user_id":68,"name":"sloth (be nice im cringe)","steam_id":76561198047098172,"connected_time":144000000000,"state":"active","ping":62},{"user_id":70,"name":"Tethered","steam_id":76561199237582239,"connected_time":108000000000,"state":"active","ping":59},{"user_id":17,"name":"Militant Pacifist","steam_id":76561198290691432,"connected_time":2464000000000,"state":"active","ping":93},{"user_id":18,"name":"Stomp","steam_id":76561198167765748,"connected_time":2437000000000,"state":"active","ping":60},{"user_id":69,"name":"neet","steam_id":76561197968115168,"connected_time":115000000000,"state":"active","ping":48},{"user_id":65,"name":"zuchima","steam_id":76561198026152104,"connected_time":261000000000,"state":"active","ping":30},{"user_id":32,"name":"Winzinf","steam_id":76561198026152232,"connected_time":1319000000000,"state":"active","ping":82},{"user_id":25,"name":"Ronin Nuitsu","steam_id":76561198447712941,"connected_time":1829000000000,"state":"active","ping":45},{"user_id":66,"name":"Robert Legendary","steam_id":76561199146847458,"connected_time":241000000000,"state":"active","ping":57},{"user_id":67,"name":"rlucynski","steam_id":76561198052358297,"connected_time":235000000000,"state":"active","ping":91},{"user_id":71,"name":"Sir Trollington IV","steam_id":76561198269511071,"connected_time":103000000000,"state":"active","ping":70},{"user_id":73,"name":"Aunsti","steam_id":76561198090821461,"connected_time":70000000000,"state":"active","ping":31},{"user_id":46,"name":"Sharp","steam_id":76561198044565001,"connected_time":936000000000,"state":"active","ping":123},{"user_id":47,"name":"Lolsiest","steam_id":76561198149717332,"connected_time":928000000000,"state":"active","ping":80}]},{"server_id":142,"name":"Uncletopia | São Paulo | 1 | All Maps","name_short":"sao-1","host":"sao-1.br.uncletopia.com","port":27015,"enabled":true,"region":"sa","cc":"br","latitude":-23.533773,"longitude":-46.62529,"reserved":0,"last_update":"0001-01-01T00:00:00Z","name_a2s":"Uncletopia | São Paulo | 1 | All Maps","protocol":17,"map":"pl_upward","folder":"tf","game":"Team Fortress","app_id":440,"player_count":1,"max_players":24,"Bots":0,"server_type":"Dedicated","server_os":"Linux","password":true,"vac":true,"version":"7961495","steam_id":85568392924469996,"keywords":["nocrits","nodmgspread","payload","uncletopia"],"game_id":440,"stv_port":27016,"stv_name":"Uncletopia | São Paulo | 1 | All Maps | STV","players":[{"user_id":47,"name":"Eddy#8154","steam_id":76561199131776735,"connected_time":459000000000,"state":"active","ping":66}]},{"server_id":143,"name":"Uncletopia | São Paulo | 2 | Community","name_short":"sao-2","host":"sao-2.br.uncletopia.com","port":27015,"enabled":true,"region":"sa","cc":"br","latitude":-23.533773,"longitude":-46.62529,"reserved":0,"last_update":"0001-01-01T00:00:00Z","name_a2s":"Uncletopia | São Paulo | 2 | Community","protocol":17,"map":"workshop/koth_trenchfoot_ab1.ugc731436616","folder":"tf","game":"Team Fortress","app_id":440,"player_count":0,"max_players":24,"Bots":0,"server_type":"Dedicated","server_os":"Linux","password":true,"vac":true,"version":"7961495","steam_id":85568392924485349,"keywords":["cp","nocrits","nodmgspread","uncletopia"],"game_id":440,"stv_port":27016,"stv_name":"Uncletopia | São Paulo | 2 | Community | STV","players":null},{"server_id":7,"name":"Uncletopia | Seattle | 1 | All Maps","name_short":"sea-1","host":"sea-1.us.uncletopia.com","port":27015,"enabled":true,"region":"us-west","cc":"us","latitude":47.608013,"longitude":-122.33517,"reserved":0,"last_update":"0001-01-01T00:00:00Z","name_a2s":"Uncletopia | Seattle | 1 | All Maps","protocol":17,"map":"cp_mossrock","folder":"tf","game":"Team Fortress","app_id":440,"player_count":24,"max_players":24,"Bots":0,"server_type":"Dedicated","server_os":"Linux","password":true,"vac":true,"version":"7961495","steam_id":85568392924469997,"keywords":["cp","nocrits","nodmgspread","uncletopia"],"game_id":440,"stv_port":27016,"stv_name":"Uncletopia | Seattle | 1 | All Maps | STV","players":[{"user_id":465,"name":"Fh","steam_id":76561198000903511,"connected_time":4837000000000,"state":"active","ping":69},{"user_id":483,"name":"AWGER","steam_id":76561198284683624,"connected_time":2676000000000,"state":"active","ping":82},{"user_id":512,"name":"SolarusD","steam_id":76561198029279861,"connected_time":187000000000,"state":"active","ping":61},{"user_id":494,"name":"sAC inhibitor enjoyer","steam_id":76561198068672882,"connected_time":1559000000000,"state":"active","ping":65},{"user_id":501,"name":"hemaglox","steam_id":76561198023187633,"connected_time":818000000000,"state":"active","ping":47},{"user_id":443,"name":"Petey0712","steam_id":76561199401008981,"connected_time":6892000000000,"state":"active","ping":54},{"user_id":508,"name":"MrBurgerItHere","steam_id":76561198902777035,"connected_time":653000000000,"state":"active","ping":49},{"user_id":502,"name":"Username","steam_id":76561199033122306,"connected_time":809000000000,"state":"active","ping":154},{"user_id":481,"name":"dearender","steam_id":76561199427644498,"connected_time":2708000000000,"state":"active","ping":51},{"user_id":503,"name":"A Can of AriZona Green Tea","steam_id":76561198062481133,"connected_time":758000000000,"state":"active","ping":74},{"user_id":504,"name":"Darkgigglemonster","steam_id":76561198870649125,"connected_time":717000000000,"state":"active","ping":82},{"user_id":498,"name":"♥butter dog♥ (real)","steam_id":76561198844648825,"connected_time":1041000000000,"state":"active","ping":50},{"user_id":513,"name":"Karg","steam_id":76561198091387866,"connected_time":104000000000,"state":"active","ping":61},{"user_id":459,"name":"BolognaWithOlives","steam_id":76561198101262668,"connected_time":5934000000000,"state":"active","ping":102},{"user_id":435,"name":"Dongus","steam_id":76561197979056451,"connected_time":8230000000000,"state":"active","ping":54},{"user_id":511,"name":"Firedust19","steam_id":76561198153238631,"connected_time":269000000000,"state":"active","ping":89},{"user_id":477,"name":"Big Floppa","steam_id":76561199152552589,"connected_time":2907000000000,"state":"active","ping":47},{"user_id":487,"name":"NightmareOhm","steam_id":76561198338853664,"connected_time":2532000000000,"state":"active","ping":45},{"user_id":492,"name":"Skabbety","steam_id":76561198168044257,"connected_time":1782000000000,"state":"active","ping":38},{"user_id":507,"name":"good night sleepy pizza","steam_id":76561198042444692,"connected_time":655000000000,"state":"active","ping":51},{"user_id":482,"name":"311 fan","steam_id":76561198075128586,"connected_time":2705000000000,"state":"active","ping":62},{"user_id":493,"name":"Facepalm","steam_id":76561198001935226,"connected_time":1560000000000,"state":"active","ping":60},{"user_id":510,"name":"Keamy","steam_id":76561199471434875,"connected_time":390000000000,"state":"active","ping":43},{"user_id":496,"name":"H.A.Z.E","steam_id":76561199247095754,"connected_time":1047000000000,"state":"active","ping":61}]},{"server_id":119,"name":"Uncletopia | Seattle | 2 | All Maps","name_short":"sea-2","host":"sea-1.us.uncletopia.com","port":27025,"enabled":true,"region":"us-west","cc":"us","latitude":47.608013,"longitude":-122.33517,"reserved":0,"last_update":"0001-01-01T00:00:00Z","name_a2s":"Uncletopia | Seattle | 2 | All Maps","protocol":17,"map":"pl_thundermountain","folder":"tf","game":"Team Fortress","app_id":440,"player_count":20,"max_players":24,"Bots":0,"server_type":"Dedicated","server_os":"Linux","password":true,"vac":true,"version":"7961495","steam_id":85568392924469998,"keywords":["nocrits","nodmgspread","payload","uncletopia"],"game_id":440,"stv_port":27026,"stv_name":"Uncletopia | Seattle | 2 | All Maps | STV","players":[{"user_id":87,"name":"SuperRuskii","steam_id":76561199455324778,"connected_time":611000000000,"state":"active","ping":84},{"user_id":77,"name":"gloobern","steam_id":76561198341190679,"connected_time":1301000000000,"state":"active","ping":50},{"user_id":84,"name":"Average Person","steam_id":76561198877983630,"connected_time":758000000000,"state":"active","ping":104},{"user_id":71,"name":"greens beans","steam_id":76561198153611491,"connected_time":1741000000000,"state":"active","ping":43},{"user_id":91,"name":"Cheddar","steam_id":76561199123994392,"connected_time":350000000000,"state":"active","ping":50},{"user_id":88,"name":"DEADHORSE","steam_id":76561198066342171,"connected_time":565000000000,"state":"active","ping":123},{"user_id":92,"name":"SpamHands20","steam_id":76561198117550855,"connected_time":301000000000,"state":"active","ping":86},{"user_id":89,"name":"𝓼𝓹𝓸𝓸𝓴𝔂","steam_id":76561198300009292,"connected_time":549000000000,"state":"active","ping":53},{"user_id":90,"name":"LittleJiggles","steam_id":76561198134898322,"connected_time":521000000000,"state":"active","ping":72},{"user_id":97,"name":"sleePI","steam_id":76561198450073779,"connected_time":132000000000,"state":"active","ping":45},{"user_id":93,"name":"Best1112god yt","steam_id":76561199393334742,"connected_time":205000000000,"state":"active","ping":39},{"user_id":82,"name":"Point then Click","steam_id":76561198076133259,"connected_time":927000000000,"state":"active","ping":71},{"user_id":94,"name":"8BitWyatt","steam_id":76561198453336518,"connected_time":176000000000,"state":"active","ping":90},{"user_id":95,"name":"Scrumbly_Scrimbo","steam_id":76561198377609683,"connected_time":152000000000,"state":"active","ping":118},{"user_id":44,"name":"Gamekiller839","steam_id":76561199475400469,"connected_time":3330000000000,"state":"active","ping":34},{"user_id":96,"name":"J O S H³²","steam_id":76561198122603779,"connected_time":145000000000,"state":"active","ping":86},{"user_id":98,"name":"cyclops","steam_id":76561197970370198,"connected_time":130000000000,"state":"active","ping":99},{"user_id":100,"name":"Foxer57","steam_id":76561197998108860,"connected_time":75000000000,"state":"active","ping":66},{"user_id":101,"name":"NOfreckingIdea","steam_id":76561199169383818,"connected_time":50000000000,"state":"active","ping":54},{"user_id":64,"name":"󰀑BoppyDoppy 󰀑","steam_id":76561198976668694,"connected_time":2342000000000,"state":"active","ping":60}]},{"server_id":406,"name":"Uncletopia | Seattle | 3 | Stopwatch","name_short":"sea-3","host":"sea-1.us.uncletopia.com","port":27035,"enabled":true,"region":"us-west","cc":"us","latitude":47.608013,"longitude":-122.33517,"reserved":0,"last_update":"0001-01-01T00:00:00Z","name_a2s":"Uncletopia | Seattle | 3 | Stopwatch","protocol":17,"map":"workshop/pl_badwater_pro_v12.ugc2142942074","folder":"tf","game":"Team Fortress","app_id":440,"player_count":0,"max_players":24,"Bots":0,"server_type":"Dedicated","server_os":"Linux","password":true,"vac":true,"version":"7961495","steam_id":85568392924515217,"keywords":["nocrits","nodmgspread","payload","uncletopia"],"game_id":440,"stv_port":27036,"stv_name":"Uncletopia | Seattle | 3 | Stopwatch | STV","players":null},{"server_id":17,"name":"Uncletopia | San Francisco | 1 | All Maps","name_short":"sfo-1","host":"sfo-1.us.uncletopia.com","port":27015,"enabled":true,"region":"us-west","cc":"us","latitude":37.77397,"longitude":-122.4313,"reserved":0,"last_update":"0001-01-01T00:00:00Z","name_a2s":"Uncletopia | San Francisco | 1 | All Maps","protocol":17,"map":"cp_gorge","folder":"tf","game":"Team Fortress","app_id":440,"player_count":23,"max_players":24,"Bots":0,"server_type":"Dedicated","server_os":"Linux","password":true,"vac":true,"version":"7961495","steam_id":85568392924469999,"keywords":["cp","nocrits","nodmgspread","uncletopia"],"game_id":440,"stv_port":27016,"stv_name":"Uncletopia | San Francisco | 1 | All Maps | STV","players":[{"user_id":48,"name":"Ket","steam_id":76561198241951244,"connected_time":4156000000000,"state":"active","ping":87},{"user_id":81,"name":"gohadoken","steam_id":76561198430889640,"connected_time":2256000000000,"state":"active","ping":115},{"user_id":98,"name":"Quaalude","steam_id":76561198100177449,"connected_time":1418000000000,"state":"active","ping":71},{"user_id":77,"name":"beatrice III","steam_id":76561198319897635,"connected_time":2288000000000,"state":"active","ping":74},{"user_id":95,"name":"[DATS➡] Sugar Meowth","steam_id":76561197995251793,"connected_time":1473000000000,"state":"active","ping":59},{"user_id":92,"name":"NewDerp","steam_id":76561198035918787,"connected_time":1527000000000,"state":"active","ping":78},{"user_id":104,"name":"chunkysquare","steam_id":76561199076468383,"connected_time":383000000000,"state":"active","ping":46},{"user_id":83,"name":"CW Gamer","steam_id":76561199062947052,"connected_time":2166000000000,"state":"active","ping":75},{"user_id":109,"name":"Tuba","steam_id":76561198209166329,"connected_time":111000000000,"state":"active","ping":66},{"user_id":75,"name":"wydawg","steam_id":76561198053910862,"connected_time":2738000000000,"state":"active","ping":55},{"user_id":100,"name":"Maid 'n' China","steam_id":76561198423392976,"connected_time":1281000000000,"state":"active","ping":45},{"user_id":62,"name":"green bean","steam_id":76561198113099204,"connected_time":3378000000000,"state":"active","ping":30},{"user_id":106,"name":"CampinCarl","steam_id":76561197997373624,"connected_time":131000000000,"state":"active","ping":51},{"user_id":85,"name":"Octo","steam_id":76561198024056355,"connected_time":2141000000000,"state":"active","ping":47},{"user_id":113,"name":"hoOmIN","steam_id":76561198334947079,"connected_time":1000000000,"state":"spawning","ping":43},{"user_id":43,"name":"Type Three Dabeetus","steam_id":76561198062710038,"connected_time":4320000000000,"state":"active","ping":64},{"user_id":45,"name":"Shampoodle","steam_id":76561199050344218,"connected_time":4264000000000,"state":"active","ping":57},{"user_id":110,"name":"Magical.Puffin","steam_id":76561198129039275,"connected_time":81000000000,"state":"active","ping":54},{"user_id":111,"name":"avik","steam_id":76561198387717978,"connected_time":73000000000,"state":"active","ping":90},{"user_id":112,"name":"Neon Prime","steam_id":76561198068324749,"connected_time":16000000000,"state":"active","ping":90},{"user_id":103,"name":"shid","steam_id":76561198105374054,"connected_time":469000000000,"state":"active","ping":73},{"user_id":108,"name":"cheese biddle","steam_id":76561198971552734,"connected_time":125000000000,"state":"active","ping":52},{"user_id":74,"name":"[kot]Pints","steam_id":76561198077017684,"connected_time":2905000000000,"state":"active","ping":107}]},{"server_id":18,"name":"Uncletopia | San Francisco | 2 | All Maps","name_short":"sfo-2","host":"sfo-1.us.uncletopia.com","port":27025,"enabled":true,"region":"us-west","cc":"us","latitude":37.77397,"longitude":-122.4313,"reserved":0,"last_update":"0001-01-01T00:00:00Z","name_a2s":"Uncletopia | San Francisco | 2 | All Maps","protocol":17,"map":"koth_lakeside_final","folder":"tf","game":"Team Fortress","app_id":440,"player_count":0,"max_players":24,"Bots":0,"server_type":"Dedicated","server_os":"Linux","password":true,"vac":true,"version":"7961495","steam_id":85568392924470000,"keywords":["cp","nocrits","nodmgspread","uncletopia"],"game_id":440,"stv_port":27026,"stv_name":"Uncletopia | San Francisco | 2 | All Maps | STV","players":null},{"server_id":19,"name":"Uncletopia | San Francisco | 3 | Stopwatch","name_short":"sfo-3","host":"sfo-1.us.uncletopia.com","port":27035,"enabled":true,"region":"us-west","cc":"us","latitude":37.77397,"longitude":-122.4313,"reserved":0,"last_update":"0001-01-01T00:00:00Z","name_a2s":"Uncletopia | San Francisco | 3 | Stopwatch","protocol":17,"map":"cp_process_final","folder":"tf","game":"Team Fortress","app_id":440,"player_count":0,"max_players":24,"Bots":0,"server_type":"Dedicated","server_os":"Linux","password":true,"vac":true,"version":"7961495","steam_id":85568392924742824,"keywords":["cp","nocrits","nodmgspread","uncletopia"],"game_id":440,"stv_port":27036,"stv_name":"Uncletopia | San Francisco | 3 | Stopwatch | STV","players":null},{"server_id":20,"name":"Uncletopia | San Francisco | 4 | Community","name_short":"sfo-4","host":"sfo-1.us.uncletopia.com","port":27045,"enabled":true,"region":"us-west","cc":"us","latitude":37.77397,"longitude":-122.4313,"reserved":0,"last_update":"0001-01-01T00:00:00Z","name_a2s":"Uncletopia | San Francisco | 4 | Community","protocol":17,"map":"workshop/pl_badwater_pro_v12.ugc2142942074","folder":"tf","game":"Team Fortress","app_id":440,"player_count":0,"max_players":24,"Bots":0,"server_type":"Dedicated","server_os":"Linux","password":true,"vac":true,"version":"7961495","steam_id":85568392924742826,"keywords":["nocrits","nodmgspread","payload","uncletopia"],"game_id":440,"stv_port":27046,"stv_name":"Uncletopia | San Francisco | 4 | Community | STV","players":null},{"server_id":141,"name":"Uncletopia | Sydney | 1 | All Maps","name_short":"syd-1","host":"syd-1.au.uncletopia.com","port":27015,"enabled":true,"region":"au","cc":"au","latitude":-33.865143,"longitude":151.2099,"reserved":0,"last_update":"0001-01-01T00:00:00Z","name_a2s":"Uncletopia | Sydney | 1 | All Maps","protocol":17,"map":"koth_viaduct","folder":"tf","game":"Team Fortress","app_id":440,"player_count":0,"max_players":24,"Bots":0,"server_type":"Dedicated","server_os":"Linux","password":true,"vac":true,"version":"7961495","steam_id":85568392924470001,"keywords":["cp","nocrits","nodmgspread","uncletopia"],"game_id":440,"stv_port":27016,"stv_name":"Uncletopia | Sydney | 1 | All Maps | STV","players":null},{"server_id":123,"name":"Uncletopia | Sydney | 2 | All Maps","name_short":"syd-2","host":"syd-1.au.uncletopia.com","port":27025,"enabled":true,"region":"au","cc":"au","latitude":-33.865143,"longitude":151.2099,"reserved":0,"last_update":"0001-01-01T00:00:00Z","name_a2s":"Uncletopia | Sydney | 2 | All Maps","protocol":17,"map":"koth_lakeside_final","folder":"tf","game":"Team Fortress","app_id":440,"player_count":0,"max_players":24,"Bots":0,"server_type":"Dedicated","server_os":"Linux","password":true,"vac":true,"version":"7961495","steam_id":85568392924470002,"keywords":["cp","nocrits","nodmgspread","uncletopia"],"game_id":440,"stv_port":27026,"stv_name":"Uncletopia | Sydney | 2 | All Maps | STV","players":null},{"server_id":395,"name":"Uncletopia | Sydney | 3 | All Maps","name_short":"syd-3","host":"syd-1.au.uncletopia.com","port":27035,"enabled":true,"region":"au","cc":"au","latitude":-33.865143,"longitude":151.2099,"reserved":0,"last_update":"0001-01-01T00:00:00Z","name_a2s":"Uncletopia | Sydney | 3 | All Maps","protocol":17,"map":"pl_frontier_final","folder":"tf","game":"Team Fortress","app_id":440,"player_count":4,"max_players":24,"Bots":0,"server_type":"Dedicated","server_os":"Linux","password":true,"vac":true,"version":"7961495","steam_id":85568392925194467,"keywords":["nocrits","nodmgspread","payload","uncletopia"],"game_id":440,"stv_port":27036,"stv_name":"Uncletopia | Sydney | 3 | All Maps | STV","players":[{"user_id":7,"name":"Zeron","steam_id":76561198125778202,"connected_time":301000000000,"state":"active","ping":45},{"user_id":5,"name":"fiv nites at fredi","steam_id":76561198424338721,"connected_time":386000000000,"state":"active","ping":67},{"user_id":8,"name":"Gary","steam_id":76561198304934962,"connected_time":110000000000,"state":"spawning","ping":95},{"user_id":9,"name":"Cardboard","steam_id":76561199099769110,"connected_time":45000000000,"state":"active","ping":59}]},{"server_id":396,"name":"Uncletopia | Sydney | 4 | All Maps","name_short":"syd-4","host":"syd-1.au.uncletopia.com","port":27045,"enabled":true,"region":"au","cc":"au","latitude":-33.865143,"longitude":151.2099,"reserved":0,"last_update":"0001-01-01T00:00:00Z","name_a2s":"Uncletopia | Sydney | 4 | All Maps","protocol":17,"map":"cp_process_final","folder":"tf","game":"Team Fortress","app_id":440,"player_count":0,"max_players":24,"Bots":0,"server_type":"Dedicated","server_os":"Linux","password":true,"vac":true,"version":"7961495","steam_id":85568392925397958,"keywords":["cp","nocrits","nodmgspread","uncletopia"],"game_id":440,"stv_port":27046,"stv_name":"Uncletopia | Sydney | 4 | All Maps | STV","players":null},{"server_id":58,"name":"Uncletopia | Sydney | 5 | Stopwatch","name_short":"syd-5","host":"syd-1.au.uncletopia.com","port":27055,"enabled":true,"region":"au","cc":"au","latitude":-33.865143,"longitude":151.2099,"reserved":0,"last_update":"0001-01-01T00:00:00Z","name_a2s":"Uncletopia | Sydney | 5 | Stopwatch","protocol":17,"map":"pl_frontier_final","folder":"tf","game":"Team Fortress","app_id":440,"player_count":0,"max_players":24,"Bots":0,"server_type":"Dedicated","server_os":"Linux","password":true,"vac":true,"version":"7961495","steam_id":85568392925397959,"keywords":["nocrits","nodmgspread","payload","uncletopia"],"game_id":440,"stv_port":27056,"stv_name":"Uncletopia | Sydney | 5 | Stopwatch | STV","players":null},{"server_id":59,"name":"Uncletopia | Sydney | 6 | Community","name_short":"syd-6","host":"syd-1.au.uncletopia.com","port":27065,"enabled":true,"region":"au","cc":"au","latitude":-33.865143,"longitude":151.2099,"reserved":0,"last_update":"0001-01-01T00:00:00Z","name_a2s":"Uncletopia | Sydney | 6 | Community","protocol":17,"map":"cp_sunshine","folder":"tf","game":"Team Fortress","app_id":440,"player_count":0,"max_players":24,"Bots":0,"server_type":"Dedicated","server_os":"Linux","password":true,"vac":true,"version":"7961495","steam_id":85568392925397960,"keywords":["cp","nocrits","nodmgspread","uncletopia"],"game_id":440,"stv_port":27066,"stv_name":"Uncletopia | Sydney | 6 | Community | STV","players":null},{"server_id":49,"name":"Uncletopia | Warsaw | 1 | One Thousand Uncles","name_short":"waw-1","host":"waw-1.pl.uncletopia.com","port":27015,"enabled":true,"region":"eu","cc":"pl","latitude":52.2297,"longitude":21.017532,"reserved":0,"last_update":"0001-01-01T00:00:00Z","name_a2s":"Uncletopia | Warsaw | 1 | One Thousand Uncles","protocol":17,"map":"cp_egypt_final","folder":"tf","game":"Team Fortress","app_id":440,"player_count":0,"max_players":32,"Bots":0,"server_type":"Dedicated","server_os":"Linux","password":true,"vac":true,"version":"7961495","steam_id":85568392925397850,"keywords":["alltalk","cp","danepve","increased_maxplayers","nocrits","norespawntime","uncletopia"],"game_id":440,"stv_port":0,"stv_name":"","players":null},{"server_id":50,"name":"Uncletopia | Warsaw | 2 | One Thousand Uncles","name_short":"waw-2","host":"waw-1.pl.uncletopia.com","port":27025,"enabled":true,"region":"eu","cc":"pl","latitude":52.2297,"longitude":21.017532,"reserved":0,"last_update":"0001-01-01T00:00:00Z","name_a2s":"Uncletopia | Warsaw | 2 | One Thousand Uncles","protocol":17,"map":"cp_dustbowl","folder":"tf","game":"Team Fortress","app_id":440,"player_count":0,"max_players":32,"Bots":0,"server_type":"Dedicated","server_os":"Linux","password":true,"vac":true,"version":"7961495","steam_id":85568392925397851,"keywords":["alltalk","cp","danepve","increased_maxplayers","nocrits","norespawntime","uncletopia"],"game_id":440,"stv_port":0,"stv_name":"","players":null},{"server_id":51,"name":"Uncletopia | Warsaw | 3 | All Maps","name_short":"waw-3","host":"waw-1.pl.uncletopia.com","port":27035,"enabled":true,"region":"eu","cc":"pl","latitude":52.2297,"longitude":21.017532,"reserved":0,"last_update":"0001-01-01T00:00:00Z","name_a2s":"Uncletopia | Warsaw | 3 | All Maps","protocol":17,"map":"cp_gorge","folder":"tf","game":"Team Fortress","app_id":440,"player_count":3,"max_players":24,"Bots":0,"server_type":"Dedicated","server_os":"Linux","password":true,"vac":true,"version":"7961495","steam_id":85568392925397852,"keywords":["cp","nocrits","nodmgspread","uncletopia"],"game_id":440,"stv_port":27036,"stv_name":"Uncletopia | Warsaw | 3 | All Maps | STV","players":[{"user_id":175,"name":"Chowd3r","steam_id":76561199231483630,"connected_time":95000000000,"state":"active","ping":135},{"user_id":176,"name":"heaby swag","steam_id":76561199502425631,"connected_time":57000000000,"state":"active","ping":147},{"user_id":177,"name":"Jimmi hatt","steam_id":76561198858601240,"connected_time":30000000000,"state":"active","ping":168}]},{"server_id":52,"name":"Uncletopia | Warsaw | 4 | All Maps","name_short":"waw-4","host":"waw-1.pl.uncletopia.com","port":27045,"enabled":true,"region":"eu","cc":"pl","latitude":52.2297,"longitude":21.017532,"reserved":0,"last_update":"0001-01-01T00:00:00Z","name_a2s":"Uncletopia | Warsaw | 4 | All Maps","protocol":17,"map":"cp_dustbowl","folder":"tf","game":"Team Fortress","app_id":440,"player_count":0,"max_players":24,"Bots":0,"server_type":"Dedicated","server_os":"Linux","password":true,"vac":true,"version":"7961495","steam_id":85568392925397853,"keywords":["cp","nocrits","nodmgspread","uncletopia"],"game_id":440,"stv_port":27046,"stv_name":"Uncletopia | Warsaw | 4 | All Maps | STV","players":null},{"server_id":53,"name":"Uncletopia | Warsaw | 5 | Stopwatch","name_short":"waw-5","host":"waw-1.pl.uncletopia.com","port":27055,"enabled":true,"region":"eu","cc":"pl","latitude":52.2297,"longitude":21.017532,"reserved":0,"last_update":"0001-01-01T00:00:00Z","name_a2s":"Uncletopia | Warsaw | 5 | Stopwatch","protocol":17,"map":"workshop/pl_vigil_rc10.ugc1266210012","folder":"tf","game":"Team Fortress","app_id":440,"player_count":0,"max_players":24,"Bots":0,"server_type":"Dedicated","server_os":"Linux","password":true,"vac":true,"version":"7961495","steam_id":85568392925397854,"keywords":["nocrits","nodmgspread","payload","uncletopia"],"game_id":440,"stv_port":27056,"stv_name":"Uncletopia | Warsaw | 5 | Stopwatch | STV","players":null},{"server_id":54,"name":"Uncletopia | Warsaw | 6 | Community","name_short":"waw-6","host":"waw-1.pl.uncletopia.com","port":27065,"enabled":true,"region":"eu","cc":"pl","latitude":52.2297,"longitude":21.017532,"reserved":0,"last_update":"0001-01-01T00:00:00Z","name_a2s":"Uncletopia | Warsaw | 6 | Community","protocol":17,"map":"workshop/koth_ramjam_rc1.ugc459778887","folder":"tf","game":"Team Fortress","app_id":440,"player_count":0,"max_players":24,"Bots":0,"server_type":"Dedicated","server_os":"Linux","password":true,"vac":true,"version":"7961495","steam_id":85568392925397856,"keywords":["cp","nocrits","nodmgspread","uncletopia"],"game_id":440,"stv_port":27066,"stv_name":"Uncletopia | Warsaw | 6 | Community | STV","players":null}]}