{"status":true,"message":"","result":[{"server_id":2,"name":"Uncletopia | Chicago | 1 | All Maps","name_short":"chi-1","host":"chi-1.us.uncletopia.com","port":27015,"enabled":true,"region":"us-central","cc":"us","latitude":41.881832,"longitude":-87.62318,"reserved":0,"last_update":"0001-01-01T00:00:00Z","name_a2s":"Uncletopia | Chicago | 1 | All Maps","protocol":17,"map":"koth_viaduct","folder":"tf","game":"Team Fortress","app_id":440,"player_count":0,"max_players":24,"Bots":0,"server_type":"Dedicated","server_os":"Linux","password":true,"vac":true,"version":"7961495","steam_id":85568392924469984,"keywords":["cp","nocrits","nodmgspread","uncletopia"],"game_id":440,"stv_port":27016,"stv_name":"Uncletopia | Chicago | 1 | All Maps | STV","players":null},{"server_id":106,"name":"Uncletopia | Chicago | 2 | All Maps","name_short":"chi-2","host":"chi-1.us.uncletopia.com","port":27025,"enabled":true,"region":"us-central","cc":"us","latitude":41.881832,"longitude":-87.62318,"reserved":0,"last_update":"0001-01-01T00:00:00Z","name_a2s":"Uncletopia | Chicago | 2 | All Maps","protocol":17,"map":"cp_mountainlab","folder":"tf","game":"Team Fortress","app_id":440,"player_count":0,"max_players":24,"Bots":0,"server_type":"Dedicated","server_os":"Linux","password":true,"vac":true,"version":"7961495","steam_id":85568392924469985,"keywords":["cp","nocrits","nodmgspread","uncletopia"],"game_id":440,"stv_port":27026,"stv_name":"Uncletopia | Chicago | 2 | All Maps | STV","players":null},{"server_id":402,"name":"Uncletopia | Chicago | 3 | All Maps","name_short":"chi-3","host":"chi-1.us.uncletopia.com","port":27035,"enabled":true,"region":"us-central","cc":"us","latitude":41.881832,"longitude":-87.62318,"reserved":0,"last_update":"0001-01-01T00:00:00Z","name_a2s":"Uncletopia | Chicago | 3 | All Maps","protocol":17,"map":"koth_cascade","folder":"tf","game":"Team Fortress","app_id":440,"player_count":0,"max_players":24,"Bots":0,"server_type":"Dedicated","server_os":"Linux","password":true,"vac":true,"version":"7961495","steam_id":85568392924515191,"keywords":["cp","nocrits","nodmgspread","uncletopia"],"game_id":440,"stv_port":27036,"stv_name":"Uncletopia | Chicago | 3 | All Maps | STV","players":null},{"server_id":403,"name":"Uncletopia | Chicago | 4 | All Maps","name_short":"chi-4","host":"chi-1.us.uncletopia.com","port":27045,"enabled":true,"region":"us-central","cc":"us","latitude":41.881832,"longitude":-87.62318,"reserved":0,"last_update":"0001-01-01T00:00:00Z","name_a2s":"Uncletopia | Chicago | 4 | All Maps","protocol":17,"map":"pl_badwater","folder":"tf","game":"Team Fortress","app_id":440,"player_count":24,"max_players":24,"Bots":0,"server_type":"Dedicated","server_os":"Linux","password":true,"vac":true,"version":"7961495","steam_id":85568392924515193,"keywords":["nocrits","nodmgspread","payload","uncletopia"],"game_id":440,"stv_port":27046,"stv_name":"Uncletopia | Chicago | 4 | All Maps | STV","players":[{"user_id":3,"name":"coffee bagel","steam_id":76561198141198352,"connected_time":8379000000000,"state":"active","ping":43},{"user_id":108,"name":"Borgir","steam_id":76561198325390265,"connected_time":501000000000,"state":"active","ping":87},{"user_id":89,"name":"Zanartan","steam_id":76561198050528902,"connected_time":1758000000000,"state":"active","ping":177},{"user_id":6,"name":"cofi","steam_id":76561198077504898,"connected_time":8369000000000,"state":"active","ping":67},{"user_id":99,"name":"Viren","steam_id":76561198012636897,"connected_time":1026000000000,"state":"active","ping":60},{"user_id":84,"name":"NotSharky","steam_id":76561198078910436,"connected_time":2612000000000,"state":"active","ping":105},{"user_id":51,"name":"Ojen","steam_id":76561197998414482,"connected_time":5452000000000,"state":"active","ping":60},{"user_id":105,"name":"Emily50AE","steam_id":76561198088619665,"connected_time":661000000000,"state":"active","ping":75},{"user_id":91,"name":"Grease Monkey","steam_id":76561199073112578,"connected_time":1753000000000,"state":"active","ping":85},{"user_id":62,"name":"saber","steam_id":76561198059041027,"connected_time":4605000000000,"state":"active","ping":109},{"user_id":96,"name":"Pengi","steam_id":76561198333097000,"connected_time":1629000000000,"state":"active","ping":39},{"user_id":102,"name":"BIG HOG","steam_id":76561198079923652,"connected_time":758000000000,"state":"active","ping":77},{"user_id":98,"name":"孫子","steam_id":76561198083112681,"connected_time":1048000000000,"state":"active","ping":75},{"user_id":66,"name":"TJGSASQUATCH","steam_id":76561198077806921,"connected_time":4268000000000,"state":"active","ping":72},{"user_id":106,"name":"Mank","steam_id":76561198189421005,"connected_time":524000000000,"state":"active","ping":51},{"user_id":87,"name":"William Wallace","steam_id":76561199343316814,"connected_time":1876000000000,"state":"active","ping":68},{"user_id":79,"name":"Space","steam_id":76561198350489754,"connected_time":3076000000000,"state":"active","ping":54},{"user_id":85,"name":"Tommy Pickles (Very Cool)","steam_id":76561198391261463,"connected_time":2384000000000,"state":"active","ping":74},{"user_id":94,"name":"Heat My Justice","steam_id":76561197995252750,"connected_time":1701000000000,"state":"active","ping":90},{"user_id":95,"name":"Terminal Brain Rot","steam_id":76561198112594672,"connected_time":1699000000000,"state":"active","ping":66},{"user_id":109,"name":"Mury","steam_id":76561198069743049,"connected_time":442000000000,"state":"active","ping":85},{"user_id":110,"name":"Suburban Wolf Dad","steam_id":76561198069234954,"connected_time":141000000000,"state":"active","ping":91},{"user_id":107,"name":"doombot","steam_id":76561198035778187,"connected_time":522000000000,"state":"active","ping":75},{"user_id":78,"name":"Faefanger","steam_id":76561198201871002,"connected_time":3188000000000,"state":"active","ping":114}]},{"server_id":36,"name":"Uncletopia | Chicago | 5 | All Maps","name_short":"chi-5","host":"chi-2.us.uncletopia.com","port":27015,"enabled":true,"region":"us-central","cc":"us","latitude":41.881832,"longitude":-87.62318,"reserved":0,"last_update":"0001-01-01T00:00:00Z","name_a2s":"Uncletopia | Chicago | 5 | All Maps","protocol":17,"map":"pl_frontier_final","folder":"tf","game":"Team Fortress","app_id":440,"player_count":0,"max_players":24,"Bots":0,"server_type":"Dedicated","server_os":"Linux","password":true,"vac":true,"version":"7961495","steam_id":85568392924866362,"keywords":["nocrits","nodmgspread","payload","uncletopia"],"game_id":440,"stv_port":27016,"stv_name":"Uncletopia | Chicago | 5 | All Maps | STV","players":null},{"server_id":37,"name":"Uncletopia | Chicago | 6 | All Maps","name_short":"chi-6","host":"chi-2.us.uncletopia.com","port":27025,"enabled":true,"region":"us-central","cc":"us","latitude":41.881832,"longitude":-87.62318,"reserved":0,"last_update":"0001-01-01T00:00:00Z","name_a2s":"Uncletopia | Chicago | 6 | All Maps","protocol":17,"map":"cp_snakewater_final1","folder":"tf","game":"Team Fortress","app_id":440,"player_count":0,"max_players":24,"Bots":0,"server_type":"Dedicated","server_os":"Linux","password":true,"vac":true,"version":"7961495","steam_id":85568392924866363,"keywords":["cp","nocrits","nodmgspread","uncletopia"],"game_id":440,"stv_port":27026,"stv_name":"Uncletopia | Chicago | 6 | All Maps | STV","players":null},{"server_id":38,"name":"Uncletopia | Chicago | 7 | Stopwatch Beta","name_short":"chi-7","host":"chi-2.us.uncletopia.com","port":27035,"enabled":true,"region":"us-central","cc":"us","latitude":41.881832,"longitude":-87.62318,"reserved":0,"last_update":"0001-01-01T00:00:00Z","name_a2s":"Uncletopia | Chicago | 7 | Stopwatch Beta","protocol":17,"map":"cp_process_final","folder":"tf","game":"Team Fortress","app_id":440,"player_count":0,"max_players":24,"Bots":0,"server_type":"Dedicated","server_os":"Linux","password":true,"vac":true,"version":"7961495","steam_id":85568392924866364,"keywords":["cp","nocrits","nodmgspread","uncletopia"],"game_id":440,"stv_port":27036,"stv_name":"Uncletopia | Chicago | 7 | Stopwatch Beta | STV","players":null},{"server_id":39,"name":"Uncletopia | Chicago | 8 | Community","name_short":"chi-8","host":"chi-2.us.uncletopia.com","port":27045,"enabled":true,"region":"us-central","cc":"us","latitude":41.881832,"longitude":-87.62318,"reserved":0,"last_update":"0001-01-01T00:00:00Z","name_a2s":"Uncletopia | Chicago | 8 | Community","protocol":17,"map":"workshop/pl_vigil_rc9.ugc1266210012","folder":"tf","game":"Team Fortress","app_id":440,"player_count":0,"max_players":24,"Bots":0,"server_type":"Dedicated","server_os":"Linux","password":true,"vac":true,"version":"7961495","steam_id":85568392924866365,"keywords":["nocrits","nodmgspread","payload","uncletopia"],"game_id":440,"stv_port":27046,"stv_name":"Uncletopia | Chicago | 8 | Community | STV","players":null},{"server_id":8,"name":"Uncletopia | Dallas | 1 | All Maps","name_short":"dal-1","host":"dal-1.us.uncletopia.com","port":27015,"enabled":true,"region":"us-central","cc":"us","latitude":32.779167,"longitude":-96.80889,"reserved":0,"last_update":"0001-01-01T00:00:00Z","name_a2s":"Uncletopia | Dallas | 1 | All Maps","protocol":17,"map":"cp_dustbowl","folder":"tf","game":"Team Fortress","app_id":440,"player_count":16,"max_players":24,"Bots":0,"server_type":"Dedicated","server_os":"Linux","password":true,"vac":true,"version":"7961495","steam_id":85568392924469986,"keywords":["cp","nocrits","nodmgspread","uncletopia"],"game_id":440,"stv_port":27016,"stv_name":"Uncletopia | Dallas | 1 | All Maps | STV","players":[{"user_id":23,"name":"NuggBugguwu","steam_id":76561199396414430,"connected_time":1907000000000,"state":"active","ping":95},{"user_id":35,"name":"shark bait hoo ha ha","steam_id":76561198114603745,"connected_time":533000000000,"state":"active","ping":90},{"user_id":25,"name":"bobletoob","steam_id":76561199184464900,"connected_time":1772000000000,"state":"active","ping":72},{"user_id":27,"name":"TheGuy101","steam_id":76561199201772624,"connected_time":1366000000000,"state":"active","ping":86},{"user_id":44,"name":"lego star wars on the psp","steam_id":76561198148014773,"connected_time":73000000000,"state":"active","ping":83},{"user_id":29,"name":"aiming with drawing tablet","steam_id":76561198397662124,"connected_time":1180000000000,"state":"active","ping":61},{"user_id":30,"name":"manbearswineflu","steam_id":76561198083945137,"connected_time":1156000000000,"state":"active","ping":78},{"user_id":31,"name":"∰","steam_id":76561198064424202,"connected_time":960000000000,"state":"active","ping":61},{"user_id":36,"name":"{Arp} Ðesider","steam_id":76561198046754508,"connected_time":235000000000,"state":"active","ping":90},{"user_id":33,"name":"Golddick Lewisson","steam_id":76561198054719949,"connected_time":828000000000,"state":"active","ping":99},{"user_id":34,"name":"Bandit","steam_id":76561198285889962,"connected_time":758000000000,"state":"active","ping":57},{"user_id":37,"name":"Numbers","steam_id":76561198178240575,"connected_time":229000000000,"state":"active","ping":86},{"user_id":38,"name":"Psalm 23:4","steam_id":76561198026988691,"connected_time":192000000000,"state":"active","ping":99},{"user_id":45,"name":"kallerannar","steam_id":76561199095701143,"connected_time":0,"state":"spawning","ping":37},{"user_id":40,"name":"Critical","steam_id":76561198123744966,"connected_time":109000000000,"state":"active","ping":90},{"user_id":41,"name":"uhoh","steam_id":76561198136967934,"connected_time":101000000000,"state":"active","ping":93}]},{"server_id":108,"name":"Uncletopia | Dallas | 2 | All Maps","name_short":"dal-2","host":"dal-1.us.uncletopia.com","port":27025,"enabled":true,"region":"us-central","cc":"us","latitude":32.779167,"longitude":-96.80889,"reserved":0,"last_update":"0001-01-01T00:00:00Z","name_a2s":"Uncletopia | Dallas | 2 | All Maps","protocol":17,"map":"cp_mountainlab","folder":"tf","game":"Team Fortress","app_id":440,"player_count":0,"max_players":24,"Bots":0,"server_type":"Dedicated","server_os":"Linux","password":true,"vac":true,"version":"7961495","steam_id":85568392924469988,"keywords":["cp","nocrits","nodmgspread","uncletopia"],"game_id":440,"stv_port":27026,"stv_name":"Uncletopia | Dallas | 2 | All Maps | STV","players":null},{"server_id":5,"name":"Uncletopia | Frankfurt | 1 | All Maps","name_short":"frk-1","host":"frk-1.de.uncletopia.com","port":27015,"enabled":true,"region":"eu","cc":"de","latitude":50.110924,"longitude":8.682127,"reserved":0,"last_update":"0001-01-01T00:00:00Z","name_a2s":"Uncletopia | Frankfurt | 1 | All Maps","protocol":17,"map":"pl_borneo","folder":"tf","game":"Team Fortress","app_id":440,"player_count":24,"max_players":24,"Bots":0,"server_type":"Dedicated","server_os":"Linux","password":true,"vac":true,"version":"7961495","steam_id":85568392924469989,"keywords":["nocrits","nodmgspread","payload","uncletopia"],"game_id":440,"stv_port":27016,"stv_name":"Uncletopia | Frankfurt | 1 | All Maps | STV","players":[{"user_id":134,"name":"Veirū Viseris","steam_id":76561197989857176,"connected_time":1372000000000,"state":"active","ping":68},{"user_id":137,"name":"akakez","steam_id":76561198095432821,"connected_time":1289000000000,"state":"active","ping":118},{"user_id":87,"name":"Fandovec03","steam_id":76561198252567650,"connected_time":3752000000000,"state":"active","ping":45},{"user_id":152,"name":"Anonymous47007","steam_id":76561199005211417,"connected_time":343000000000,"state":"active","ping":72},{"user_id":109,"name":"veto vuyisio","steam_id":76561199101145470,"connected_time":2003000000000,"state":"active","ping":82},{"user_id":153,"name":"WolfmanCZ","steam_id":76561199157141414,"connected_time":317000000000,"state":"active","ping":69},{"user_id":141,"name":"depressed","steam_id":76561198336523288,"connected_time":1070000000000,"state":"active","ping":123},{"user_id":115,"name":"Waltism","steam_id":76561199447676489,"connected_time":1900000000000,"state":"active","ping":83},{"user_id":154,"name":"Le Chevalier Pingouin","steam_id":76561198221355000,"connected_time":315000000000,"state":"active","ping":52},{"user_id":117,"name":"C--","steam_id":76561199026650232,"connected_time":1855000000000,"state":"active","ping":72},{"user_id":158,"name":"Bob Sacamano","steam_id":76561198085610701,"connected_time":157000000000,"state":"active","ping":89},{"user_id":118,"name":"stopydapbip","steam_id":76561198332245230,"connected_time":1846000000000,"state":"active","ping":71},{"user_id":119,"name":"ShewKehtt","steam_id":76561198189104628,"connected_time":1830000000000,"state":"active","ping":59},{"user_id":120,"name":"nymph","steam_id":76561199249569889,"connected_time":1814000000000,"state":"active","ping":71},{"user_id":136,"name":"RiX","steam_id":76561197969053733,"connected_time":1302000000000,"state":"active","ping":70},{"user_id":124,"name":"Aximus","steam_id":76561198024575710,"connected_time":1741000000000,"state":"active","ping":58},{"user_id":132,"name":"sex toilet","steam_id":76561198412197820,"connected_time":1457000000000,"state":"active","ping":85},{"user_id":140,"name":"El Bondin","steam_id":76561198820792434,"connected_time":1205000000000,"state":"active","ping":181},{"user_id":156,"name":"you can go anywhere","steam_id":76561199085984801,"connected_time":261000000000,"state":"active","ping":74},{"user_id":149,"name":"murlan","steam_id":76561198068802023,"connected_time":388000000000,"state":"active","ping":64},{"user_id":97,"name":"[SQ UA] MartianDill","steam_id":76561198405382822,"connected_time":3400000000000,"state":"active","ping":77},{"user_id":157,"name":"lunaire","steam_id":76561198163344452,"connected_time":233000000000,"state":"active","ping":86},{"user_id":139,"name":"blonde furry femboy","steam_id":76561198273361428,"connected_time":1246000000000,"state":"active","ping":64},{"user_id":151,"name":"quickfast","steam_id":76561199438900919,"connected_time":359000000000,"state":"active","ping":60}]},{"server_id":110,"name":"Uncletopia | Frankfurt | 2 | All Maps","name_short":"frk-2","host":"frk-1.de.uncletopia.com","port":27025,"enabled":true,"region":"eu","cc":"de","latitude":50.110924,"longitude":8.682127,"reserved":0,"last_update":"0001-01-01T00:00:00Z","name_a2s":"Uncletopia | Frankfurt | 2 | All Maps","protocol":17,"map":"pl_frontier_final","folder":"tf","game":"Team Fortress","app_id":440,"player_count":24,"max_players":24,"Bots":0,"server_type":"Dedicated","server_os":"Linux","password":true,"vac":true,"version":"7961495","steam_id":85568392924469990,"keywords":["nocrits","nodmgspread","payload","uncletopia"],"game_id":440,"stv_port":27026,"stv_name":"Uncletopia | Frankfurt | 2 | All Maps | STV","players":[{"user_id":236,"name":"I drink 3D printer ink","steam_id":76561198056434693,"connected_time":2208000000000,"state":"active","ping":43},{"user_id":248,"name":"XxBenShapiro420xX","steam_id":76561199229373972,"connected_time":1661000000000,"state":"active","ping":74},{"user_id":263,"name":"AC/DC=A/D","steam_id":76561198101114695,"connected_time":965000000000,"state":"active","ping":99},{"user_id":255,"name":"Kokos","steam_id":76561198085501501,"connected_time":1447000000000,"state":"active","ping":81},{"user_id":266,"name":"\u003c blank \u003e","steam_id":76561198059375315,"connected_time":758000000000,"state":"active","ping":62},{"user_id":247,"name":"Dagoth Ur","steam_id":76561198220232352,"connected_time":1682000000000,"state":"active","ping":50},{"user_id":239,"name":"Slap God","steam_id":76561199001746800,"connected_time":2109000000000,"state":"active","ping":61},{"user_id":269,"name":"Jack","steam_id":76561198325505238,"connected_time":456000000000,"state":"active","ping":78},{"user_id":272,"name":"YOU ARE SHITTING YOUR SELF","steam_id":76561198371719058,"connected_time":300000000000,"state":"active","ping":66},{"user_id":262,"name":"♣Генсек Поноса","steam_id":76561198796404149,"connected_time":1106000000000,"state":"active","ping":102},{"user_id":257,"name":"Syd","steam_id":76561198020515027,"connected_time":1379000000000,"state":"active","ping":69},{"user_id":261,"name":"zep","steam_id":76561197995909249,"connected_time":1159000000000,"state":"active","ping":71},{"user_id":268,"name":"Pigeon","steam_id":76561199109713313,"connected_time":543000000000,"state":"active","ping":58},{"user_id":260,"name":"Hercules","steam_id":76561198041164170,"connected_time":1221000000000,"state":"active","ping":59},{"user_id":170,"name":"john fortress","steam_id":76561198013237629,"connected_time":5760000000000,"state":"active","ping":104},{"user_id":250,"name":"Illidan","steam_id":76561198192358862,"connected_time":1592000000000,"state":"active","ping":72},{"user_id":229,"name":"Eujekas","steam_id":76561198010527145,"connected_time":2610000000000,"state":"active","ping":90},{"user_id":274,"name":"COLAN","steam_id":76561198111255418,"connected_time":82000000000,"state":"active","ping":55},{"user_id":216,"name":"s a i","steam_id":76561197970379754,"connected_time":3067000000000,"state":"active","ping":58},{"user_id":251,"name":"ALL BALLS NO SHAFT","steam_id":76561198028701695,"connected_time":1590000000000,"state":"active","ping":67},{"user_id":271,"name":"nevim","steam_id":76561199120843402,"connected_time":383000000000,"state":"active","ping":54},{"user_id":181,"name":"Shovelhalfrusty","steam_id":76561198346447513,"connected_time":5233000000000,"state":"active","ping":76},{"user_id":270,"name":"sad and flaccid","steam_id":76561198107978481,"connected_time":445000000000,"state":"active","ping":76},{"user_id":273,"name":"Chucko Kokos","steam_id":76561198112553005,"connected_time":269000000000,"state":"active","ping":65}]},{"server_id":308,"name":"Uncletopia | Frankfurt | 3 | All Maps","name_short":"frk-3","host":"frk-1.de.uncletopia.com","port":27035,"enabled":true,"region":"eu","cc":"de","latitude":50.110924,"longitude":8.682127,"reserved":0,"last_update":"0001-01-01T00:00:00Z","name_a2s":"Uncletopia | Frankfurt | 3 | All Maps","protocol":17,"map":"cp_mountainlab","folder":"tf","game":"Team Fortress","app_id":440,"player_count":0,"max_players":24,"Bots":0,"server_type":"Dedicated","server_os":"Linux","password":true,"vac":true,"version":"7961495","steam_id":85568392924504274,"keywords":["cp","nocrits","nodmgspread","uncletopia"],"game_id":440,"stv_port":27036,"stv_name":"Uncletopia | Frankfurt | 3 | All Maps | STV","players":null},{"server_id":309,"name":"Uncletopia | Frankfurt | 4 | All Maps","name_short":"frk-4","host":"frk-1.de.uncletopia.com","port":27045,"enabled":true,"region":"eu","cc":"de","latitude":50.110924,"longitude":8.682127,"reserved":0,"last_update":"0001-01-01T00:00:00Z","name_a2s":"Uncletopia | Frankfurt | 4 | All Maps","protocol":17,"map":"cp_mountainlab","folder":"tf","game":"Team Fortress","app_id":440,"player_count":0,"max_players":24,"Bots":0,"server_type":"Dedicated","server_os":"Linux","password":true,"vac":true,"version":"7961495","steam_id":85568392924504275,"keywords":["cp","nocrits","nodmgspread","uncletopia"],"game_id":440,"stv_port":27046,"stv_name":"Uncletopia | Frankfurt | 4 | All Maps | STV","players":null},{"server_id":310,"name":"Uncletopia | Frankfurt | 5 | All Maps","name_short":"frk-5","host":"frk-1.de.uncletopia.com","port":27055,"enabled":true,"region":"eu","cc":"de","latitude":50.110924,"longitude":8.682127,"reserved":0,"last_update":"0001-01-01T00:00:00Z","name_a2s":"Uncletopia | Frankfurt | 5 | All Maps","protocol":17,"map":"cp_mountainlab","folder":"tf","game":"Team Fortress","app_id":440,"player_count":1,"max_players":24,"Bots":0,"server_type":"Dedicated","server_os":"Linux","password":true,"vac":true,"version":"7961495","steam_id":85568392924504277,"keywords":["cp","nocrits","nodmgspread","uncletopia"],"game_id":440,"stv_port":27056,"stv_name":"Uncletopia | Frankfurt | 5 | All Maps | STV","players":[{"user_id":7,"name":"mouse","steam_id":76561198864478777,"connected_time":10000000000,"state":"active","ping":75}]},{"server_id":311,"name":"Uncletopia | Frankfurt | 6 | All Maps","name_short":"frk-6","host":"frk-1.de.uncletopia.com","port":27065,"enabled":true,"region":"eu","cc":"de","latitude":50.110924,"longitude":8.682127,"reserved":0,"last_update":"0001-01-01T00:00:00Z","name_a2s":"Uncletopia | Frankfurt | 6 | All Maps","protocol":17,"map":"pl_pier","folder":"tf","game":"Team Fortress","app_id":440,"player_count":18,"max_players":24,"Bots":0,"server_type":"Dedicated","server_os":"Linux","password":true,"vac":true,"version":"7961495","steam_id":85568392924504278,"keywords":["nocrits","nodmgspread","payload","uncletopia"],"game_id":440,"stv_port":27066,"stv_name":"Uncletopia | Frankfurt | 6 | All Maps | STV","players":[{"user_id":31,"name":"Greenmaker","steam_id":76561198060466591,"connected_time":10000000000,"state":"spawning","ping":61},{"user_id":8,"name":"Chydo sexa","steam_id":76561198127477029,"connected_time":837000000000,"state":"active","ping":117},{"user_id":9,"name":"Nassu","steam_id":76561198147367577,"connected_time":736000000000,"state":"active","ping":173},{"user_id":10,"name":"_3tHeR_","steam_id":76561199109870743,"connected_time":503000000000,"state":"active","ping":46},{"user_id":11,"name":"kfc manager","steam_id":76561198147495474,"connected_time":454000000000,"state":"active","ping":49},{"user_id":12,"name":"hisham","steam_id":76561198414437290,"connected_time":407000000000,"state":"active","ping":108},{"user_id":16,"name":"Sivik","steam_id":76561198370329466,"connected_time":277000000000,"state":"active","ping":60},{"user_id":19,"name":"gothmoth","steam_id":76561198386910896,"connected_time":223000000000,"state":"active","ping":60},{"user_id":29,"name":"Der Herr Doktor","steam_id":76561198119476089,"connected_time":22000000000,"state":"spawning","ping":99},{"user_id":18,"name":"Star Throne","steam_id":76561198132171027,"connected_time":240000000000,"state":"active","ping":60},{"user_id":21,"name":"Ziemniaczki z koperkiem","steam_id":76561198829123464,"connected_time":195000000000,"state":"active","ping":71},{"user_id":22,"name":"the tube","steam_id":76561198307739245,"connected_time":164000000000,"state":"active","ping":69},{"user_id":23,"name":"greg's mom","steam_id":76561198050525471,"connected_time":138000000000,"state":"active","ping":69},{"user_id":24,"name":"SpeddyMeddy","steam_id":76561197999693825,"connected_time":129000000000,"state":"active","ping":68},{"user_id":26,"name":"n.mob","steam_id":76561198389356439,"connected_time":72000000000,"state":"active","ping":59},{"user_id":27,"name":"clean carp","steam_id":76561198127053294,"connected_time":70000000000,"state":"active","ping":71},{"user_id":28,"name":"Henry Fonda","steam_id":76561199378865926,"connected_time":54000000000,"state":"active","ping":96},{"user_id":30,"name":"SoupER","steam_id":76561198063056668,"connected_time":21000000000,"state":"active","ping":59}]},{"server_id":23,"name":"Uncletopia | Frankfurt | 7 | Stopwatch Beta","name_short":"frk-7","host":"frk-1.de.uncletopia.com","port":27075,"enabled":true,"region":"eu","cc":"de","latitude":50.110924,"longitude":8.682127,"reserved":0,"last_update":"0001-01-01T00:00:00Z","name_a2s":"Uncletopia | Frankfurt | 7 | Stopwatch Beta","protocol":17,"map":"koth_cascade","folder":"tf","game":"Team Fortress","app_id":440,"player_count":0,"max_players":24,"Bots":0,"server_type":"Dedicated","server_os":"Linux","password":true,"vac":true,"version":"7961495","steam_id":85568392924742827,"keywords":["cp","nocrits","nodmgspread","uncletopia"],"game_id":440,"stv_port":27076,"stv_name":"Uncletopia | Frankfurt | 7 | Stopwatch Beta | STV","players":null},{"server_id":24,"name":"Uncletopia | Frankfurt | 8 | Community","name_short":"frk-8","host":"frk-1.de.uncletopia.com","port":27085,"enabled":true,"region":"eu","cc":"de","latitude":50.110924,"longitude":8.682127,"reserved":0,"last_update":"0001-01-01T00:00:00Z","name_a2s":"Uncletopia | Frankfurt | 8 | Community","protocol":17,"map":"workshop/pl_highwood_b13.ugc1769496557","folder":"tf","game":"Team Fortress","app_id":440,"player_count":0,"max_players":24,"Bots":0,"server_type":"Dedicated","server_os":"Linux","password":true,"vac":true,"version":"7961495","steam_id":85568392924742828,"keywords":["nocrits","nodmgspread","payload","uncletopia"],"game_id":440,"stv_port":27086,"stv_name":"Uncletopia | Frankfurt | 8 | Community | STV","players":null},{"server_id":202,"name":"Uncletopia | Hong Kong | 1 | All Maps","name_short":"hgk-1","host":"hgk-1.hk.uncletopia.com","port":27015,"enabled":true,"region":"asia","cc":"hk","latitude":22.302711,"longitude":114.177216,"reserved":0,"last_update":"0001-01-01T00:00:00Z","name_a2s":"Uncletopia | Hong Kong | 1 | All Maps","protocol":17,"map":"cp_process_final","folder":"tf","game":"Team Fortress","app_id":440,"player_count":24,"max_players":24,"Bots":0,"server_type":"Dedicated","server_os":"Linux","password":true,"vac":true,"version":"7961495","steam_id":85568392924494504,"keywords":["cp","nocrits","nodmgspread","uncletopia"],"game_id":440,"stv_port":27016,"stv_name":"Uncletopia | Hong Kong | 1 | All Maps | STV","players":[{"user_id":137,"name":"screaming sniper","steam_id":76561199085568674,"connected_time":9695000000000,"state":"active","ping":62},{"user_id":184,"name":"Wx","steam_id":76561199217780897,"connected_time":3922000000000,"state":"active","ping":118},{"user_id":210,"name":"condiment king","steam_id":76561199039560921,"connected_time":1778000000000,"state":"active","ping":72},{"user_id":171,"name":"E","steam_id":76561199173781370,"connected_time":5629000000000,"state":"active","ping":128},{"user_id":203,"name":"Chomer","steam_id":76561199034546642,"connected_time":2351000000000,"state":"active","ping":102},{"user_id":103,"name":"vintage","steam_id":76561198230213828,"connected_time":12486000000000,"state":"active","ping":60},{"user_id":218,"name":"Scott The Woz","steam_id":76561199014675406,"connected_time":536000000000,"state":"active","ping":128},{"user_id":195,"name":"13MAN","steam_id":76561198900023603,"connected_time":2878000000000,"state":"active","ping":144},{"user_id":217,"name":"The Estate Sale","steam_id":76561198074339034,"connected_time":730000000000,"state":"active","ping":75},{"user_id":175,"name":"Blonde by Frank Ocean","steam_id":76561198400698408,"connected_time":4181000000000,"state":"active","ping":91},{"user_id":185,"name":"we ball","steam_id":76561199480939609,"connected_time":3893000000000,"state":"active","ping":74},{"user_id":179,"name":"protons","steam_id":76561198008307645,"connected_time":4028000000000,"state":"active","ping":128},{"user_id":135,"name":"nefarious nigel","steam_id":76561198055553140,"connected_time":9711000000000,"state":"active","ping":75},{"user_id":178,"name":"Stewb","steam_id":76561198131423270,"connected_time":4034000000000,"state":"active","ping":99},{"user_id":192,"name":"RedBee (Femboy Nurse 雙)","steam_id":76561198976736971,"connected_time":2891000000000,"state":"active","ping":39},{"user_id":186,"name":"Crowder","steam_id":76561199129473845,"connected_time":3870000000000,"state":"active","ping":149},{"user_id":176,"name":"+","steam_id":76561198121311286,"connected_time":4050000000000,"state":"active","ping":125},{"user_id":214,"name":"Headmouth","steam_id":76561198019789855,"connected_time":995000000000,"state":"active","ping":126},{"user_id":202,"name":"\"SKS\"","steam_id":76561198187995386,"connected_time":2370000000000,"state":"active","ping":85},{"user_id":150,"name":"Streety","steam_id":76561199098969003,"connected_time":7932000000000,"state":"active","ping":78},{"user_id":215,"name":"♂-Bully Hairryton-♂","steam_id":76561198127131685,"connected_time":995000000000,"state":"active","ping":106},{"user_id":183,"name":"ふわふわ毛布","steam_id":76561198088403016,"connected_time":4023000000000,"state":"active","ping":96},{"user_id":188,"name":"MeetTeMedic99","steam_id":76561199208706868,"connected_time":3775000000000,"state":"active","ping":79},{"user_id":197,"name":"nanau","steam_id":76561199166938276,"connected_time":2877000000000,"state":"active","ping":63}]},{"server_id":1,"name":"Uncletopia | Los Angeles | 1 | All Maps","name_short":"lax-1","host":"lax-1.us.uncletopia.com","port":27015,"enabled":true,"region":"us-west","cc":"us","latitude":33.94279,"longitude":-118.41004,"reserved":0,"last_update":"0001-01-01T00:00:00Z","name_a2s":"Uncletopia | Los Angeles | 1 | All Maps","protocol":17,"map":"cp_snakewater_final1","folder":"tf","game":"Team Fortress","app_id":440,"player_count":0,"max_players":24,"Bots":0,"server_type":"Dedicated","server_os":"Linux","password":true,"vac":true,"version":"7961495","steam_id":85568392924469991,"keywords":["cp","nocrits","nodmgspread","uncletopia"],"game_id":440,"stv_port":27016,"stv_name":"Uncletopia | Los Angeles | 1 | All Maps | STV","players":null},{"server_id":112,"name":"Uncletopia | Los Angeles | 2 | All Maps","name_short":"lax-2","host":"lax-1.us.uncletopia.com","port":27025,"enabled":true,"region":"us-west","cc":"us","latitude":33.94279,"longitude":-118.41004,"reserved":0,"last_update":"0001-01-01T00:00:00Z","name_a2s":"Uncletopia | Los Angeles | 2 | All Maps","protocol":17,"map":"pl_swiftwater_final1","folder":"tf","game":"Team Fortress","app_id":440,"player_count":0,"max_players":24,"Bots":0,"server_type":"Dedicated","server_os":"Linux","password":true,"vac":true,"version":"7961495","steam_id":85568392924469992,"keywords":["nocrits","nodmgspread","payload","uncletopia"],"game_id":440,"stv_port":27026,"stv_name":"Uncletopia | Los Angeles | 2 | All Maps | STV","players":null},{"server_id":324,"name":"Uncletopia | Los Angeles | 3 | All Maps","name_short":"lax-3","host":"lax-1.us.uncletopia.com","port":27035,"enabled":true,"region":"us-west","cc":"us","latitude":33.94279,"longitude":-118.41004,"reserved":0,"last_update":"0001-01-01T00:00:00Z","name_a2s":"Uncletopia | Los Angeles | 3 | All Maps","protocol":17,"map":"pl_pier","folder":"tf","game":"Team Fortress","app_id":440,"player_count":0,"max_players":24,"Bots":0,"server_type":"Dedicated","server_os":"Linux","password":true,"vac":true,"version":"7961495","steam_id":85568392924510198,"keywords":["nocrits","nodmgspread","payload","uncletopia"],"game_id":440,"stv_port":27036,"stv_name":"Uncletopia | Los Angeles | 3 | All Maps | STV","players":null},{"server_id":25,"name":"Uncletopia | Los Angeles | 4 | Stopwatch Beta","name_short":"lax-4","host":"lax-1.us.uncletopia.com","port":27045,"enabled":true,"region":"us-west","cc":"us","latitude":33.94279,"longitude":-118.41004,"reserved":0,"last_update":"0001-01-01T00:00:00Z","name_a2s":"Uncletopia | Los Angeles | 4 | Stopwatch Beta","protocol":17,"map":"pl_frontier_final","folder":"tf","game":"Team Fortress","app_id":440,"player_count":0,"max_players":24,"Bots":0,"server_type":"Dedicated","server_os":"Linux","password":true,"vac":true,"version":"7961495","steam_id":85568392924510199,"keywords":["nocrits","nodmgspread","payload","uncletopia"],"game_id":440,"stv_port":27046,"stv_name":"Uncletopia | Los Angeles | 4 | Stopwatch Beta | STV","players":null},{"server_id":11,"name":"Uncletopia | London | 1 | All Maps","name_short":"lon-1","host":"lon-1.uk.uncletopia.com","port":27015,"enabled":true,"region":"eu","cc":"gb","latitude":51.509865,"longitude":-0.118092,"reserved":0,"last_update":"0001-01-01T00:00:00Z","name_a2s":"Uncletopia | London | 1 | All Maps","protocol":17,"map":"pl_upward","folder":"tf","game":"Team Fortress","app_id":440,"player_count":24,"max_players":24,"Bots":0,"server_type":"Dedicated","server_os":"Linux","password":true,"vac":true,"version":"7961495","steam_id":85568392924367362,"keywords":["nocrits","nodmgspread","payload","uncletopia"],"game_id":440,"stv_port":27016,"stv_name":"Uncletopia | London | 1 | All Maps | STV","players":[{"user_id":359,"name":"Archer","steam_id":76561197994239444,"connected_time":1221000000000,"state":"active","ping":115},{"user_id":374,"name":"Yeehaw chucklefucks","steam_id":76561199195985387,"connected_time":555000000000,"state":"active","ping":79},{"user_id":326,"name":"Yelowchy","steam_id":76561198199416121,"connected_time":4455000000000,"state":"active","ping":69},{"user_id":342,"name":"Princess Fuzz","steam_id":76561198025783000,"connected_time":3031000000000,"state":"active","ping":39},{"user_id":290,"name":"t0ksi","steam_id":76561198107240798,"connected_time":8124000000000,"state":"active","ping":75},{"user_id":385,"name":"Pantroglodytestherapy","steam_id":76561198236015392,"connected_time":192000000000,"state":"active","ping":112},{"user_id":384,"name":"MochaTooth","steam_id":76561199045118223,"connected_time":198000000000,"state":"active","ping":69},{"user_id":348,"name":"Gubbly Bubbins","steam_id":76561198101451654,"connected_time":2195000000000,"state":"active","ping":46},{"user_id":193,"name":"big naked bruh","steam_id":76561199179040672,"connected_time":16270000000000,"state":"active","ping":53},{"user_id":364,"name":"SnowShot","steam_id":76561198004766638,"connected_time":994000000000,"state":"active","ping":72},{"user_id":329,"name":"mindas tf2.LT","steam_id":76561198056839438,"connected_time":4399000000000,"state":"active","ping":71},{"user_id":362,"name":"Always Here for You","steam_id":76561198219252313,"connected_time":1200000000000,"state":"active","ping":132},{"user_id":365,"name":"wyro","steam_id":76561199176835169,"connected_time":943000000000,"state":"active","ping":52},{"user_id":349,"name":"Deacon Dracul","steam_id":76561198046880663,"connected_time":1836000000000,"state":"active","ping":85},{"user_id":379,"name":"Random","steam_id":76561199079951047,"connected_time":488000000000,"state":"active","ping":93},{"user_id":352,"name":"7-Zip","steam_id":76561198099726966,"connected_time":1768000000000,"state":"active","ping":114},{"user_id":377,"name":"dirose","steam_id":76561198131240428,"connected_time":535000000000,"state":"active","ping":63},{"user_id":335,"name":"dreamz....?,","steam_id":76561198121434692,"connected_time":4165000000000,"state":"active","ping":126},{"user_id":300,"name":"sAmasam","steam_id":76561198114953928,"connected_time":6923000000000,"state":"active","ping":73},{"user_id":347,"name":"TheEventGuy","steam_id":76561197972797744,"connected_time":2199000000000,"state":"active","ping":76},{"user_id":351,"name":"Varsk","steam_id":76561198061398890,"connected_time":1806000000000,"state":"active","ping":45},{"user_id":323,"name":"Flare","steam_id":76561198039098320,"connected_time":4592000000000,"state":"active","ping":48},{"user_id":370,"name":"LORD DOGGO","steam_id":76561199173526287,"connected_time":693000000000,"state":"active","ping":63},{"user_id":245,"name":"png.png","steam_id":76561198444446521,"connected_time":11979000000000,"state":"active","ping":117}]},{"server_id":114,"name":"Uncletopia | London | 2 | All Maps","name_short":"lon-2","host":"lon-1.uk.uncletopia.com","port":27025,"enabled":true,"region":"eu","cc":"gb","latitude":51.509865,"longitude":-0.118092,"reserved":0,"last_update":"0001-01-01T00:00:00Z","name_a2s":"Uncletopia | London | 2 | All Maps","protocol":17,"map":"cp_altitude","folder":"tf","game":"Team Fortress","app_id":440,"player_count":0,"max_players":24,"Bots":0,"server_type":"Dedicated","server_os":"Linux","password":true,"vac":true,"version":"7961495","steam_id":85568392924470941,"keywords":["cp","nocrits","nodmgspread","uncletopia"],"game_id":440,"stv_port":27026,"stv_name":"Uncletopia | London | 2 | All Maps | STV","players":null},{"server_id":320,"name":"Uncletopia | London | 3 | All Maps","name_short":"lon-3","host":"lon-1.uk.uncletopia.com","port":27035,"enabled":true,"region":"eu","cc":"gb","latitude":51.509865,"longitude":-0.118092,"reserved":0,"last_update":"0001-01-01T00:00:00Z","name_a2s":"Uncletopia | London | 3 | All Maps","protocol":17,"map":"koth_lakeside_final","folder":"tf","game":"Team Fortress","app_id":440,"player_count":0,"max_players":24,"Bots":0,"server_type":"Dedicated","server_os":"Linux","password":true,"vac":true,"version":"7961495","steam_id":85568392924510192,"keywords":["cp","nocrits","nodmgspread","uncletopia"],"game_id":440,"stv_port":27036,"stv_name":"Uncletopia | London | 3 | All Maps | STV","players":null},{"server_id":321,"name":"Uncletopia | London | 4 | All Maps","name_short":"lon-4","host":"lon-1.uk.uncletopia.com","port":27045,"enabled":true,"region":"eu","cc":"gb","latitude":51.509865,"longitude":-0.118092,"reserved":0,"last_update":"0001-01-01T00:00:00Z","name_a2s":"Uncletopia | London | 4 | All Maps","protocol":17,"map":"ctf_2fort","folder":"tf","game":"Team Fortress","app_id":440,"player_count":24,"max_players":24,"Bots":0,"server_type":"Dedicated","server_os":"Linux","password":true,"vac":true,"version":"7961495","steam_id":85568392924510193,"keywords":["ctf","nocrits","nodmgspread","uncletopia"],"game_id":440,"stv_port":27046,"stv_name":"Uncletopia | London | 4 | All Maps | STV","players":[{"user_id":26,"name":"Asat","steam_id":76561198862727465,"connected_time":3298000000000,"state":"active","ping":54},{"user_id":23,"name":"yes","steam_id":76561198266101453,"connected_time":3544000000000,"state":"active","ping":72},{"user_id":24,"name":"worm with a fat ass","steam_id":76561198170026338,"connected_time":3491000000000,"state":"active","ping":77},{"user_id":60,"name":"FirePenguin","steam_id":76561198151468340,"connected_time":385000000000,"state":"active","ping":31},{"user_id":64,"name":"ultra lox","steam_id":76561199427318825,"connected_time":132000000000,"state":"active","ping":165},{"user_id":31,"name":"SirDirtbag","steam_id":76561198091890855,"connected_time":2874000000000,"state":"active","ping":79},{"user_id":62,"name":"Octavia (She/Her)","steam_id":76561198181291454,"connected_time":191000000000,"state":"active","ping":79},{"user_id":55,"name":"BONVH","steam_id":76561199080666656,"connected_time":1439000000000,"state":"active","ping":132},{"user_id":63,"name":"Soda Enjoyer","steam_id":76561198032359132,"connected_time":190000000000,"state":"active","ping":41},{"user_id":61,"name":"Dr ADHD MD","steam_id":76561198025252995,"connected_time":280000000000,"state":"active","ping":48},{"user_id":36,"name":"Artik","steam_id":76561198038991453,"connected_time":2491000000000,"state":"active","ping":60},{"user_id":57,"name":"chess club manager","steam_id":76561198011047413,"connected_time":1276000000000,"state":"active","ping":79},{"user_id":38,"name":"SubbyBunnyNips","steam_id":76561198053937781,"connected_time":2468000000000,"state":"active","ping":54},{"user_id":40,"name":"AwterSix","steam_id":76561198042561678,"connected_time":2389000000000,"state":"active","ping":58},{"user_id":41,"name":"Moonkey","steam_id":76561199013741389,"connected_time":2331000000000,"state":"active","ping":106},{"user_id":65,"name":"Raivo","steam_id":76561198388750592,"connected_time":70000000000,"state":"spawning","ping":73},{"user_id":44,"name":"Roland Deschain","steam_id":76561198023296355,"connected_time":2118000000000,"state":"active","ping":104},{"user_id":56,"name":"bowchika wowa #SlavaUkraine","steam_id":76561198159564550,"connected_time":1307000000000,"state":"active","ping":70},{"user_id":47,"name":"Majestic Sausage","steam_id":76561197967265726,"connected_time":1952000000000,"state":"active","ping":55},{"user_id":52,"name":"Dungdil","steam_id":76561198351930639,"connected_time":1828000000000,"state":"active","ping":68},{"user_id":49,"name":"Archer","steam_id":76561198132860299,"connected_time":1874000000000,"state":"active","ping":59},{"user_id":50,"name":"Anri Okita's Massive Milkers","steam_id":76561199186352720,"connected_time":1859000000000,"state":"active","ping":61},{"user_id":51,"name":"Vel0city","steam_id":76561198049687798,"connected_time":1842000000000,"state":"active","ping":47},{"user_id":54,"name":"lilsnek","steam_id":76561198378830443,"connected_time":1777000000000,"state":"active","ping":85}]},{"server_id":21,"name":"Uncletopia | London | 5 | All Maps","name_short":"lon-5","host":"lon-1.uk.uncletopia.com","port":27055,"enabled":true,"region":"eu","cc":"gb","latitude":51.509865,"longitude":-0.118092,"reserved":0,"last_update":"0001-01-01T00:00:00Z","name_a2s":"Uncletopia | London | 5 | All Maps","protocol":17,"map":"koth_viaduct","folder":"tf","game":"Team Fortress","app_id":440,"player_count":0,"max_players":24,"Bots":0,"server_type":"Dedicated","server_os":"Linux","password":true,"vac":true,"version":"7961495","steam_id":85568392924742829,"keywords":["cp","nocrits","nodmgspread","uncletopia"],"game_id":440,"stv_port":27056,"stv_name":"Uncletopia | London | 5 | All Maps | STV","players":null},{"server_id":22,"name":"Uncletopia | London | 6 | All Maps","name_short":"lon-6","host":"lon-1.uk.uncletopia.com","port":27065,"enabled":true,"region":"eu","cc":"gb","latitude":51.509865,"longitude":-0.118092,"reserved":0,"last_update":"0001-01-01T00:00:00Z","name_a2s":"Uncletopia | London | 6 | All Maps","protocol":17,"map":"koth_harvest_final","folder":"tf","game":"Team Fortress","app_id":440,"player_count":3,"max_players":24,"Bots":0,"server_type":"Dedicated","server_os":"Linux","password":true,"vac":true,"version":"7961495","steam_id":85568392924742830,"keywords":["cp","nocrits","nodmgspread","uncletopia"],"game_id":440,"stv_port":27066,"stv_name":"Uncletopia | London | 6 | All Maps | STV","players":[{"user_id":4,"name":"toomas2018(real)","steam_id":76561199105796083,"connected_time":176000000000,"state":"active","ping":89},{"user_id":5,"name":"mixxxa_french","steam_id":76561198085098243,"connected_time":121000000000,"state":"active","ping":113},{"user_id":6,"name":"SOULDOG :D","steam_id":76561199212057006,"connected_time":37000000000,"state":"active","ping":71}]},{"server_id":40,"name":"Uncletopia | London | 7 | No Payload","name_short":"lon-7","host":"lon-1.uk.uncletopia.com","port":27075,"enabled":true,"region":"eu","cc":"gb","latitude":51.509865,"longitude":-0.118092,"reserved":0,"last_update":"0001-01-01T00:00:00Z","name_a2s":"Uncletopia | London | 7 | No Payload","protocol":17,"map":"cp_fastlane","folder":"tf","game":"Team Fortress","app_id":440,"player_count":0,"max_players":24,"Bots":0,"server_type":"Dedicated","server_os":"Linux","password":true,"vac":true,"version":"7961495","steam_id":85568392924964314,"keywords":["cp","nocrits","nodmgspread","uncletopia"],"game_id":440,"stv_port":27076,"stv_name":"Uncletopia | London | 7 | No Payload | STV","players":null},{"server_id":41,"name":"Uncletopia | London | 8 | Community","name_short":"lon-8","host":"lon-1.uk.uncletopia.com","port":27085,"enabled":true,"region":"eu","cc":"gb","latitude":51.509865,"longitude":-0.118092,"reserved":0,"last_update":"0001-01-01T00:00:00Z","name_a2s":"Uncletopia | London | 8 | Community","protocol":17,"map":"koth_viaduct","folder":"tf","game":"Team Fortress","app_id":440,"player_count":0,"max_players":24,"Bots":0,"server_type":"Dedicated","server_os":"Linux","password":true,"vac":true,"version":"7961495","steam_id":85568392924964315,"keywords":["cp","nocrits","nodmgspread","uncletopia"],"game_id":440,"stv_port":27086,"stv_name":"Uncletopia | London | 8 | Community | STV","players":null},{"server_id":300,"name":"Uncletopia | Montréal | 1 | All Maps","name_short":"mtl-1","host":"mtl-1.ca.uncletopia.com","port":27015,"enabled":true,"region":"us-east","cc":"ca","latitude":45.50889,"longitude":-73.56167,"reserved":0,"last_update":"0001-01-01T00:00:00Z","name_a2s":"Uncletopia | Montréal | 1 | All Maps","protocol":17,"map":"koth_cascade","folder":"tf","game":"Team Fortress","app_id":440,"player_count":0,"max_players":24,"Bots":0,"server_type":"Dedicated","server_os":"Linux","password":true,"vac":true,"version":"7961495","steam_id":85568392924500087,"keywords":["cp","nocrits","nodmgspread","uncletopia"],"game_id":440,"stv_port":27016,"stv_name":"Uncletopia | Montréal | 1 | All Maps | STV","players":null},{"server_id":301,"name":"Uncletopia | Montréal | 2 | All Maps","name_short":"mtl-2","host":"mtl-1.ca.uncletopia.com","port":27025,"enabled":true,"region":"us-east","cc":"ca","latitude":45.50889,"longitude":-73.56167,"reserved":0,"last_update":"0001-01-01T00:00:00Z","name_a2s":"Uncletopia | Montréal | 2 | All Maps","protocol":17,"map":"pl_frontier_final","folder":"tf","game":"Team Fortress","app_id":440,"player_count":0,"max_players":24,"Bots":0,"server_type":"Dedicated","server_os":"Linux","password":true,"vac":true,"version":"7961495","steam_id":85568392924500088,"keywords":["nocrits","nodmgspread","payload","uncletopia"],"game_id":440,"stv_port":27026,"stv_name":"Uncletopia | Montréal | 2 | All Maps | STV","players":null},{"server_id":302,"name":"Uncletopia | Montréal | 3 | All Maps","name_short":"mtl-3","host":"mtl-1.ca.uncletopia.com","port":27035,"enabled":true,"region":"us-east","cc":"ca","latitude":45.50889,"longitude":-73.56167,"reserved":0,"last_update":"0001-01-01T00:00:00Z","name_a2s":"Uncletopia | Montréal | 3 | All Maps","protocol":17,"map":"pl_upward","folder":"tf","game":"Team Fortress","app_id":440,"player_count":0,"max_players":24,"Bots":0,"server_type":"Dedicated","server_os":"Linux","password":true,"vac":true,"version":"7961495","steam_id":85568392924500089,"keywords":["nocrits","nodmgspread","payload","uncletopia"],"game_id":440,"stv_port":27036,"stv_name":"Uncletopia | Montréal | 3 | All Maps | STV","players":null},{"server_id":303,"name":"Uncletopia | Montréal | 4 | No Payload","name_short":"mtl-4","host":"mtl-1.ca.uncletopia.com","port":27045,"enabled":true,"region":"us-east","cc":"ca","latitude":45.50889,"longitude":-73.56167,"reserved":0,"last_update":"0001-01-01T00:00:00Z","name_a2s":"Uncletopia | Montréal | 4 | No Payload","protocol":17,"map":"cp_mountainlab","folder":"tf","game":"Team Fortress","app_id":440,"player_count":0,"max_players":24,"Bots":0,"server_type":"Dedicated","server_os":"Linux","password":true,"vac":true,"version":"7961495","steam_id":85568392924500090,"keywords":["cp","nocrits","nodmgspread","uncletopia"],"game_id":440,"stv_port":27046,"stv_name":"Uncletopia | Montréal | 4 | No Payload | STV","players":null},{"server_id":13,"name":"Uncletopia | New York City | 1 | All Maps","name_short":"nyc-1","host":"nyc-1.us.uncletopia.com","port":27015,"enabled":true,"region":"us-east","cc":"us","latitude":40.73061,"longitude":-73.93524,"reserved":0,"last_update":"0001-01-01T00:00:00Z","name_a2s":"Uncletopia | New York City | 1 | All Maps","protocol":17,"map":"cp_sunshine","folder":"tf","game":"Team Fortress","app_id":440,"player_count":0,"max_players":24,"Bots":0,"server_type":"Dedicated","server_os":"Linux","password":true,"vac":true,"version":"7961495","steam_id":85568392924469993,"keywords":["cp","nocrits","nodmgspread","uncletopia"],"game_id":440,"stv_port":27016,"stv_name":"Uncletopia | New York City | 1 | All Maps | STV","players":null},{"server_id":14,"name":"Uncletopia | New York City | 2 | All Maps","name_short":"nyc-2","host":"nyc-1.us.uncletopia.com","port":27025,"enabled":true,"region":"us-east","cc":"us","latitude":40.73061,"longitude":-73.93524,"reserved":0,"last_update":"0001-01-01T00:00:00Z","name_a2s":"Uncletopia | New York City | 2 | All Maps","protocol":17,"map":"pl_snowycoast","folder":"tf","game":"Team Fortress","app_id":440,"player_count":1,"max_players":24,"Bots":0,"server_type":"Dedicated","server_os":"Linux","password":true,"vac":true,"version":"7961495","steam_id":85568392924469994,"keywords":["nocrits","nodmgspread","payload","uncletopia"],"game_id":440,"stv_port":27026,"stv_name":"Uncletopia | New York City | 2 | All Maps | STV","players":[{"user_id":4,"name":"Denzel McFlurry","steam_id":76561199231296521,"connected_time":227000000000,"state":"active","ping":56}]},{"server_id":15,"name":"Uncletopia | New York City | 3 | Stopwatch Beta","name_short":"nyc-3","host":"nyc-1.us.uncletopia.com","port":27035,"enabled":true,"region":"us-east","cc":"us","latitude":40.73061,"longitude":-73.93524,"reserved":0,"last_update":"0001-01-01T00:00:00Z","name_a2s":"Uncletopia | New York City | 3 | Stopwatch Beta","protocol":17,"map":"koth_lakeside_final","folder":"tf","game":"Team Fortress","app_id":440,"player_count":0,"max_players":24,"Bots":0,"server_type":"Dedicated","server_os":"Linux","password":true,"vac":true,"version":"7961495","steam_id":85568392924742820,"keywords":["cp","nocrits","nodmgspread","uncletopia"],"game_id":440,"stv_port":27036,"stv_name":"Uncletopia | New York City | 3 | Stopwatch Beta | STV","players":null},{"server_id":16,"name":"Uncletopia | New York City | 4 | Community","name_short":"nyc-4","host":"nyc-1.us.uncletopia.com","port":27045,"enabled":true,"region":"us-east","cc":"us","latitude":40.73061,"longitude":-73.93524,"reserved":0,"last_update":"0001-01-01T00:00:00Z","name_a2s":"Uncletopia | New York City | 4 | Community","protocol":17,"map":"pl_frontier_final","folder":"tf","game":"Team Fortress","app_id":440,"player_count":0,"max_players":24,"Bots":0,"server_type":"Dedicated","server_os":"Linux","password":true,"vac":true,"version":"7961495","steam_id":85568392924742821,"keywords":["nocrits","nodmgspread","payload","uncletopia"],"game_id":440,"stv_port":27046,"stv_name":"Uncletopia | New York City | 4 | Community | STV","players":null},{"server_id":142,"name":"Uncletopia | São Paulo | 1 | All Maps","name_short":"sao-1","host":"sao-1.br.uncletopia.com","port":27015,"enabled":true,"region":"sa","cc":"br","latitude":-23.533773,"longitude":-46.62529,"reserved":0,"last_update":"0001-01-01T00:00:00Z","name_a2s":"Uncletopia | São Paulo | 1 | All Maps","protocol":17,"map":"koth_highpass","folder":"tf","game":"Team Fortress","app_id":440,"player_count":0,"max_players":24,"Bots":0,"server_type":"Dedicated","server_os":"Linux","password":true,"vac":true,"version":"7961495","steam_id":85568392924469996,"keywords":["cp","nocrits","nodmgspread","uncletopia"],"game_id":440,"stv_port":27016,"stv_name":"Uncletopia | São Paulo | 1 | All Maps | STV","players":null},{"server_id":143,"name":"Uncletopia | São Paulo | 2 | All Maps","name_short":"sao-2","host":"sao-2.br.uncletopia.com","port":27015,"enabled":true,"region":"sa","cc":"br","latitude":-23.533773,"longitude":-46.62529,"reserved":0,"last_update":"0001-01-01T00:00:00Z","name_a2s":"Uncletopia | São Paulo | 2 | All Maps","protocol":17,"map":"koth_cascade","folder":"tf","game":"Team Fortress","app_id":440,"player_count":0,"max_players":24,"Bots":0,"server_type":"Dedicated","server_os":"Linux","password":true,"vac":true,"version":"7961495","steam_id":85568392924485349,"keywords":["cp","nocrits","nodmgspread","uncletopia"],"game_id":440,"stv_port":27016,"stv_name":"Uncletopia | São Paulo | 2 | All Maps | STV","players":null},{"server_id":7,"name":"Uncletopia | Seattle | 1 | All Maps","name_short":"sea-1","host":"sea-1.us.uncletopia.com","port":27015,"enabled":true,"region":"us-west","cc":"us","latitude":47.608013,"longitude":-122.33517,"reserved":0,"last_update":"0001-01-01T00:00:00Z","name_a2s":"Uncletopia | Seattle | 1 | All Maps","protocol":17,"map":"koth_cascade","folder":"tf","game":"Team Fortress","app_id":440,"player_count":0,"max_players":24,"Bots":0,"server_type":"Dedicated","server_os":"Linux","password":true,"vac":true,"version":"7961495","steam_id":85568392924469997,"keywords":["cp","nocrits","nodmgspread","uncletopia"],"game_id":440,"stv_port":27016,"stv_name":"Uncletopia | Seattle | 1 | All Maps | STV","players":null},{"server_id":119,"name":"Uncletopia | Seattle | 2 | All Maps","name_short":"sea-2","host":"sea-1.us.uncletopia.com","port":27025,"enabled":true,"region":"us-west","cc":"us","latitude":47.608013,"longitude":-122.33517,"reserved":0,"last_update":"0001-01-01T00:00:00Z","name_a2s":"Uncletopia | Seattle | 2 | All Maps","protocol":17,"map":"pl_barnblitz","folder":"tf","game":"Team Fortress","app_id":440,"player_count":0,"max_players":24,"Bots":0,"server_type":"Dedicated","server_os":"Linux","password":true,"vac":true,"version":"7961495","steam_id":85568392924469998,"keywords":["nocrits","nodmgspread","payload","uncletopia"],"game_id":440,"stv_port":27026,"stv_name":"Uncletopia | Seattle | 2 | All Maps | STV","players":null},{"server_id":406,"name":"Uncletopia | Seattle | 3 | Stopwatch Beta","name_short":"sea-3","host":"sea-1.us.uncletopia.com","port":27035,"enabled":true,"region":"us-west","cc":"us","latitude":47.608013,"longitude":-122.33517,"reserved":0,"last_update":"0001-01-01T00:00:00Z","name_a2s":"Uncletopia | Seattle | 3 | Stopwatch Beta","protocol":17,"map":"cp_mountainlab","folder":"tf","game":"Team Fortress","app_id":440,"player_count":0,"max_players":24,"Bots":0,"server_type":"Dedicated","server_os":"Linux","password":true,"vac":true,"version":"7961495","steam_id":85568392924515217,"keywords":["cp","nocrits","nodmgspread","uncletopia"],"game_id":440,"stv_port":27036,"stv_name":"Uncletopia | Seattle | 3 | Stopwatch Beta | STV","players":null},{"server_id":17,"name":"Uncletopia | San Francisco | 1 | All Maps","name_short":"sfo-1","host":"sfo-1.us.uncletopia.com","port":27015,"enabled":true,"region":"us-west","cc":"us","latitude":37.77397,"longitude":-122.4313,"reserved":0,"last_update":"0001-01-01T00:00:00Z","name_a2s":"Uncletopia | San Francisco | 1 | All Maps","protocol":17,"map":"pl_frontier_final","folder":"tf","game":"Team Fortress","app_id":440,"player_count":0,"max_players":24,"Bots":0,"server_type":"Dedicated","server_os":"Linux","password":true,"vac":true,"version":"7932396","steam_id":85568392924469999,"keywords":["nocrits","nodmgspread","payload","uncletopia"],"game_id":440,"stv_port":27016,"stv_name":"Uncletopia | San Francisco | 1 | All Maps | STV","players":null},{"server_id":18,"name":"Uncletopia | San Francisco | 2 | All Maps","name_short":"sfo-2","host":"sfo-1.us.uncletopia.com","port":27025,"enabled":true,"region":"us-west","cc":"us","latitude":37.77397,"longitude":-122.4313,"reserved":0,"last_update":"0001-01-01T00:00:00Z","name_a2s":"Uncletopia | San Francisco | 2 | All Maps","protocol":17,"map":"cp_snakewater_final1","folder":"tf","game":"Team Fortress","app_id":440,"player_count":0,"max_players":24,"Bots":0,"server_type":"Dedicated","server_os":"Linux","password":true,"vac":true,"version":"7932396","steam_id":85568392924470000,"keywords":["cp","nocrits","nodmgspread","uncletopia"],"game_id":440,"stv_port":27026,"stv_name":"Uncletopia | San Francisco | 2 | All Maps | STV","players":null},{"server_id":19,"name":"Uncletopia | San Francisco | 3 | Stopwatch Beta","name_short":"sfo-3","host":"sfo-1.us.uncletopia.com","port":27035,"enabled":true,"region":"us-west","cc":"us","latitude":37.77397,"longitude":-122.4313,"reserved":0,"last_update":"0001-01-01T00:00:00Z","name_a2s":"Uncletopia | San Francisco | 3 | Stopwatch Beta","protocol":17,"map":"koth_lakeside_final","folder":"tf","game":"Team Fortress","app_id":440,"player_count":0,"max_players":24,"Bots":0,"server_type":"Dedicated","server_os":"Linux","password":true,"vac":true,"version":"7932396","steam_id":85568392924742824,"keywords":["cp","nocrits","nodmgspread","uncletopia"],"game_id":440,"stv_port":27036,"stv_name":"Uncletopia | San Francisco | 3 | Stopwatch Beta | STV","players":null},{"server_id":20,"name":"Uncletopia | San Francisco | 4 | Community","name_short":"sfo-4","host":"sfo-1.us.uncletopia.com","port":27045,"enabled":true,"region":"us-west","cc":"us","latitude":37.77397,"longitude":-122.4313,"reserved":0,"last_update":"0001-01-01T00:00:00Z","name_a2s":"Uncletopia | San Francisco | 4 | Community","protocol":17,"map":"pl_borneo","folder":"tf","game":"Team Fortress","app_id":440,"player_count":0,"max_players":24,"Bots":0,"server_type":"Dedicated","server_os":"Linux","password":true,"vac":true,"version":"7932396","steam_id":85568392924742826,"keywords":["nocrits","nodmgspread","payload","uncletopia"],"game_id":440,"stv_port":27046,"stv_name":"Uncletopia | San Francisco | 4 | Community | STV","players":null},{"server_id":141,"name":"Uncletopia | Sydney | 1 | All Maps","name_short":"syd-1","host":"syd-1.au.uncletopia.com","port":27015,"enabled":true,"region":"au","cc":"au","latitude":-33.865143,"longitude":151.2099,"reserved":0,"last_update":"0001-01-01T00:00:00Z","name_a2s":"Uncletopia | Sydney | 1 | All Maps","protocol":17,"map":"cp_altitude","folder":"tf","game":"Team Fortress","app_id":440,"player_count":24,"max_players":24,"Bots":0,"server_type":"Dedicated","server_os":"Linux","password":true,"vac":true,"version":"7961495","steam_id":85568392924470001,"keywords":["cp","nocrits","nodmgspread","uncletopia"],"game_id":440,"stv_port":27016,"stv_name":"Uncletopia | Sydney | 1 | All Maps | STV","players":[{"user_id":322,"name":"fifra","steam_id":76561199080942003,"connected_time":1952000000000,"state":"active","ping":54},{"user_id":308,"name":"EyeBallin'","steam_id":76561198027001491,"connected_time":3137000000000,"state":"active","ping":54},{"user_id":303,"name":"sigma chi sum","steam_id":76561199042455119,"connected_time":3380000000000,"state":"active","ping":48},{"user_id":332,"name":"RickDog","steam_id":76561198160382607,"connected_time":964000000000,"state":"active","ping":60},{"user_id":291,"name":"Assasin43","steam_id":76561198067678083,"connected_time":4038000000000,"state":"active","ping":106},{"user_id":257,"name":"Penguin Wielder","steam_id":76561198169038889,"connected_time":6364000000000,"state":"active","ping":59},{"user_id":344,"name":"[FTW] RonnieD'","steam_id":76561197993957267,"connected_time":193000000000,"state":"active","ping":45},{"user_id":318,"name":"XiNe | Rosebud No.23452","steam_id":76561199109916698,"connected_time":2198000000000,"state":"active","ping":61},{"user_id":311,"name":"Chromo Patrol","steam_id":76561197987001534,"connected_time":3053000000000,"state":"active","ping":101},{"user_id":342,"name":"alex","steam_id":76561198053382248,"connected_time":559000000000,"state":"active","ping":43},{"user_id":343,"name":"Theducktube","steam_id":76561198137265224,"connected_time":506000000000,"state":"active","ping":173},{"user_id":313,"name":"Rat","steam_id":76561198405227476,"connected_time":2876000000000,"state":"active","ping":61},{"user_id":346,"name":"ƔɇȴȴØω","steam_id":76561198066909222,"connected_time":32000000000,"state":"active","ping":53},{"user_id":325,"name":"i'm god †","steam_id":76561198051969460,"connected_time":1927000000000,"state":"active","ping":65},{"user_id":278,"name":"swaggy seal","steam_id":76561198088993165,"connected_time":4507000000000,"state":"active","ping":70},{"user_id":339,"name":"Perplexia","steam_id":76561198012215739,"connected_time":776000000000,"state":"active","ping":81},{"user_id":280,"name":"unlucky lucky","steam_id":76561199087910771,"connected_time":4496000000000,"state":"active","ping":54},{"user_id":336,"name":"voxii","steam_id":76561198099698281,"connected_time":866000000000,"state":"active","ping":72},{"user_id":340,"name":"Tofu","steam_id":76561198025637573,"connected_time":742000000000,"state":"active","ping":36},{"user_id":348,"name":"blacked.com","steam_id":76561198119797711,"connected_time":11000000000,"state":"active","ping":37},{"user_id":301,"name":"JustifiedJordan","steam_id":76561198064538629,"connected_time":3638000000000,"state":"active","ping":60},{"user_id":297,"name":"DKC","steam_id":76561198313578155,"connected_time":3805000000000,"state":"active","ping":42},{"user_id":329,"name":"Zenith","steam_id":76561197993456757,"connected_time":1836000000000,"state":"active","ping":87},{"user_id":333,"name":"tom cruise missile","steam_id":76561198059848621,"connected_time":954000000000,"state":"active","ping":43}]},{"server_id":123,"name":"Uncletopia | Sydney | 2 | All Maps","name_short":"syd-2","host":"syd-1.au.uncletopia.com","port":27025,"enabled":true,"region":"au","cc":"au","latitude":-33.865143,"longitude":151.2099,"reserved":0,"last_update":"0001-01-01T00:00:00Z","name_a2s":"Uncletopia | Sydney | 2 | All Maps","protocol":17,"map":"cp_process_final","folder":"tf","game":"Team Fortress","app_id":440,"player_count":3,"max_players":24,"Bots":0,"server_type":"Dedicated","server_os":"Linux","password":true,"vac":true,"version":"7961495","steam_id":85568392924470002,"keywords":["cp","nocrits","nodmgspread","uncletopia"],"game_id":440,"stv_port":27026,"stv_name":"Uncletopia | Sydney | 2 | All Maps | STV","players":[{"user_id":297,"name":"TheOrang","steam_id":76561199232263206,"connected_time":3037000000000,"state":"active","ping":88},{"user_id":298,"name":"pointless101","steam_id":76561199446931124,"connected_time":2923000000000,"state":"active","ping":97},{"user_id":304,"name":"Cris.p bacon","steam_id":76561199230423491,"connected_time":467000000000,"state":"active","ping":104}]},{"server_id":395,"name":"Uncletopia | Sydney | 3 | All Maps","name_short":"syd-3","host":"syd-1.au.uncletopia.com","port":27035,"enabled":true,"region":"au","cc":"au","latitude":-33.865143,"longitude":151.2099,"reserved":0,"last_update":"0001-01-01T00:00:00Z","name_a2s":"Uncletopia | Sydney | 3 | All Maps","protocol":17,"map":"cp_mountainlab","folder":"tf","game":"Team Fortress","app_id":440,"player_count":0,"max_players":24,"Bots":0,"server_type":"Dedicated","server_os":"Linux","password":true,"vac":true,"version":"7961495","steam_id":85568392925194467,"keywords":["cp","nocrits","nodmgspread","uncletopia"],"game_id":440,"stv_port":27036,"stv_name":"Uncletopia | Sydney | 3 | All Maps | STV","players":null},{"server_id":396,"name":"Uncletopia | Sydney | 4 | All Maps","name_short":"syd-4","host":"syd-1.au.uncletopia.com","port":27045,"enabled":true,"region":"au","cc":"au","latitude":-33.865143,"longitude":151.2099,"reserved":0,"last_update":"0001-01-01T00:00:00Z","name_a2s":"Uncletopia | Sydney | 4 | All Maps","protocol":17,"map":"koth_cascade","folder":"tf","game":"Team Fortress","app_id":440,"player_count":2,"max_players":24,"Bots":0,"server_type":"Dedicated","server_os":"Linux","password":true,"vac":true,"version":"7961495","steam_id":85568392925397958,"keywords":["cp","nocrits","nodmgspread","uncletopia"],"game_id":440,"stv_port":27046,"stv_name":"Uncletopia | Sydney | 4 | All Maps | STV","players":[{"user_id":16,"name":"BROWN","steam_id":76561198062470530,"connected_time":929000000000,"state":"active","ping":32},{"user_id":17,"name":"ryebread","steam_id":76561199052243197,"connected_time":924000000000,"state":"active","ping":53}]},{"server_id":58,"name":"Uncletopia | Sydney | 5 | Stopwatch Beta","name_short":"syd-5","host":"syd-1.au.uncletopia.com","port":27055,"enabled":true,"region":"au","cc":"au","latitude":-33.865143,"longitude":151.2099,"reserved":0,"last_update":"0001-01-01T00:00:00Z","name_a2s":"Uncletopia | Sydney | 5 | Stopwatch Beta","protocol":17,"map":"koth_viaduct","folder":"tf","game":"Team Fortress","app_id":440,"player_count":0,"max_players":24,"Bots":0,"server_type":"Dedicated","server_os":"Linux","password":true,"vac":true,"version":"7961495","steam_id":85568392925397959,"keywords":["cp","nocrits","nodmgspread","uncletopia"],"game_id":440,"stv_port":27056,"stv_name":"Uncletopia | Sydney | 5 | Stopwatch Beta | STV","players":null},{"server_id":59,"name":"Uncletopia | Sydney | 6 | Community","name_short":"syd-6","host":"syd-1.au.uncletopia.com","port":27065,"enabled":true,"region":"au","cc":"au","latitude":-33.865143,"longitude":151.2099,"reserved":0,"last_update":"0001-01-01T00:00:00Z","name_a2s":"Uncletopia | Sydney | 6 | Community","protocol":17,"map":"workshop/cp_indulge.ugc528106646","folder":"tf","game":"Team Fortress","app_id":440,"player_count":0,"max_players":24,"Bots":0,"server_type":"Dedicated","server_os":"Linux","password":true,"vac":true,"version":"7961495","steam_id":85568392925397960,"keywords":["cp","nocrits","nodmgspread","uncletopia"],"game_id":440,"stv_port":27066,"stv_name":"Uncletopia | Sydney | 6 | Community | STV","players":null},{"server_id":49,"name":"Uncletopia | Warsaw | 1 | All Maps","name_short":"waw-1","host":"waw-1.pl.uncletopia.com","port":27015,"enabled":true,"region":"eu","cc":"pl","latitude":52.2297,"longitude":21.017532,"reserved":0,"last_update":"0001-01-01T00:00:00Z","name_a2s":"","protocol":0,"map":"","folder":"","game":"","app_id":0,"player_count":0,"max_players":0,"Bots":0,"server_type":"","server_os":"","password":false,"vac":false,"version":"","steam_id":0,"keywords":null,"game_id":0,"stv_port":0,"stv_name":"","players":null},{"server_id":50,"name":"Uncletopia | Warsaw | 2 | All Maps","name_short":"waw-2","host":"waw-1.pl.uncletopia.com","port":27025,"enabled":true,"region":"eu","cc":"pl","latitude":52.2297,"longitude":21.017532,"reserved":0,"last_update":"0001-01-01T00:00:00Z","name_a2s":"Uncletopia | Warsaw | 2 | All Maps","protocol":17,"map":"pl_borneo","folder":"tf","game":"Team Fortress","app_id":440,"player_count":0,"max_players":24,"Bots":0,"server_type":"Dedicated","server_os":"Linux","password":true,"vac":true,"version":"7961495","steam_id":85568392925397851,"keywords":["nocrits","nodmgspread","payload","uncletopia"],"game_id":440,"stv_port":27026,"stv_name":"Uncletopia | Warsaw | 2 | All Maps | STV","players":null},{"server_id":51,"name":"Uncletopia | Warsaw | 3 | All Maps","name_short":"waw-3","host":"waw-1.pl.uncletopia.com","port":27035,"enabled":true,"region":"eu","cc":"pl","latitude":52.2297,"longitude":21.017532,"reserved":0,"last_update":"0001-01-01T00:00:00Z","name_a2s":"Uncletopia | Warsaw | 3 | All Maps","protocol":17,"map":"cp_mountainlab","folder":"tf","game":"Team Fortress","app_id":440,"player_count":0,"max_players":24,"Bots":0,"server_type":"Dedicated","server_os":"Linux","password":true,"vac":true,"version":"7961495","steam_id":85568392925397852,"keywords":["cp","nocrits","nodmgspread","uncletopia"],"game_id":440,"stv_port":27036,"stv_name":"Uncletopia | Warsaw | 3 | All Maps | STV","players":null},{"server_id":52,"name":"Uncletopia | Warsaw | 4 | All Maps","name_short":"waw-4","host":"waw-1.pl.uncletopia.com","port":27045,"enabled":true,"region":"eu","cc":"pl","latitude":52.2297,"longitude":21.017532,"reserved":0,"last_update":"0001-01-01T00:00:00Z","name_a2s":"Uncletopia | Warsaw | 4 | All Maps","protocol":17,"map":"pl_badwater","folder":"tf","game":"Team Fortress","app_id":440,"player_count":0,"max_players":24,"Bots":0,"server_type":"Dedicated","server_os":"Linux","password":true,"vac":true,"version":"7961495","steam_id":85568392925397853,"keywords":["nocrits","nodmgspread","payload","uncletopia"],"game_id":440,"stv_port":27046,"stv_name":"Uncletopia | Warsaw | 4 | All Maps | STV","players":null},{"server_id":53,"name":"Uncletopia | Warsaw | 5 | Stopwatch Beta","name_short":"waw-5","host":"waw-1.pl.uncletopia.com","port":27055,"enabled":true,"region":"eu","cc":"pl","latitude":52.2297,"longitude":21.017532,"reserved":0,"last_update":"0001-01-01T00:00:00Z","name_a2s":"Uncletopia | Warsaw | 5 | Stopwatch Beta","protocol":17,"map":"pl_snowycoast","folder":"tf","game":"Team Fortress","app_id":440,"player_count":0,"max_players":24,"Bots":0,"server_type":"Dedicated","server_os":"Linux","password":true,"vac":true,"version":"7961495","steam_id":85568392925397854,"keywords":["nocrits","nodmgspread","payload","uncletopia"],"game_id":440,"stv_port":27056,"stv_name":"Uncletopia | Warsaw | 5 | Stopwatch Beta | STV","players":null},{"server_id":54,"name":"Uncletopia | Warsaw | 6 | Community","name_short":"waw-6","host":"waw-1.pl.uncletopia.com","port":27065,"enabled":true,"region":"eu","cc":"pl","latitude":52.2297,"longitude":21.017532,"reserved":0,"last_update":"0001-01-01T00:00:00Z","name_a2s":"Uncletopia | Warsaw | 6 | Community","protocol":17,"map":"pl_borneo","folder":"tf","game":"Team Fortress","app_id":440,"player_count":0,"max_players":24,"Bots":0,"server_type":"Dedicated","server_os":"Linux","password":true,"vac":true,"version":"7961495","steam_id":85568392925397856,"keywords":["nocrits","nodmgspread","payload","uncletopia"],"game_id":440,"stv_port":27066,"stv_name":"Uncletopia | Warsaw | 6 | Community | STV","players":null}]}