{"status":true,"message":"","result":[{"server_id":9,"name":"Uncletopia | Atlanta | 1 | All Maps","name_short":"atl-1","host":"atl-1.us.uncletopia.com","port":27015,"enabled":true,"region":"us-east","cc":"us","latitude":33.753746,"longitude":-84.38633,"reserved":0,"last_update":"0001-01-01T00:00:00Z","name_a2s":"Uncletopia | Atlanta | 1 | All Maps","protocol":17,"map":"koth_highpass","folder":"tf","game":"Team Fortress","app_id":440,"player_count":10,"max_players":24,"Bots":0,"server_type":"Dedicated","server_os":"Linux","password":true,"vac":true,"version":"7757534","steam_id":85568392924469982,"keywords":["cp","nocrits","nodmgspread","uncletopia"],"game_id":440,"stv_port":27016,"stv_name":"Uncletopia | Atlanta | 1 | All Maps | STV","players":[{"user_id":3,"name":"Sweetie","steam_id":76561198806688369,"connected_time":1693000000000,"state":"active","ping":81},{"user_id":20,"name":"techturkey","steam_id":76561199154637989,"connected_time":793000000000,"state":"active","ping":96},{"user_id":8,"name":"Ganja Bandit","steam_id":76561198875131601,"connected_time":1673000000000,"state":"active","ping":62},{"user_id":22,"name":"manbearswineflu","steam_id":76561198083945137,"connected_time":662000000000,"state":"active","ping":74},{"user_id":15,"name":"Doger","steam_id":76561198239214156,"connected_time":1380000000000,"state":"active","ping":119},{"user_id":25,"name":"mechiimi ★","steam_id":76561198321627268,"connected_time":294000000000,"state":"active","ping":96},{"user_id":23,"name":"Lazarust","steam_id":76561198355322731,"connected_time":597000000000,"state":"active","ping":87},{"user_id":12,"name":"Igames","steam_id":76561198414062544,"connected_time":1591000000000,"state":"active","ping":129},{"user_id":17,"name":"Star","steam_id":76561198150115757,"connected_time":1286000000000,"state":"active","ping":121},{"user_id":26,"name":"Massive Conquistador","steam_id":76561197961138002,"connected_time":207000000000,"state":"active","ping":86}]},{"server_id":400,"name":"Uncletopia | Atlanta | 3 | Community","name_short":"atl-3","host":"atl-1.us.uncletopia.com","port":27035,"enabled":true,"region":"us-east","cc":"us","latitude":33.753746,"longitude":-84.38633,"reserved":0,"last_update":"0001-01-01T00:00:00Z","name_a2s":"Uncletopia | Atlanta | 3 | Community","protocol":17,"map":"cp_mountainlab","folder":"tf","game":"Team Fortress","app_id":440,"player_count":0,"max_players":24,"Bots":0,"server_type":"Dedicated","server_os":"Linux","password":true,"vac":true,"version":"7757534","steam_id":85568392924515187,"keywords":["cp","nocrits","nodmgspread","uncletopia"],"game_id":440,"stv_port":27036,"stv_name":"Uncletopia | Atlanta | 3 | Community | STV","players":null},{"server_id":401,"name":"Uncletopia | Atlanta | 4 | No Payload","name_short":"atl-4","host":"atl-1.us.uncletopia.com","port":27045,"enabled":true,"region":"us-east","cc":"us","latitude":33.753746,"longitude":-84.38633,"reserved":0,"last_update":"0001-01-01T00:00:00Z","name_a2s":"","protocol":0,"map":"","folder":"","game":"","app_id":0,"player_count":0,"max_players":0,"Bots":0,"server_type":"","server_os":"","password":false,"vac":false,"version":"","steam_id":0,"keywords":null,"game_id":0,"stv_port":0,"stv_name":"","players":null},{"server_id":2,"name":"Uncletopia | Chicago | 1 | All Maps","name_short":"chi-1","host":"chi-1.us.uncletopia.com","port":27015,"enabled":true,"region":"us-central","cc":"us","latitude":41.881832,"longitude":-87.62318,"reserved":0,"last_update":"0001-01-01T00:00:00Z","name_a2s":"Uncletopia | Chicago | 1 | All Maps","protocol":17,"map":"pl_snowycoast","folder":"tf","game":"Team Fortress","app_id":440,"player_count":0,"max_players":24,"Bots":0,"server_type":"Dedicated","server_os":"Linux","password":true,"vac":true,"version":"7757534","steam_id":85568392924469984,"keywords":["nocrits","nodmgspread","payload","uncletopia"],"game_id":440,"stv_port":27016,"stv_name":"Uncletopia | Chicago | 1 | All Maps | STV","players":null},{"server_id":106,"name":"Uncletopia | Chicago | 2 | All Maps","name_short":"chi-2","host":"chi-1.us.uncletopia.com","port":27025,"enabled":true,"region":"us-central","cc":"us","latitude":41.881832,"longitude":-87.62318,"reserved":0,"last_update":"0001-01-01T00:00:00Z","name_a2s":"Uncletopia | Chicago | 2 | All Maps","protocol":17,"map":"koth_highpass","folder":"tf","game":"Team Fortress","app_id":440,"player_count":0,"max_players":24,"Bots":0,"server_type":"Dedicated","server_os":"Linux","password":true,"vac":true,"version":"7757534","steam_id":85568392924469985,"keywords":["cp","nocrits","nodmgspread","uncletopia"],"game_id":440,"stv_port":27026,"stv_name":"Uncletopia | Chicago | 2 | All Maps | STV","players":null},{"server_id":402,"name":"Uncletopia | Chicago | 3 | All Maps","name_short":"chi-3","host":"chi-1.us.uncletopia.com","port":27035,"enabled":true,"region":"us-central","cc":"us","latitude":41.881832,"longitude":-87.62318,"reserved":0,"last_update":"0001-01-01T00:00:00Z","name_a2s":"Uncletopia | Chicago | 3 | All Maps","protocol":17,"map":"pl_pier","folder":"tf","game":"Team Fortress","app_id":440,"player_count":24,"max_players":24,"Bots":0,"server_type":"Dedicated","server_os":"Linux","password":true,"vac":true,"version":"7757534","steam_id":85568392924515191,"keywords":["nocrits","nodmgspread","payload","uncletopia"],"game_id":440,"stv_port":27036,"stv_name":"Uncletopia | Chicago | 3 | All Maps | STV","players":[{"user_id":754,"name":"Stan","steam_id":76561199057962816,"connected_time":279000000000,"state":"active","ping":46},{"user_id":750,"name":"Chris Babaganoosh","steam_id":76561197968961838,"connected_time":670000000000,"state":"active","ping":101},{"user_id":720,"name":"GoldtoothFour","steam_id":76561198055529332,"connected_time":3210000000000,"state":"active","ping":52},{"user_id":737,"name":"The Carrot Juicer","steam_id":76561198029322539,"connected_time":2262000000000,"state":"active","ping":94},{"user_id":751,"name":"mmjerico","steam_id":76561198285819311,"connected_time":304000000000,"state":"active","ping":104},{"user_id":748,"name":"FCKGW-RHQQ2-YXRKT-8TG6W-2B7Q8","steam_id":76561197993138592,"connected_time":1150000000000,"state":"active","ping":110},{"user_id":745,"name":"Your Good Pal Chev","steam_id":76561197994622647,"connected_time":1289000000000,"state":"active","ping":80},{"user_id":713,"name":"noh","steam_id":76561198149443710,"connected_time":3397000000000,"state":"active","ping":105},{"user_id":732,"name":"邪恶的巫师","steam_id":76561198165212575,"connected_time":2608000000000,"state":"active","ping":60},{"user_id":719,"name":"CANCERTRON-9000","steam_id":76561198041390791,"connected_time":3262000000000,"state":"active","ping":145},{"user_id":749,"name":"glock_","steam_id":76561198165230503,"connected_time":747000000000,"state":"active","ping":72},{"user_id":718,"name":"Judge Dad (Proud)","steam_id":76561198071473697,"connected_time":3306000000000,"state":"active","ping":67},{"user_id":742,"name":"EforEstrogen","steam_id":76561198086787295,"connected_time":1878000000000,"state":"active","ping":97},{"user_id":729,"name":"kiracaroso","steam_id":76561198165859543,"connected_time":2782000000000,"state":"active","ping":93},{"user_id":655,"name":"Monketron","steam_id":76561198014225523,"connected_time":7773000000000,"state":"active","ping":148},{"user_id":733,"name":"S011y","steam_id":76561198065339248,"connected_time":2519000000000,"state":"active","ping":90},{"user_id":752,"name":"2 a.m. taco bell run","steam_id":76561198073148340,"connected_time":290000000000,"state":"active","ping":47},{"user_id":711,"name":"Saucy","steam_id":76561198982829610,"connected_time":3692000000000,"state":"active","ping":85},{"user_id":736,"name":"Eins","steam_id":76561199030343810,"connected_time":2347000000000,"state":"active","ping":52},{"user_id":714,"name":"happy halllwee!!N","steam_id":76561198047885053,"connected_time":3395000000000,"state":"active","ping":93},{"user_id":709,"name":"domky","steam_id":76561198066114874,"connected_time":3924000000000,"state":"active","ping":105},{"user_id":712,"name":"pat fusty","steam_id":76561198117181511,"connected_time":3482000000000,"state":"active","ping":46},{"user_id":735,"name":"slimeyphusion","steam_id":76561198042300721,"connected_time":2461000000000,"state":"active","ping":66},{"user_id":698,"name":"Whax the Whipper","steam_id":76561198010714005,"connected_time":4802000000000,"state":"active","ping":57}]},{"server_id":403,"name":"Uncletopia | Chicago | 4 | All Maps","name_short":"chi-4","host":"chi-1.us.uncletopia.com","port":27045,"enabled":true,"region":"us-central","cc":"us","latitude":41.881832,"longitude":-87.62318,"reserved":0,"last_update":"0001-01-01T00:00:00Z","name_a2s":"Uncletopia | Chicago | 4 | All Maps","protocol":17,"map":"koth_cascade","folder":"tf","game":"Team Fortress","app_id":440,"player_count":0,"max_players":24,"Bots":0,"server_type":"Dedicated","server_os":"Linux","password":true,"vac":true,"version":"7757534","steam_id":85568392924515193,"keywords":["cp","nocrits","nodmgspread","uncletopia"],"game_id":440,"stv_port":27046,"stv_name":"Uncletopia | Chicago | 4 | All Maps | STV","players":null},{"server_id":36,"name":"Uncletopia | Chicago | 5 | All Maps","name_short":"chi-5","host":"chi-2.us.uncletopia.com","port":27015,"enabled":true,"region":"us-central","cc":"us","latitude":41.881832,"longitude":-87.62318,"reserved":0,"last_update":"0001-01-01T00:00:00Z","name_a2s":"Uncletopia | Chicago | 5 | All Maps","protocol":17,"map":"pl_barnblitz","folder":"tf","game":"Team Fortress","app_id":440,"player_count":0,"max_players":24,"Bots":0,"server_type":"Dedicated","server_os":"Linux","password":true,"vac":true,"version":"7757534","steam_id":85568392924866362,"keywords":["nocrits","nodmgspread","payload","uncletopia"],"game_id":440,"stv_port":27016,"stv_name":"Uncletopia | Chicago | 5 | All Maps | STV","players":null},{"server_id":37,"name":"Uncletopia | Chicago | 6 | All Maps","name_short":"chi-6","host":"chi-2.us.uncletopia.com","port":27025,"enabled":true,"region":"us-central","cc":"us","latitude":41.881832,"longitude":-87.62318,"reserved":0,"last_update":"0001-01-01T00:00:00Z","name_a2s":"Uncletopia | Chicago | 6 | All Maps","protocol":17,"map":"koth_lakeside_final","folder":"tf","game":"Team Fortress","app_id":440,"player_count":0,"max_players":24,"Bots":0,"server_type":"Dedicated","server_os":"Linux","password":true,"vac":true,"version":"7757534","steam_id":85568392924866363,"keywords":["cp","nocrits","nodmgspread","uncletopia"],"game_id":440,"stv_port":27026,"stv_name":"Uncletopia | Chicago | 6 | All Maps | STV","players":null},{"server_id":38,"name":"Uncletopia | Chicago | 7 | Stopwatch Beta","name_short":"chi-7","host":"chi-2.us.uncletopia.com","port":27035,"enabled":true,"region":"us-central","cc":"us","latitude":41.881832,"longitude":-87.62318,"reserved":0,"last_update":"0001-01-01T00:00:00Z","name_a2s":"Uncletopia | Chicago | 7 | Stopwatch Beta","protocol":17,"map":"koth_lakeside_final","folder":"tf","game":"Team Fortress","app_id":440,"player_count":0,"max_players":24,"Bots":0,"server_type":"Dedicated","server_os":"Linux","password":true,"vac":true,"version":"7757534","steam_id":85568392924866364,"keywords":["cp","nocrits","nodmgspread","uncletopia"],"game_id":440,"stv_port":27036,"stv_name":"Uncletopia | Chicago | 7 | Stopwatch Beta | STV","players":null},{"server_id":39,"name":"Uncletopia | Chicago | 8 | Community","name_short":"chi-8","host":"chi-2.us.uncletopia.com","port":27045,"enabled":true,"region":"us-central","cc":"us","latitude":41.881832,"longitude":-87.62318,"reserved":0,"last_update":"0001-01-01T00:00:00Z","name_a2s":"Uncletopia | Chicago | 8 | Community","protocol":17,"map":"workshop/rd_asteroid_redux_b1.ugc2154902912","folder":"tf","game":"Team Fortress","app_id":440,"player_count":0,"max_players":24,"Bots":0,"server_type":"Dedicated","server_os":"Linux","password":true,"vac":true,"version":"7757534","steam_id":85568392924866365,"keywords":["beta","nocrits","nodmgspread","rd","uncletopia"],"game_id":440,"stv_port":27046,"stv_name":"Uncletopia | Chicago | 8 | Community | STV","players":null},{"server_id":8,"name":"Uncletopia | Dallas | 1 | All Maps","name_short":"dal-1","host":"dal-1.us.uncletopia.com","port":27015,"enabled":true,"region":"us-central","cc":"us","latitude":32.779167,"longitude":-96.80889,"reserved":0,"last_update":"0001-01-01T00:00:00Z","name_a2s":"Uncletopia | Dallas | 1 | All Maps","protocol":17,"map":"pl_pier","folder":"tf","game":"Team Fortress","app_id":440,"player_count":24,"max_players":24,"Bots":0,"server_type":"Dedicated","server_os":"Linux","password":true,"vac":true,"version":"7757534","steam_id":85568392924469986,"keywords":["nocrits","nodmgspread","payload","uncletopia"],"game_id":440,"stv_port":27016,"stv_name":"Uncletopia | Dallas | 1 | All Maps | STV","players":[{"user_id":898,"name":"Monster","steam_id":76561198189429665,"connected_time":3107000000000,"state":"active","ping":75},{"user_id":916,"name":"zaza2k","steam_id":76561198393760567,"connected_time":783000000000,"state":"active","ping":67},{"user_id":885,"name":"Gumby","steam_id":76561197992799336,"connected_time":4945000000000,"state":"active","ping":77},{"user_id":896,"name":"Gunkpump","steam_id":76561197975794806,"connected_time":3418000000000,"state":"active","ping":76},{"user_id":910,"name":"loser","steam_id":76561198132182386,"connected_time":1514000000000,"state":"active","ping":92},{"user_id":911,"name":"Slashes","steam_id":76561197968573499,"connected_time":1448000000000,"state":"active","ping":76},{"user_id":908,"name":"rip ghost mountain","steam_id":76561198357132470,"connected_time":2196000000000,"state":"active","ping":70},{"user_id":912,"name":"Callahan","steam_id":76561197976928457,"connected_time":956000000000,"state":"active","ping":95},{"user_id":888,"name":"johnny karate","steam_id":76561198165847261,"connected_time":4432000000000,"state":"active","ping":101},{"user_id":881,"name":"PyroToaster","steam_id":76561198053057346,"connected_time":5066000000000,"state":"active","ping":85},{"user_id":901,"name":"An Unhappy Clown","steam_id":76561198175516514,"connected_time":2746000000000,"state":"active","ping":39},{"user_id":812,"name":"GamingJoker2012","steam_id":76561198247589168,"connected_time":8646000000000,"state":"active","ping":62},{"user_id":909,"name":"donk","steam_id":76561198040360395,"connected_time":1881000000000,"state":"active","ping":75},{"user_id":918,"name":"Conqueror Fanatical","steam_id":76561198345499005,"connected_time":142000000000,"state":"active","ping":60},{"user_id":899,"name":"[يهودي] Bill Clinton [אל","steam_id":76561198163291190,"connected_time":2870000000000,"state":"active","ping":88},{"user_id":913,"name":"owl","steam_id":76561198105374054,"connected_time":902000000000,"state":"active","ping":91},{"user_id":894,"name":"nous","steam_id":76561198046278452,"connected_time":3501000000000,"state":"active","ping":90},{"user_id":903,"name":"aqua","steam_id":76561199407709552,"connected_time":2685000000000,"state":"active","ping":61},{"user_id":900,"name":"yvko","steam_id":76561198165724991,"connected_time":2756000000000,"state":"active","ping":76},{"user_id":905,"name":"TransWomanGaming","steam_id":76561198809645656,"connected_time":2503000000000,"state":"active","ping":72},{"user_id":882,"name":"Briatho","steam_id":76561198032187923,"connected_time":5056000000000,"state":"active","ping":71},{"user_id":917,"name":"Poppet","steam_id":76561198012301951,"connected_time":659000000000,"state":"active","ping":81},{"user_id":750,"name":"the lazy gamer","steam_id":76561199070127039,"connected_time":10945000000000,"state":"active","ping":123},{"user_id":892,"name":"The Horselords and Animal Gods","steam_id":76561197975094050,"connected_time":3781000000000,"state":"active","ping":86}]},{"server_id":108,"name":"Uncletopia | Dallas | 2 | All Maps","name_short":"dal-2","host":"dal-1.us.uncletopia.com","port":27025,"enabled":true,"region":"us-central","cc":"us","latitude":32.779167,"longitude":-96.80889,"reserved":0,"last_update":"0001-01-01T00:00:00Z","name_a2s":"Uncletopia | Dallas | 2 | All Maps","protocol":17,"map":"cp_process_final","folder":"tf","game":"Team Fortress","app_id":440,"player_count":0,"max_players":24,"Bots":0,"server_type":"Dedicated","server_os":"Linux","password":true,"vac":true,"version":"7757534","steam_id":85568392924469988,"keywords":["cp","nocrits","nodmgspread","uncletopia"],"game_id":440,"stv_port":27026,"stv_name":"Uncletopia | Dallas | 2 | All Maps | STV","players":null},{"server_id":5,"name":"Uncletopia | Frankfurt | 1 | All Maps","name_short":"frk-1","host":"frk-1.de.uncletopia.com","port":27015,"enabled":true,"region":"eu","cc":"de","latitude":50.110924,"longitude":8.682127,"reserved":0,"last_update":"0001-01-01T00:00:00Z","name_a2s":"Uncletopia | Frankfurt | 1 | All Maps","protocol":17,"map":"koth_viaduct","folder":"tf","game":"Team Fortress","app_id":440,"player_count":0,"max_players":24,"Bots":0,"server_type":"Dedicated","server_os":"Linux","password":true,"vac":true,"version":"7757534","steam_id":85568392924469989,"keywords":["cp","nocrits","nodmgspread","uncletopia"],"game_id":440,"stv_port":27016,"stv_name":"Uncletopia | Frankfurt | 1 | All Maps | STV","players":null},{"server_id":110,"name":"Uncletopia | Frankfurt | 2 | All Maps","name_short":"frk-2","host":"frk-1.de.uncletopia.com","port":27025,"enabled":true,"region":"eu","cc":"de","latitude":50.110924,"longitude":8.682127,"reserved":0,"last_update":"0001-01-01T00:00:00Z","name_a2s":"Uncletopia | Frankfurt | 2 | All Maps","protocol":17,"map":"cp_snakewater_final1","folder":"tf","game":"Team Fortress","app_id":440,"player_count":21,"max_players":24,"Bots":0,"server_type":"Dedicated","server_os":"Linux","password":true,"vac":true,"version":"7757534","steam_id":85568392924469990,"keywords":["cp","nocrits","nodmgspread","uncletopia"],"game_id":440,"stv_port":27026,"stv_name":"Uncletopia | Frankfurt | 2 | All Maps | STV","players":[{"user_id":12,"name":"Pink Cheese","steam_id":76561198972186436,"connected_time":2039000000000,"state":"active","ping":63},{"user_id":6,"name":"fried","steam_id":76561198307522022,"connected_time":3114000000000,"state":"active","ping":46},{"user_id":7,"name":"Piquesque","steam_id":76561198286763046,"connected_time":3002000000000,"state":"active","ping":102},{"user_id":23,"name":"mum called me down for dinner","steam_id":76561198847602258,"connected_time":889000000000,"state":"active","ping":130},{"user_id":14,"name":"S_ApplePie","steam_id":76561198106947669,"connected_time":1504000000000,"state":"active","ping":92},{"user_id":24,"name":"PotNoodles","steam_id":76561199254585064,"connected_time":848000000000,"state":"active","ping":65},{"user_id":36,"name":"Gromov","steam_id":76561198407644131,"connected_time":58000000000,"state":"active","ping":150},{"user_id":21,"name":"9034kh-bgtio","steam_id":76561198401523966,"connected_time":1118000000000,"state":"active","ping":85},{"user_id":25,"name":"delta man","steam_id":76561198204491245,"connected_time":769000000000,"state":"active","ping":131},{"user_id":27,"name":"sHIFTINGvORTEX","steam_id":76561198231648332,"connected_time":501000000000,"state":"active","ping":75},{"user_id":28,"name":"thegirlwiththeguns","steam_id":76561198049338938,"connected_time":449000000000,"state":"active","ping":45},{"user_id":29,"name":"bixigu","steam_id":76561198007425793,"connected_time":345000000000,"state":"active","ping":96},{"user_id":35,"name":"cereal","steam_id":76561198002480645,"connected_time":130000000000,"state":"active","ping":75},{"user_id":31,"name":"Swedde","steam_id":76561198297296440,"connected_time":323000000000,"state":"active","ping":76},{"user_id":32,"name":"Nuclear Lunar","steam_id":76561198878380463,"connected_time":236000000000,"state":"active","ping":64},{"user_id":33,"name":"Mowelic","steam_id":76561198873641222,"connected_time":187000000000,"state":"active","ping":76},{"user_id":34,"name":"Verculum","steam_id":76561198894912634,"connected_time":167000000000,"state":"active","ping":98},{"user_id":37,"name":"Leszy","steam_id":76561198372172135,"connected_time":45000000000,"state":"active","ping":59},{"user_id":38,"name":"tqla","steam_id":76561198073092585,"connected_time":31000000000,"state":"spawning","ping":89},{"user_id":39,"name":"meatsoupcube","steam_id":76561198276802249,"connected_time":6000000000,"state":"spawning","ping":108},{"user_id":40,"name":"S2/S0","steam_id":76561198131577749,"connected_time":0,"state":"spawning","ping":39}]},{"server_id":308,"name":"Uncletopia | Frankfurt | 3 | All Maps","name_short":"frk-3","host":"frk-1.de.uncletopia.com","port":27035,"enabled":true,"region":"eu","cc":"de","latitude":50.110924,"longitude":8.682127,"reserved":0,"last_update":"0001-01-01T00:00:00Z","name_a2s":"Uncletopia | Frankfurt | 3 | All Maps","protocol":17,"map":"pl_borneo","folder":"tf","game":"Team Fortress","app_id":440,"player_count":0,"max_players":24,"Bots":0,"server_type":"Dedicated","server_os":"Linux","password":true,"vac":true,"version":"7757534","steam_id":85568392924504274,"keywords":["nocrits","nodmgspread","payload","uncletopia"],"game_id":440,"stv_port":27036,"stv_name":"Uncletopia | Frankfurt | 3 | All Maps | STV","players":null},{"server_id":309,"name":"Uncletopia | Frankfurt | 4 | All Maps","name_short":"frk-4","host":"frk-1.de.uncletopia.com","port":27045,"enabled":true,"region":"eu","cc":"de","latitude":50.110924,"longitude":8.682127,"reserved":0,"last_update":"0001-01-01T00:00:00Z","name_a2s":"Uncletopia | Frankfurt | 4 | All Maps","protocol":17,"map":"pl_barnblitz","folder":"tf","game":"Team Fortress","app_id":440,"player_count":0,"max_players":24,"Bots":0,"server_type":"Dedicated","server_os":"Linux","password":true,"vac":true,"version":"7757534","steam_id":85568392924504275,"keywords":["nocrits","nodmgspread","payload","uncletopia"],"game_id":440,"stv_port":27046,"stv_name":"Uncletopia | Frankfurt | 4 | All Maps | STV","players":null},{"server_id":310,"name":"Uncletopia | Frankfurt | 5 | All Maps","name_short":"frk-5","host":"frk-1.de.uncletopia.com","port":27055,"enabled":true,"region":"eu","cc":"de","latitude":50.110924,"longitude":8.682127,"reserved":0,"last_update":"0001-01-01T00:00:00Z","name_a2s":"Uncletopia | Frankfurt | 5 | All Maps","protocol":17,"map":"cp_altitude","folder":"tf","game":"Team Fortress","app_id":440,"player_count":0,"max_players":24,"Bots":0,"server_type":"Dedicated","server_os":"Linux","password":true,"vac":true,"version":"7757534","steam_id":85568392924504277,"keywords":["cp","nocrits","nodmgspread","uncletopia"],"game_id":440,"stv_port":27056,"stv_name":"Uncletopia | Frankfurt | 5 | All Maps | STV","players":null},{"server_id":311,"name":"Uncletopia | Frankfurt | 6 | All Maps","name_short":"frk-6","host":"frk-1.de.uncletopia.com","port":27065,"enabled":true,"region":"eu","cc":"de","latitude":50.110924,"longitude":8.682127,"reserved":0,"last_update":"0001-01-01T00:00:00Z","name_a2s":"Uncletopia | Frankfurt | 6 | All Maps","protocol":17,"map":"pl_barnblitz","folder":"tf","game":"Team Fortress","app_id":440,"player_count":0,"max_players":24,"Bots":0,"server_type":"Dedicated","server_os":"Linux","password":true,"vac":true,"version":"7757534","steam_id":85568392924504278,"keywords":["nocrits","nodmgspread","payload","uncletopia"],"game_id":440,"stv_port":27066,"stv_name":"Uncletopia | Frankfurt | 6 | All Maps | STV","players":null},{"server_id":23,"name":"Uncletopia | Frankfurt | 7 | Stopwatch Beta","name_short":"frk-7","host":"frk-1.de.uncletopia.com","port":27075,"enabled":true,"region":"eu","cc":"de","latitude":50.110924,"longitude":8.682127,"reserved":0,"last_update":"0001-01-01T00:00:00Z","name_a2s":"Uncletopia | Frankfurt | 7 | Stopwatch Beta","protocol":17,"map":"pl_borneo","folder":"tf","game":"Team Fortress","app_id":440,"player_count":0,"max_players":24,"Bots":0,"server_type":"Dedicated","server_os":"Linux","password":true,"vac":true,"version":"7757534","steam_id":85568392924742827,"keywords":["nocrits","nodmgspread","payload","uncletopia"],"game_id":440,"stv_port":27076,"stv_name":"Uncletopia | Frankfurt | 7 | Stopwatch Beta | STV","players":null},{"server_id":24,"name":"Uncletopia | Frankfurt | 8 | Community","name_short":"frk-8","host":"frk-1.de.uncletopia.com","port":27085,"enabled":true,"region":"eu","cc":"de","latitude":50.110924,"longitude":8.682127,"reserved":0,"last_update":"0001-01-01T00:00:00Z","name_a2s":"Uncletopia | Frankfurt | 8 | Community","protocol":17,"map":"workshop/cp_villa_b19.ugc2113052569","folder":"tf","game":"Team Fortress","app_id":440,"player_count":0,"max_players":24,"Bots":0,"server_type":"Dedicated","server_os":"Linux","password":true,"vac":true,"version":"7757534","steam_id":85568392924742828,"keywords":["cp","nocrits","nodmgspread","uncletopia"],"game_id":440,"stv_port":27086,"stv_name":"Uncletopia | Frankfurt | 8 | Community | STV","players":null},{"server_id":202,"name":"Uncletopia | Hong Kong | 1 | All Maps","name_short":"hgk-1","host":"hgk-1.hk.uncletopia.com","port":27015,"enabled":true,"region":"asia","cc":"hk","latitude":22.302711,"longitude":114.177216,"reserved":0,"last_update":"0001-01-01T00:00:00Z","name_a2s":"Uncletopia | Hong Kong | 1 | All Maps","protocol":17,"map":"pl_pier","folder":"tf","game":"Team Fortress","app_id":440,"player_count":21,"max_players":24,"Bots":0,"server_type":"Dedicated","server_os":"Linux","password":true,"vac":true,"version":"7757534","steam_id":85568392924494504,"keywords":["nocrits","nodmgspread","payload","uncletopia"],"game_id":440,"stv_port":27016,"stv_name":"Uncletopia | Hong Kong | 1 | All Maps | STV","players":[{"user_id":89,"name":"TomCat","steam_id":76561198133744053,"connected_time":4498000000000,"state":"active","ping":113},{"user_id":139,"name":"(' ^ ' )","steam_id":76561198841934698,"connected_time":0,"state":"spawning","ping":0},{"user_id":103,"name":"moguizhong","steam_id":76561198152588681,"connected_time":2803000000000,"state":"active","ping":110},{"user_id":114,"name":"17","steam_id":76561198241530712,"connected_time":2486000000000,"state":"active","ping":59},{"user_id":119,"name":"steame17","steam_id":76561199387872784,"connected_time":1186000000000,"state":"active","ping":118},{"user_id":91,"name":"greeny","steam_id":76561198024666371,"connected_time":4004000000000,"state":"active","ping":88},{"user_id":100,"name":"bmbmbm","steam_id":76561198413116920,"connected_time":3435000000000,"state":"active","ping":103},{"user_id":34,"name":"screaming sniper","steam_id":76561199085568674,"connected_time":7458000000000,"state":"active","ping":86},{"user_id":108,"name":"Aiko Kanata Zhenco","steam_id":76561199262955185,"connected_time":2666000000000,"state":"active","ping":120},{"user_id":137,"name":"niceguy6785","steam_id":76561199442589750,"connected_time":441000000000,"state":"active","ping":63},{"user_id":128,"name":"ketsu","steam_id":76561197966171554,"connected_time":1125000000000,"state":"active","ping":114},{"user_id":85,"name":"Bachira meguru","steam_id":76561199137927625,"connected_time":5057000000000,"state":"active","ping":90},{"user_id":109,"name":"✧BaKa BAzooKA✧(◕▿◕ )","steam_id":76561198061628689,"connected_time":2647000000000,"state":"active","ping":48},{"user_id":122,"name":"Electric Owl","steam_id":76561198318126190,"connected_time":1179000000000,"state":"active","ping":98},{"user_id":57,"name":"帕","steam_id":76561198439343999,"connected_time":6488000000000,"state":"active","ping":78},{"user_id":132,"name":"The Boys","steam_id":76561199445694770,"connected_time":850000000000,"state":"active","ping":164},{"user_id":138,"name":"Engineer Gaming","steam_id":76561199015521820,"connected_time":333000000000,"state":"active","ping":927},{"user_id":116,"name":"yw","steam_id":76561199382726488,"connected_time":1997000000000,"state":"active","ping":43},{"user_id":135,"name":"monkeyman536","steam_id":76561197997717737,"connected_time":637000000000,"state":"active","ping":142},{"user_id":131,"name":"ɔuᗡA ɟƨuᒐ","steam_id":76561199031283970,"connected_time":923000000000,"state":"active","ping":105},{"user_id":118,"name":"\"SKS\"","steam_id":76561198187995386,"connected_time":1242000000000,"state":"active","ping":87}]},{"server_id":1,"name":"Uncletopia | Los Angeles | 1 | All Maps","name_short":"lax-1","host":"lax-1.us.uncletopia.com","port":27015,"enabled":true,"region":"us-west","cc":"us","latitude":33.94279,"longitude":-118.41004,"reserved":0,"last_update":"0001-01-01T00:00:00Z","name_a2s":"Uncletopia | Los Angeles | 1 | All Maps","protocol":17,"map":"cp_mountainlab","folder":"tf","game":"Team Fortress","app_id":440,"player_count":0,"max_players":24,"Bots":0,"server_type":"Dedicated","server_os":"Linux","password":true,"vac":true,"version":"7757534","steam_id":85568392924469991,"keywords":["cp","nocrits","nodmgspread","uncletopia"],"game_id":440,"stv_port":27016,"stv_name":"Uncletopia | Los Angeles | 1 | All Maps | STV","players":null},{"server_id":112,"name":"Uncletopia | Los Angeles | 2 | All Maps","name_short":"lax-2","host":"lax-1.us.uncletopia.com","port":27025,"enabled":true,"region":"us-west","cc":"us","latitude":33.94279,"longitude":-118.41004,"reserved":0,"last_update":"0001-01-01T00:00:00Z","name_a2s":"Uncletopia | Los Angeles | 2 | All Maps","protocol":17,"map":"koth_viaduct","folder":"tf","game":"Team Fortress","app_id":440,"player_count":0,"max_players":24,"Bots":0,"server_type":"Dedicated","server_os":"Linux","password":true,"vac":true,"version":"7757534","steam_id":85568392924469992,"keywords":["cp","nocrits","nodmgspread","uncletopia"],"game_id":440,"stv_port":27026,"stv_name":"Uncletopia | Los Angeles | 2 | All Maps | STV","players":null},{"server_id":324,"name":"Uncletopia | Los Angeles | 3 | All Maps","name_short":"lax-3","host":"lax-1.us.uncletopia.com","port":27035,"enabled":true,"region":"us-west","cc":"us","latitude":33.94279,"longitude":-118.41004,"reserved":0,"last_update":"0001-01-01T00:00:00Z","name_a2s":"Uncletopia | Los Angeles | 3 | All Maps","protocol":17,"map":"pl_badwater","folder":"tf","game":"Team Fortress","app_id":440,"player_count":0,"max_players":24,"Bots":0,"server_type":"Dedicated","server_os":"Linux","password":true,"vac":true,"version":"7757534","steam_id":85568392924510198,"keywords":["nocrits","nodmgspread","payload","uncletopia"],"game_id":440,"stv_port":27036,"stv_name":"Uncletopia | Los Angeles | 3 | All Maps | STV","players":null},{"server_id":25,"name":"Uncletopia | Los Angeles | 4 | Stopwatch Beta","name_short":"lax-4","host":"lax-1.us.uncletopia.com","port":27045,"enabled":true,"region":"us-west","cc":"us","latitude":33.94279,"longitude":-118.41004,"reserved":0,"last_update":"0001-01-01T00:00:00Z","name_a2s":"Uncletopia | Los Angeles | 4 | Stopwatch Beta","protocol":17,"map":"workshop/koth_clearcut_b15.ugc2107050255","folder":"tf","game":"Team Fortress","app_id":440,"player_count":0,"max_players":24,"Bots":0,"server_type":"Dedicated","server_os":"Linux","password":true,"vac":true,"version":"7757534","steam_id":85568392924510199,"keywords":["cp","nocrits","nodmgspread","uncletopia"],"game_id":440,"stv_port":27046,"stv_name":"Uncletopia | Los Angeles | 4 | Stopwatch Beta | STV","players":null},{"server_id":11,"name":"Uncletopia | London | 1 | All Maps","name_short":"lon-1","host":"lon-1.uk.uncletopia.com","port":27015,"enabled":true,"region":"eu","cc":"gb","latitude":51.509865,"longitude":-0.118092,"reserved":0,"last_update":"0001-01-01T00:00:00Z","name_a2s":"Uncletopia | London | 1 | All Maps","protocol":17,"map":"pl_pier","folder":"tf","game":"Team Fortress","app_id":440,"player_count":24,"max_players":24,"Bots":0,"server_type":"Dedicated","server_os":"Linux","password":true,"vac":true,"version":"7757534","steam_id":85568392924367362,"keywords":["nocrits","nodmgspread","payload","uncletopia"],"game_id":440,"stv_port":27016,"stv_name":"Uncletopia | London | 1 | All Maps | STV","players":[{"user_id":4,"name":"Yelowchy","steam_id":76561198199416121,"connected_time":6280000000000,"state":"active","ping":73},{"user_id":93,"name":"frenchie","steam_id":76561198178298931,"connected_time":178000000000,"state":"active","ping":39},{"user_id":92,"name":"BoraY","steam_id":76561198443464667,"connected_time":190000000000,"state":"active","ping":105},{"user_id":89,"name":"sex haver","steam_id":76561198798892497,"connected_time":476000000000,"state":"active","ping":59},{"user_id":62,"name":"kiki","steam_id":76561198838277022,"connected_time":2631000000000,"state":"active","ping":73},{"user_id":58,"name":"Kahvi","steam_id":76561198723244199,"connected_time":2884000000000,"state":"active","ping":75},{"user_id":82,"name":"htkern123","steam_id":76561199465710045,"connected_time":818000000000,"state":"active","ping":64},{"user_id":83,"name":"Mapavri","steam_id":76561198370196400,"connected_time":799000000000,"state":"active","ping":88},{"user_id":73,"name":"dick licker","steam_id":76561198413545609,"connected_time":1110000000000,"state":"active","ping":54},{"user_id":74,"name":"Coco Pommel","steam_id":76561198043601838,"connected_time":1109000000000,"state":"active","ping":61},{"user_id":76,"name":"Qwichi","steam_id":76561198264893430,"connected_time":1085000000000,"state":"active","ping":71},{"user_id":86,"name":"vade4ek","steam_id":76561198010853706,"connected_time":664000000000,"state":"active","ping":144},{"user_id":63,"name":"Kwizine","steam_id":76561198147999400,"connected_time":2555000000000,"state":"active","ping":60},{"user_id":71,"name":"not today thanks","steam_id":76561198083615367,"connected_time":1908000000000,"state":"active","ping":39},{"user_id":84,"name":"static","steam_id":76561198836825741,"connected_time":757000000000,"state":"active","ping":41},{"user_id":85,"name":"Frikerf","steam_id":76561198079602952,"connected_time":679000000000,"state":"active","ping":50},{"user_id":94,"name":"Juice Councilmen","steam_id":76561198312125574,"connected_time":173000000000,"state":"active","ping":120},{"user_id":90,"name":"IM A F2P","steam_id":76561198268194944,"connected_time":455000000000,"state":"active","ping":124},{"user_id":95,"name":"Lukas","steam_id":76561198009118452,"connected_time":126000000000,"state":"active","ping":60},{"user_id":88,"name":"KONAMI \u0026*#a \u0026ghsAa","steam_id":76561198023632157,"connected_time":611000000000,"state":"active","ping":135},{"user_id":96,"name":"rad","steam_id":76561198413125750,"connected_time":123000000000,"state":"active","ping":110},{"user_id":38,"name":"kreeekz","steam_id":76561198014431602,"connected_time":3783000000000,"state":"active","ping":75},{"user_id":79,"name":"t.tv","steam_id":76561199129801006,"connected_time":981000000000,"state":"active","ping":58},{"user_id":91,"name":"CrazyLemon","steam_id":76561198193513153,"connected_time":237000000000,"state":"active","ping":63}]},{"server_id":114,"name":"Uncletopia | London | 2 | All Maps","name_short":"lon-2","host":"lon-1.uk.uncletopia.com","port":27025,"enabled":true,"region":"eu","cc":"gb","latitude":51.509865,"longitude":-0.118092,"reserved":0,"last_update":"0001-01-01T00:00:00Z","name_a2s":"Uncletopia | London | 2 | All Maps","protocol":17,"map":"pl_pier","folder":"tf","game":"Team Fortress","app_id":440,"player_count":0,"max_players":24,"Bots":0,"server_type":"Dedicated","server_os":"Linux","password":true,"vac":true,"version":"7757534","steam_id":85568392924470941,"keywords":["nocrits","nodmgspread","payload","uncletopia"],"game_id":440,"stv_port":27026,"stv_name":"Uncletopia | London | 2 | All Maps | STV","players":null},{"server_id":320,"name":"Uncletopia | London | 3 | All Maps","name_short":"lon-3","host":"lon-1.uk.uncletopia.com","port":27035,"enabled":true,"region":"eu","cc":"gb","latitude":51.509865,"longitude":-0.118092,"reserved":0,"last_update":"0001-01-01T00:00:00Z","name_a2s":"Uncletopia | London | 3 | All Maps","protocol":17,"map":"pl_swiftwater_final1","folder":"tf","game":"Team Fortress","app_id":440,"player_count":0,"max_players":24,"Bots":0,"server_type":"Dedicated","server_os":"Linux","password":true,"vac":true,"version":"7757534","steam_id":85568392924510192,"keywords":["nocrits","nodmgspread","payload","uncletopia"],"game_id":440,"stv_port":27036,"stv_name":"Uncletopia | London | 3 | All Maps | STV","players":null},{"server_id":321,"name":"Uncletopia | London | 4 | All Maps","name_short":"lon-4","host":"lon-1.uk.uncletopia.com","port":27045,"enabled":true,"region":"eu","cc":"gb","latitude":51.509865,"longitude":-0.118092,"reserved":0,"last_update":"0001-01-01T00:00:00Z","name_a2s":"Uncletopia | London | 4 | All Maps","protocol":17,"map":"pl_barnblitz","folder":"tf","game":"Team Fortress","app_id":440,"player_count":0,"max_players":24,"Bots":0,"server_type":"Dedicated","server_os":"Linux","password":true,"vac":true,"version":"7757534","steam_id":85568392924510193,"keywords":["nocrits","nodmgspread","payload","uncletopia"],"game_id":440,"stv_port":27046,"stv_name":"Uncletopia | London | 4 | All Maps | STV","players":null},{"server_id":21,"name":"Uncletopia | London | 5 | All Maps","name_short":"lon-5","host":"lon-1.uk.uncletopia.com","port":27055,"enabled":true,"region":"eu","cc":"gb","latitude":51.509865,"longitude":-0.118092,"reserved":0,"last_update":"0001-01-01T00:00:00Z","name_a2s":"Uncletopia | London | 5 | All Maps","protocol":17,"map":"pl_pier","folder":"tf","game":"Team Fortress","app_id":440,"player_count":24,"max_players":24,"Bots":0,"server_type":"Dedicated","server_os":"Linux","password":true,"vac":true,"version":"7757534","steam_id":85568392924742829,"keywords":["nocrits","nodmgspread","payload","uncletopia"],"game_id":440,"stv_port":27056,"stv_name":"Uncletopia | London | 5 | All Maps | STV","players":[{"user_id":182,"name":"Robbie","steam_id":76561198017504503,"connected_time":1388000000000,"state":"active","ping":51},{"user_id":188,"name":"Ork","steam_id":76561197968575924,"connected_time":968000000000,"state":"active","ping":52},{"user_id":20,"name":"Enigmus","steam_id":76561197994063627,"connected_time":13037000000000,"state":"active","ping":90},{"user_id":108,"name":"pulsar","steam_id":76561198842123868,"connected_time":6492000000000,"state":"active","ping":97},{"user_id":179,"name":"pazz","steam_id":76561198131275449,"connected_time":1659000000000,"state":"active","ping":59},{"user_id":167,"name":"Chen","steam_id":76561198440363619,"connected_time":2324000000000,"state":"active","ping":60},{"user_id":183,"name":"Estyle","steam_id":76561198157804700,"connected_time":1285000000000,"state":"active","ping":98},{"user_id":135,"name":"mio bomba","steam_id":76561198217364720,"connected_time":5006000000000,"state":"active","ping":59},{"user_id":187,"name":"Ar|es","steam_id":76561198819160313,"connected_time":1057000000000,"state":"active","ping":91},{"user_id":189,"name":"Ach Wheesht","steam_id":76561197996993222,"connected_time":926000000000,"state":"active","ping":45},{"user_id":164,"name":"Dinnerfood53","steam_id":76561198236015392,"connected_time":2629000000000,"state":"active","ping":121},{"user_id":195,"name":"Hyperek","steam_id":76561198130797464,"connected_time":562000000000,"state":"active","ping":76},{"user_id":145,"name":"Wilson","steam_id":76561198327273176,"connected_time":4042000000000,"state":"active","ping":112},{"user_id":196,"name":"Xiqui","steam_id":76561198818386611,"connected_time":493000000000,"state":"active","ping":75},{"user_id":194,"name":".::[SerafeTTiN]::.","steam_id":76561198009471724,"connected_time":665000000000,"state":"active","ping":97},{"user_id":165,"name":"on1on (pickled)","steam_id":76561197995304137,"connected_time":2470000000000,"state":"active","ping":71},{"user_id":173,"name":"MatarArg","steam_id":76561198280246498,"connected_time":2006000000000,"state":"active","ping":118},{"user_id":180,"name":"Spenji","steam_id":76561198126634202,"connected_time":1513000000000,"state":"active","ping":57},{"user_id":190,"name":"skeleton94","steam_id":76561199032256341,"connected_time":901000000000,"state":"active","ping":109},{"user_id":191,"name":"stockhack","steam_id":76561198050220225,"connected_time":885000000000,"state":"active","ping":118},{"user_id":197,"name":"Son Goku","steam_id":76561199383437138,"connected_time":270000000000,"state":"active","ping":121},{"user_id":199,"name":"very bad dont rely on me","steam_id":76561198362116755,"connected_time":75000000000,"state":"active","ping":150},{"user_id":200,"name":"hellrunner","steam_id":76561198205309695,"connected_time":63000000000,"state":"active","ping":96},{"user_id":152,"name":"Sch","steam_id":76561198071341689,"connected_time":3739000000000,"state":"active","ping":116}]},{"server_id":22,"name":"Uncletopia | London | 6 | All Maps","name_short":"lon-6","host":"lon-1.uk.uncletopia.com","port":27065,"enabled":true,"region":"eu","cc":"gb","latitude":51.509865,"longitude":-0.118092,"reserved":0,"last_update":"0001-01-01T00:00:00Z","name_a2s":"Uncletopia | London | 6 | All Maps","protocol":17,"map":"koth_highpass","folder":"tf","game":"Team Fortress","app_id":440,"player_count":0,"max_players":24,"Bots":0,"server_type":"Dedicated","server_os":"Linux","password":true,"vac":true,"version":"7757534","steam_id":85568392924742830,"keywords":["cp","nocrits","nodmgspread","uncletopia"],"game_id":440,"stv_port":27066,"stv_name":"Uncletopia | London | 6 | All Maps | STV","players":null},{"server_id":40,"name":"Uncletopia | London | 7 | No Payload","name_short":"lon-7","host":"lon-1.uk.uncletopia.com","port":27075,"enabled":true,"region":"eu","cc":"gb","latitude":51.509865,"longitude":-0.118092,"reserved":0,"last_update":"0001-01-01T00:00:00Z","name_a2s":"Uncletopia | London | 7 | No Payload","protocol":17,"map":"koth_highpass","folder":"tf","game":"Team Fortress","app_id":440,"player_count":0,"max_players":24,"Bots":0,"server_type":"Dedicated","server_os":"Linux","password":true,"vac":true,"version":"7757534","steam_id":85568392924964314,"keywords":["cp","nocrits","nodmgspread","uncletopia"],"game_id":440,"stv_port":27076,"stv_name":"Uncletopia | London | 7 | No Payload | STV","players":null},{"server_id":41,"name":"Uncletopia | London | 8 | Community","name_short":"lon-8","host":"lon-1.uk.uncletopia.com","port":27085,"enabled":true,"region":"eu","cc":"gb","latitude":51.509865,"longitude":-0.118092,"reserved":0,"last_update":"0001-01-01T00:00:00Z","name_a2s":"Uncletopia | London | 8 | Community","protocol":17,"map":"cp_altitude","folder":"tf","game":"Team Fortress","app_id":440,"player_count":2,"max_players":24,"Bots":0,"server_type":"Dedicated","server_os":"Linux","password":true,"vac":true,"version":"7757534","steam_id":85568392924964315,"keywords":["cp","nocrits","nodmgspread","uncletopia"],"game_id":440,"stv_port":27086,"stv_name":"Uncletopia | London | 8 | Community | STV","players":[{"user_id":4,"name":"˹Fate's·Marionette˼","steam_id":76561198034197381,"connected_time":322000000000,"state":"active","ping":48},{"user_id":5,"name":"bloxino","steam_id":76561199181762195,"connected_time":156000000000,"state":"active","ping":251}]},{"server_id":300,"name":"Uncletopia | Montréal | 1 | All Maps","name_short":"mtl-1","host":"mtl-1.ca.uncletopia.com","port":27015,"enabled":true,"region":"us-east","cc":"ca","latitude":45.50889,"longitude":-73.56167,"reserved":0,"last_update":"0001-01-01T00:00:00Z","name_a2s":"Uncletopia | Montréal | 1 | All Maps","protocol":17,"map":"pl_pier","folder":"tf","game":"Team Fortress","app_id":440,"player_count":0,"max_players":24,"Bots":0,"server_type":"Dedicated","server_os":"Linux","password":true,"vac":true,"version":"7757534","steam_id":85568392924500087,"keywords":["nocrits","nodmgspread","payload","uncletopia"],"game_id":440,"stv_port":27016,"stv_name":"Uncletopia | Montréal | 1 | All Maps | STV","players":null},{"server_id":301,"name":"Uncletopia | Montréal | 2 | All Maps","name_short":"mtl-2","host":"mtl-1.ca.uncletopia.com","port":27025,"enabled":true,"region":"us-east","cc":"ca","latitude":45.50889,"longitude":-73.56167,"reserved":0,"last_update":"0001-01-01T00:00:00Z","name_a2s":"Uncletopia | Montréal | 2 | All Maps","protocol":17,"map":"cp_sunshine","folder":"tf","game":"Team Fortress","app_id":440,"player_count":0,"max_players":24,"Bots":0,"server_type":"Dedicated","server_os":"Linux","password":true,"vac":true,"version":"7757534","steam_id":85568392924500088,"keywords":["cp","nocrits","nodmgspread","uncletopia"],"game_id":440,"stv_port":27026,"stv_name":"Uncletopia | Montréal | 2 | All Maps | STV","players":null},{"server_id":302,"name":"Uncletopia | Montréal | 3 | All Maps","name_short":"mtl-3","host":"mtl-1.ca.uncletopia.com","port":27035,"enabled":true,"region":"us-east","cc":"ca","latitude":45.50889,"longitude":-73.56167,"reserved":0,"last_update":"0001-01-01T00:00:00Z","name_a2s":"Uncletopia | Montréal | 3 | All Maps","protocol":17,"map":"pl_frontier_final","folder":"tf","game":"Team Fortress","app_id":440,"player_count":0,"max_players":24,"Bots":0,"server_type":"Dedicated","server_os":"Linux","password":true,"vac":true,"version":"7757534","steam_id":85568392924500089,"keywords":["nocrits","nodmgspread","payload","uncletopia"],"game_id":440,"stv_port":27036,"stv_name":"Uncletopia | Montréal | 3 | All Maps | STV","players":null},{"server_id":303,"name":"Uncletopia | Montréal | 4 | No Payload","name_short":"mtl-4","host":"mtl-1.ca.uncletopia.com","port":27045,"enabled":true,"region":"us-east","cc":"ca","latitude":45.50889,"longitude":-73.56167,"reserved":0,"last_update":"0001-01-01T00:00:00Z","name_a2s":"Uncletopia | Montréal | 4 | No Payload","protocol":17,"map":"pl_pier","folder":"tf","game":"Team Fortress","app_id":440,"player_count":0,"max_players":24,"Bots":0,"server_type":"Dedicated","server_os":"Linux","password":true,"vac":true,"version":"7757534","steam_id":85568392924500090,"keywords":["nocrits","nodmgspread","payload","uncletopia"],"game_id":440,"stv_port":27046,"stv_name":"Uncletopia | Montréal | 4 | No Payload | STV","players":null},{"server_id":13,"name":"Uncletopia | New York City | 1 | All Maps","name_short":"nyc-1","host":"nyc-1.us.uncletopia.com","port":27015,"enabled":true,"region":"us-east","cc":"us","latitude":40.73061,"longitude":-73.93524,"reserved":0,"last_update":"0001-01-01T00:00:00Z","name_a2s":"Uncletopia | New York City | 1 | All Maps","protocol":17,"map":"cp_mountainlab","folder":"tf","game":"Team Fortress","app_id":440,"player_count":0,"max_players":24,"Bots":0,"server_type":"Dedicated","server_os":"Linux","password":true,"vac":true,"version":"7757534","steam_id":85568392924469993,"keywords":["cp","nocrits","nodmgspread","uncletopia"],"game_id":440,"stv_port":27016,"stv_name":"Uncletopia | New York City | 1 | All Maps | STV","players":null},{"server_id":14,"name":"Uncletopia | New York City | 2 | All Maps","name_short":"nyc-2","host":"nyc-1.us.uncletopia.com","port":27025,"enabled":true,"region":"us-east","cc":"us","latitude":40.73061,"longitude":-73.93524,"reserved":0,"last_update":"0001-01-01T00:00:00Z","name_a2s":"Uncletopia | New York City | 2 | All Maps","protocol":17,"map":"cp_dustbowl","folder":"tf","game":"Team Fortress","app_id":440,"player_count":0,"max_players":24,"Bots":0,"server_type":"Dedicated","server_os":"Linux","password":true,"vac":true,"version":"7757534","steam_id":85568392924469994,"keywords":["cp","nocrits","nodmgspread","uncletopia"],"game_id":440,"stv_port":27026,"stv_name":"Uncletopia | New York City | 2 | All Maps | STV","players":null},{"server_id":15,"name":"Uncletopia | New York City | 3 | Stopwatch Beta","name_short":"nyc-3","host":"nyc-1.us.uncletopia.com","port":27035,"enabled":true,"region":"us-east","cc":"us","latitude":40.73061,"longitude":-73.93524,"reserved":0,"last_update":"0001-01-01T00:00:00Z","name_a2s":"Uncletopia | New York City | 3 | Stopwatch Beta","protocol":17,"map":"koth_cascade","folder":"tf","game":"Team Fortress","app_id":440,"player_count":0,"max_players":24,"Bots":0,"server_type":"Dedicated","server_os":"Linux","password":true,"vac":true,"version":"7757534","steam_id":85568392924742820,"keywords":["cp","nocrits","nodmgspread","uncletopia"],"game_id":440,"stv_port":27036,"stv_name":"Uncletopia | New York City | 3 | Stopwatch Beta | STV","players":null},{"server_id":16,"name":"Uncletopia | New York City | 4 | Community","name_short":"nyc-4","host":"nyc-1.us.uncletopia.com","port":27045,"enabled":true,"region":"us-east","cc":"us","latitude":40.73061,"longitude":-73.93524,"reserved":0,"last_update":"0001-01-01T00:00:00Z","name_a2s":"Uncletopia | New York City | 4 | Community","protocol":17,"map":"pl_frontier_final","folder":"tf","game":"Team Fortress","app_id":440,"player_count":0,"max_players":24,"Bots":0,"server_type":"Dedicated","server_os":"Linux","password":true,"vac":true,"version":"7757534","steam_id":85568392924742821,"keywords":["nocrits","nodmgspread","payload","uncletopia"],"game_id":440,"stv_port":27046,"stv_name":"Uncletopia | New York City | 4 | Community | STV","players":null},{"server_id":142,"name":"Uncletopia | São Paulo | 1 | All Maps","name_short":"sao-1","host":"sao-1.br.uncletopia.com","port":27015,"enabled":true,"region":"sa","cc":"br","latitude":-23.533773,"longitude":-46.62529,"reserved":0,"last_update":"0001-01-01T00:00:00Z","name_a2s":"Uncletopia | São Paulo | 1 | All Maps","protocol":17,"map":"cp_altitude","folder":"tf","game":"Team Fortress","app_id":440,"player_count":0,"max_players":24,"Bots":0,"server_type":"Dedicated","server_os":"Linux","password":true,"vac":true,"version":"7757534","steam_id":85568392924469996,"keywords":["cp","nocrits","nodmgspread","uncletopia"],"game_id":440,"stv_port":27016,"stv_name":"Uncletopia | São Paulo | 1 | All Maps | STV","players":null},{"server_id":143,"name":"Uncletopia | São Paulo | 2 | All Maps","name_short":"sao-2","host":"sao-2.br.uncletopia.com","port":27015,"enabled":true,"region":"sa","cc":"br","latitude":-23.533773,"longitude":-46.62529,"reserved":0,"last_update":"0001-01-01T00:00:00Z","name_a2s":"Uncletopia | São Paulo | 2 | All Maps","protocol":17,"map":"koth_viaduct","folder":"tf","game":"Team Fortress","app_id":440,"player_count":0,"max_players":24,"Bots":0,"server_type":"Dedicated","server_os":"Linux","password":true,"vac":true,"version":"7757534","steam_id":85568392924485349,"keywords":["cp","nocrits","nodmgspread","uncletopia"],"game_id":440,"stv_port":27016,"stv_name":"Uncletopia | São Paulo | 2 | All Maps | STV","players":null},{"server_id":7,"name":"Uncletopia | Seattle | 1 | All Maps","name_short":"sea-1","host":"sea-1.us.uncletopia.com","port":27015,"enabled":true,"region":"us-west","cc":"us","latitude":47.608013,"longitude":-122.33517,"reserved":0,"last_update":"0001-01-01T00:00:00Z","name_a2s":"Uncletopia | Seattle | 1 | All Maps","protocol":17,"map":"koth_lakeside_final","folder":"tf","game":"Team Fortress","app_id":440,"player_count":0,"max_players":24,"Bots":0,"server_type":"Dedicated","server_os":"Linux","password":true,"vac":true,"version":"7757534","steam_id":85568392924469997,"keywords":["cp","nocrits","nodmgspread","uncletopia"],"game_id":440,"stv_port":27016,"stv_name":"Uncletopia | Seattle | 1 | All Maps | STV","players":null},{"server_id":119,"name":"Uncletopia | Seattle | 2 | All Maps","name_short":"sea-2","host":"sea-1.us.uncletopia.com","port":27025,"enabled":true,"region":"us-west","cc":"us","latitude":47.608013,"longitude":-122.33517,"reserved":0,"last_update":"0001-01-01T00:00:00Z","name_a2s":"Uncletopia | Seattle | 2 | All Maps","protocol":17,"map":"koth_viaduct","folder":"tf","game":"Team Fortress","app_id":440,"player_count":0,"max_players":24,"Bots":0,"server_type":"Dedicated","server_os":"Linux","password":true,"vac":true,"version":"7757534","steam_id":85568392924469998,"keywords":["cp","nocrits","nodmgspread","uncletopia"],"game_id":440,"stv_port":27026,"stv_name":"Uncletopia | Seattle | 2 | All Maps | STV","players":null},{"server_id":406,"name":"Uncletopia | Seattle | 3 | Stopwatch Beta","name_short":"sea-3","host":"sea-1.us.uncletopia.com","port":27035,"enabled":true,"region":"us-west","cc":"us","latitude":47.608013,"longitude":-122.33517,"reserved":0,"last_update":"0001-01-01T00:00:00Z","name_a2s":"Uncletopia | Seattle | 3 | Stopwatch Beta","protocol":17,"map":"koth_highpass","folder":"tf","game":"Team Fortress","app_id":440,"player_count":0,"max_players":24,"Bots":0,"server_type":"Dedicated","server_os":"Linux","password":true,"vac":true,"version":"7757534","steam_id":85568392924515217,"keywords":["cp","nocrits","nodmgspread","uncletopia"],"game_id":440,"stv_port":27036,"stv_name":"Uncletopia | Seattle | 3 | Stopwatch Beta | STV","players":null},{"server_id":17,"name":"Uncletopia | San Francisco | 1 | All Maps","name_short":"sfo-1","host":"sfo-1.us.uncletopia.com","port":27015,"enabled":true,"region":"us-west","cc":"us","latitude":37.77397,"longitude":-122.4313,"reserved":0,"last_update":"0001-01-01T00:00:00Z","name_a2s":"Uncletopia | San Francisco | 1 | All Maps","protocol":17,"map":"cp_sunshine","folder":"tf","game":"Team Fortress","app_id":440,"player_count":0,"max_players":24,"Bots":0,"server_type":"Dedicated","server_os":"Linux","password":true,"vac":true,"version":"7757534","steam_id":85568392924469999,"keywords":["cp","nocrits","nodmgspread","uncletopia"],"game_id":440,"stv_port":27016,"stv_name":"Uncletopia | San Francisco | 1 | All Maps | STV","players":null},{"server_id":18,"name":"Uncletopia | San Francisco | 2 | All Maps","name_short":"sfo-2","host":"sfo-1.us.uncletopia.com","port":27025,"enabled":true,"region":"us-west","cc":"us","latitude":37.77397,"longitude":-122.4313,"reserved":0,"last_update":"0001-01-01T00:00:00Z","name_a2s":"Uncletopia | San Francisco | 2 | All Maps","protocol":17,"map":"koth_viaduct","folder":"tf","game":"Team Fortress","app_id":440,"player_count":0,"max_players":24,"Bots":0,"server_type":"Dedicated","server_os":"Linux","password":true,"vac":true,"version":"7757534","steam_id":85568392924470000,"keywords":["cp","nocrits","nodmgspread","uncletopia"],"game_id":440,"stv_port":27026,"stv_name":"Uncletopia | San Francisco | 2 | All Maps | STV","players":null},{"server_id":19,"name":"Uncletopia | San Francisco | 3 | Stopwatch Beta","name_short":"sfo-3","host":"sfo-1.us.uncletopia.com","port":27035,"enabled":true,"region":"us-west","cc":"us","latitude":37.77397,"longitude":-122.4313,"reserved":0,"last_update":"0001-01-01T00:00:00Z","name_a2s":"Uncletopia | San Francisco | 3 | Stopwatch Beta","protocol":17,"map":"koth_lakeside_final","folder":"tf","game":"Team Fortress","app_id":440,"player_count":0,"max_players":24,"Bots":0,"server_type":"Dedicated","server_os":"Linux","password":true,"vac":true,"version":"7757534","steam_id":85568392924742824,"keywords":["cp","nocrits","nodmgspread","uncletopia"],"game_id":440,"stv_port":27036,"stv_name":"Uncletopia | San Francisco | 3 | Stopwatch Beta | STV","players":null},{"server_id":20,"name":"Uncletopia | San Francisco | 4 | Community","name_short":"sfo-4","host":"sfo-1.us.uncletopia.com","port":27045,"enabled":true,"region":"us-west","cc":"us","latitude":37.77397,"longitude":-122.4313,"reserved":0,"last_update":"0001-01-01T00:00:00Z","name_a2s":"Uncletopia | San Francisco | 4 | Community","protocol":17,"map":"workshop/rd_asteroid_redux_b1.ugc2154902912","folder":"tf","game":"Team Fortress","app_id":440,"player_count":0,"max_players":24,"Bots":0,"server_type":"Dedicated","server_os":"Linux","password":true,"vac":true,"version":"7757534","steam_id":85568392924742826,"keywords":["beta","nocrits","nodmgspread","rd","uncletopia"],"game_id":440,"stv_port":27046,"stv_name":"Uncletopia | San Francisco | 4 | Community | STV","players":null},{"server_id":141,"name":"Uncletopia | Sydney | 1 | All Maps","name_short":"syd-1","host":"syd-1.au.uncletopia.com","port":27015,"enabled":true,"region":"au","cc":"au","latitude":-33.865143,"longitude":151.2099,"reserved":0,"last_update":"0001-01-01T00:00:00Z","name_a2s":"Uncletopia | Sydney | 1 | All Maps","protocol":17,"map":"koth_viaduct","folder":"tf","game":"Team Fortress","app_id":440,"player_count":24,"max_players":24,"Bots":0,"server_type":"Dedicated","server_os":"Linux","password":true,"vac":true,"version":"7757534","steam_id":85568392924470001,"keywords":["cp","nocrits","nodmgspread","uncletopia"],"game_id":440,"stv_port":27016,"stv_name":"Uncletopia | Sydney | 1 | All Maps | STV","players":[{"user_id":672,"name":"the Lad #savetf2","steam_id":76561198865537226,"connected_time":801000000000,"state":"active","ping":88},{"user_id":669,"name":"weezer","steam_id":76561199439508788,"connected_time":890000000000,"state":"active","ping":65},{"user_id":647,"name":"仙女头子于谦","steam_id":76561199031075505,"connected_time":2332000000000,"state":"active","ping":173},{"user_id":661,"name":"l333am","steam_id":76561198363218204,"connected_time":1458000000000,"state":"active","ping":68},{"user_id":660,"name":"Mr. Venom","steam_id":76561198155354590,"connected_time":1588000000000,"state":"active","ping":167},{"user_id":673,"name":"EpicGuy4227","steam_id":76561198094132328,"connected_time":778000000000,"state":"active","ping":58},{"user_id":670,"name":"Van","steam_id":76561198027324852,"connected_time":868000000000,"state":"active","ping":80},{"user_id":675,"name":"♥ Sharpy \u003e v \u003c","steam_id":76561198091613743,"connected_time":731000000000,"state":"active","ping":94},{"user_id":674,"name":"Batering","steam_id":76561198039849442,"connected_time":753000000000,"state":"active","ping":56},{"user_id":667,"name":"bison","steam_id":76561198183851230,"connected_time":953000000000,"state":"active","ping":77},{"user_id":646,"name":"Ebz LOp","steam_id":76561199036756814,"connected_time":2338000000000,"state":"active","ping":64},{"user_id":677,"name":"Lincoln2603","steam_id":76561198170236666,"connected_time":673000000000,"state":"active","ping":44},{"user_id":676,"name":"ZooLillia","steam_id":76561198163270962,"connected_time":727000000000,"state":"active","ping":59},{"user_id":681,"name":"Jex","steam_id":76561198296071105,"connected_time":480000000000,"state":"active","ping":50},{"user_id":650,"name":"gato","steam_id":76561198066726621,"connected_time":2084000000000,"state":"active","ping":56},{"user_id":547,"name":"the normoaner","steam_id":76561198082423230,"connected_time":9373000000000,"state":"active","ping":77},{"user_id":659,"name":"PaperClip","steam_id":76561198348035778,"connected_time":1654000000000,"state":"active","ping":60},{"user_id":544,"name":"Charm","steam_id":76561198028891054,"connected_time":9657000000000,"state":"active","ping":61},{"user_id":588,"name":"Oysenberry","steam_id":76561198125443335,"connected_time":6210000000000,"state":"active","ping":45},{"user_id":682,"name":"Bamooxa","steam_id":76561198067160709,"connected_time":328000000000,"state":"active","ping":83},{"user_id":683,"name":"Nyk","steam_id":76561198125000580,"connected_time":310000000000,"state":"active","ping":45},{"user_id":655,"name":"Distilledrain41","steam_id":76561198272717119,"connected_time":1883000000000,"state":"active","ping":49},{"user_id":662,"name":"seiran","steam_id":76561198880907232,"connected_time":1221000000000,"state":"active","ping":103},{"user_id":643,"name":"FyreFeat","steam_id":76561198068428930,"connected_time":2686000000000,"state":"active","ping":58}]},{"server_id":123,"name":"Uncletopia | Sydney | 2 | All Maps","name_short":"syd-2","host":"syd-1.au.uncletopia.com","port":27025,"enabled":true,"region":"au","cc":"au","latitude":-33.865143,"longitude":151.2099,"reserved":0,"last_update":"0001-01-01T00:00:00Z","name_a2s":"Uncletopia | Sydney | 2 | All Maps","protocol":17,"map":"pl_upward","folder":"tf","game":"Team Fortress","app_id":440,"player_count":24,"max_players":24,"Bots":0,"server_type":"Dedicated","server_os":"Linux","password":true,"vac":true,"version":"7757534","steam_id":85568392924470002,"keywords":["nocrits","nodmgspread","payload","uncletopia"],"game_id":440,"stv_port":27026,"stv_name":"Uncletopia | Sydney | 2 | All Maps | STV","players":[{"user_id":127,"name":"SIRROM12 (SIRR)","steam_id":76561198116738329,"connected_time":202000000000,"state":"active","ping":67},{"user_id":124,"name":"Nackle","steam_id":76561198176111621,"connected_time":236000000000,"state":"active","ping":88},{"user_id":108,"name":"Ethos","steam_id":76561197970514852,"connected_time":1591000000000,"state":"active","ping":59},{"user_id":125,"name":"itsame","steam_id":76561198059284918,"connected_time":228000000000,"state":"active","ping":45},{"user_id":106,"name":"Sancho","steam_id":76561197995288524,"connected_time":1637000000000,"state":"active","ping":67},{"user_id":121,"name":"Wallahi_Legend","steam_id":76561198442691771,"connected_time":545000000000,"state":"active","ping":66},{"user_id":122,"name":"uncle nephew junior","steam_id":76561198930683342,"connected_time":394000000000,"state":"active","ping":52},{"user_id":123,"name":"Goose McBroose","steam_id":76561198232287708,"connected_time":363000000000,"state":"active","ping":72},{"user_id":113,"name":"T-nooki™","steam_id":76561198054135837,"connected_time":1356000000000,"state":"active","ping":54},{"user_id":119,"name":"mathgeniuswhocares","steam_id":76561198293036993,"connected_time":901000000000,"state":"active","ping":42},{"user_id":87,"name":"Goblin","steam_id":76561198994253961,"connected_time":3117000000000,"state":"active","ping":110},{"user_id":133,"name":"DÄNK D0PER$ØN","steam_id":76561198127257666,"connected_time":13000000000,"state":"spawning","ping":60},{"user_id":120,"name":"yoga","steam_id":76561199163801558,"connected_time":873000000000,"state":"active","ping":45},{"user_id":112,"name":"piratespy22","steam_id":76561198042198744,"connected_time":1380000000000,"state":"active","ping":45},{"user_id":83,"name":"Lain","steam_id":76561198149217307,"connected_time":3387000000000,"state":"active","ping":90},{"user_id":129,"name":"Motormouth","steam_id":76561197980851839,"connected_time":151000000000,"state":"active","ping":85},{"user_id":116,"name":"sweet","steam_id":76561198075311236,"connected_time":1134000000000,"state":"active","ping":47},{"user_id":107,"name":"Luden","steam_id":76561198069165922,"connected_time":1605000000000,"state":"active","ping":71},{"user_id":131,"name":"L'Baguette","steam_id":76561199208625933,"connected_time":104000000000,"state":"active","ping":58},{"user_id":117,"name":"ghostface","steam_id":76561198191945905,"connected_time":1133000000000,"state":"active","ping":55},{"user_id":132,"name":"ChickenHatMan","steam_id":76561198119527347,"connected_time":56000000000,"state":"spawning","ping":66},{"user_id":109,"name":"Nat","steam_id":76561197995044074,"connected_time":1578000000000,"state":"active","ping":164},{"user_id":84,"name":"PapaCoe","steam_id":76561198281000760,"connected_time":3382000000000,"state":"active","ping":102},{"user_id":134,"name":"average nothing enjoyer","steam_id":76561198302936089,"connected_time":9000000000,"state":"active","ping":129}]},{"server_id":395,"name":"Uncletopia | Sydney | 3 | All Maps","name_short":"syd-3","host":"syd-1.au.uncletopia.com","port":27035,"enabled":true,"region":"au","cc":"au","latitude":-33.865143,"longitude":151.2099,"reserved":0,"last_update":"0001-01-01T00:00:00Z","name_a2s":"Uncletopia | Sydney | 3 | All Maps","protocol":17,"map":"pl_snowycoast","folder":"tf","game":"Team Fortress","app_id":440,"player_count":0,"max_players":24,"Bots":0,"server_type":"Dedicated","server_os":"Linux","password":true,"vac":true,"version":"7757534","steam_id":85568392925194467,"keywords":["nocrits","nodmgspread","payload","uncletopia"],"game_id":440,"stv_port":27036,"stv_name":"Uncletopia | Sydney | 3 | All Maps | STV","players":null},{"server_id":396,"name":"Uncletopia | Sydney | 4 | All Maps","name_short":"syd-4","host":"syd-1.au.uncletopia.com","port":27045,"enabled":true,"region":"au","cc":"au","latitude":-33.865143,"longitude":151.2099,"reserved":0,"last_update":"0001-01-01T00:00:00Z","name_a2s":"Uncletopia | Sydney | 4 | All Maps","protocol":17,"map":"koth_lakeside_final","folder":"tf","game":"Team Fortress","app_id":440,"player_count":1,"max_players":24,"Bots":0,"server_type":"Dedicated","server_os":"Linux","password":true,"vac":true,"version":"7757534","steam_id":85568392925397958,"keywords":["cp","nocrits","nodmgspread","uncletopia"],"game_id":440,"stv_port":27046,"stv_name":"Uncletopia | Sydney | 4 | All Maps | STV","players":[{"user_id":11,"name":"SpEnZeR","steam_id":76561199470854321,"connected_time":75000000000,"state":"active","ping":95}]},{"server_id":58,"name":"Uncletopia | Sydney | 5 | Stopwatch Beta","name_short":"syd-5","host":"syd-1.au.uncletopia.com","port":27055,"enabled":true,"region":"au","cc":"au","latitude":-33.865143,"longitude":151.2099,"reserved":0,"last_update":"0001-01-01T00:00:00Z","name_a2s":"Uncletopia | Sydney | 5 | Stopwatch Beta","protocol":17,"map":"koth_cascade","folder":"tf","game":"Team Fortress","app_id":440,"player_count":0,"max_players":24,"Bots":0,"server_type":"Dedicated","server_os":"Linux","password":true,"vac":true,"version":"7757534","steam_id":85568392925397959,"keywords":["cp","nocrits","nodmgspread","uncletopia"],"game_id":440,"stv_port":27056,"stv_name":"Uncletopia | Sydney | 5 | Stopwatch Beta | STV","players":null},{"server_id":59,"name":"Uncletopia | Sydney | 6 | Community","name_short":"syd-6","host":"syd-1.au.uncletopia.com","port":27065,"enabled":true,"region":"au","cc":"au","latitude":-33.865143,"longitude":151.2099,"reserved":0,"last_update":"0001-01-01T00:00:00Z","name_a2s":"Uncletopia | Sydney | 6 | Community","protocol":17,"map":"workshop/pl_boundary_final1.ugc456799153","folder":"tf","game":"Team Fortress","app_id":440,"player_count":0,"max_players":24,"Bots":0,"server_type":"Dedicated","server_os":"Linux","password":true,"vac":true,"version":"7757534","steam_id":85568392925397960,"keywords":["nocrits","nodmgspread","payload","uncletopia"],"game_id":440,"stv_port":27066,"stv_name":"Uncletopia | Sydney | 6 | Community | STV","players":null},{"server_id":49,"name":"Uncletopia | Warsaw | 1 | All Maps","name_short":"waw-1","host":"waw-1.pl.uncletopia.com","port":27015,"enabled":true,"region":"eu","cc":"pl","latitude":52.2297,"longitude":21.017532,"reserved":0,"last_update":"0001-01-01T00:00:00Z","name_a2s":"","protocol":0,"map":"","folder":"","game":"","app_id":0,"player_count":0,"max_players":0,"Bots":0,"server_type":"","server_os":"","password":false,"vac":false,"version":"","steam_id":0,"keywords":null,"game_id":0,"stv_port":0,"stv_name":"","players":null},{"server_id":50,"name":"Uncletopia | Warsaw | 2 | All Maps","name_short":"waw-2","host":"waw-1.pl.uncletopia.com","port":27025,"enabled":true,"region":"eu","cc":"pl","latitude":52.2297,"longitude":21.017532,"reserved":0,"last_update":"0001-01-01T00:00:00Z","name_a2s":"Uncletopia | Warsaw | 2 | All Maps","protocol":17,"map":"koth_viaduct","folder":"tf","game":"Team Fortress","app_id":440,"player_count":0,"max_players":24,"Bots":0,"server_type":"Dedicated","server_os":"Linux","password":true,"vac":true,"version":"7757534","steam_id":85568392925397851,"keywords":["cp","nocrits","nodmgspread","uncletopia"],"game_id":440,"stv_port":27026,"stv_name":"Uncletopia | Warsaw | 2 | All Maps | STV","players":null},{"server_id":51,"name":"Uncletopia | Warsaw | 3 | All Maps","name_short":"waw-3","host":"waw-1.pl.uncletopia.com","port":27035,"enabled":true,"region":"eu","cc":"pl","latitude":52.2297,"longitude":21.017532,"reserved":0,"last_update":"0001-01-01T00:00:00Z","name_a2s":"Uncletopia | Warsaw | 3 | All Maps","protocol":17,"map":"pl_barnblitz","folder":"tf","game":"Team Fortress","app_id":440,"player_count":0,"max_players":24,"Bots":0,"server_type":"Dedicated","server_os":"Linux","password":true,"vac":true,"version":"7757534","steam_id":85568392925397852,"keywords":["nocrits","nodmgspread","payload","uncletopia"],"game_id":440,"stv_port":27036,"stv_name":"Uncletopia | Warsaw | 3 | All Maps | STV","players":null},{"server_id":52,"name":"Uncletopia | Warsaw | 4 | All Maps","name_short":"waw-4","host":"waw-1.pl.uncletopia.com","port":27045,"enabled":true,"region":"eu","cc":"pl","latitude":52.2297,"longitude":21.017532,"reserved":0,"last_update":"0001-01-01T00:00:00Z","name_a2s":"Uncletopia | Warsaw | 4 | All Maps","protocol":17,"map":"pl_upward","folder":"tf","game":"Team Fortress","app_id":440,"player_count":0,"max_players":24,"Bots":0,"server_type":"Dedicated","server_os":"Linux","password":true,"vac":true,"version":"7757534","steam_id":85568392925397853,"keywords":["nocrits","nodmgspread","payload","uncletopia"],"game_id":440,"stv_port":27046,"stv_name":"Uncletopia | Warsaw | 4 | All Maps | STV","players":null},{"server_id":53,"name":"Uncletopia | Warsaw | 5 | Stopwatch Beta","name_short":"waw-5","host":"waw-1.pl.uncletopia.com","port":27055,"enabled":true,"region":"eu","cc":"pl","latitude":52.2297,"longitude":21.017532,"reserved":0,"last_update":"0001-01-01T00:00:00Z","name_a2s":"Uncletopia | Warsaw | 5 | Stopwatch Beta","protocol":17,"map":"pl_pier","folder":"tf","game":"Team Fortress","app_id":440,"player_count":0,"max_players":24,"Bots":0,"server_type":"Dedicated","server_os":"Linux","password":true,"vac":true,"version":"7757534","steam_id":85568392925397854,"keywords":["nocrits","nodmgspread","payload","uncletopia"],"game_id":440,"stv_port":27056,"stv_name":"Uncletopia | Warsaw | 5 | Stopwatch Beta | STV","players":null},{"server_id":54,"name":"Uncletopia | Warsaw | 6 | Community","name_short":"waw-6","host":"waw-1.pl.uncletopia.com","port":27065,"enabled":true,"region":"eu","cc":"pl","latitude":52.2297,"longitude":21.017532,"reserved":0,"last_update":"0001-01-01T00:00:00Z","name_a2s":"Uncletopia | Warsaw | 6 | Community","protocol":17,"map":"koth_highpass","folder":"tf","game":"Team Fortress","app_id":440,"player_count":0,"max_players":24,"Bots":0,"server_type":"Dedicated","server_os":"Linux","password":true,"vac":true,"version":"7757534","steam_id":85568392925397856,"keywords":["cp","nocrits","nodmgspread","uncletopia"],"game_id":440,"stv_port":27066,"stv_name":"Uncletopia | Warsaw | 6 | Community | STV","players":null}]}