{"status":true,"message":"","result":[{"server_id":9,"name":"Uncletopia | Atlanta | 1 | All Maps","name_short":"atl-1","host":"atl-1.us.uncletopia.com","port":27015,"enabled":true,"region":"us-east","cc":"us","latitude":33.753746,"longitude":-84.38633,"reserved":0,"last_update":"0001-01-01T00:00:00Z","name_a2s":"Uncletopia | Atlanta | 1 | All Maps","protocol":17,"map":"pl_upward","folder":"tf","game":"Team Fortress","app_id":440,"player_count":24,"max_players":24,"Bots":0,"server_type":"Dedicated","server_os":"Linux","password":true,"vac":true,"version":"7757534","steam_id":85568392924469982,"keywords":["nocrits","nodmgspread","payload","uncletopia"],"game_id":440,"stv_port":27016,"stv_name":"Uncletopia | Atlanta | 1 | All Maps | STV","players":[{"user_id":585,"name":"G_Bob","steam_id":76561198098133233,"connected_time":4713000000000,"state":"active","ping":61},{"user_id":606,"name":"BLU1 | cola","steam_id":76561198374390458,"connected_time":1967000000000,"state":"active","ping":56},{"user_id":620,"name":"RED1 | eish","steam_id":76561198089463603,"connected_time":274000000000,"state":"active","ping":117},{"user_id":610,"name":"RED1 | nomad","steam_id":76561197998740399,"connected_time":1724000000000,"state":"active","ping":69},{"user_id":604,"name":"火星 | Marsy","steam_id":76561198014979892,"connected_time":1973000000000,"state":"active","ping":67},{"user_id":466,"name":"lil hog","steam_id":76561199230929836,"connected_time":19186000000000,"state":"active","ping":80},{"user_id":608,"name":"RED1 | Lylith","steam_id":76561198386687546,"connected_time":1899000000000,"state":"active","ping":53},{"user_id":602,"name":"You Want Me","steam_id":76561198135492119,"connected_time":2207000000000,"state":"active","ping":73},{"user_id":603,"name":"Miramar","steam_id":76561198022057653,"connected_time":1985000000000,"state":"active","ping":82},{"user_id":518,"name":"RED1 | Le4n!!!","steam_id":76561198045522596,"connected_time":14699000000000,"state":"active","ping":67},{"user_id":613,"name":"ATL1 | LuckyZero-_-","steam_id":76561198139891051,"connected_time":645000000000,"state":"active","ping":72},{"user_id":568,"name":"BLU1 Save your wifi","steam_id":76561198286147372,"connected_time":7377000000000,"state":"active","ping":56},{"user_id":570,"name":"RED1 | icyy","steam_id":76561198968001329,"connected_time":5817000000000,"state":"active","ping":50},{"user_id":558,"name":"stink","steam_id":76561198099318923,"connected_time":8695000000000,"state":"active","ping":77},{"user_id":552,"name":"ATL1 | Kramer","steam_id":76561198083595936,"connected_time":9824000000000,"state":"active","ping":77},{"user_id":607,"name":"tree","steam_id":76561198116885731,"connected_time":1938000000000,"state":"active","ping":78},{"user_id":589,"name":"Laura Palmer Gaming","steam_id":76561198282965733,"connected_time":3853000000000,"state":"active","ping":66},{"user_id":615,"name":"luxin","steam_id":76561198399383047,"connected_time":638000000000,"state":"active","ping":58},{"user_id":621,"name":"Shmoopy","steam_id":76561198030459152,"connected_time":261000000000,"state":"active","ping":63},{"user_id":576,"name":"Tiktaalik","steam_id":76561198856050653,"connected_time":5732000000000,"state":"active","ping":96},{"user_id":564,"name":"melancholy","steam_id":76561198024301465,"connected_time":7444000000000,"state":"active","ping":46},{"user_id":619,"name":"BLU1 | Shame","steam_id":76561198100490994,"connected_time":586000000000,"state":"active","ping":62},{"user_id":605,"name":"gettysburg","steam_id":76561198016157051,"connected_time":1972000000000,"state":"active","ping":57},{"user_id":623,"name":"Spiffyputt","steam_id":76561198439345687,"connected_time":190000000000,"state":"active","ping":66}]},{"server_id":400,"name":"Uncletopia | Atlanta | 3 | Stopwatch Beta","name_short":"atl-3","host":"atl-1.us.uncletopia.com","port":27035,"enabled":true,"region":"us-east","cc":"us","latitude":33.753746,"longitude":-84.38633,"reserved":0,"last_update":"0001-01-01T00:00:00Z","name_a2s":"Uncletopia | Atlanta | 3 | Stopwatch Beta","protocol":17,"map":"workshop/pl_barnblitz_pro7.ugc582280235","folder":"tf","game":"Team Fortress","app_id":440,"player_count":0,"max_players":24,"Bots":0,"server_type":"Dedicated","server_os":"Linux","password":true,"vac":true,"version":"7757534","steam_id":85568392924515187,"keywords":["nocrits","nodmgspread","payload","uncletopia"],"game_id":440,"stv_port":27036,"stv_name":"Uncletopia | Atlanta | 3 | Stopwatch Beta | STV","players":null},{"server_id":401,"name":"Uncletopia | Atlanta | 4 | No Payload","name_short":"atl-4","host":"atl-1.us.uncletopia.com","port":27045,"enabled":true,"region":"us-east","cc":"us","latitude":33.753746,"longitude":-84.38633,"reserved":0,"last_update":"0001-01-01T00:00:00Z","name_a2s":"Uncletopia | Atlanta | 4 | No Payload","protocol":17,"map":"pl_pier","folder":"tf","game":"Team Fortress","app_id":440,"player_count":0,"max_players":24,"Bots":0,"server_type":"Dedicated","server_os":"Linux","password":true,"vac":true,"version":"7723704","steam_id":85568392924515188,"keywords":["nocrits","nodmgspread","payload","uncletopia"],"game_id":440,"stv_port":27046,"stv_name":"Uncletopia | Atlanta | 4 | No Payload | STV","players":null},{"server_id":2,"name":"Uncletopia | Chicago | 1 | All Maps","name_short":"chi-1","host":"chi-1.us.uncletopia.com","port":27015,"enabled":true,"region":"us-central","cc":"us","latitude":41.881832,"longitude":-87.62318,"reserved":0,"last_update":"0001-01-01T00:00:00Z","name_a2s":"Uncletopia | Chicago | 1 | All Maps","protocol":17,"map":"cp_snakewater_final1","folder":"tf","game":"Team Fortress","app_id":440,"player_count":24,"max_players":24,"Bots":0,"server_type":"Dedicated","server_os":"Linux","password":true,"vac":true,"version":"7757534","steam_id":85568392924469984,"keywords":["cp","nocrits","nodmgspread","uncletopia"],"game_id":440,"stv_port":27016,"stv_name":"Uncletopia | Chicago | 1 | All Maps | STV","players":[{"user_id":720,"name":"Post nut clarity","steam_id":76561198060246831,"connected_time":2687000000000,"state":"active","ping":90},{"user_id":779,"name":"BurnN8or101","steam_id":76561198132668224,"connected_time":1131000000000,"state":"active","ping":70},{"user_id":711,"name":"WannaSeeA","steam_id":76561198097701042,"connected_time":2957000000000,"state":"active","ping":72},{"user_id":659,"name":"tim-","steam_id":76561199119101315,"connected_time":3964000000000,"state":"active","ping":71},{"user_id":786,"name":"cyborgor","steam_id":76561198040782513,"connected_time":800000000000,"state":"active","ping":90},{"user_id":522,"name":"Fu Qian Qian","steam_id":76561199081837220,"connected_time":10743000000000,"state":"active","ping":80},{"user_id":780,"name":"Malex","steam_id":76561198012216805,"connected_time":1066000000000,"state":"active","ping":59},{"user_id":561,"name":"EmeraldCola","steam_id":76561198066663687,"connected_time":7075000000000,"state":"active","ping":69},{"user_id":599,"name":"Legion","steam_id":76561199036242643,"connected_time":4905000000000,"state":"active","ping":78},{"user_id":721,"name":"PastetheRabbit","steam_id":76561198152219815,"connected_time":2663000000000,"state":"active","ping":66},{"user_id":768,"name":"pokefan408","steam_id":76561199115740090,"connected_time":1895000000000,"state":"active","ping":59},{"user_id":723,"name":"akirajimbo","steam_id":76561197979960008,"connected_time":2565000000000,"state":"active","ping":51},{"user_id":794,"name":"bench","steam_id":76561198055339968,"connected_time":175000000000,"state":"active","ping":71},{"user_id":751,"name":"[]{}#^*+=","steam_id":76561198127039453,"connected_time":2090000000000,"state":"active","ping":101},{"user_id":781,"name":"Goomfulus","steam_id":76561198149987582,"connected_time":956000000000,"state":"active","ping":45},{"user_id":788,"name":"im pluckin the ol dental floss","steam_id":76561198110661425,"connected_time":571000000000,"state":"active","ping":97},{"user_id":593,"name":"Baka!⑨⑨⑨⑨","steam_id":76561198152948254,"connected_time":5249000000000,"state":"active","ping":68},{"user_id":783,"name":"primordialheath","steam_id":76561199386942638,"connected_time":948000000000,"state":"active","ping":66},{"user_id":790,"name":"._.","steam_id":76561198210196856,"connected_time":314000000000,"state":"active","ping":104},{"user_id":792,"name":"men in the fridge","steam_id":76561198097279968,"connected_time":247000000000,"state":"active","ping":71},{"user_id":793,"name":"hey beautiful!","steam_id":76561198224614084,"connected_time":222000000000,"state":"active","ping":75},{"user_id":787,"name":"Lia_Rein","steam_id":76561198151569597,"connected_time":588000000000,"state":"active","ping":142},{"user_id":767,"name":"lil bro","steam_id":76561198031675881,"connected_time":1912000000000,"state":"active","ping":59},{"user_id":690,"name":"Zubats |TAOZ|","steam_id":76561198041819445,"connected_time":3413000000000,"state":"active","ping":57}]},{"server_id":106,"name":"Uncletopia | Chicago | 2 | All Maps","name_short":"chi-2","host":"chi-1.us.uncletopia.com","port":27025,"enabled":true,"region":"us-central","cc":"us","latitude":41.881832,"longitude":-87.62318,"reserved":0,"last_update":"0001-01-01T00:00:00Z","name_a2s":"Uncletopia | Chicago | 2 | All Maps","protocol":17,"map":"pl_barnblitz","folder":"tf","game":"Team Fortress","app_id":440,"player_count":24,"max_players":24,"Bots":0,"server_type":"Dedicated","server_os":"Linux","password":true,"vac":true,"version":"7757534","steam_id":85568392924469985,"keywords":["nocrits","nodmgspread","payload","uncletopia"],"game_id":440,"stv_port":27026,"stv_name":"Uncletopia | Chicago | 2 | All Maps | STV","players":[{"user_id":748,"name":"Mervous Thrifty","steam_id":76561198063250819,"connected_time":3063000000000,"state":"active","ping":41},{"user_id":784,"name":"Droz misses shots","steam_id":76561198072555204,"connected_time":1081000000000,"state":"active","ping":48},{"user_id":793,"name":"helloyes_123","steam_id":76561198184669555,"connected_time":321000000000,"state":"active","ping":91},{"user_id":781,"name":"god's sleepiest soldier","steam_id":76561198992914023,"connected_time":1548000000000,"state":"active","ping":57},{"user_id":795,"name":"GreenApples","steam_id":76561198120559543,"connected_time":176000000000,"state":"active","ping":91},{"user_id":764,"name":"internet crush","steam_id":76561198068406937,"connected_time":1958000000000,"state":"active","ping":74},{"user_id":786,"name":"30day","steam_id":76561198219163831,"connected_time":1054000000000,"state":"active","ping":47},{"user_id":765,"name":"PhantomOc3lot","steam_id":76561198097648222,"connected_time":1950000000000,"state":"active","ping":66},{"user_id":766,"name":":(","steam_id":76561197960555601,"connected_time":1945000000000,"state":"active","ping":115},{"user_id":767,"name":"nintenbro64","steam_id":76561198091282261,"connected_time":1938000000000,"state":"active","ping":67},{"user_id":768,"name":"Hawkeye","steam_id":76561198037535203,"connected_time":1921000000000,"state":"active","ping":62},{"user_id":769,"name":"rubb3r","steam_id":76561198096874230,"connected_time":1860000000000,"state":"active","ping":65},{"user_id":770,"name":"Astro","steam_id":76561198116667442,"connected_time":1828000000000,"state":"active","ping":92},{"user_id":771,"name":"Ah, so Jolly !","steam_id":76561198347621919,"connected_time":1807000000000,"state":"active","ping":64},{"user_id":739,"name":"trans rat gaming","steam_id":76561198964321336,"connected_time":4589000000000,"state":"active","ping":77},{"user_id":772,"name":"TartMeringue","steam_id":76561198986757576,"connected_time":1799000000000,"state":"active","ping":79},{"user_id":790,"name":"AmazingPlasma","steam_id":76561199005527586,"connected_time":912000000000,"state":"active","ping":83},{"user_id":774,"name":"Vem","steam_id":76561198117273112,"connected_time":1761000000000,"state":"active","ping":79},{"user_id":775,"name":"Michael Morbius from \"Morbius\"","steam_id":76561198343024304,"connected_time":1744000000000,"state":"active","ping":70},{"user_id":787,"name":"noddlethenoodle","steam_id":76561198303850923,"connected_time":1047000000000,"state":"active","ping":54},{"user_id":788,"name":"Lucy","steam_id":76561198032590343,"connected_time":1012000000000,"state":"active","ping":89},{"user_id":791,"name":"DeadErebus","steam_id":76561198286117045,"connected_time":608000000000,"state":"active","ping":36},{"user_id":796,"name":"TheElderFrog","steam_id":76561197985743135,"connected_time":173000000000,"state":"active","ping":78},{"user_id":789,"name":"Goldbug","steam_id":76561198025221202,"connected_time":992000000000,"state":"active","ping":98}]},{"server_id":402,"name":"Uncletopia | Chicago | 3 | All Maps","name_short":"chi-3","host":"chi-1.us.uncletopia.com","port":27035,"enabled":true,"region":"us-central","cc":"us","latitude":41.881832,"longitude":-87.62318,"reserved":0,"last_update":"0001-01-01T00:00:00Z","name_a2s":"Uncletopia | Chicago | 3 | All Maps","protocol":17,"map":"pl_snowycoast","folder":"tf","game":"Team Fortress","app_id":440,"player_count":24,"max_players":24,"Bots":0,"server_type":"Dedicated","server_os":"Linux","password":true,"vac":true,"version":"7757534","steam_id":85568392924515191,"keywords":["nocrits","nodmgspread","payload","uncletopia"],"game_id":440,"stv_port":27036,"stv_name":"Uncletopia | Chicago | 3 | All Maps | STV","players":[{"user_id":602,"name":"Deviljinin","steam_id":76561198127549413,"connected_time":2251000000000,"state":"active","ping":65},{"user_id":609,"name":"Slippery","steam_id":76561199469441947,"connected_time":1478000000000,"state":"active","ping":50},{"user_id":615,"name":"Hydro","steam_id":76561198096334702,"connected_time":404000000000,"state":"active","ping":64},{"user_id":613,"name":"Sjsparrow","steam_id":76561197995352435,"connected_time":466000000000,"state":"active","ping":55},{"user_id":610,"name":"turt","steam_id":76561198260892128,"connected_time":1378000000000,"state":"active","ping":54},{"user_id":586,"name":"Summer","steam_id":76561198121692871,"connected_time":3018000000000,"state":"active","ping":65},{"user_id":565,"name":"META.exe","steam_id":76561199067098696,"connected_time":5183000000000,"state":"active","ping":85},{"user_id":587,"name":"finn (he/him)","steam_id":76561198257531708,"connected_time":3018000000000,"state":"active","ping":60},{"user_id":611,"name":"Cool Cool Mountain","steam_id":76561199004839490,"connected_time":1358000000000,"state":"active","ping":76},{"user_id":618,"name":"Randy \"the Man\" Johnson","steam_id":76561198039124445,"connected_time":378000000000,"state":"active","ping":93},{"user_id":617,"name":"Linko","steam_id":76561198073290788,"connected_time":385000000000,"state":"active","ping":61},{"user_id":593,"name":"3 fortnite vbucks","steam_id":76561198246007884,"connected_time":2933000000000,"state":"active","ping":70},{"user_id":594,"name":"Dr. Safety","steam_id":76561198085327188,"connected_time":2917000000000,"state":"active","ping":62},{"user_id":591,"name":"phone","steam_id":76561198029268743,"connected_time":2985000000000,"state":"active","ping":72},{"user_id":604,"name":"ape (real)","steam_id":76561198379444671,"connected_time":2026000000000,"state":"active","ping":45},{"user_id":592,"name":"NOLSEY","steam_id":76561198108959504,"connected_time":2978000000000,"state":"active","ping":53},{"user_id":619,"name":"Sarbanes-Oxley","steam_id":76561197975898479,"connected_time":353000000000,"state":"active","ping":78},{"user_id":596,"name":"SomeScuffedKid","steam_id":76561198086113234,"connected_time":2901000000000,"state":"active","ping":70},{"user_id":612,"name":"JHLO","steam_id":76561198074359967,"connected_time":1295000000000,"state":"active","ping":72},{"user_id":603,"name":"Cleric","steam_id":76561198045887994,"connected_time":2109000000000,"state":"active","ping":49},{"user_id":601,"name":"Zicky Nee","steam_id":76561198042601111,"connected_time":2454000000000,"state":"active","ping":70},{"user_id":605,"name":"RedHed","steam_id":76561199350870177,"connected_time":2014000000000,"state":"active","ping":71},{"user_id":614,"name":"bIG SH3P","steam_id":76561198008355029,"connected_time":426000000000,"state":"active","ping":86},{"user_id":600,"name":"MEATBALL","steam_id":76561198028499312,"connected_time":2734000000000,"state":"active","ping":64}]},{"server_id":403,"name":"Uncletopia | Chicago | 4 | All Maps","name_short":"chi-4","host":"chi-1.us.uncletopia.com","port":27045,"enabled":true,"region":"us-central","cc":"us","latitude":41.881832,"longitude":-87.62318,"reserved":0,"last_update":"0001-01-01T00:00:00Z","name_a2s":"Uncletopia | Chicago | 4 | All Maps","protocol":17,"map":"cp_snakewater_final1","folder":"tf","game":"Team Fortress","app_id":440,"player_count":24,"max_players":24,"Bots":0,"server_type":"Dedicated","server_os":"Linux","password":true,"vac":true,"version":"7757534","steam_id":85568392924515193,"keywords":["cp","nocrits","nodmgspread","uncletopia"],"game_id":440,"stv_port":27046,"stv_name":"Uncletopia | Chicago | 4 | All Maps | STV","players":[{"user_id":583,"name":"R4wb33fG4m1ng73","steam_id":76561198121372198,"connected_time":3717000000000,"state":"active","ping":79},{"user_id":628,"name":"amani","steam_id":76561198085310326,"connected_time":16000000000,"state":"spawning","ping":248},{"user_id":601,"name":"Goblin Mode","steam_id":76561198064870076,"connected_time":2076000000000,"state":"active","ping":96},{"user_id":616,"name":"Gary Budussy","steam_id":76561197969793969,"connected_time":661000000000,"state":"active","ping":54},{"user_id":619,"name":"SlimGrady","steam_id":76561198451231329,"connected_time":450000000000,"state":"active","ping":67},{"user_id":524,"name":"Morgster","steam_id":76561198131697761,"connected_time":7221000000000,"state":"active","ping":84},{"user_id":621,"name":"gancho","steam_id":76561198170706982,"connected_time":263000000000,"state":"active","ping":59},{"user_id":576,"name":"Varveer","steam_id":76561198218897383,"connected_time":3943000000000,"state":"active","ping":72},{"user_id":608,"name":"Matt.jpg","steam_id":76561198132469465,"connected_time":820000000000,"state":"active","ping":47},{"user_id":586,"name":"anal fiend","steam_id":76561198026844952,"connected_time":3581000000000,"state":"active","ping":101},{"user_id":587,"name":"cooltool21","steam_id":76561197996817585,"connected_time":3250000000000,"state":"active","ping":80},{"user_id":623,"name":"Mitchu The Bidness Man","steam_id":76561198102494381,"connected_time":217000000000,"state":"active","ping":62},{"user_id":557,"name":"wheresgeorge","steam_id":76561198986281248,"connected_time":4886000000000,"state":"active","ping":85},{"user_id":600,"name":"ogre confrontation","steam_id":76561198192654455,"connected_time":2234000000000,"state":"active","ping":78},{"user_id":577,"name":"MichaelMac6072","steam_id":76561198121038333,"connected_time":3938000000000,"state":"active","ping":67},{"user_id":622,"name":"Rx Auntie","steam_id":76561198051618393,"connected_time":252000000000,"state":"active","ping":68},{"user_id":588,"name":"Tripp","steam_id":76561198033705006,"connected_time":2940000000000,"state":"active","ping":105},{"user_id":599,"name":"psy","steam_id":76561198013195018,"connected_time":2276000000000,"state":"active","ping":78},{"user_id":624,"name":"f-f-fly","steam_id":76561198160847375,"connected_time":122000000000,"state":"active","ping":147},{"user_id":620,"name":"Mr. Mystical Perfection","steam_id":76561198036444997,"connected_time":441000000000,"state":"active","ping":90},{"user_id":613,"name":"Furry Saul Goodman","steam_id":76561198069580305,"connected_time":721000000000,"state":"active","ping":59},{"user_id":614,"name":"nickname 123","steam_id":76561198080234033,"connected_time":702000000000,"state":"active","ping":60},{"user_id":594,"name":"gasparmx","steam_id":76561197998611994,"connected_time":2471000000000,"state":"active","ping":117},{"user_id":626,"name":"Patisserie","steam_id":76561198239169752,"connected_time":96000000000,"state":"active","ping":61}]},{"server_id":36,"name":"Uncletopia | Chicago | 5 | All Maps","name_short":"chi-5","host":"chi-2.us.uncletopia.com","port":27015,"enabled":true,"region":"us-central","cc":"us","latitude":41.881832,"longitude":-87.62318,"reserved":0,"last_update":"0001-01-01T00:00:00Z","name_a2s":"Uncletopia | Chicago | 5 | All Maps","protocol":17,"map":"pl_badwater","folder":"tf","game":"Team Fortress","app_id":440,"player_count":24,"max_players":24,"Bots":0,"server_type":"Dedicated","server_os":"Linux","password":true,"vac":true,"version":"7757534","steam_id":85568392924866362,"keywords":["nocrits","nodmgspread","payload","uncletopia"],"game_id":440,"stv_port":27016,"stv_name":"Uncletopia | Chicago | 5 | All Maps | STV","players":[{"user_id":235,"name":"The Rookie Sensation","steam_id":76561198060731432,"connected_time":66000000000,"state":"active","ping":81},{"user_id":237,"name":"snow","steam_id":76561198018184698,"connected_time":50000000000,"state":"active","ping":61},{"user_id":233,"name":"Boxxed","steam_id":76561198255787237,"connected_time":215000000000,"state":"active","ping":77},{"user_id":229,"name":"Snoogs","steam_id":76561198444880931,"connected_time":646000000000,"state":"active","ping":76},{"user_id":230,"name":"evan_is_sauce","steam_id":76561199086802383,"connected_time":634000000000,"state":"active","ping":121},{"user_id":177,"name":"vvichael","steam_id":76561198238148528,"connected_time":5256000000000,"state":"active","ping":63},{"user_id":197,"name":"exx","steam_id":76561198041421969,"connected_time":3710000000000,"state":"active","ping":95},{"user_id":236,"name":"mommy","steam_id":76561198129195009,"connected_time":53000000000,"state":"active","ping":75},{"user_id":240,"name":"melon soda","steam_id":76561198066748230,"connected_time":25000000000,"state":"active","ping":65},{"user_id":190,"name":"Wso1123","steam_id":76561198048040111,"connected_time":4452000000000,"state":"active","ping":60},{"user_id":52,"name":"Phil Collins","steam_id":76561198068868644,"connected_time":14695000000000,"state":"active","ping":105},{"user_id":234,"name":"Dylan","steam_id":76561198060996590,"connected_time":80000000000,"state":"active","ping":93},{"user_id":198,"name":"ej","steam_id":76561198059281026,"connected_time":3463000000000,"state":"active","ping":99},{"user_id":189,"name":"deadpixel","steam_id":76561198150249843,"connected_time":4542000000000,"state":"active","ping":51},{"user_id":241,"name":"hierodule","steam_id":76561198023229665,"connected_time":25000000000,"state":"active","ping":75},{"user_id":223,"name":"Cagnus Marlsen","steam_id":76561198063341193,"connected_time":1355000000000,"state":"active","ping":63},{"user_id":224,"name":"FruicyJuit","steam_id":76561198080704911,"connected_time":1301000000000,"state":"active","ping":61},{"user_id":239,"name":"Aristotle Voulton","steam_id":76561198100174923,"connected_time":44000000000,"state":"active","ping":96},{"user_id":242,"name":"amazing","steam_id":76561198386233160,"connected_time":21000000000,"state":"spawning","ping":91},{"user_id":159,"name":"self sufficient kitten","steam_id":76561197960592612,"connected_time":7075000000000,"state":"active","ping":101},{"user_id":105,"name":"ApricotOcelot","steam_id":76561198128393362,"connected_time":10926000000000,"state":"active","ping":65},{"user_id":164,"name":"Wasabi Bobby","steam_id":76561198024347999,"connected_time":6937000000000,"state":"active","ping":92},{"user_id":231,"name":"lego justin roiland","steam_id":76561198367019006,"connected_time":626000000000,"state":"active","ping":69},{"user_id":228,"name":"Evil rat","steam_id":76561198117181511,"connected_time":826000000000,"state":"active","ping":65}]},{"server_id":37,"name":"Uncletopia | Chicago | 6 | All Maps","name_short":"chi-6","host":"chi-2.us.uncletopia.com","port":27025,"enabled":true,"region":"us-central","cc":"us","latitude":41.881832,"longitude":-87.62318,"reserved":0,"last_update":"0001-01-01T00:00:00Z","name_a2s":"Uncletopia | Chicago | 6 | All Maps","protocol":17,"map":"pl_borneo","folder":"tf","game":"Team Fortress","app_id":440,"player_count":24,"max_players":24,"Bots":0,"server_type":"Dedicated","server_os":"Linux","password":true,"vac":true,"version":"7757534","steam_id":85568392924866363,"keywords":["nocrits","nodmgspread","payload","uncletopia"],"game_id":440,"stv_port":27026,"stv_name":"Uncletopia | Chicago | 6 | All Maps | STV","players":[{"user_id":353,"name":"North","steam_id":76561199173696836,"connected_time":75000000000,"state":"active","ping":86},{"user_id":329,"name":"*hits the griddy*","steam_id":76561198979494052,"connected_time":1649000000000,"state":"active","ping":102},{"user_id":334,"name":"XinPing","steam_id":76561198174498174,"connected_time":1416000000000,"state":"active","ping":91},{"user_id":299,"name":"SilentFootba11","steam_id":76561199006570947,"connected_time":4222000000000,"state":"active","ping":70},{"user_id":328,"name":"The Pill","steam_id":76561198164782423,"connected_time":1706000000000,"state":"active","ping":83},{"user_id":316,"name":"Bloodrayne","steam_id":76561198116808497,"connected_time":3310000000000,"state":"active","ping":75},{"user_id":331,"name":"Snonepe","steam_id":76561197985776620,"connected_time":1485000000000,"state":"active","ping":73},{"user_id":336,"name":"Father Jon","steam_id":76561198324730919,"connected_time":1377000000000,"state":"active","ping":90},{"user_id":355,"name":"rlty","steam_id":76561198009395055,"connected_time":48000000000,"state":"active","ping":63},{"user_id":340,"name":"Jester","steam_id":76561198802514971,"connected_time":1246000000000,"state":"active","ping":136},{"user_id":335,"name":"Just-Some-Menace","steam_id":76561198152324397,"connected_time":1386000000000,"state":"active","ping":75},{"user_id":346,"name":"ecks","steam_id":76561197978114705,"connected_time":1127000000000,"state":"active","ping":60},{"user_id":342,"name":"Amish Robot","steam_id":76561198041156065,"connected_time":1170000000000,"state":"active","ping":79},{"user_id":344,"name":"CroMaLaka","steam_id":76561198380926090,"connected_time":1158000000000,"state":"active","ping":48},{"user_id":315,"name":"caption cool","steam_id":76561197990612056,"connected_time":3618000000000,"state":"active","ping":46},{"user_id":305,"name":"Snoopy","steam_id":76561198273735974,"connected_time":4128000000000,"state":"active","ping":98},{"user_id":312,"name":"Democracy Demon","steam_id":76561198027817971,"connected_time":3904000000000,"state":"active","ping":58},{"user_id":347,"name":"Mr. Toucher","steam_id":76561199121158746,"connected_time":1110000000000,"state":"active","ping":117},{"user_id":297,"name":"John Taxenfraud","steam_id":76561199011358805,"connected_time":4293000000000,"state":"active","ping":76},{"user_id":307,"name":"The Announcer's Feet","steam_id":76561199443456893,"connected_time":4110000000000,"state":"active","ping":77},{"user_id":246,"name":"Miner2495","steam_id":76561198445904523,"connected_time":9232000000000,"state":"active","ping":72},{"user_id":348,"name":"ADHDking","steam_id":76561198116099017,"connected_time":1091000000000,"state":"active","ping":60},{"user_id":349,"name":"egg color","steam_id":76561199365623849,"connected_time":972000000000,"state":"active","ping":92},{"user_id":352,"name":"International Mann of Mystery","steam_id":76561198149369302,"connected_time":289000000000,"state":"active","ping":141}]},{"server_id":38,"name":"Uncletopia | Chicago | 7 | Stopwatch Beta","name_short":"chi-7","host":"chi-2.us.uncletopia.com","port":27035,"enabled":true,"region":"us-central","cc":"us","latitude":41.881832,"longitude":-87.62318,"reserved":0,"last_update":"0001-01-01T00:00:00Z","name_a2s":"Uncletopia | Chicago | 7 | Stopwatch Beta","protocol":17,"map":"workshop/koth_ramjam_rc1.ugc459778887","folder":"tf","game":"Team Fortress","app_id":440,"player_count":0,"max_players":24,"Bots":0,"server_type":"Dedicated","server_os":"Linux","password":true,"vac":true,"version":"7757534","steam_id":85568392924866364,"keywords":["cp","nocrits","nodmgspread","uncletopia"],"game_id":440,"stv_port":27036,"stv_name":"Uncletopia | Chicago | 7 | Stopwatch Beta | STV","players":null},{"server_id":39,"name":"Uncletopia | Chicago | 8 | Community","name_short":"chi-8","host":"chi-2.us.uncletopia.com","port":27045,"enabled":true,"region":"us-central","cc":"us","latitude":41.881832,"longitude":-87.62318,"reserved":0,"last_update":"0001-01-01T00:00:00Z","name_a2s":"Uncletopia | Chicago | 8 | Community","protocol":17,"map":"workshop/koth_bagel_rc5.ugc2514036946","folder":"tf","game":"Team Fortress","app_id":440,"player_count":0,"max_players":24,"Bots":0,"server_type":"Dedicated","server_os":"Linux","password":true,"vac":true,"version":"7757534","steam_id":85568392924866365,"keywords":["cp","nocrits","nodmgspread","uncletopia"],"game_id":440,"stv_port":27046,"stv_name":"Uncletopia | Chicago | 8 | Community | STV","players":null},{"server_id":8,"name":"Uncletopia | Dallas | 1 | All Maps","name_short":"dal-1","host":"dal-1.us.uncletopia.com","port":27015,"enabled":true,"region":"us-central","cc":"us","latitude":32.779167,"longitude":-96.80889,"reserved":0,"last_update":"0001-01-01T00:00:00Z","name_a2s":"Uncletopia | Dallas | 1 | All Maps","protocol":17,"map":"pl_frontier_final","folder":"tf","game":"Team Fortress","app_id":440,"player_count":24,"max_players":24,"Bots":0,"server_type":"Dedicated","server_os":"Linux","password":true,"vac":true,"version":"7757534","steam_id":85568392924469986,"keywords":["nocrits","nodmgspread","payload","uncletopia"],"game_id":440,"stv_port":27016,"stv_name":"Uncletopia | Dallas | 1 | All Maps | STV","players":[{"user_id":630,"name":"Azaheth","steam_id":76561198253616898,"connected_time":2184000000000,"state":"active","ping":98},{"user_id":644,"name":"+","steam_id":76561198262422184,"connected_time":1238000000000,"state":"active","ping":50},{"user_id":602,"name":"Spankage","steam_id":76561198042094920,"connected_time":5634000000000,"state":"active","ping":82},{"user_id":657,"name":"High Quality Ice","steam_id":76561198969178047,"connected_time":712000000000,"state":"active","ping":86},{"user_id":565,"name":"The Robot Menace","steam_id":76561198043390413,"connected_time":6533000000000,"state":"active","ping":59},{"user_id":619,"name":"Lamy","steam_id":76561198348354629,"connected_time":4059000000000,"state":"active","ping":64},{"user_id":568,"name":"Mitty","steam_id":76561198014177684,"connected_time":6387000000000,"state":"active","ping":86},{"user_id":653,"name":"The mook","steam_id":76561198963551905,"connected_time":724000000000,"state":"active","ping":78},{"user_id":654,"name":"Skippy Dinglechalk","steam_id":76561198133291980,"connected_time":717000000000,"state":"active","ping":141},{"user_id":623,"name":"TheTruthOfTheCessationOfDukkha","steam_id":76561198214370515,"connected_time":3116000000000,"state":"active","ping":71},{"user_id":649,"name":"yoohb0330","steam_id":76561198274007110,"connected_time":865000000000,"state":"active","ping":78},{"user_id":566,"name":"Grinski","steam_id":76561198054787727,"connected_time":6526000000000,"state":"active","ping":102},{"user_id":631,"name":"RobertTheSaint","steam_id":76561199467075686,"connected_time":2181000000000,"state":"active","ping":80},{"user_id":560,"name":"Tribute","steam_id":76561198081594043,"connected_time":7186000000000,"state":"active","ping":55},{"user_id":661,"name":"MeMyBongusAndTheGreatOutdoors","steam_id":76561198097708978,"connected_time":28000000000,"state":"active","ping":73},{"user_id":628,"name":"Dreamy Sweat from 2hu","steam_id":76561198094602446,"connected_time":2912000000000,"state":"active","ping":90},{"user_id":655,"name":"Evidence In The Furnace","steam_id":76561198099296029,"connected_time":717000000000,"state":"active","ping":38},{"user_id":638,"name":"peee pee man","steam_id":76561198044979205,"connected_time":1695000000000,"state":"active","ping":92},{"user_id":662,"name":"Rekticus","steam_id":76561198152700541,"connected_time":9000000000,"state":"spawning","ping":51},{"user_id":658,"name":"donger man","steam_id":76561199011880402,"connected_time":304000000000,"state":"active","ping":69},{"user_id":660,"name":"HiddenEgg","steam_id":76561199045105518,"connected_time":167000000000,"state":"active","ping":84},{"user_id":659,"name":"Etomb","steam_id":76561198210017208,"connected_time":239000000000,"state":"active","ping":107},{"user_id":569,"name":"「Jimbo Reference」","steam_id":76561198016078541,"connected_time":6373000000000,"state":"active","ping":89},{"user_id":646,"name":"redhearkiem","steam_id":76561199084347313,"connected_time":1184000000000,"state":"active","ping":65}]},{"server_id":108,"name":"Uncletopia | Dallas | 2 | All Maps","name_short":"dal-2","host":"dal-1.us.uncletopia.com","port":27025,"enabled":true,"region":"us-central","cc":"us","latitude":32.779167,"longitude":-96.80889,"reserved":0,"last_update":"0001-01-01T00:00:00Z","name_a2s":"Uncletopia | Dallas | 2 | All Maps","protocol":17,"map":"pl_borneo","folder":"tf","game":"Team Fortress","app_id":440,"player_count":24,"max_players":24,"Bots":0,"server_type":"Dedicated","server_os":"Linux","password":true,"vac":true,"version":"7757534","steam_id":85568392924469988,"keywords":["nocrits","nodmgspread","payload","uncletopia"],"game_id":440,"stv_port":27026,"stv_name":"Uncletopia | Dallas | 2 | All Maps | STV","players":[{"user_id":534,"name":"Grandfather Chimp","steam_id":76561199065483970,"connected_time":2720000000000,"state":"active","ping":144},{"user_id":527,"name":"John;Titor","steam_id":76561198266404287,"connected_time":3034000000000,"state":"active","ping":132},{"user_id":445,"name":"FG7","steam_id":76561198381197197,"connected_time":9629000000000,"state":"active","ping":101},{"user_id":540,"name":"Toast","steam_id":76561198234616616,"connected_time":1956000000000,"state":"active","ping":85},{"user_id":462,"name":"||:♩♩♩♪:|| Opplydead","steam_id":76561198028630334,"connected_time":6833000000000,"state":"active","ping":76},{"user_id":539,"name":"Gold Ghost","steam_id":76561199005805984,"connected_time":1968000000000,"state":"active","ping":40},{"user_id":490,"name":"trobort","steam_id":76561198027150357,"connected_time":4830000000000,"state":"active","ping":57},{"user_id":516,"name":"GlitchGame","steam_id":76561198935134697,"connected_time":3213000000000,"state":"active","ping":63},{"user_id":548,"name":"Emperor Dankatine","steam_id":76561198044741086,"connected_time":1390000000000,"state":"active","ping":86},{"user_id":543,"name":"Rat Bastard","steam_id":76561198967368119,"connected_time":1651000000000,"state":"active","ping":95},{"user_id":530,"name":"★ ✲ ✳ ✴ ✶ ✷ ✸ ✹","steam_id":76561198056330171,"connected_time":2916000000000,"state":"active","ping":72},{"user_id":547,"name":"Project Dusk","steam_id":76561198193521149,"connected_time":1485000000000,"state":"active","ping":66},{"user_id":492,"name":"honked off the bobo","steam_id":76561198123287268,"connected_time":4815000000000,"state":"active","ping":69},{"user_id":498,"name":"Matches_                       ","steam_id":76561198048925904,"connected_time":4731000000000,"state":"active","ping":90},{"user_id":552,"name":"Adawnby","steam_id":76561198103057295,"connected_time":976000000000,"state":"active","ping":54},{"user_id":533,"name":"fat","steam_id":76561198101352327,"connected_time":2865000000000,"state":"active","ping":45},{"user_id":503,"name":"Marshall","steam_id":76561198042570322,"connected_time":4424000000000,"state":"active","ping":80},{"user_id":519,"name":"SuttBhitter56","steam_id":76561199012795690,"connected_time":3182000000000,"state":"active","ping":95},{"user_id":551,"name":"xZackAttack27x","steam_id":76561198035446639,"connected_time":1056000000000,"state":"active","ping":44},{"user_id":537,"name":"Happytoe","steam_id":76561198001295503,"connected_time":2284000000000,"state":"active","ping":103},{"user_id":521,"name":"sithreis","steam_id":76561198000564263,"connected_time":3179000000000,"state":"active","ping":70},{"user_id":536,"name":"java","steam_id":76561198030276792,"connected_time":2415000000000,"state":"active","ping":75},{"user_id":522,"name":"King","steam_id":76561198010019214,"connected_time":3166000000000,"state":"active","ping":62},{"user_id":523,"name":"lanoc","steam_id":76561198055415367,"connected_time":3161000000000,"state":"active","ping":61}]},{"server_id":5,"name":"Uncletopia | Frankfurt | 1 | All Maps","name_short":"frk-1","host":"frk-1.de.uncletopia.com","port":27015,"enabled":true,"region":"eu","cc":"de","latitude":50.110924,"longitude":8.682127,"reserved":0,"last_update":"0001-01-01T00:00:00Z","name_a2s":"Uncletopia | Frankfurt | 1 | All Maps","protocol":17,"map":"pl_pier","folder":"tf","game":"Team Fortress","app_id":440,"player_count":0,"max_players":24,"Bots":0,"server_type":"Dedicated","server_os":"Linux","password":true,"vac":true,"version":"7757534","steam_id":85568392924469989,"keywords":["nocrits","nodmgspread","payload","uncletopia"],"game_id":440,"stv_port":27016,"stv_name":"Uncletopia | Frankfurt | 1 | All Maps | STV","players":null},{"server_id":110,"name":"Uncletopia | Frankfurt | 2 | All Maps","name_short":"frk-2","host":"frk-1.de.uncletopia.com","port":27025,"enabled":true,"region":"eu","cc":"de","latitude":50.110924,"longitude":8.682127,"reserved":0,"last_update":"0001-01-01T00:00:00Z","name_a2s":"Uncletopia | Frankfurt | 2 | All Maps","protocol":17,"map":"cp_altitude","folder":"tf","game":"Team Fortress","app_id":440,"player_count":0,"max_players":24,"Bots":0,"server_type":"Dedicated","server_os":"Linux","password":true,"vac":true,"version":"7757534","steam_id":85568392924469990,"keywords":["cp","nocrits","nodmgspread","uncletopia"],"game_id":440,"stv_port":27026,"stv_name":"Uncletopia | Frankfurt | 2 | All Maps | STV","players":null},{"server_id":308,"name":"Uncletopia | Frankfurt | 3 | All Maps","name_short":"frk-3","host":"frk-1.de.uncletopia.com","port":27035,"enabled":true,"region":"eu","cc":"de","latitude":50.110924,"longitude":8.682127,"reserved":0,"last_update":"0001-01-01T00:00:00Z","name_a2s":"Uncletopia | Frankfurt | 3 | All Maps","protocol":17,"map":"pl_barnblitz","folder":"tf","game":"Team Fortress","app_id":440,"player_count":0,"max_players":24,"Bots":0,"server_type":"Dedicated","server_os":"Linux","password":true,"vac":true,"version":"7757534","steam_id":85568392924504274,"keywords":["nocrits","nodmgspread","payload","uncletopia"],"game_id":440,"stv_port":27036,"stv_name":"Uncletopia | Frankfurt | 3 | All Maps | STV","players":null},{"server_id":309,"name":"Uncletopia | Frankfurt | 4 | All Maps","name_short":"frk-4","host":"frk-1.de.uncletopia.com","port":27045,"enabled":true,"region":"eu","cc":"de","latitude":50.110924,"longitude":8.682127,"reserved":0,"last_update":"0001-01-01T00:00:00Z","name_a2s":"Uncletopia | Frankfurt | 4 | All Maps","protocol":17,"map":"pl_snowycoast","folder":"tf","game":"Team Fortress","app_id":440,"player_count":0,"max_players":24,"Bots":0,"server_type":"Dedicated","server_os":"Linux","password":true,"vac":true,"version":"7757534","steam_id":85568392924504275,"keywords":["nocrits","nodmgspread","payload","uncletopia"],"game_id":440,"stv_port":27046,"stv_name":"Uncletopia | Frankfurt | 4 | All Maps | STV","players":null},{"server_id":310,"name":"Uncletopia | Frankfurt | 5 | All Maps","name_short":"frk-5","host":"frk-1.de.uncletopia.com","port":27055,"enabled":true,"region":"eu","cc":"de","latitude":50.110924,"longitude":8.682127,"reserved":0,"last_update":"0001-01-01T00:00:00Z","name_a2s":"Uncletopia | Frankfurt | 5 | All Maps","protocol":17,"map":"cp_altitude","folder":"tf","game":"Team Fortress","app_id":440,"player_count":0,"max_players":24,"Bots":0,"server_type":"Dedicated","server_os":"Linux","password":true,"vac":true,"version":"7757534","steam_id":85568392924504277,"keywords":["cp","nocrits","nodmgspread","uncletopia"],"game_id":440,"stv_port":27056,"stv_name":"Uncletopia | Frankfurt | 5 | All Maps | STV","players":null},{"server_id":311,"name":"Uncletopia | Frankfurt | 6 | All Maps","name_short":"frk-6","host":"frk-1.de.uncletopia.com","port":27065,"enabled":true,"region":"eu","cc":"de","latitude":50.110924,"longitude":8.682127,"reserved":0,"last_update":"0001-01-01T00:00:00Z","name_a2s":"Uncletopia | Frankfurt | 6 | All Maps","protocol":17,"map":"koth_highpass","folder":"tf","game":"Team Fortress","app_id":440,"player_count":0,"max_players":24,"Bots":0,"server_type":"Dedicated","server_os":"Linux","password":true,"vac":true,"version":"7757534","steam_id":85568392924504278,"keywords":["cp","nocrits","nodmgspread","uncletopia"],"game_id":440,"stv_port":27066,"stv_name":"Uncletopia | Frankfurt | 6 | All Maps | STV","players":null},{"server_id":23,"name":"Uncletopia | Frankfurt | 7 | Stopwatch Beta","name_short":"frk-7","host":"frk-1.de.uncletopia.com","port":27075,"enabled":true,"region":"eu","cc":"de","latitude":50.110924,"longitude":8.682127,"reserved":0,"last_update":"0001-01-01T00:00:00Z","name_a2s":"Uncletopia | Frankfurt | 7 | Stopwatch Beta","protocol":17,"map":"pl_borneo","folder":"tf","game":"Team Fortress","app_id":440,"player_count":0,"max_players":24,"Bots":0,"server_type":"Dedicated","server_os":"Linux","password":true,"vac":true,"version":"7757534","steam_id":85568392924742827,"keywords":["nocrits","nodmgspread","payload","uncletopia"],"game_id":440,"stv_port":27076,"stv_name":"Uncletopia | Frankfurt | 7 | Stopwatch Beta | STV","players":null},{"server_id":24,"name":"Uncletopia | Frankfurt | 8 | Community","name_short":"frk-8","host":"frk-1.de.uncletopia.com","port":27085,"enabled":true,"region":"eu","cc":"de","latitude":50.110924,"longitude":8.682127,"reserved":0,"last_update":"0001-01-01T00:00:00Z","name_a2s":"Uncletopia | Frankfurt | 8 | Community","protocol":17,"map":"koth_cascade","folder":"tf","game":"Team Fortress","app_id":440,"player_count":0,"max_players":24,"Bots":0,"server_type":"Dedicated","server_os":"Linux","password":true,"vac":true,"version":"7757534","steam_id":85568392924742828,"keywords":["cp","nocrits","nodmgspread","uncletopia"],"game_id":440,"stv_port":27086,"stv_name":"Uncletopia | Frankfurt | 8 | Community | STV","players":null},{"server_id":202,"name":"Uncletopia | Hong Kong | 1 | All Maps","name_short":"hgk-1","host":"hgk-1.hk.uncletopia.com","port":27015,"enabled":true,"region":"asia","cc":"hk","latitude":22.302711,"longitude":114.177216,"reserved":0,"last_update":"0001-01-01T00:00:00Z","name_a2s":"Uncletopia | Hong Kong | 1 | All Maps","protocol":17,"map":"cp_process_final","folder":"tf","game":"Team Fortress","app_id":440,"player_count":24,"max_players":24,"Bots":0,"server_type":"Dedicated","server_os":"Linux","password":true,"vac":true,"version":"7757534","steam_id":85568392924494504,"keywords":["cp","nocrits","nodmgspread","uncletopia"],"game_id":440,"stv_port":27016,"stv_name":"Uncletopia | Hong Kong | 1 | All Maps | STV","players":[{"user_id":160,"name":"Sayo-Nara","steam_id":76561198005744733,"connected_time":2812000000000,"state":"active","ping":92},{"user_id":187,"name":"マグナス","steam_id":76561198208990721,"connected_time":1135000000000,"state":"active","ping":135},{"user_id":124,"name":"Bertengkar","steam_id":76561198213031155,"connected_time":4923000000000,"state":"active","ping":98},{"user_id":115,"name":"qb","steam_id":76561198412329672,"connected_time":5428000000000,"state":"active","ping":101},{"user_id":162,"name":"ETER","steam_id":76561199073797131,"connected_time":2675000000000,"state":"active","ping":53},{"user_id":185,"name":"wota bota","steam_id":76561198173345911,"connected_time":1393000000000,"state":"active","ping":89},{"user_id":180,"name":"tsugirinafu","steam_id":76561199226227211,"connected_time":1692000000000,"state":"active","ping":122},{"user_id":181,"name":"koolaidkiller47","steam_id":76561198413116920,"connected_time":1624000000000,"state":"active","ping":76},{"user_id":166,"name":":D","steam_id":76561198009692495,"connected_time":2580000000000,"state":"active","ping":88},{"user_id":182,"name":"✧BaKa BAzooKA✧(◕▿◕ )","steam_id":76561198061628689,"connected_time":1590000000000,"state":"active","ping":54},{"user_id":186,"name":"rtgod","steam_id":76561198125363469,"connected_time":1373000000000,"state":"active","ping":84},{"user_id":144,"name":"screaming sniper","steam_id":76561199085568674,"connected_time":3637000000000,"state":"active","ping":63},{"user_id":192,"name":"LudE","steam_id":76561198828840546,"connected_time":516000000000,"state":"active","ping":79},{"user_id":193,"name":"spinach (new mouse)","steam_id":76561198042539541,"connected_time":476000000000,"state":"active","ping":90},{"user_id":176,"name":"Momoxhien","steam_id":76561198414997429,"connected_time":2310000000000,"state":"active","ping":62},{"user_id":190,"name":":)","steam_id":76561198437941450,"connected_time":755000000000,"state":"active","ping":91},{"user_id":195,"name":"17","steam_id":76561198241530712,"connected_time":136000000000,"state":"active","ping":60},{"user_id":196,"name":"Lu","steam_id":76561198320532821,"connected_time":123000000000,"state":"active","ping":55},{"user_id":174,"name":"im evolving backwards","steam_id":76561198051010163,"connected_time":2353000000000,"state":"active","ping":87},{"user_id":175,"name":"Mega 00F","steam_id":76561198962485791,"connected_time":2343000000000,"state":"active","ping":129},{"user_id":179,"name":"loreley","steam_id":76561198230213828,"connected_time":1813000000000,"state":"active","ping":63},{"user_id":98,"name":"煙海 | Enkai","steam_id":76561198050460825,"connected_time":6626000000000,"state":"active","ping":77},{"user_id":128,"name":"uptriste","steam_id":76561198158666692,"connected_time":4119000000000,"state":"active","ping":41},{"user_id":130,"name":"Urotsuki","steam_id":76561198074339034,"connected_time":4053000000000,"state":"active","ping":77}]},{"server_id":1,"name":"Uncletopia | Los Angeles | 1 | All Maps","name_short":"lax-1","host":"lax-1.us.uncletopia.com","port":27015,"enabled":true,"region":"us-west","cc":"us","latitude":33.94279,"longitude":-118.41004,"reserved":0,"last_update":"0001-01-01T00:00:00Z","name_a2s":"Uncletopia | Los Angeles | 1 | All Maps","protocol":17,"map":"pl_frontier_final","folder":"tf","game":"Team Fortress","app_id":440,"player_count":23,"max_players":24,"Bots":0,"server_type":"Dedicated","server_os":"Linux","password":true,"vac":true,"version":"7757534","steam_id":85568392924469991,"keywords":["nocrits","nodmgspread","payload","uncletopia"],"game_id":440,"stv_port":27016,"stv_name":"Uncletopia | Los Angeles | 1 | All Maps | STV","players":[{"user_id":400,"name":"Macro","steam_id":76561199442846226,"connected_time":7457000000000,"state":"active","ping":116},{"user_id":482,"name":"garry","steam_id":76561199091007559,"connected_time":2373000000000,"state":"active","ping":57},{"user_id":515,"name":"Batso","steam_id":76561198106589452,"connected_time":40000000000,"state":"active","ping":51},{"user_id":498,"name":"bad spy player","steam_id":76561198873699671,"connected_time":897000000000,"state":"active","ping":80},{"user_id":497,"name":"[HF] Glitchboy18","steam_id":76561199006872357,"connected_time":965000000000,"state":"active","ping":122},{"user_id":492,"name":"LogicalFurret","steam_id":76561198350604657,"connected_time":1757000000000,"state":"active","ping":49},{"user_id":431,"name":"Mothma","steam_id":76561198353789504,"connected_time":5582000000000,"state":"active","ping":61},{"user_id":355,"name":"Amogous Supreme","steam_id":76561198025476774,"connected_time":9770000000000,"state":"active","ping":69},{"user_id":454,"name":"Broccoli Rob","steam_id":76561198026250024,"connected_time":4470000000000,"state":"active","ping":111},{"user_id":488,"name":"DeathSushi","steam_id":76561199156131540,"connected_time":2065000000000,"state":"active","ping":87},{"user_id":499,"name":"compulsive","steam_id":76561198212421513,"connected_time":873000000000,"state":"active","ping":53},{"user_id":483,"name":"Alpharius","steam_id":76561197996284353,"connected_time":2352000000000,"state":"active","ping":103},{"user_id":457,"name":"samuel","steam_id":76561198074200225,"connected_time":4401000000000,"state":"active","ping":114},{"user_id":410,"name":"SanitysEdge","steam_id":76561198130732813,"connected_time":6890000000000,"state":"active","ping":47},{"user_id":455,"name":"Blizzard","steam_id":76561198052643541,"connected_time":4469000000000,"state":"active","ping":96},{"user_id":442,"name":"The Clown","steam_id":76561199085524751,"connected_time":5231000000000,"state":"active","ping":50},{"user_id":504,"name":"foreskin gaming","steam_id":76561198799330018,"connected_time":718000000000,"state":"active","ping":86},{"user_id":474,"name":"abolish the federal reserve","steam_id":76561198047796437,"connected_time":3263000000000,"state":"active","ping":71},{"user_id":502,"name":"yoshido","steam_id":76561198846313229,"connected_time":756000000000,"state":"active","ping":105},{"user_id":456,"name":"sciz","steam_id":76561198065303402,"connected_time":4464000000000,"state":"active","ping":105},{"user_id":503,"name":"HanakoToast","steam_id":76561198045233131,"connected_time":732000000000,"state":"active","ping":68},{"user_id":494,"name":"The Caretaker","steam_id":76561198125241411,"connected_time":1369000000000,"state":"active","ping":71},{"user_id":514,"name":"Sulong","steam_id":76561198798244209,"connected_time":226000000000,"state":"active","ping":98}]},{"server_id":112,"name":"Uncletopia | Los Angeles | 2 | All Maps","name_short":"lax-2","host":"lax-1.us.uncletopia.com","port":27025,"enabled":true,"region":"us-west","cc":"us","latitude":33.94279,"longitude":-118.41004,"reserved":0,"last_update":"0001-01-01T00:00:00Z","name_a2s":"Uncletopia | Los Angeles | 2 | All Maps","protocol":17,"map":"pl_pier","folder":"tf","game":"Team Fortress","app_id":440,"player_count":24,"max_players":24,"Bots":0,"server_type":"Dedicated","server_os":"Linux","password":true,"vac":true,"version":"7757534","steam_id":85568392924469992,"keywords":["nocrits","nodmgspread","payload","uncletopia"],"game_id":440,"stv_port":27026,"stv_name":"Uncletopia | Los Angeles | 2 | All Maps | STV","players":[{"user_id":162,"name":"Iroquois Pliskin","steam_id":76561198056704533,"connected_time":311000000000,"state":"active","ping":66},{"user_id":157,"name":"GumZie","steam_id":76561198202584223,"connected_time":797000000000,"state":"active","ping":37},{"user_id":138,"name":"Dim Strike","steam_id":76561199087298816,"connected_time":1855000000000,"state":"active","ping":43},{"user_id":151,"name":"cheese man","steam_id":76561199016285746,"connected_time":1022000000000,"state":"active","ping":41},{"user_id":167,"name":"dumbeeon","steam_id":76561198059351874,"connected_time":182000000000,"state":"active","ping":46},{"user_id":168,"name":"Tuna","steam_id":76561198129907971,"connected_time":131000000000,"state":"active","ping":59},{"user_id":111,"name":"Ballista","steam_id":76561197983182562,"connected_time":4677000000000,"state":"active","ping":71},{"user_id":131,"name":"Protoshake","steam_id":76561198840276176,"connected_time":2526000000000,"state":"active","ping":71},{"user_id":154,"name":"Night of the Living Boobs™","steam_id":76561198086447265,"connected_time":956000000000,"state":"active","ping":44},{"user_id":161,"name":"Matte :)","steam_id":76561198070631073,"connected_time":325000000000,"state":"active","ping":51},{"user_id":164,"name":"Sir Nope (TSS)","steam_id":76561198035935649,"connected_time":304000000000,"state":"active","ping":67},{"user_id":124,"name":"Can You Feel It Mr.Krabs","steam_id":76561198128302414,"connected_time":3452000000000,"state":"active","ping":54},{"user_id":141,"name":"Mocha","steam_id":76561198022245941,"connected_time":1775000000000,"state":"active","ping":78},{"user_id":165,"name":"gk.onesoul","steam_id":76561198114603745,"connected_time":238000000000,"state":"active","ping":46},{"user_id":129,"name":"buggy schlap","steam_id":76561198978665598,"connected_time":2554000000000,"state":"active","ping":43},{"user_id":72,"name":"brobtlcehc","steam_id":76561198043558709,"connected_time":7339000000000,"state":"active","ping":74},{"user_id":169,"name":"e","steam_id":76561198131245396,"connected_time":90000000000,"state":"active","ping":107},{"user_id":166,"name":"K.A.R.M.A.","steam_id":76561198240750142,"connected_time":215000000000,"state":"active","ping":45},{"user_id":132,"name":"ice cream (冰淇淋)","steam_id":76561198976530881,"connected_time":2490000000000,"state":"active","ping":40},{"user_id":137,"name":"doobiebob","steam_id":76561198071963742,"connected_time":1944000000000,"state":"active","ping":59},{"user_id":109,"name":"Jarate Jihadi","steam_id":76561197999837455,"connected_time":4734000000000,"state":"active","ping":96},{"user_id":48,"name":"YourWishes","steam_id":76561198154414336,"connected_time":10277000000000,"state":"active","ping":57},{"user_id":146,"name":"Beary Adorable","steam_id":76561198023815802,"connected_time":1569000000000,"state":"active","ping":85},{"user_id":89,"name":"p9 jorts","steam_id":76561199041179985,"connected_time":5549000000000,"state":"active","ping":91}]},{"server_id":324,"name":"Uncletopia | Los Angeles | 3 | All Maps","name_short":"lax-3","host":"lax-1.us.uncletopia.com","port":27035,"enabled":true,"region":"us-west","cc":"us","latitude":33.94279,"longitude":-118.41004,"reserved":0,"last_update":"0001-01-01T00:00:00Z","name_a2s":"Uncletopia | Los Angeles | 3 | All Maps","protocol":17,"map":"cp_process_final","folder":"tf","game":"Team Fortress","app_id":440,"player_count":24,"max_players":24,"Bots":0,"server_type":"Dedicated","server_os":"Linux","password":true,"vac":true,"version":"7757534","steam_id":85568392924510198,"keywords":["cp","nocrits","nodmgspread","uncletopia"],"game_id":440,"stv_port":27036,"stv_name":"Uncletopia | Los Angeles | 3 | All Maps | STV","players":[{"user_id":89,"name":"Drake from State Farm","steam_id":76561199069029812,"connected_time":1000000000000,"state":"active","ping":81},{"user_id":23,"name":"rysworld","steam_id":76561198015372065,"connected_time":5130000000000,"state":"active","ping":50},{"user_id":51,"name":"Cthuflu","steam_id":76561198010893799,"connected_time":3677000000000,"state":"active","ping":112},{"user_id":25,"name":"Knock on the sky and listen","steam_id":76561198077597130,"connected_time":4521000000000,"state":"active","ping":60},{"user_id":26,"name":"CasualCakeEater","steam_id":76561199406096223,"connected_time":4460000000000,"state":"active","ping":70},{"user_id":70,"name":"Bones","steam_id":76561198069911981,"connected_time":2587000000000,"state":"active","ping":66},{"user_id":82,"name":"klover","steam_id":76561198072254781,"connected_time":1796000000000,"state":"active","ping":46},{"user_id":77,"name":"hedahman","steam_id":76561198052398134,"connected_time":1990000000000,"state":"active","ping":70},{"user_id":93,"name":"Sad Sapling","steam_id":76561198075612150,"connected_time":162000000000,"state":"active","ping":61},{"user_id":60,"name":"Cute Gatito","steam_id":76561198351147780,"connected_time":3188000000000,"state":"active","ping":55},{"user_id":33,"name":"A 7/10","steam_id":76561198075814864,"connected_time":4256000000000,"state":"active","ping":114},{"user_id":34,"name":"Tummy Sunday","steam_id":76561198031336957,"connected_time":4223000000000,"state":"active","ping":91},{"user_id":35,"name":"dandy","steam_id":76561197967362217,"connected_time":4188000000000,"state":"active","ping":51},{"user_id":36,"name":"Oliver Klozoff","steam_id":76561198024788419,"connected_time":4138000000000,"state":"active","ping":101},{"user_id":81,"name":"SneakyRocks","steam_id":76561198201694213,"connected_time":1849000000000,"state":"active","ping":55},{"user_id":40,"name":"Bobbo","steam_id":76561198055689771,"connected_time":3970000000000,"state":"active","ping":85},{"user_id":91,"name":"Silver_Hawken","steam_id":76561198066860499,"connected_time":990000000000,"state":"active","ping":84},{"user_id":68,"name":"TheBrocklobster","steam_id":76561198039682984,"connected_time":2797000000000,"state":"active","ping":63},{"user_id":79,"name":"foucault","steam_id":76561198043411930,"connected_time":1976000000000,"state":"active","ping":56},{"user_id":86,"name":"pete_the_cat_2014","steam_id":76561198199266047,"connected_time":1205000000000,"state":"active","ping":95},{"user_id":59,"name":"John Wick's puppy","steam_id":76561198064662875,"connected_time":3309000000000,"state":"active","ping":57},{"user_id":50,"name":"Fiblit","steam_id":76561198130877949,"connected_time":3719000000000,"state":"active","ping":113},{"user_id":69,"name":"SilverMango","steam_id":76561198091243252,"connected_time":2779000000000,"state":"active","ping":59},{"user_id":80,"name":"KingToaster","steam_id":76561198007903802,"connected_time":1903000000000,"state":"active","ping":74}]},{"server_id":25,"name":"Uncletopia | Los Angeles | 4 | Stopwatch Beta","name_short":"lax-4","host":"lax-1.us.uncletopia.com","port":27045,"enabled":true,"region":"us-west","cc":"us","latitude":33.94279,"longitude":-118.41004,"reserved":0,"last_update":"0001-01-01T00:00:00Z","name_a2s":"Uncletopia | Los Angeles | 4 | Stopwatch Beta","protocol":17,"map":"koth_viaduct","folder":"tf","game":"Team Fortress","app_id":440,"player_count":0,"max_players":24,"Bots":0,"server_type":"Dedicated","server_os":"Linux","password":true,"vac":true,"version":"7757534","steam_id":85568392924510199,"keywords":["cp","nocrits","nodmgspread","uncletopia"],"game_id":440,"stv_port":27046,"stv_name":"Uncletopia | Los Angeles | 4 | Stopwatch Beta | STV","players":null},{"server_id":11,"name":"Uncletopia | London | 1 | All Maps","name_short":"lon-1","host":"lon-1.uk.uncletopia.com","port":27015,"enabled":true,"region":"eu","cc":"gb","latitude":51.509865,"longitude":-0.118092,"reserved":0,"last_update":"0001-01-01T00:00:00Z","name_a2s":"Uncletopia | London | 1 | All Maps","protocol":17,"map":"koth_viaduct","folder":"tf","game":"Team Fortress","app_id":440,"player_count":0,"max_players":24,"Bots":0,"server_type":"Dedicated","server_os":"Linux","password":true,"vac":true,"version":"7757534","steam_id":85568392924367362,"keywords":["cp","nocrits","nodmgspread","uncletopia"],"game_id":440,"stv_port":27016,"stv_name":"Uncletopia | London | 1 | All Maps | STV","players":null},{"server_id":114,"name":"Uncletopia | London | 2 | All Maps","name_short":"lon-2","host":"lon-1.uk.uncletopia.com","port":27025,"enabled":true,"region":"eu","cc":"gb","latitude":51.509865,"longitude":-0.118092,"reserved":0,"last_update":"0001-01-01T00:00:00Z","name_a2s":"Uncletopia | London | 2 | All Maps","protocol":17,"map":"pl_frontier_final","folder":"tf","game":"Team Fortress","app_id":440,"player_count":24,"max_players":24,"Bots":0,"server_type":"Dedicated","server_os":"Linux","password":true,"vac":true,"version":"7757534","steam_id":85568392924470941,"keywords":["nocrits","nodmgspread","payload","uncletopia"],"game_id":440,"stv_port":27026,"stv_name":"Uncletopia | London | 2 | All Maps | STV","players":[{"user_id":1107,"name":"Weakest Sniper Enjoyer","steam_id":76561198133597860,"connected_time":3098000000000,"state":"active","ping":83},{"user_id":1114,"name":"dx_xb","steam_id":76561198064878900,"connected_time":2333000000000,"state":"active","ping":75},{"user_id":1116,"name":"TheLivingDrawing","steam_id":76561198385719560,"connected_time":2070000000000,"state":"active","ping":152},{"user_id":1087,"name":"podcast","steam_id":76561198531978435,"connected_time":5146000000000,"state":"active","ping":65},{"user_id":1103,"name":"K.V. #RemoveRandomCrits","steam_id":76561197994832993,"connected_time":3741000000000,"state":"active","ping":85},{"user_id":1119,"name":"Tata Cobraz0r","steam_id":76561198017693962,"connected_time":1985000000000,"state":"active","ping":77},{"user_id":1143,"name":"Pineapple Okanつ ◕_◕ ༽\ufffd\ufffd","steam_id":76561198069199449,"connected_time":221000000000,"state":"active","ping":108},{"user_id":1109,"name":"eli","steam_id":76561198802155838,"connected_time":3067000000000,"state":"active","ping":127},{"user_id":1139,"name":"24/7 lofi hip hop beats","steam_id":76561198130597374,"connected_time":1048000000000,"state":"active","ping":59},{"user_id":1141,"name":"Rave Robber","steam_id":76561199414716848,"connected_time":675000000000,"state":"active","ping":71},{"user_id":1127,"name":"que movida","steam_id":76561197966125354,"connected_time":1700000000000,"state":"active","ping":72},{"user_id":1125,"name":"switchedoff","steam_id":76561198046396310,"connected_time":1802000000000,"state":"active","ping":78},{"user_id":1131,"name":"lun4tic","steam_id":76561198850496647,"connected_time":1497000000000,"state":"active","ping":73},{"user_id":1105,"name":"Dreadnawght","steam_id":76561198000973506,"connected_time":3112000000000,"state":"active","ping":67},{"user_id":1129,"name":"Autumnsky","steam_id":76561198055161203,"connected_time":1643000000000,"state":"active","ping":60},{"user_id":1102,"name":"brkc_love","steam_id":76561198090152271,"connected_time":3871000000000,"state":"active","ping":45},{"user_id":1115,"name":"gagalak","steam_id":76561198089979108,"connected_time":2270000000000,"state":"active","ping":102},{"user_id":1142,"name":"marsel","steam_id":76561198116168271,"connected_time":331000000000,"state":"active","ping":74},{"user_id":1144,"name":"FrogGodPrime","steam_id":76561198042502842,"connected_time":131000000000,"state":"active","ping":59},{"user_id":1136,"name":"cherry","steam_id":76561199006915718,"connected_time":1246000000000,"state":"active","ping":60},{"user_id":1079,"name":"glyph","steam_id":76561197980736364,"connected_time":5385000000000,"state":"active","ping":81},{"user_id":1082,"name":"r0la","steam_id":76561198128315340,"connected_time":5348000000000,"state":"active","ping":80},{"user_id":1112,"name":"Johnny Cockroach","steam_id":76561198049648277,"connected_time":2992000000000,"state":"active","ping":106},{"user_id":1084,"name":"Cumbustible Punda #SaveTF2","steam_id":76561197974274677,"connected_time":5307000000000,"state":"active","ping":56}]},{"server_id":320,"name":"Uncletopia | London | 3 | All Maps","name_short":"lon-3","host":"lon-1.uk.uncletopia.com","port":27035,"enabled":true,"region":"eu","cc":"gb","latitude":51.509865,"longitude":-0.118092,"reserved":0,"last_update":"0001-01-01T00:00:00Z","name_a2s":"Uncletopia | London | 3 | All Maps","protocol":17,"map":"pl_swiftwater_final1","folder":"tf","game":"Team Fortress","app_id":440,"player_count":0,"max_players":24,"Bots":0,"server_type":"Dedicated","server_os":"Linux","password":true,"vac":true,"version":"7757534","steam_id":85568392924510192,"keywords":["nocrits","nodmgspread","payload","uncletopia"],"game_id":440,"stv_port":27036,"stv_name":"Uncletopia | London | 3 | All Maps | STV","players":null},{"server_id":321,"name":"Uncletopia | London | 4 | All Maps","name_short":"lon-4","host":"lon-1.uk.uncletopia.com","port":27045,"enabled":true,"region":"eu","cc":"gb","latitude":51.509865,"longitude":-0.118092,"reserved":0,"last_update":"0001-01-01T00:00:00Z","name_a2s":"Uncletopia | London | 4 | All Maps","protocol":17,"map":"cp_process_final","folder":"tf","game":"Team Fortress","app_id":440,"player_count":0,"max_players":24,"Bots":0,"server_type":"Dedicated","server_os":"Linux","password":true,"vac":true,"version":"7757534","steam_id":85568392924510193,"keywords":["cp","nocrits","nodmgspread","uncletopia"],"game_id":440,"stv_port":27046,"stv_name":"Uncletopia | London | 4 | All Maps | STV","players":null},{"server_id":21,"name":"Uncletopia | London | 5 | All Maps","name_short":"lon-5","host":"lon-1.uk.uncletopia.com","port":27055,"enabled":true,"region":"eu","cc":"gb","latitude":51.509865,"longitude":-0.118092,"reserved":0,"last_update":"0001-01-01T00:00:00Z","name_a2s":"Uncletopia | London | 5 | All Maps","protocol":17,"map":"pl_frontier_final","folder":"tf","game":"Team Fortress","app_id":440,"player_count":0,"max_players":24,"Bots":0,"server_type":"Dedicated","server_os":"Linux","password":true,"vac":true,"version":"7757534","steam_id":85568392924742829,"keywords":["nocrits","nodmgspread","payload","uncletopia"],"game_id":440,"stv_port":27056,"stv_name":"Uncletopia | London | 5 | All Maps | STV","players":null},{"server_id":22,"name":"Uncletopia | London | 6 | All Maps","name_short":"lon-6","host":"lon-1.uk.uncletopia.com","port":27065,"enabled":true,"region":"eu","cc":"gb","latitude":51.509865,"longitude":-0.118092,"reserved":0,"last_update":"0001-01-01T00:00:00Z","name_a2s":"Uncletopia | London | 6 | All Maps","protocol":17,"map":"cp_snakewater_final1","folder":"tf","game":"Team Fortress","app_id":440,"player_count":0,"max_players":24,"Bots":0,"server_type":"Dedicated","server_os":"Linux","password":true,"vac":true,"version":"7757534","steam_id":85568392924742830,"keywords":["cp","nocrits","nodmgspread","uncletopia"],"game_id":440,"stv_port":27066,"stv_name":"Uncletopia | London | 6 | All Maps | STV","players":null},{"server_id":40,"name":"Uncletopia | London | 7 | No Payload","name_short":"lon-7","host":"lon-1.uk.uncletopia.com","port":27075,"enabled":true,"region":"eu","cc":"gb","latitude":51.509865,"longitude":-0.118092,"reserved":0,"last_update":"0001-01-01T00:00:00Z","name_a2s":"Uncletopia | London | 7 | No Payload","protocol":17,"map":"koth_suijin","folder":"tf","game":"Team Fortress","app_id":440,"player_count":0,"max_players":24,"Bots":0,"server_type":"Dedicated","server_os":"Linux","password":true,"vac":true,"version":"7757534","steam_id":85568392924964314,"keywords":["cp","nocrits","nodmgspread","uncletopia"],"game_id":440,"stv_port":27076,"stv_name":"Uncletopia | London | 7 | No Payload | STV","players":null},{"server_id":41,"name":"Uncletopia | London | 8 | Community","name_short":"lon-8","host":"lon-1.uk.uncletopia.com","port":27085,"enabled":true,"region":"eu","cc":"gb","latitude":51.509865,"longitude":-0.118092,"reserved":0,"last_update":"0001-01-01T00:00:00Z","name_a2s":"Uncletopia | London | 8 | Community","protocol":17,"map":"workshop/pl_vigil_rc9.ugc1266210012","folder":"tf","game":"Team Fortress","app_id":440,"player_count":0,"max_players":24,"Bots":0,"server_type":"Dedicated","server_os":"Linux","password":true,"vac":true,"version":"7757534","steam_id":85568392924964315,"keywords":["nocrits","nodmgspread","payload","uncletopia"],"game_id":440,"stv_port":27086,"stv_name":"Uncletopia | London | 8 | Community | STV","players":null},{"server_id":300,"name":"Uncletopia | Montréal | 1 | All Maps","name_short":"mtl-1","host":"mtl-1.ca.uncletopia.com","port":27015,"enabled":true,"region":"us-east","cc":"ca","latitude":45.50889,"longitude":-73.56167,"reserved":0,"last_update":"0001-01-01T00:00:00Z","name_a2s":"Uncletopia | Montréal | 1 | All Maps","protocol":17,"map":"cp_dustbowl","folder":"tf","game":"Team Fortress","app_id":440,"player_count":15,"max_players":24,"Bots":0,"server_type":"Dedicated","server_os":"Linux","password":true,"vac":true,"version":"7757534","steam_id":85568392924500087,"keywords":["cp","nocrits","nodmgspread","uncletopia"],"game_id":440,"stv_port":27016,"stv_name":"Uncletopia | Montréal | 1 | All Maps | STV","players":[{"user_id":93,"name":"Juri Han","steam_id":76561198041678517,"connected_time":5378000000000,"state":"active","ping":120},{"user_id":169,"name":"Goatsifer Grassmuncher The III","steam_id":76561199328079799,"connected_time":11000000000,"state":"spawning","ping":169},{"user_id":165,"name":"Superfly Johnson","steam_id":76561198130438044,"connected_time":489000000000,"state":"active","ping":29},{"user_id":153,"name":"TeamLightning","steam_id":76561198065213167,"connected_time":1219000000000,"state":"active","ping":134},{"user_id":141,"name":"Psychosis","steam_id":76561198078659070,"connected_time":1730000000000,"state":"active","ping":80},{"user_id":129,"name":"AquaEclipse","steam_id":76561198225964744,"connected_time":3275000000000,"state":"active","ping":71},{"user_id":159,"name":"Lichy","steam_id":76561198310682841,"connected_time":910000000000,"state":"active","ping":29},{"user_id":149,"name":"RaccoonCole","steam_id":76561198122478897,"connected_time":1364000000000,"state":"active","ping":85},{"user_id":134,"name":"Phillip Jeffries","steam_id":76561198064052174,"connected_time":2674000000000,"state":"active","ping":59},{"user_id":107,"name":"dosimeter","steam_id":76561198039608940,"connected_time":4934000000000,"state":"active","ping":122},{"user_id":160,"name":"Czechoslovakia!","steam_id":76561198214713811,"connected_time":901000000000,"state":"active","ping":115},{"user_id":76,"name":"SweetieCandy","steam_id":76561198137756392,"connected_time":6349000000000,"state":"active","ping":46},{"user_id":162,"name":"kezia","steam_id":76561198059815894,"connected_time":779000000000,"state":"active","ping":37},{"user_id":132,"name":"hauntaholic","steam_id":76561198095051652,"connected_time":3172000000000,"state":"active","ping":88},{"user_id":164,"name":"Kell","steam_id":76561199205250292,"connected_time":763000000000,"state":"active","ping":144}]},{"server_id":301,"name":"Uncletopia | Montréal | 2 | All Maps","name_short":"mtl-2","host":"mtl-1.ca.uncletopia.com","port":27025,"enabled":true,"region":"us-east","cc":"ca","latitude":45.50889,"longitude":-73.56167,"reserved":0,"last_update":"0001-01-01T00:00:00Z","name_a2s":"Uncletopia | Montréal | 2 | All Maps","protocol":17,"map":"koth_lakeside_final","folder":"tf","game":"Team Fortress","app_id":440,"player_count":0,"max_players":24,"Bots":0,"server_type":"Dedicated","server_os":"Linux","password":true,"vac":true,"version":"7757534","steam_id":85568392924500088,"keywords":["cp","nocrits","nodmgspread","uncletopia"],"game_id":440,"stv_port":27026,"stv_name":"Uncletopia | Montréal | 2 | All Maps | STV","players":null},{"server_id":302,"name":"Uncletopia | Montréal | 3 | All Maps","name_short":"mtl-3","host":"mtl-1.ca.uncletopia.com","port":27035,"enabled":true,"region":"us-east","cc":"ca","latitude":45.50889,"longitude":-73.56167,"reserved":0,"last_update":"0001-01-01T00:00:00Z","name_a2s":"Uncletopia | Montréal | 3 | All Maps","protocol":17,"map":"koth_cascade","folder":"tf","game":"Team Fortress","app_id":440,"player_count":0,"max_players":24,"Bots":0,"server_type":"Dedicated","server_os":"Linux","password":true,"vac":true,"version":"7757534","steam_id":85568392924500089,"keywords":["cp","nocrits","nodmgspread","uncletopia"],"game_id":440,"stv_port":27036,"stv_name":"Uncletopia | Montréal | 3 | All Maps | STV","players":null},{"server_id":303,"name":"Uncletopia | Montréal | 4 | No Payload","name_short":"mtl-4","host":"mtl-1.ca.uncletopia.com","port":27045,"enabled":true,"region":"us-east","cc":"ca","latitude":45.50889,"longitude":-73.56167,"reserved":0,"last_update":"0001-01-01T00:00:00Z","name_a2s":"Uncletopia | Montréal | 4 | No Payload","protocol":17,"map":"koth_lakeside_final","folder":"tf","game":"Team Fortress","app_id":440,"player_count":0,"max_players":24,"Bots":0,"server_type":"Dedicated","server_os":"Linux","password":true,"vac":true,"version":"7757534","steam_id":85568392924500090,"keywords":["cp","nocrits","nodmgspread","uncletopia"],"game_id":440,"stv_port":27046,"stv_name":"Uncletopia | Montréal | 4 | No Payload | STV","players":null},{"server_id":13,"name":"Uncletopia | New York City | 1 | All Maps","name_short":"nyc-1","host":"nyc-1.us.uncletopia.com","port":27015,"enabled":true,"region":"us-east","cc":"us","latitude":40.73061,"longitude":-73.93524,"reserved":0,"last_update":"0001-01-01T00:00:00Z","name_a2s":"Uncletopia | New York City | 1 | All Maps","protocol":17,"map":"pl_badwater","folder":"tf","game":"Team Fortress","app_id":440,"player_count":24,"max_players":24,"Bots":0,"server_type":"Dedicated","server_os":"Linux","password":true,"vac":true,"version":"7757534","steam_id":85568392924469993,"keywords":["nocrits","nodmgspread","payload","uncletopia"],"game_id":440,"stv_port":27016,"stv_name":"Uncletopia | New York City | 1 | All Maps | STV","players":[{"user_id":524,"name":"i wore a minions shirt to prom","steam_id":76561198045010282,"connected_time":6598000000000,"state":"active","ping":59},{"user_id":599,"name":"Evan","steam_id":76561198081165364,"connected_time":395000000000,"state":"active","ping":55},{"user_id":570,"name":"Sapphireblitz","steam_id":76561198272635379,"connected_time":3259000000000,"state":"active","ping":69},{"user_id":597,"name":"Fantastibad","steam_id":76561199087329262,"connected_time":866000000000,"state":"active","ping":55},{"user_id":595,"name":"jorjor wells","steam_id":76561199073429082,"connected_time":996000000000,"state":"active","ping":46},{"user_id":587,"name":"Theodore Roosevelt","steam_id":76561197993295656,"connected_time":2153000000000,"state":"active","ping":62},{"user_id":583,"name":"blademiss","steam_id":76561198062083019,"connected_time":2288000000000,"state":"active","ping":113},{"user_id":591,"name":"Madvillain - Accordion . . .","steam_id":76561198294013916,"connected_time":1136000000000,"state":"active","ping":45},{"user_id":571,"name":"Daksuki","steam_id":76561198084127751,"connected_time":3106000000000,"state":"active","ping":91},{"user_id":585,"name":"sorestburrito7","steam_id":76561198329065767,"connected_time":2248000000000,"state":"active","ping":176},{"user_id":586,"name":"Toxicheadhunter","steam_id":76561198345548986,"connected_time":2218000000000,"state":"active","ping":97},{"user_id":545,"name":"amablehughes","steam_id":76561199007131236,"connected_time":5327000000000,"state":"active","ping":78},{"user_id":596,"name":"wepry","steam_id":76561198114091417,"connected_time":912000000000,"state":"active","ping":103},{"user_id":592,"name":"Lupin III","steam_id":76561198054723601,"connected_time":1105000000000,"state":"active","ping":63},{"user_id":500,"name":"flappyflap2","steam_id":76561198285048973,"connected_time":8362000000000,"state":"active","ping":47},{"user_id":539,"name":"Queen Frau the Round","steam_id":76561197999942134,"connected_time":5426000000000,"state":"active","ping":60},{"user_id":557,"name":"Wilhelmktx","steam_id":76561198158102295,"connected_time":4755000000000,"state":"active","ping":71},{"user_id":553,"name":"A Puppy","steam_id":76561198828184456,"connected_time":5153000000000,"state":"active","ping":49},{"user_id":490,"name":"Warzard","steam_id":76561199154051413,"connected_time":9089000000000,"state":"active","ping":102},{"user_id":558,"name":"Razz","steam_id":76561198158027533,"connected_time":4753000000000,"state":"active","ping":62},{"user_id":561,"name":"Bread Bug","steam_id":76561198044872804,"connected_time":4404000000000,"state":"active","ping":51},{"user_id":600,"name":"coffeeghost","steam_id":76561198155142385,"connected_time":383000000000,"state":"active","ping":73},{"user_id":550,"name":"rude boi","steam_id":76561198006783260,"connected_time":5224000000000,"state":"active","ping":49},{"user_id":581,"name":"Huntpk","steam_id":76561198340591674,"connected_time":2320000000000,"state":"active","ping":66}]},{"server_id":14,"name":"Uncletopia | New York City | 2 | All Maps","name_short":"nyc-2","host":"nyc-1.us.uncletopia.com","port":27025,"enabled":true,"region":"us-east","cc":"us","latitude":40.73061,"longitude":-73.93524,"reserved":0,"last_update":"0001-01-01T00:00:00Z","name_a2s":"Uncletopia | New York City | 2 | All Maps","protocol":17,"map":"pl_frontier_final","folder":"tf","game":"Team Fortress","app_id":440,"player_count":22,"max_players":24,"Bots":0,"server_type":"Dedicated","server_os":"Linux","password":true,"vac":true,"version":"7757534","steam_id":85568392924469994,"keywords":["nocrits","nodmgspread","payload","uncletopia"],"game_id":440,"stv_port":27026,"stv_name":"Uncletopia | New York City | 2 | All Maps | STV","players":[{"user_id":523,"name":"Neato Burrito","steam_id":76561198250033944,"connected_time":452000000000,"state":"active","ping":62},{"user_id":526,"name":"ndvr","steam_id":76561199379200102,"connected_time":386000000000,"state":"active","ping":53},{"user_id":504,"name":"Kid B","steam_id":76561198275896307,"connected_time":1427000000000,"state":"active","ping":50},{"user_id":534,"name":"Big_John [Real]","steam_id":76561198099825954,"connected_time":35000000000,"state":"active","ping":89},{"user_id":527,"name":"M0T0BREATH  \\TG/","steam_id":76561197961205221,"connected_time":354000000000,"state":"active","ping":267},{"user_id":503,"name":"Kaiser of Kaisers","steam_id":76561198450818327,"connected_time":1468000000000,"state":"active","ping":53},{"user_id":483,"name":"Sveniven","steam_id":76561198118864411,"connected_time":3065000000000,"state":"active","ping":96},{"user_id":515,"name":"kametro4","steam_id":76561198835430429,"connected_time":613000000000,"state":"active","ping":65},{"user_id":520,"name":"Strange Festive Femboy","steam_id":76561198050385093,"connected_time":471000000000,"state":"active","ping":60},{"user_id":511,"name":"Captain Emerald The Changeling","steam_id":76561198320651177,"connected_time":809000000000,"state":"active","ping":47},{"user_id":528,"name":"Breezy","steam_id":76561198177950102,"connected_time":319000000000,"state":"active","ping":55},{"user_id":441,"name":"WhoIsFrosty","steam_id":76561198880588117,"connected_time":6290000000000,"state":"active","ping":65},{"user_id":513,"name":"what","steam_id":76561198082336619,"connected_time":645000000000,"state":"active","ping":59},{"user_id":529,"name":"Skeech","steam_id":76561198119215388,"connected_time":250000000000,"state":"active","ping":101},{"user_id":492,"name":"very nice","steam_id":76561198054260599,"connected_time":2192000000000,"state":"active","ping":85},{"user_id":512,"name":"Alter_Luna","steam_id":76561198214146248,"connected_time":805000000000,"state":"active","ping":73},{"user_id":524,"name":"Gelidus","steam_id":76561198817304634,"connected_time":440000000000,"state":"active","ping":74},{"user_id":535,"name":"Rudy","steam_id":76561198013456828,"connected_time":13000000000,"state":"active","ping":45},{"user_id":522,"name":"brn","steam_id":76561198118211523,"connected_time":461000000000,"state":"active","ping":45},{"user_id":508,"name":"Menlymen","steam_id":76561198046508051,"connected_time":1246000000000,"state":"active","ping":77},{"user_id":531,"name":"matkaster","steam_id":76561197998546486,"connected_time":146000000000,"state":"active","ping":82},{"user_id":532,"name":"alexthepenguin7","steam_id":76561198390154448,"connected_time":132000000000,"state":"active","ping":83}]},{"server_id":15,"name":"Uncletopia | New York City | 3 | Stopwatch Beta","name_short":"nyc-3","host":"nyc-1.us.uncletopia.com","port":27035,"enabled":true,"region":"us-east","cc":"us","latitude":40.73061,"longitude":-73.93524,"reserved":0,"last_update":"0001-01-01T00:00:00Z","name_a2s":"Uncletopia | New York City | 3 | Stopwatch Beta","protocol":17,"map":"workshop/koth_clearcut_b15.ugc2107050255","folder":"tf","game":"Team Fortress","app_id":440,"player_count":0,"max_players":24,"Bots":0,"server_type":"Dedicated","server_os":"Linux","password":true,"vac":true,"version":"7757534","steam_id":85568392924742820,"keywords":["cp","nocrits","nodmgspread","uncletopia"],"game_id":440,"stv_port":27036,"stv_name":"Uncletopia | New York City | 3 | Stopwatch Beta | STV","players":null},{"server_id":16,"name":"Uncletopia | New York City | 4 | Community","name_short":"nyc-4","host":"nyc-1.us.uncletopia.com","port":27045,"enabled":true,"region":"us-east","cc":"us","latitude":40.73061,"longitude":-73.93524,"reserved":0,"last_update":"0001-01-01T00:00:00Z","name_a2s":"Uncletopia | New York City | 4 | Community","protocol":17,"map":"workshop/cp_reckoner_rc6.ugc674719999","folder":"tf","game":"Team Fortress","app_id":440,"player_count":0,"max_players":24,"Bots":0,"server_type":"Dedicated","server_os":"Linux","password":true,"vac":true,"version":"7757534","steam_id":85568392924742821,"keywords":["cp","nocrits","nodmgspread","uncletopia"],"game_id":440,"stv_port":27046,"stv_name":"Uncletopia | New York City | 4 | Community | STV","players":null},{"server_id":142,"name":"Uncletopia | São Paulo | 1 | All Maps","name_short":"sao-1","host":"sao-1.br.uncletopia.com","port":27015,"enabled":true,"region":"sa","cc":"br","latitude":-23.533773,"longitude":-46.62529,"reserved":0,"last_update":"0001-01-01T00:00:00Z","name_a2s":"Uncletopia | São Paulo | 1 | All Maps","protocol":17,"map":"plr_pipeline","folder":"tf","game":"Team Fortress","app_id":440,"player_count":0,"max_players":24,"Bots":0,"server_type":"Dedicated","server_os":"Linux","password":true,"vac":true,"version":"7757534","steam_id":85568392924469996,"keywords":["nocrits","nodmgspread","payload","uncletopia"],"game_id":440,"stv_port":27016,"stv_name":"Uncletopia | São Paulo | 1 | All Maps | STV","players":null},{"server_id":143,"name":"Uncletopia | São Paulo | 2 | All Maps","name_short":"sao-2","host":"sao-2.br.uncletopia.com","port":27015,"enabled":true,"region":"sa","cc":"br","latitude":-23.533773,"longitude":-46.62529,"reserved":0,"last_update":"0001-01-01T00:00:00Z","name_a2s":"Uncletopia | São Paulo | 2 | All Maps","protocol":17,"map":"koth_cascade","folder":"tf","game":"Team Fortress","app_id":440,"player_count":0,"max_players":24,"Bots":0,"server_type":"Dedicated","server_os":"Linux","password":true,"vac":true,"version":"7757534","steam_id":85568392924485349,"keywords":["cp","nocrits","nodmgspread","uncletopia"],"game_id":440,"stv_port":27016,"stv_name":"Uncletopia | São Paulo | 2 | All Maps | STV","players":null},{"server_id":7,"name":"Uncletopia | Seattle | 1 | All Maps","name_short":"sea-1","host":"sea-1.us.uncletopia.com","port":27015,"enabled":true,"region":"us-west","cc":"us","latitude":47.608013,"longitude":-122.33517,"reserved":0,"last_update":"0001-01-01T00:00:00Z","name_a2s":"Uncletopia | Seattle | 1 | All Maps","protocol":17,"map":"koth_harvest_final","folder":"tf","game":"Team Fortress","app_id":440,"player_count":23,"max_players":24,"Bots":0,"server_type":"Dedicated","server_os":"Linux","password":true,"vac":true,"version":"7757534","steam_id":85568392924469997,"keywords":["cp","nocrits","nodmgspread","uncletopia"],"game_id":440,"stv_port":27016,"stv_name":"Uncletopia | Seattle | 1 | All Maps | STV","players":[{"user_id":771,"name":"bullet man","steam_id":76561198080058079,"connected_time":1862000000000,"state":"active","ping":47},{"user_id":739,"name":"the them","steam_id":76561198082922382,"connected_time":5698000000000,"state":"active","ping":77},{"user_id":769,"name":"[TrC] Dackstrus","steam_id":76561197973518509,"connected_time":1881000000000,"state":"active","ping":57},{"user_id":785,"name":"Frisk","steam_id":76561198149968471,"connected_time":916000000000,"state":"active","ping":112},{"user_id":647,"name":"rat gets the cheese","steam_id":76561198031234032,"connected_time":12639000000000,"state":"active","ping":96},{"user_id":772,"name":"carmillaluvr1334","steam_id":76561198325306660,"connected_time":1858000000000,"state":"active","ping":51},{"user_id":788,"name":"jameS","steam_id":76561198122043365,"connected_time":357000000000,"state":"active","ping":162},{"user_id":786,"name":"Grizzly","steam_id":76561198176174371,"connected_time":889000000000,"state":"active","ping":79},{"user_id":783,"name":"resonant","steam_id":76561198271146637,"connected_time":1161000000000,"state":"active","ping":110},{"user_id":752,"name":"Villchip","steam_id":76561198198599982,"connected_time":4531000000000,"state":"active","ping":55},{"user_id":775,"name":"lavender","steam_id":76561199069518286,"connected_time":1805000000000,"state":"active","ping":73},{"user_id":765,"name":"Ham Radio","steam_id":76561198030613297,"connected_time":2091000000000,"state":"active","ping":104},{"user_id":720,"name":"homefrog","steam_id":76561197988528639,"connected_time":6973000000000,"state":"active","ping":122},{"user_id":779,"name":"cerious","steam_id":76561197994365894,"connected_time":1640000000000,"state":"active","ping":41},{"user_id":781,"name":"viciousbeatmaker","steam_id":76561198086876652,"connected_time":1450000000000,"state":"active","ping":80},{"user_id":728,"name":"Lt. Cmdr. Data","steam_id":76561198022366823,"connected_time":6469000000000,"state":"active","ping":96},{"user_id":787,"name":"ikuyo","steam_id":76561198996950205,"connected_time":568000000000,"state":"active","ping":71},{"user_id":662,"name":"Level 99 Mudcrab","steam_id":76561198077452771,"connected_time":11829000000000,"state":"active","ping":59},{"user_id":778,"name":"AmudPuddle","steam_id":76561198017041618,"connected_time":1785000000000,"state":"active","ping":133},{"user_id":727,"name":"Whiplash9000","steam_id":76561198282551734,"connected_time":6734000000000,"state":"active","ping":98},{"user_id":767,"name":"Banzailizard","steam_id":76561197986785469,"connected_time":1895000000000,"state":"active","ping":89},{"user_id":756,"name":"Tom Skirrett","steam_id":76561198014600788,"connected_time":3866000000000,"state":"active","ping":67},{"user_id":764,"name":"bruh","steam_id":76561199095370765,"connected_time":2228000000000,"state":"active","ping":69}]},{"server_id":119,"name":"Uncletopia | Seattle | 2 | All Maps","name_short":"sea-2","host":"sea-1.us.uncletopia.com","port":27025,"enabled":true,"region":"us-west","cc":"us","latitude":47.608013,"longitude":-122.33517,"reserved":0,"last_update":"0001-01-01T00:00:00Z","name_a2s":"Uncletopia | Seattle | 2 | All Maps","protocol":17,"map":"pl_wutville_event","folder":"tf","game":"Team Fortress","app_id":440,"player_count":24,"max_players":24,"Bots":0,"server_type":"Dedicated","server_os":"Linux","password":true,"vac":true,"version":"7757534","steam_id":85568392924469998,"keywords":["nocrits","nodmgspread","payload","uncletopia"],"game_id":440,"stv_port":27026,"stv_name":"Uncletopia | Seattle | 2 | All Maps | STV","players":[{"user_id":228,"name":"obamaconsumespancakes","steam_id":76561199283740228,"connected_time":11127000000000,"state":"active","ping":57},{"user_id":327,"name":"Big Gazza","steam_id":76561199030963367,"connected_time":4790000000000,"state":"active","ping":64},{"user_id":368,"name":"Joseph Stalin","steam_id":76561198126234142,"connected_time":1560000000000,"state":"active","ping":71},{"user_id":384,"name":"R5-D4","steam_id":76561198025196439,"connected_time":185000000000,"state":"active","ping":46},{"user_id":382,"name":"JUSTICE!!!!!!!!!!!!!!!!!!!!!!!","steam_id":76561198334511480,"connected_time":488000000000,"state":"active","ping":75},{"user_id":329,"name":"WayPastMeh","steam_id":76561198440277329,"connected_time":4786000000000,"state":"active","ping":62},{"user_id":343,"name":"IntravenusDeMilo","steam_id":76561197970629020,"connected_time":3505000000000,"state":"active","ping":44},{"user_id":363,"name":"Ok then","steam_id":76561198891914787,"connected_time":2267000000000,"state":"active","ping":120},{"user_id":361,"name":"hack fraud","steam_id":76561198015036066,"connected_time":2393000000000,"state":"active","ping":88},{"user_id":381,"name":"volta","steam_id":76561199214283884,"connected_time":495000000000,"state":"active","ping":147},{"user_id":371,"name":"Charles Codsworth","steam_id":76561198038976657,"connected_time":1432000000000,"state":"active","ping":87},{"user_id":341,"name":"chompmastr","steam_id":76561199121805899,"connected_time":3867000000000,"state":"active","ping":49},{"user_id":362,"name":"gorlab","steam_id":76561198025089694,"connected_time":2369000000000,"state":"active","ping":58},{"user_id":335,"name":"General Fisticuffs","steam_id":76561198255721392,"connected_time":4296000000000,"state":"active","ping":115},{"user_id":364,"name":"Santicules","steam_id":76561198209373536,"connected_time":1603000000000,"state":"active","ping":108},{"user_id":365,"name":"Dr. Reaper","steam_id":76561198049436290,"connected_time":1579000000000,"state":"active","ping":60},{"user_id":366,"name":"Robert E.T.","steam_id":76561197986439371,"connected_time":1572000000000,"state":"active","ping":52},{"user_id":317,"name":"king piccolo gaming","steam_id":76561198000744865,"connected_time":7093000000000,"state":"active","ping":44},{"user_id":380,"name":"god approaches","steam_id":76561198081617990,"connected_time":510000000000,"state":"active","ping":117},{"user_id":372,"name":"Google","steam_id":76561198857237473,"connected_time":1350000000000,"state":"active","ping":52},{"user_id":367,"name":"AmiableNebula she/her","steam_id":76561198094306627,"connected_time":1571000000000,"state":"active","ping":76},{"user_id":383,"name":"Grim1438","steam_id":76561199218478092,"connected_time":448000000000,"state":"active","ping":59},{"user_id":378,"name":"yolginmo","steam_id":76561198157985901,"connected_time":737000000000,"state":"active","ping":51},{"user_id":360,"name":"Biosock Infiknit","steam_id":76561198072693794,"connected_time":2424000000000,"state":"active","ping":99}]},{"server_id":406,"name":"Uncletopia | Seattle | 3 | Stopwatch Beta","name_short":"sea-3","host":"sea-1.us.uncletopia.com","port":27035,"enabled":true,"region":"us-west","cc":"us","latitude":47.608013,"longitude":-122.33517,"reserved":0,"last_update":"0001-01-01T00:00:00Z","name_a2s":"Uncletopia | Seattle | 3 | Stopwatch Beta","protocol":17,"map":"pl_upward","folder":"tf","game":"Team Fortress","app_id":440,"player_count":0,"max_players":24,"Bots":0,"server_type":"Dedicated","server_os":"Linux","password":true,"vac":true,"version":"7757534","steam_id":85568392924515217,"keywords":["nocrits","nodmgspread","payload","uncletopia"],"game_id":440,"stv_port":27036,"stv_name":"Uncletopia | Seattle | 3 | Stopwatch Beta | STV","players":null},{"server_id":17,"name":"Uncletopia | San Francisco | 1 | All Maps","name_short":"sfo-1","host":"sfo-1.us.uncletopia.com","port":27015,"enabled":true,"region":"us-west","cc":"us","latitude":37.77397,"longitude":-122.4313,"reserved":0,"last_update":"0001-01-01T00:00:00Z","name_a2s":"Uncletopia | San Francisco | 1 | All Maps","protocol":17,"map":"pl_barnblitz","folder":"tf","game":"Team Fortress","app_id":440,"player_count":24,"max_players":24,"Bots":0,"server_type":"Dedicated","server_os":"Linux","password":true,"vac":true,"version":"7757534","steam_id":85568392924469999,"keywords":["nocrits","nodmgspread","payload","uncletopia"],"game_id":440,"stv_port":27016,"stv_name":"Uncletopia | San Francisco | 1 | All Maps | STV","players":[{"user_id":24,"name":"TheSapphirePig","steam_id":76561199115310738,"connected_time":3426000000000,"state":"active","ping":81},{"user_id":30,"name":"Monkeboi","steam_id":76561199365388554,"connected_time":2797000000000,"state":"active","ping":77},{"user_id":26,"name":"Idontknow","steam_id":76561199207044048,"connected_time":3075000000000,"state":"active","ping":63},{"user_id":39,"name":"Blu\u003c3","steam_id":76561198216877208,"connected_time":1638000000000,"state":"active","ping":68},{"user_id":40,"name":"The slosh machine","steam_id":76561198216723177,"connected_time":1634000000000,"state":"active","ping":72},{"user_id":43,"name":"tacofever","steam_id":76561198010966507,"connected_time":830000000000,"state":"active","ping":62},{"user_id":74,"name":"El Gato Paranoico","steam_id":76561198116567116,"connected_time":5000000000,"state":"spawning","ping":103},{"user_id":44,"name":"Tele Co","steam_id":76561198041909269,"connected_time":610000000000,"state":"active","ping":65},{"user_id":65,"name":"McRib","steam_id":76561198880500332,"connected_time":250000000000,"state":"active","ping":114},{"user_id":46,"name":"Veritox","steam_id":76561198075778026,"connected_time":560000000000,"state":"active","ping":61},{"user_id":47,"name":"squid","steam_id":76561198070236972,"connected_time":549000000000,"state":"active","ping":74},{"user_id":48,"name":"Bada Bingus","steam_id":76561198046743307,"connected_time":548000000000,"state":"active","ping":124},{"user_id":49,"name":"Barnie Sandlers","steam_id":76561198153295482,"connected_time":527000000000,"state":"active","ping":45},{"user_id":50,"name":"nfseskimo","steam_id":76561198078745666,"connected_time":507000000000,"state":"active","ping":60},{"user_id":51,"name":"Thicc Boi","steam_id":76561199163799116,"connected_time":481000000000,"state":"active","ping":88},{"user_id":52,"name":"I EJACULATE THUNDER","steam_id":76561198081481391,"connected_time":466000000000,"state":"active","ping":122},{"user_id":53,"name":"SirBagettue","steam_id":76561199010270588,"connected_time":432000000000,"state":"active","ping":62},{"user_id":73,"name":"OddSlaush","steam_id":76561198043898488,"connected_time":15000000000,"state":"active","ping":47},{"user_id":55,"name":"hoOmIN","steam_id":76561198334947079,"connected_time":423000000000,"state":"active","ping":45},{"user_id":56,"name":"gulch","steam_id":76561199227946025,"connected_time":418000000000,"state":"active","ping":99},{"user_id":57,"name":"Flying rat","steam_id":76561198891152046,"connected_time":412000000000,"state":"active","ping":129},{"user_id":58,"name":"Steven_The_Anteater","steam_id":76561198444854849,"connected_time":392000000000,"state":"active","ping":107},{"user_id":59,"name":"Clown","steam_id":76561198039435921,"connected_time":391000000000,"state":"active","ping":84},{"user_id":64,"name":"ROGUE-PLANET","steam_id":76561198116023052,"connected_time":285000000000,"state":"active","ping":121}]},{"server_id":18,"name":"Uncletopia | San Francisco | 2 | All Maps","name_short":"sfo-2","host":"sfo-1.us.uncletopia.com","port":27025,"enabled":true,"region":"us-west","cc":"us","latitude":37.77397,"longitude":-122.4313,"reserved":0,"last_update":"0001-01-01T00:00:00Z","name_a2s":"Uncletopia | San Francisco | 2 | All Maps","protocol":17,"map":"pl_upward","folder":"tf","game":"Team Fortress","app_id":440,"player_count":23,"max_players":24,"Bots":0,"server_type":"Dedicated","server_os":"Linux","password":true,"vac":true,"version":"7757534","steam_id":85568392924470000,"keywords":["nocrits","nodmgspread","payload","uncletopia"],"game_id":440,"stv_port":27026,"stv_name":"Uncletopia | San Francisco | 2 | All Maps | STV","players":[{"user_id":142,"name":"evolNapper","steam_id":76561197976889812,"connected_time":40000000000,"state":"active","ping":99},{"user_id":103,"name":"TAMBERSPACE","steam_id":76561198248665352,"connected_time":3652000000000,"state":"active","ping":79},{"user_id":91,"name":"Delimeat","steam_id":76561198043824595,"connected_time":4416000000000,"state":"active","ping":56},{"user_id":137,"name":"Nihplod_","steam_id":76561199010320094,"connected_time":661000000000,"state":"active","ping":116},{"user_id":126,"name":"Macho Ravioli","steam_id":76561198135494174,"connected_time":2073000000000,"state":"active","ping":48},{"user_id":143,"name":"Uncle Darnell","steam_id":76561198211473307,"connected_time":25000000000,"state":"active","ping":121},{"user_id":144,"name":"295.3","steam_id":76561198126358045,"connected_time":8000000000,"state":"active","ping":159},{"user_id":129,"name":"-Enter Name Here-","steam_id":76561198040358938,"connected_time":1396000000000,"state":"active","ping":161},{"user_id":105,"name":"May may :)","steam_id":76561198816778484,"connected_time":3645000000000,"state":"spawning","ping":102},{"user_id":140,"name":"Lo-Pan","steam_id":76561198085670133,"connected_time":523000000000,"state":"active","ping":104},{"user_id":112,"name":"scarecrow (evil)","steam_id":76561198082979347,"connected_time":3426000000000,"state":"active","ping":108},{"user_id":92,"name":"Frazzer","steam_id":76561198088679707,"connected_time":4408000000000,"state":"active","ping":47},{"user_id":121,"name":"Bubba","steam_id":76561198852552714,"connected_time":2983000000000,"state":"active","ping":58},{"user_id":141,"name":"xXx360N05(093/\\/\\0N|\u003c3420XxxXx","steam_id":76561199106928956,"connected_time":404000000000,"state":"active","ping":55},{"user_id":145,"name":"Zippy","steam_id":76561198279229422,"connected_time":8000000000,"state":"spawning","ping":91},{"user_id":85,"name":"NotAWeeb","steam_id":76561198165530739,"connected_time":4941000000000,"state":"active","ping":41},{"user_id":122,"name":"Nuggies","steam_id":76561198272432592,"connected_time":2674000000000,"state":"active","ping":59},{"user_id":133,"name":"Gugomo","steam_id":76561198121428316,"connected_time":1187000000000,"state":"active","ping":33},{"user_id":134,"name":"Ocktorock","steam_id":76561198211636619,"connected_time":1186000000000,"state":"active","ping":62},{"user_id":135,"name":"HUIEI","steam_id":76561198073763735,"connected_time":1173000000000,"state":"active","ping":52},{"user_id":119,"name":"Gameonator108","steam_id":76561199089224205,"connected_time":3247000000000,"state":"active","ping":77},{"user_id":94,"name":"⌞pizzaguy⌝","steam_id":76561197963710485,"connected_time":4107000000000,"state":"active","ping":82},{"user_id":57,"name":"Super Noob","steam_id":76561199179611350,"connected_time":7925000000000,"state":"spawning","ping":384}]},{"server_id":19,"name":"Uncletopia | San Francisco | 3 | Stopwatch Beta","name_short":"sfo-3","host":"sfo-1.us.uncletopia.com","port":27035,"enabled":true,"region":"us-west","cc":"us","latitude":37.77397,"longitude":-122.4313,"reserved":0,"last_update":"0001-01-01T00:00:00Z","name_a2s":"Uncletopia | San Francisco | 3 | Stopwatch Beta","protocol":17,"map":"koth_viaduct","folder":"tf","game":"Team Fortress","app_id":440,"player_count":0,"max_players":24,"Bots":0,"server_type":"Dedicated","server_os":"Linux","password":true,"vac":true,"version":"7757534","steam_id":85568392924742824,"keywords":["cp","nocrits","nodmgspread","uncletopia"],"game_id":440,"stv_port":27036,"stv_name":"Uncletopia | San Francisco | 3 | Stopwatch Beta | STV","players":null},{"server_id":20,"name":"Uncletopia | San Francisco | 4 | Community","name_short":"sfo-4","host":"sfo-1.us.uncletopia.com","port":27045,"enabled":true,"region":"us-west","cc":"us","latitude":37.77397,"longitude":-122.4313,"reserved":0,"last_update":"0001-01-01T00:00:00Z","name_a2s":"Uncletopia | San Francisco | 4 | Community","protocol":17,"map":"workshop/pl_vigil_rc9.ugc1266210012","folder":"tf","game":"Team Fortress","app_id":440,"player_count":0,"max_players":24,"Bots":0,"server_type":"Dedicated","server_os":"Linux","password":true,"vac":true,"version":"7757534","steam_id":85568392924742826,"keywords":["nocrits","nodmgspread","payload","uncletopia"],"game_id":440,"stv_port":27046,"stv_name":"Uncletopia | San Francisco | 4 | Community | STV","players":null},{"server_id":141,"name":"Uncletopia | Sydney | 1 | All Maps","name_short":"syd-1","host":"syd-1.au.uncletopia.com","port":27015,"enabled":true,"region":"au","cc":"au","latitude":-33.865143,"longitude":151.2099,"reserved":0,"last_update":"0001-01-01T00:00:00Z","name_a2s":"Uncletopia | Sydney | 1 | All Maps","protocol":17,"map":"pl_frontier_final","folder":"tf","game":"Team Fortress","app_id":440,"player_count":20,"max_players":24,"Bots":0,"server_type":"Dedicated","server_os":"Linux","password":true,"vac":true,"version":"7757534","steam_id":85568392924470001,"keywords":["nocrits","nodmgspread","payload","uncletopia"],"game_id":440,"stv_port":27016,"stv_name":"Uncletopia | Sydney | 1 | All Maps | STV","players":[{"user_id":102,"name":"Ok Mate","steam_id":76561198254922035,"connected_time":1161000000000,"state":"active","ping":53},{"user_id":111,"name":"Piyo.","steam_id":76561197985114373,"connected_time":155000000000,"state":"active","ping":70},{"user_id":83,"name":"ly","steam_id":76561198303878229,"connected_time":2526000000000,"state":"active","ping":57},{"user_id":82,"name":"Scorchinq","steam_id":76561198169423722,"connected_time":2542000000000,"state":"active","ping":52},{"user_id":114,"name":"PinkFluffyKnuckles","steam_id":76561198877114539,"connected_time":144000000000,"state":"active","ping":57},{"user_id":115,"name":"Nuker","steam_id":76561198207761688,"connected_time":101000000000,"state":"active","ping":45},{"user_id":98,"name":"ben","steam_id":76561198223331996,"connected_time":1795000000000,"state":"active","ping":77},{"user_id":100,"name":"thrax","steam_id":76561197992385270,"connected_time":1555000000000,"state":"active","ping":53},{"user_id":116,"name":"electro599","steam_id":76561198058148858,"connected_time":84000000000,"state":"active","ping":59},{"user_id":106,"name":"mighty beans","steam_id":76561198066380455,"connected_time":967000000000,"state":"active","ping":30},{"user_id":64,"name":"Editor_Billy","steam_id":76561199165608946,"connected_time":4260000000000,"state":"active","ping":59},{"user_id":112,"name":"Jett","steam_id":76561198969434128,"connected_time":153000000000,"state":"active","ping":303},{"user_id":101,"name":"Zort","steam_id":76561198056414289,"connected_time":1523000000000,"state":"active","ping":66},{"user_id":87,"name":"bowser","steam_id":76561198271462646,"connected_time":2390000000000,"state":"active","ping":41},{"user_id":113,"name":"Gregory Bahamas","steam_id":76561199018104831,"connected_time":152000000000,"state":"active","ping":69},{"user_id":104,"name":"The Bisoneer TF2","steam_id":76561199446773766,"connected_time":1107000000000,"state":"active","ping":249},{"user_id":93,"name":"Google Chrome","steam_id":76561198042064910,"connected_time":2150000000000,"state":"active","ping":44},{"user_id":95,"name":"Zeal","steam_id":76561198060829393,"connected_time":2075000000000,"state":"active","ping":65},{"user_id":44,"name":"FyreFeat","steam_id":76561198068428930,"connected_time":5195000000000,"state":"active","ping":52},{"user_id":51,"name":"Cris.p bacon","steam_id":76561199230423491,"connected_time":5050000000000,"state":"active","ping":104}]},{"server_id":123,"name":"Uncletopia | Sydney | 2 | All Maps","name_short":"syd-2","host":"syd-1.au.uncletopia.com","port":27025,"enabled":true,"region":"au","cc":"au","latitude":-33.865143,"longitude":151.2099,"reserved":0,"last_update":"0001-01-01T00:00:00Z","name_a2s":"Uncletopia | Sydney | 2 | All Maps","protocol":17,"map":"cp_snakewater_final1","folder":"tf","game":"Team Fortress","app_id":440,"player_count":23,"max_players":24,"Bots":0,"server_type":"Dedicated","server_os":"Linux","password":true,"vac":true,"version":"7757534","steam_id":85568392924470002,"keywords":["cp","nocrits","nodmgspread","uncletopia"],"game_id":440,"stv_port":27026,"stv_name":"Uncletopia | Sydney | 2 | All Maps | STV","players":[{"user_id":360,"name":"Raven","steam_id":76561198428025966,"connected_time":1035000000000,"state":"active","ping":62},{"user_id":344,"name":"internetkittenz13","steam_id":76561198881042979,"connected_time":1689000000000,"state":"active","ping":36},{"user_id":291,"name":"Bobby Bigman","steam_id":76561198044679656,"connected_time":6567000000000,"state":"active","ping":59},{"user_id":361,"name":"Ruc0","steam_id":76561198049321229,"connected_time":1008000000000,"state":"active","ping":69},{"user_id":340,"name":"Oysenberry","steam_id":76561198125443335,"connected_time":1938000000000,"state":"active","ping":51},{"user_id":338,"name":"nojnosbod11","steam_id":76561199176012151,"connected_time":2175000000000,"state":"active","ping":65},{"user_id":366,"name":"hikeshi","steam_id":76561198079512004,"connected_time":718000000000,"state":"active","ping":55},{"user_id":343,"name":"squrrel","steam_id":76561198083429611,"connected_time":1749000000000,"state":"active","ping":73},{"user_id":359,"name":"Dragoon","steam_id":76561198039564424,"connected_time":1201000000000,"state":"active","ping":43},{"user_id":370,"name":"E is for Exist","steam_id":76561198133651195,"connected_time":369000000000,"state":"active","ping":77},{"user_id":374,"name":"stevo","steam_id":76561198117749786,"connected_time":122000000000,"state":"active","ping":82},{"user_id":371,"name":"East","steam_id":76561197998179587,"connected_time":257000000000,"state":"active","ping":99},{"user_id":306,"name":"Consolidated Fart","steam_id":76561198924101909,"connected_time":5027000000000,"state":"active","ping":65},{"user_id":375,"name":"MagicBush","steam_id":76561198001937726,"connected_time":40000000000,"state":"active","ping":45},{"user_id":350,"name":"sabeuo","steam_id":76561198288259746,"connected_time":1468000000000,"state":"active","ping":55},{"user_id":351,"name":"bread","steam_id":76561199405764106,"connected_time":1460000000000,"state":"active","ping":37},{"user_id":352,"name":"orange is fucking trash","steam_id":76561198207940839,"connected_time":1416000000000,"state":"active","ping":52},{"user_id":372,"name":"Pseudoman","steam_id":76561198131158447,"connected_time":213000000000,"state":"active","ping":100},{"user_id":376,"name":"Hat","steam_id":76561199260847900,"connected_time":8000000000,"state":"active","ping":304},{"user_id":355,"name":"BIGNATE","steam_id":76561199207791519,"connected_time":1359000000000,"state":"active","ping":106},{"user_id":358,"name":"wombraider","steam_id":76561199375834537,"connected_time":1233000000000,"state":"active","ping":122},{"user_id":367,"name":"tweedie","steam_id":76561198063425523,"connected_time":679000000000,"state":"active","ping":54},{"user_id":357,"name":"iplayforfun","steam_id":76561198861979482,"connected_time":1342000000000,"state":"active","ping":77}]},{"server_id":395,"name":"Uncletopia | Sydney | 3 | All Maps","name_short":"syd-3","host":"syd-1.au.uncletopia.com","port":27035,"enabled":true,"region":"au","cc":"au","latitude":-33.865143,"longitude":151.2099,"reserved":0,"last_update":"0001-01-01T00:00:00Z","name_a2s":"Uncletopia | Sydney | 3 | All Maps","protocol":17,"map":"pl_upward","folder":"tf","game":"Team Fortress","app_id":440,"player_count":0,"max_players":24,"Bots":0,"server_type":"Dedicated","server_os":"Linux","password":true,"vac":true,"version":"7757534","steam_id":85568392925194467,"keywords":["nocrits","nodmgspread","payload","uncletopia"],"game_id":440,"stv_port":27036,"stv_name":"Uncletopia | Sydney | 3 | All Maps | STV","players":null},{"server_id":396,"name":"Uncletopia | Sydney | 4 | All Maps","name_short":"syd-4","host":"syd-1.au.uncletopia.com","port":27045,"enabled":true,"region":"au","cc":"au","latitude":-33.865143,"longitude":151.2099,"reserved":0,"last_update":"0001-01-01T00:00:00Z","name_a2s":"Uncletopia | Sydney | 4 | All Maps","protocol":17,"map":"koth_highpass","folder":"tf","game":"Team Fortress","app_id":440,"player_count":0,"max_players":24,"Bots":0,"server_type":"Dedicated","server_os":"Linux","password":true,"vac":true,"version":"7757534","steam_id":85568392925397958,"keywords":["cp","nocrits","nodmgspread","uncletopia"],"game_id":440,"stv_port":27046,"stv_name":"Uncletopia | Sydney | 4 | All Maps | STV","players":null},{"server_id":58,"name":"Uncletopia | Sydney | 5 | Stopwatch Beta","name_short":"syd-5","host":"syd-1.au.uncletopia.com","port":27055,"enabled":true,"region":"au","cc":"au","latitude":-33.865143,"longitude":151.2099,"reserved":0,"last_update":"0001-01-01T00:00:00Z","name_a2s":"Uncletopia | Sydney | 5 | Stopwatch Beta","protocol":17,"map":"pl_barnblitz","folder":"tf","game":"Team Fortress","app_id":440,"player_count":0,"max_players":24,"Bots":0,"server_type":"Dedicated","server_os":"Linux","password":true,"vac":true,"version":"7757534","steam_id":85568392925397959,"keywords":["nocrits","nodmgspread","payload","uncletopia"],"game_id":440,"stv_port":27056,"stv_name":"Uncletopia | Sydney | 5 | Stopwatch Beta | STV","players":null},{"server_id":59,"name":"Uncletopia | Sydney | 6 | Community","name_short":"syd-6","host":"syd-1.au.uncletopia.com","port":27065,"enabled":true,"region":"au","cc":"au","latitude":-33.865143,"longitude":151.2099,"reserved":0,"last_update":"0001-01-01T00:00:00Z","name_a2s":"Uncletopia | Sydney | 6 | Community","protocol":17,"map":"workshop/koth_synthetic_rc6a.ugc1549817316","folder":"tf","game":"Team Fortress","app_id":440,"player_count":0,"max_players":24,"Bots":0,"server_type":"Dedicated","server_os":"Linux","password":true,"vac":true,"version":"7757534","steam_id":85568392925397960,"keywords":["cp","nocrits","nodmgspread","uncletopia"],"game_id":440,"stv_port":27066,"stv_name":"Uncletopia | Sydney | 6 | Community | STV","players":null},{"server_id":49,"name":"Uncletopia | Warsaw | 1 | All Maps","name_short":"waw-1","host":"waw-1.pl.uncletopia.com","port":27015,"enabled":true,"region":"eu","cc":"pl","latitude":52.2297,"longitude":21.017532,"reserved":0,"last_update":"0001-01-01T00:00:00Z","name_a2s":"","protocol":0,"map":"","folder":"","game":"","app_id":0,"player_count":0,"max_players":0,"Bots":0,"server_type":"","server_os":"","password":false,"vac":false,"version":"","steam_id":0,"keywords":null,"game_id":0,"stv_port":0,"stv_name":"","players":null},{"server_id":50,"name":"Uncletopia | Warsaw | 2 | All Maps","name_short":"waw-2","host":"waw-1.pl.uncletopia.com","port":27025,"enabled":true,"region":"eu","cc":"pl","latitude":52.2297,"longitude":21.017532,"reserved":0,"last_update":"0001-01-01T00:00:00Z","name_a2s":"Uncletopia | Warsaw | 2 | All Maps","protocol":17,"map":"cp_snakewater_final1","folder":"tf","game":"Team Fortress","app_id":440,"player_count":0,"max_players":24,"Bots":0,"server_type":"Dedicated","server_os":"Linux","password":true,"vac":true,"version":"7757534","steam_id":85568392925397851,"keywords":["cp","nocrits","nodmgspread","uncletopia"],"game_id":440,"stv_port":27026,"stv_name":"Uncletopia | Warsaw | 2 | All Maps | STV","players":null},{"server_id":51,"name":"Uncletopia | Warsaw | 3 | All Maps","name_short":"waw-3","host":"waw-1.pl.uncletopia.com","port":27035,"enabled":true,"region":"eu","cc":"pl","latitude":52.2297,"longitude":21.017532,"reserved":0,"last_update":"0001-01-01T00:00:00Z","name_a2s":"Uncletopia | Warsaw | 3 | All Maps","protocol":17,"map":"cp_sunshine","folder":"tf","game":"Team Fortress","app_id":440,"player_count":0,"max_players":24,"Bots":0,"server_type":"Dedicated","server_os":"Linux","password":true,"vac":true,"version":"7757534","steam_id":85568392925397852,"keywords":["cp","nocrits","nodmgspread","uncletopia"],"game_id":440,"stv_port":27036,"stv_name":"Uncletopia | Warsaw | 3 | All Maps | STV","players":null},{"server_id":52,"name":"Uncletopia | Warsaw | 4 | All Maps","name_short":"waw-4","host":"waw-1.pl.uncletopia.com","port":27045,"enabled":true,"region":"eu","cc":"pl","latitude":52.2297,"longitude":21.017532,"reserved":0,"last_update":"0001-01-01T00:00:00Z","name_a2s":"Uncletopia | Warsaw | 4 | All Maps","protocol":17,"map":"pl_borneo","folder":"tf","game":"Team Fortress","app_id":440,"player_count":0,"max_players":24,"Bots":0,"server_type":"Dedicated","server_os":"Linux","password":true,"vac":true,"version":"7757534","steam_id":85568392925397853,"keywords":["nocrits","nodmgspread","payload","uncletopia"],"game_id":440,"stv_port":27046,"stv_name":"Uncletopia | Warsaw | 4 | All Maps | STV","players":null},{"server_id":53,"name":"Uncletopia | Warsaw | 5 | Stopwatch Beta","name_short":"waw-5","host":"waw-1.pl.uncletopia.com","port":27055,"enabled":true,"region":"eu","cc":"pl","latitude":52.2297,"longitude":21.017532,"reserved":0,"last_update":"0001-01-01T00:00:00Z","name_a2s":"Uncletopia | Warsaw | 5 | Stopwatch Beta","protocol":17,"map":"pl_upward","folder":"tf","game":"Team Fortress","app_id":440,"player_count":0,"max_players":24,"Bots":0,"server_type":"Dedicated","server_os":"Linux","password":true,"vac":true,"version":"7757534","steam_id":85568392925397854,"keywords":["nocrits","nodmgspread","payload","uncletopia"],"game_id":440,"stv_port":27056,"stv_name":"Uncletopia | Warsaw | 5 | Stopwatch Beta | STV","players":null},{"server_id":54,"name":"Uncletopia | Warsaw | 6 | Community","name_short":"waw-6","host":"waw-1.pl.uncletopia.com","port":27065,"enabled":true,"region":"eu","cc":"pl","latitude":52.2297,"longitude":21.017532,"reserved":0,"last_update":"0001-01-01T00:00:00Z","name_a2s":"Uncletopia | Warsaw | 6 | Community","protocol":17,"map":"pl_barnblitz","folder":"tf","game":"Team Fortress","app_id":440,"player_count":0,"max_players":24,"Bots":0,"server_type":"Dedicated","server_os":"Linux","password":true,"vac":true,"version":"7757534","steam_id":85568392925397856,"keywords":["nocrits","nodmgspread","payload","uncletopia"],"game_id":440,"stv_port":27066,"stv_name":"Uncletopia | Warsaw | 6 | Community | STV","players":null}]}