{"status":true,"message":"","result":[{"server_id":9,"name":"Uncletopia | Atlanta | 1 | All Maps","name_short":"atl-1","host":"atl-1.us.uncletopia.com","port":27015,"enabled":true,"region":"us-east","cc":"us","latitude":33.753746,"longitude":-84.38633,"reserved":0,"last_update":"0001-01-01T00:00:00Z","name_a2s":"Uncletopia | Atlanta | 1 | All Maps","protocol":17,"map":"pl_swiftwater_final1","folder":"tf","game":"Team Fortress","app_id":440,"player_count":24,"max_players":24,"Bots":0,"server_type":"Dedicated","server_os":"Linux","password":true,"vac":true,"version":"7757534","steam_id":85568392924469982,"keywords":["nocrits","nodmgspread","payload","uncletopia"],"game_id":440,"stv_port":27016,"stv_name":"Uncletopia | Atlanta | 1 | All Maps | STV","players":[{"user_id":299,"name":"Karma","steam_id":76561198030565234,"connected_time":6457000000000,"state":"active","ping":69},{"user_id":352,"name":"Jin Gulilo","steam_id":76561198065151242,"connected_time":861000000000,"state":"active","ping":70},{"user_id":278,"name":"Dong-A-Tron 27.0","steam_id":76561198082202698,"connected_time":9683000000000,"state":"active","ping":71},{"user_id":358,"name":"JaketheDog217","steam_id":76561198424859448,"connected_time":419000000000,"state":"active","ping":70},{"user_id":349,"name":"ChickenExploder","steam_id":76561198214199900,"connected_time":878000000000,"state":"active","ping":68},{"user_id":336,"name":"stink","steam_id":76561198099318923,"connected_time":3197000000000,"state":"active","ping":75},{"user_id":335,"name":"melancholy","steam_id":76561198024301465,"connected_time":3272000000000,"state":"active","ping":45},{"user_id":307,"name":"Bandicario","steam_id":76561198432036026,"connected_time":5794000000000,"state":"active","ping":52},{"user_id":340,"name":"squaggles!","steam_id":76561197994995011,"connected_time":2466000000000,"state":"active","ping":45},{"user_id":354,"name":"BLU1 | Psionic Box","steam_id":76561198151019322,"connected_time":849000000000,"state":"active","ping":69},{"user_id":353,"name":"‚ô°Alyx‚ô°","steam_id":76561198024303978,"connected_time":861000000000,"state":"active","ping":60},{"user_id":337,"name":"FemboyNate","steam_id":76561198146636410,"connected_time":2645000000000,"state":"active","ping":74},{"user_id":356,"name":"Thotimus Begonimus","steam_id":76561197970275938,"connected_time":455000000000,"state":"active","ping":58},{"user_id":323,"name":"Dreszerg","steam_id":76561198838757422,"connected_time":4316000000000,"state":"active","ping":83},{"user_id":357,"name":"DFR Wingm4n","steam_id":76561198064127012,"connected_time":439000000000,"state":"active","ping":49},{"user_id":319,"name":"truundrscr","steam_id":76561198213525809,"connected_time":5079000000000,"state":"active","ping":121},{"user_id":324,"name":"Stuart Little 2","steam_id":76561198097272509,"connected_time":4292000000000,"state":"active","ping":40},{"user_id":351,"name":"jandajanda","steam_id":76561198235722476,"connected_time":867000000000,"state":"active","ping":58},{"user_id":322,"name":"RED1 | Le4n!!!","steam_id":76561198045522596,"connected_time":4423000000000,"state":"active","ping":71},{"user_id":355,"name":"Billybob7712","steam_id":76561199000291076,"connected_time":827000000000,"state":"active","ping":107},{"user_id":359,"name":"Luucyf3r","steam_id":76561198141820085,"connected_time":266000000000,"state":"active","ping":60},{"user_id":338,"name":"BLU1 | Pango","steam_id":76561198069811545,"connected_time":2643000000000,"state":"active","ping":42},{"user_id":360,"name":"Reni from 2023","steam_id":76561198065005979,"connected_time":194000000000,"state":"active","ping":90},{"user_id":344,"name":"Quiggles","steam_id":76561199177247655,"connected_time":1654000000000,"state":"active","ping":55}]},{"server_id":400,"name":"Uncletopia | Atlanta | 3 | Stopwatch Beta","name_short":"atl-3","host":"atl-1.us.uncletopia.com","port":27035,"enabled":true,"region":"us-east","cc":"us","latitude":33.753746,"longitude":-84.38633,"reserved":0,"last_update":"0001-01-01T00:00:00Z","name_a2s":"Uncletopia | Atlanta | 3 | Stopwatch Beta","protocol":17,"map":"workshop/pl_vigil_rc9.ugc1266210012","folder":"tf","game":"Team Fortress","app_id":440,"player_count":0,"max_players":24,"Bots":0,"server_type":"Dedicated","server_os":"Linux","password":true,"vac":true,"version":"7757534","steam_id":85568392924515187,"keywords":["nocrits","nodmgspread","payload","uncletopia"],"game_id":440,"stv_port":27036,"stv_name":"Uncletopia | Atlanta | 3 | Stopwatch Beta | STV","players":null},{"server_id":401,"name":"Uncletopia | Atlanta | 4 | No Payload","name_short":"atl-4","host":"atl-1.us.uncletopia.com","port":27045,"enabled":true,"region":"us-east","cc":"us","latitude":33.753746,"longitude":-84.38633,"reserved":0,"last_update":"0001-01-01T00:00:00Z","name_a2s":"Uncletopia | Atlanta | 4 | No Payload","protocol":17,"map":"pl_pier","folder":"tf","game":"Team Fortress","app_id":440,"player_count":0,"max_players":24,"Bots":0,"server_type":"Dedicated","server_os":"Linux","password":true,"vac":true,"version":"7723704","steam_id":85568392924515188,"keywords":["nocrits","nodmgspread","payload","uncletopia"],"game_id":440,"stv_port":27046,"stv_name":"Uncletopia | Atlanta | 4 | No Payload | STV","players":null},{"server_id":2,"name":"Uncletopia | Chicago | 1 | All Maps","name_short":"chi-1","host":"chi-1.us.uncletopia.com","port":27015,"enabled":true,"region":"us-central","cc":"us","latitude":41.881832,"longitude":-87.62318,"reserved":0,"last_update":"0001-01-01T00:00:00Z","name_a2s":"Uncletopia | Chicago | 1 | All Maps","protocol":17,"map":"pl_upward","folder":"tf","game":"Team Fortress","app_id":440,"player_count":24,"max_players":24,"Bots":0,"server_type":"Dedicated","server_os":"Linux","password":true,"vac":true,"version":"7757534","steam_id":85568392924469984,"keywords":["nocrits","nodmgspread","payload","uncletopia"],"game_id":440,"stv_port":27016,"stv_name":"Uncletopia | Chicago | 1 | All Maps | STV","players":[{"user_id":657,"name":"Tommy Pickles (Very Cool)","steam_id":76561198391261463,"connected_time":1355000000000,"state":"active","ping":73},{"user_id":673,"name":"TallBit","steam_id":76561199059748976,"connected_time":251000000000,"state":"active","ping":49},{"user_id":674,"name":"Coffeemelon","steam_id":76561198285891257,"connected_time":248000000000,"state":"active","ping":103},{"user_id":679,"name":"WX-78","steam_id":76561199117263527,"connected_time":218000000000,"state":"active","ping":45},{"user_id":660,"name":"NUt","steam_id":76561198031007966,"connected_time":1036000000000,"state":"active","ping":73},{"user_id":654,"name":"Hooked","steam_id":76561198007302139,"connected_time":2312000000000,"state":"active","ping":69},{"user_id":676,"name":"garf","steam_id":76561198088228311,"connected_time":242000000000,"state":"active","ping":64},{"user_id":677,"name":"Greed","steam_id":76561198041628318,"connected_time":231000000000,"state":"active","ping":114},{"user_id":596,"name":"Baconshirt16","steam_id":76561198091167052,"connected_time":4052000000000,"state":"active","ping":52},{"user_id":665,"name":"--_Cook_--","steam_id":76561198080855748,"connected_time":894000000000,"state":"active","ping":46},{"user_id":644,"name":"grace","steam_id":76561198132364510,"connected_time":2863000000000,"state":"active","ping":109},{"user_id":601,"name":"the grungler!","steam_id":76561198058485742,"connected_time":3985000000000,"state":"active","ping":48},{"user_id":683,"name":"Zokku","steam_id":76561198070185695,"connected_time":114000000000,"state":"active","ping":97},{"user_id":672,"name":"hej","steam_id":76561197996366940,"connected_time":255000000000,"state":"active","ping":60},{"user_id":675,"name":"Kitt(eh) ‚àë:3","steam_id":76561198110858518,"connected_time":247000000000,"state":"active","ping":54},{"user_id":687,"name":"axolotlfan809","steam_id":76561199441249967,"connected_time":54000000000,"state":"active","ping":73},{"user_id":664,"name":"daemon","steam_id":76561198001541433,"connected_time":976000000000,"state":"active","ping":59},{"user_id":653,"name":"Gad","steam_id":76561198020792373,"connected_time":2334000000000,"state":"active","ping":57},{"user_id":648,"name":"fresco","steam_id":76561199101199477,"connected_time":2772000000000,"state":"active","ping":66},{"user_id":671,"name":"Legion","steam_id":76561199036242643,"connected_time":262000000000,"state":"active","ping":71},{"user_id":681,"name":"sc67","steam_id":76561199302471485,"connected_time":179000000000,"state":"active","ping":47},{"user_id":649,"name":"Mervous Thrifty","steam_id":76561198063250819,"connected_time":2770000000000,"state":"active","ping":45},{"user_id":659,"name":"Big Phony","steam_id":76561199092395311,"connected_time":1159000000000,"state":"active","ping":62},{"user_id":669,"name":"No Binary","steam_id":76561198835593895,"connected_time":521000000000,"state":"active","ping":98}]},{"server_id":106,"name":"Uncletopia | Chicago | 2 | All Maps","name_short":"chi-2","host":"chi-1.us.uncletopia.com","port":27025,"enabled":true,"region":"us-central","cc":"us","latitude":41.881832,"longitude":-87.62318,"reserved":0,"last_update":"0001-01-01T00:00:00Z","name_a2s":"Uncletopia | Chicago | 2 | All Maps","protocol":17,"map":"pl_pier","folder":"tf","game":"Team Fortress","app_id":440,"player_count":24,"max_players":24,"Bots":0,"server_type":"Dedicated","server_os":"Linux","password":true,"vac":true,"version":"7757534","steam_id":85568392924469985,"keywords":["nocrits","nodmgspread","payload","uncletopia"],"game_id":440,"stv_port":27026,"stv_name":"Uncletopia | Chicago | 2 | All Maps | STV","players":[{"user_id":451,"name":"Toasti\u003c3","steam_id":76561198036238997,"connected_time":6905000000000,"state":"active","ping":82},{"user_id":534,"name":"TWICE THE PIMPY THRICE THE BAPE","steam_id":76561198074678273,"connected_time":1302000000000,"state":"active","ping":55},{"user_id":515,"name":"Crayfry","steam_id":76561198146525237,"connected_time":2999000000000,"state":"active","ping":51},{"user_id":479,"name":"Mrcheesey","steam_id":76561199078252493,"connected_time":5115000000000,"state":"active","ping":87},{"user_id":445,"name":"R2D28MYFOOD","steam_id":76561198124315872,"connected_time":7457000000000,"state":"active","ping":89},{"user_id":542,"name":"Î™∞?Î£®","steam_id":76561198046055673,"connected_time":266000000000,"state":"active","ping":75},{"user_id":520,"name":"Sigiferd","steam_id":76561198148788110,"connected_time":2410000000000,"state":"active","ping":114},{"user_id":541,"name":"sheep","steam_id":76561198172943006,"connected_time":375000000000,"state":"active","ping":45},{"user_id":505,"name":"Illegal Gaming","steam_id":76561198030323714,"connected_time":3733000000000,"state":"active","ping":85},{"user_id":521,"name":"Sol Goodman","steam_id":76561198289164442,"connected_time":2398000000000,"state":"active","ping":74},{"user_id":535,"name":"Glory","steam_id":76561198013975080,"connected_time":1289000000000,"state":"active","ping":80},{"user_id":543,"name":"Kzjytsugn","steam_id":76561198130241974,"connected_time":224000000000,"state":"active","ping":92},{"user_id":463,"name":"deer girl","steam_id":76561198064873161,"connected_time":5924000000000,"state":"active","ping":73},{"user_id":531,"name":"breloom","steam_id":76561198062922146,"connected_time":1525000000000,"state":"active","ping":75},{"user_id":536,"name":"One Bar","steam_id":76561198100517050,"connected_time":1289000000000,"state":"active","ping":77},{"user_id":523,"name":"Stauxie","steam_id":76561198255030077,"connected_time":2291000000000,"state":"active","ping":90},{"user_id":460,"name":"tacofever","steam_id":76561198010966507,"connected_time":6327000000000,"state":"active","ping":102},{"user_id":533,"name":"Baby gaming","steam_id":76561198867319323,"connected_time":1353000000000,"state":"active","ping":64},{"user_id":544,"name":"hashmap","steam_id":76561198043794014,"connected_time":39000000000,"state":"active","ping":49},{"user_id":540,"name":"Duderbro2","steam_id":76561199086731683,"connected_time":778000000000,"state":"active","ping":71},{"user_id":459,"name":"innisfree","steam_id":76561198109065124,"connected_time":6446000000000,"state":"active","ping":76},{"user_id":477,"name":"nomallife","steam_id":76561198066078134,"connected_time":5214000000000,"state":"active","ping":63},{"user_id":461,"name":"Piyono","steam_id":76561197962188504,"connected_time":6194000000000,"state":"active","ping":74},{"user_id":526,"name":"Astrocircuit","steam_id":76561198014437544,"connected_time":2255000000000,"state":"active","ping":73}]},{"server_id":402,"name":"Uncletopia | Chicago | 3 | All Maps","name_short":"chi-3","host":"chi-1.us.uncletopia.com","port":27035,"enabled":true,"region":"us-central","cc":"us","latitude":41.881832,"longitude":-87.62318,"reserved":0,"last_update":"0001-01-01T00:00:00Z","name_a2s":"Uncletopia | Chicago | 3 | All Maps","protocol":17,"map":"pl_snowycoast","folder":"tf","game":"Team Fortress","app_id":440,"player_count":24,"max_players":24,"Bots":0,"server_type":"Dedicated","server_os":"Linux","password":true,"vac":true,"version":"7757534","steam_id":85568392924515191,"keywords":["nocrits","nodmgspread","payload","uncletopia"],"game_id":440,"stv_port":27036,"stv_name":"Uncletopia | Chicago | 3 | All Maps | STV","players":[{"user_id":232,"name":"MR.meeseeks","steam_id":76561198294943420,"connected_time":86000000000,"state":"active","ping":62},{"user_id":144,"name":"beethan","steam_id":76561198148199120,"connected_time":5115000000000,"state":"active","ping":82},{"user_id":225,"name":"reagen ridley","steam_id":76561198367521016,"connected_time":313000000000,"state":"active","ping":78},{"user_id":236,"name":"turn around","steam_id":76561198046526036,"connected_time":28000000000,"state":"active","ping":104},{"user_id":179,"name":"Clockwork Giant","steam_id":76561199084981409,"connected_time":2917000000000,"state":"active","ping":69},{"user_id":221,"name":"mertis","steam_id":76561199275395141,"connected_time":338000000000,"state":"active","ping":46},{"user_id":226,"name":"Gliglamesh","steam_id":76561198058221449,"connected_time":307000000000,"state":"active","ping":53},{"user_id":227,"name":"Doctor Glocktorpus [NGC]","steam_id":76561198049194645,"connected_time":263000000000,"state":"active","ping":68},{"user_id":206,"name":"nalezinik","steam_id":76561198030026119,"connected_time":1427000000000,"state":"active","ping":61},{"user_id":228,"name":"Dr. Pleasant","steam_id":76561198111945101,"connected_time":260000000000,"state":"active","ping":67},{"user_id":148,"name":"D(b) Hell","steam_id":76561198067869016,"connected_time":4996000000000,"state":"active","ping":38},{"user_id":207,"name":"jimbo","steam_id":76561198046059770,"connected_time":1425000000000,"state":"active","ping":62},{"user_id":208,"name":"Rifter","steam_id":76561198077430698,"connected_time":1400000000000,"state":"active","ping":63},{"user_id":203,"name":"Ah, so Jolly !","steam_id":76561198347621919,"connected_time":1633000000000,"state":"active","ping":59},{"user_id":156,"name":"JPMockMan","steam_id":76561198071370876,"connected_time":4479000000000,"state":"active","ping":91},{"user_id":202,"name":"assassincrazy18","steam_id":76561199465661561,"connected_time":1709000000000,"state":"active","ping":100},{"user_id":184,"name":"Backside540","steam_id":76561197960602545,"connected_time":2749000000000,"state":"active","ping":101},{"user_id":229,"name":"idiot normie","steam_id":76561198397662124,"connected_time":254000000000,"state":"active","ping":94},{"user_id":193,"name":"Jack Celliers","steam_id":76561198060983357,"connected_time":2376000000000,"state":"active","ping":77},{"user_id":235,"name":"Smooth - Santana ft. Rob Thomas","steam_id":76561198145283389,"connected_time":48000000000,"state":"active","ping":105},{"user_id":222,"name":"The Pill","steam_id":76561198164782423,"connected_time":335000000000,"state":"active","ping":64},{"user_id":230,"name":"The_BurritoMan","steam_id":76561199100959451,"connected_time":228000000000,"state":"active","ping":94},{"user_id":78,"name":"Can we get much dumber?(jack)","steam_id":76561198044762365,"connected_time":9953000000000,"state":"active","ping":51},{"user_id":191,"name":"Menace to Sobriety","steam_id":76561198245103000,"connected_time":2567000000000,"state":"active","ping":70}]},{"server_id":403,"name":"Uncletopia | Chicago | 4 | All Maps","name_short":"chi-4","host":"chi-1.us.uncletopia.com","port":27045,"enabled":true,"region":"us-central","cc":"us","latitude":41.881832,"longitude":-87.62318,"reserved":0,"last_update":"0001-01-01T00:00:00Z","name_a2s":"Uncletopia | Chicago | 4 | All Maps","protocol":17,"map":"pl_upward","folder":"tf","game":"Team Fortress","app_id":440,"player_count":24,"max_players":24,"Bots":0,"server_type":"Dedicated","server_os":"Linux","password":true,"vac":true,"version":"7757534","steam_id":85568392924515193,"keywords":["nocrits","nodmgspread","payload","uncletopia"],"game_id":440,"stv_port":27046,"stv_name":"Uncletopia | Chicago | 4 | All Maps | STV","players":[{"user_id":454,"name":"Angstrom Boli","steam_id":76561198025670585,"connected_time":1115000000000,"state":"active","ping":68},{"user_id":426,"name":"poproxycodone","steam_id":76561198353460257,"connected_time":2856000000000,"state":"active","ping":157},{"user_id":452,"name":"Mr. Tickle","steam_id":76561198126684647,"connected_time":1160000000000,"state":"active","ping":59},{"user_id":472,"name":"sentientpieceoftoast(they/them)","steam_id":76561199032992123,"connected_time":2000000000,"state":"spawning","ping":62},{"user_id":448,"name":"JUSTICE!!!!!!!!!!!!!!!!!!!!!!!","steam_id":76561198334511480,"connected_time":1486000000000,"state":"active","ping":75},{"user_id":455,"name":"BuhByeFalecia","steam_id":76561198364710587,"connected_time":1105000000000,"state":"active","ping":77},{"user_id":456,"name":"scamchez","steam_id":76561198447562701,"connected_time":1101000000000,"state":"active","ping":114},{"user_id":423,"name":"www.lesbian.com","steam_id":76561198029274581,"connected_time":2955000000000,"state":"active","ping":67},{"user_id":453,"name":"deskmedic","steam_id":76561198295640486,"connected_time":1136000000000,"state":"active","ping":99},{"user_id":457,"name":"t.tv/FamilyGuyFunnyMoments277","steam_id":76561198416047580,"connected_time":1076000000000,"state":"active","ping":88},{"user_id":458,"name":"bocchi la roca","steam_id":76561198025668771,"connected_time":1073000000000,"state":"active","ping":90},{"user_id":470,"name":"puppygirl gaming","steam_id":76561198044363630,"connected_time":134000000000,"state":"active","ping":60},{"user_id":471,"name":"-=Bits=-Dinkleberg","steam_id":76561198080367616,"connected_time":71000000000,"state":"active","ping":81},{"user_id":459,"name":"CFDv20","steam_id":76561198450073779,"connected_time":1063000000000,"state":"active","ping":100},{"user_id":436,"name":"George","steam_id":76561198020046873,"connected_time":2234000000000,"state":"active","ping":59},{"user_id":437,"name":"TimTam Tom","steam_id":76561198045988062,"connected_time":2231000000000,"state":"active","ping":75},{"user_id":442,"name":"gasparmx","steam_id":76561197998611994,"connected_time":1947000000000,"state":"active","ping":114},{"user_id":465,"name":"Mus Cogitabat","steam_id":76561198141578759,"connected_time":784000000000,"state":"active","ping":91},{"user_id":446,"name":"Hale Bop","steam_id":76561198264055709,"connected_time":1640000000000,"state":"active","ping":52},{"user_id":467,"name":"jazaniac","steam_id":76561198059955588,"connected_time":240000000000,"state":"active","ping":86},{"user_id":383,"name":"peanut butter jelly DA LONG WAY","steam_id":76561198079416036,"connected_time":6036000000000,"state":"active","ping":45},{"user_id":462,"name":"Dispenser (Twan)","steam_id":76561197991064908,"connected_time":1010000000000,"state":"active","ping":70},{"user_id":463,"name":"pathways","steam_id":76561198054832333,"connected_time":1004000000000,"state":"active","ping":67},{"user_id":469,"name":"Just_Gas","steam_id":76561198123082220,"connected_time":180000000000,"state":"active","ping":85}]},{"server_id":36,"name":"Uncletopia | Chicago | 5 | All Maps","name_short":"chi-5","host":"chi-2.us.uncletopia.com","port":27015,"enabled":true,"region":"us-central","cc":"us","latitude":41.881832,"longitude":-87.62318,"reserved":0,"last_update":"0001-01-01T00:00:00Z","name_a2s":"Uncletopia | Chicago | 5 | All Maps","protocol":17,"map":"cp_mountainlab","folder":"tf","game":"Team Fortress","app_id":440,"player_count":1,"max_players":24,"Bots":0,"server_type":"Dedicated","server_os":"Linux","password":true,"vac":true,"version":"7757534","steam_id":85568392924866362,"keywords":["cp","nocrits","nodmgspread","uncletopia"],"game_id":440,"stv_port":27016,"stv_name":"Uncletopia | Chicago | 5 | All Maps | STV","players":[{"user_id":277,"name":"engie","steam_id":76561199229629045,"connected_time":43000000000,"state":"active","ping":101}]},{"server_id":37,"name":"Uncletopia | Chicago | 6 | All Maps","name_short":"chi-6","host":"chi-2.us.uncletopia.com","port":27025,"enabled":true,"region":"us-central","cc":"us","latitude":41.881832,"longitude":-87.62318,"reserved":0,"last_update":"0001-01-01T00:00:00Z","name_a2s":"Uncletopia | Chicago | 6 | All Maps","protocol":17,"map":"pl_borneo","folder":"tf","game":"Team Fortress","app_id":440,"player_count":24,"max_players":24,"Bots":0,"server_type":"Dedicated","server_os":"Linux","password":true,"vac":true,"version":"7757534","steam_id":85568392924866363,"keywords":["nocrits","nodmgspread","payload","uncletopia"],"game_id":440,"stv_port":27026,"stv_name":"Uncletopia | Chicago | 6 | All Maps | STV","players":[{"user_id":403,"name":"Weshmek","steam_id":76561198009950743,"connected_time":5128000000000,"state":"active","ping":57},{"user_id":474,"name":"Andallfor","steam_id":76561198350143349,"connected_time":140000000000,"state":"active","ping":69},{"user_id":439,"name":"Windex","steam_id":76561198105561395,"connected_time":2958000000000,"state":"active","ping":80},{"user_id":404,"name":"Dr. Dick","steam_id":76561198138011922,"connected_time":5116000000000,"state":"active","ping":72},{"user_id":409,"name":"Eden","steam_id":76561198075587475,"connected_time":5031000000000,"state":"active","ping":45},{"user_id":446,"name":"Arti","steam_id":76561198062478505,"connected_time":2839000000000,"state":"active","ping":79},{"user_id":400,"name":"peni sland","steam_id":76561198104036940,"connected_time":5175000000000,"state":"active","ping":66},{"user_id":475,"name":"moe","steam_id":76561198929586245,"connected_time":99000000000,"state":"active","ping":104},{"user_id":459,"name":"UGLYBUGLY","steam_id":76561198095312764,"connected_time":1862000000000,"state":"active","ping":92},{"user_id":469,"name":"Hifumi Togo","steam_id":76561198074930636,"connected_time":793000000000,"state":"active","ping":44},{"user_id":468,"name":"Amogous Supreme","steam_id":76561198025476774,"connected_time":835000000000,"state":"active","ping":108},{"user_id":466,"name":"walidov","steam_id":76561198079965605,"connected_time":1250000000000,"state":"active","ping":88},{"user_id":412,"name":"thecal","steam_id":76561198307893384,"connected_time":4979000000000,"state":"active","ping":52},{"user_id":470,"name":"Lemonade Juice","steam_id":76561198402892608,"connected_time":731000000000,"state":"active","ping":95},{"user_id":454,"name":"Barry","steam_id":76561198371953939,"connected_time":2253000000000,"state":"active","ping":86},{"user_id":473,"name":"rlty","steam_id":76561198009395055,"connected_time":598000000000,"state":"active","ping":68},{"user_id":430,"name":"Enron Hubbard","steam_id":76561198012951411,"connected_time":3854000000000,"state":"active","ping":58},{"user_id":443,"name":"mr.edderkopper","steam_id":76561198152614478,"connected_time":2931000000000,"state":"active","ping":45},{"user_id":461,"name":"wetnails","steam_id":76561198263271697,"connected_time":1824000000000,"state":"active","ping":44},{"user_id":472,"name":"ck_rene","steam_id":76561199079260488,"connected_time":664000000000,"state":"active","ping":63},{"user_id":464,"name":"crouton.net","steam_id":76561198068374646,"connected_time":1336000000000,"state":"active","ping":96},{"user_id":465,"name":"GooniOoni","steam_id":76561198102154561,"connected_time":1290000000000,"state":"active","ping":43},{"user_id":429,"name":"Slimeqslimedog","steam_id":76561198259343945,"connected_time":4626000000000,"state":"active","ping":89},{"user_id":471,"name":"Pixeled","steam_id":76561198088917077,"connected_time":731000000000,"state":"active","ping":90}]},{"server_id":38,"name":"Uncletopia | Chicago | 7 | Stopwatch Beta","name_short":"chi-7","host":"chi-2.us.uncletopia.com","port":27035,"enabled":true,"region":"us-central","cc":"us","latitude":41.881832,"longitude":-87.62318,"reserved":0,"last_update":"0001-01-01T00:00:00Z","name_a2s":"Uncletopia | Chicago | 7 | Stopwatch Beta","protocol":17,"map":"workshop/pl_badwater_pro_v12.ugc2142942074","folder":"tf","game":"Team Fortress","app_id":440,"player_count":0,"max_players":24,"Bots":0,"server_type":"Dedicated","server_os":"Linux","password":true,"vac":true,"version":"7757534","steam_id":85568392924866364,"keywords":["nocrits","nodmgspread","payload","uncletopia"],"game_id":440,"stv_port":27036,"stv_name":"Uncletopia | Chicago | 7 | Stopwatch Beta | STV","players":null},{"server_id":39,"name":"Uncletopia | Chicago | 8 | Community","name_short":"chi-8","host":"chi-2.us.uncletopia.com","port":27045,"enabled":true,"region":"us-central","cc":"us","latitude":41.881832,"longitude":-87.62318,"reserved":0,"last_update":"0001-01-01T00:00:00Z","name_a2s":"Uncletopia | Chicago | 8 | Community","protocol":17,"map":"workshop/pl_fifthcurve_rc1.ugc648227046","folder":"tf","game":"Team Fortress","app_id":440,"player_count":0,"max_players":24,"Bots":0,"server_type":"Dedicated","server_os":"Linux","password":true,"vac":true,"version":"7757534","steam_id":85568392924866365,"keywords":["nocrits","nodmgspread","payload","uncletopia"],"game_id":440,"stv_port":27046,"stv_name":"Uncletopia | Chicago | 8 | Community | STV","players":null},{"server_id":8,"name":"Uncletopia | Dallas | 1 | All Maps","name_short":"dal-1","host":"dal-1.us.uncletopia.com","port":27015,"enabled":true,"region":"us-central","cc":"us","latitude":32.779167,"longitude":-96.80889,"reserved":0,"last_update":"0001-01-01T00:00:00Z","name_a2s":"Uncletopia | Dallas | 1 | All Maps","protocol":17,"map":"pl_goldrush","folder":"tf","game":"Team Fortress","app_id":440,"player_count":24,"max_players":24,"Bots":0,"server_type":"Dedicated","server_os":"Linux","password":true,"vac":true,"version":"7757534","steam_id":85568392924469986,"keywords":["nocrits","nodmgspread","payload","uncletopia"],"game_id":440,"stv_port":27016,"stv_name":"Uncletopia | Dallas | 1 | All Maps | STV","players":[{"user_id":535,"name":"Awildrock","steam_id":76561198040401086,"connected_time":1001000000000,"state":"active","ping":57},{"user_id":536,"name":"Bullwinkle J. Moose","steam_id":76561198075977196,"connected_time":883000000000,"state":"active","ping":57},{"user_id":552,"name":"Dreysidehl","steam_id":76561198056496183,"connected_time":498000000000,"state":"active","ping":104},{"user_id":503,"name":"Iroquois Pliskin","steam_id":76561198056704533,"connected_time":3354000000000,"state":"active","ping":67},{"user_id":538,"name":"CptSkippy","steam_id":76561198127439343,"connected_time":877000000000,"state":"active","ping":81},{"user_id":547,"name":"Keg","steam_id":76561198242688458,"connected_time":701000000000,"state":"active","ping":60},{"user_id":484,"name":"El Camino","steam_id":76561197992848313,"connected_time":5198000000000,"state":"active","ping":88},{"user_id":548,"name":"level 6 scoundrel","steam_id":76561198248148760,"connected_time":638000000000,"state":"active","ping":86},{"user_id":524,"name":"T.w¬≤ | Sliced Bread","steam_id":76561198128489595,"connected_time":1974000000000,"state":"active","ping":128},{"user_id":543,"name":"ChampDamp","steam_id":76561198799135451,"connected_time":785000000000,"state":"active","ping":72},{"user_id":558,"name":"scrapheap","steam_id":76561198202407087,"connected_time":128000000000,"state":"active","ping":94},{"user_id":533,"name":"Inkspot","steam_id":76561199003790541,"connected_time":1022000000000,"state":"active","ping":69},{"user_id":540,"name":"Gordon Ramsay","steam_id":76561198123893900,"connected_time":840000000000,"state":"active","ping":102},{"user_id":481,"name":"Gengoron","steam_id":76561197994829919,"connected_time":5434000000000,"state":"active","ping":114},{"user_id":550,"name":"mah dood","steam_id":76561198970102360,"connected_time":523000000000,"state":"active","ping":151},{"user_id":555,"name":"aidenmc3","steam_id":76561198062209166,"connected_time":250000000000,"state":"active","ping":40},{"user_id":507,"name":"Moonflower ‚ú¶","steam_id":76561198191782483,"connected_time":3270000000000,"state":"active","ping":49},{"user_id":559,"name":"PirateKing12","steam_id":76561198992193468,"connected_time":119000000000,"state":"active","ping":69},{"user_id":530,"name":"Lt. Sushi","steam_id":76561198407103736,"connected_time":1663000000000,"state":"active","ping":78},{"user_id":531,"name":"Alternativity","steam_id":76561198119583924,"connected_time":1523000000000,"state":"active","ping":80},{"user_id":466,"name":"Pan-Demonica","steam_id":76561198294350105,"connected_time":6505000000000,"state":"active","ping":62},{"user_id":512,"name":"FoamyPirate.h","steam_id":76561197970312151,"connected_time":3004000000000,"state":"active","ping":73},{"user_id":553,"name":"Sqiddwr","steam_id":76561197998071622,"connected_time":444000000000,"state":"active","ping":105},{"user_id":556,"name":"nnobi","steam_id":76561198878729277,"connected_time":173000000000,"state":"active","ping":75}]},{"server_id":108,"name":"Uncletopia | Dallas | 2 | All Maps","name_short":"dal-2","host":"dal-1.us.uncletopia.com","port":27025,"enabled":true,"region":"us-central","cc":"us","latitude":32.779167,"longitude":-96.80889,"reserved":0,"last_update":"0001-01-01T00:00:00Z","name_a2s":"Uncletopia | Dallas | 2 | All Maps","protocol":17,"map":"pl_pier","folder":"tf","game":"Team Fortress","app_id":440,"player_count":24,"max_players":24,"Bots":0,"server_type":"Dedicated","server_os":"Linux","password":true,"vac":true,"version":"7757534","steam_id":85568392924469988,"keywords":["nocrits","nodmgspread","payload","uncletopia"],"game_id":440,"stv_port":27026,"stv_name":"Uncletopia | Dallas | 2 | All Maps | STV","players":[{"user_id":343,"name":"Blink","steam_id":76561197986181277,"connected_time":1443000000000,"state":"active","ping":53},{"user_id":338,"name":"Res","steam_id":76561198167207112,"connected_time":2032000000000,"state":"active","ping":71},{"user_id":310,"name":"Matt","steam_id":76561198008108521,"connected_time":3307000000000,"state":"active","ping":90},{"user_id":345,"name":"hedahman","steam_id":76561198052398134,"connected_time":1293000000000,"state":"active","ping":98},{"user_id":305,"name":"[DATS‚û°] Sugar Meowth","steam_id":76561197995251793,"connected_time":3604000000000,"state":"active","ping":90},{"user_id":350,"name":"Duck","steam_id":76561199236708672,"connected_time":1114000000000,"state":"active","ping":100},{"user_id":327,"name":"TeaPirate [TTC]","steam_id":76561197993068398,"connected_time":2473000000000,"state":"active","ping":85},{"user_id":341,"name":"WowAlek!","steam_id":76561199027530775,"connected_time":1971000000000,"state":"active","ping":79},{"user_id":313,"name":"Beaner","steam_id":76561198014574925,"connected_time":3300000000000,"state":"active","ping":97},{"user_id":294,"name":"Krispy","steam_id":76561198127005410,"connected_time":4133000000000,"state":"active","ping":74},{"user_id":356,"name":"The Super Mario Bros. Movie","steam_id":76561198871692156,"connected_time":508000000000,"state":"active","ping":101},{"user_id":360,"name":"[chef] iron","steam_id":76561197970888616,"connected_time":405000000000,"state":"active","ping":60},{"user_id":361,"name":"Koi","steam_id":76561198064411172,"connected_time":156000000000,"state":"active","ping":69},{"user_id":347,"name":"üòéSIGMA_MANüòé","steam_id":76561199299095652,"connected_time":1215000000000,"state":"active","ping":96},{"user_id":348,"name":"alldogsgotoheaven2fan","steam_id":76561199085931379,"connected_time":1211000000000,"state":"active","ping":72},{"user_id":331,"name":"Nagol","steam_id":76561198125274726,"connected_time":2175000000000,"state":"active","ping":63},{"user_id":332,"name":"Faust main","steam_id":76561198971799149,"connected_time":2141000000000,"state":"active","ping":73},{"user_id":355,"name":"Geight","steam_id":76561197991645292,"connected_time":518000000000,"state":"active","ping":107},{"user_id":326,"name":"GlazingDonut","steam_id":76561198847420641,"connected_time":2486000000000,"state":"active","ping":97},{"user_id":358,"name":"daud","steam_id":76561198172714142,"connected_time":481000000000,"state":"active","ping":75},{"user_id":349,"name":"mountain","steam_id":76561198078395002,"connected_time":1201000000000,"state":"active","ping":81},{"user_id":352,"name":"LORDMARF","steam_id":76561198143122675,"connected_time":830000000000,"state":"active","ping":63},{"user_id":359,"name":"merge without looking","steam_id":76561198056702628,"connected_time":467000000000,"state":"active","ping":40},{"user_id":287,"name":"TheRiGuy21","steam_id":76561199466243640,"connected_time":4481000000000,"state":"active","ping":77}]},{"server_id":5,"name":"Uncletopia | Frankfurt | 1 | All Maps","name_short":"frk-1","host":"frk-1.de.uncletopia.com","port":27015,"enabled":true,"region":"eu","cc":"de","latitude":50.110924,"longitude":8.682127,"reserved":0,"last_update":"0001-01-01T00:00:00Z","name_a2s":"Uncletopia | Frankfurt | 1 | All Maps","protocol":17,"map":"cp_steel","folder":"tf","game":"Team Fortress","app_id":440,"player_count":24,"max_players":24,"Bots":0,"server_type":"Dedicated","server_os":"Linux","password":true,"vac":true,"version":"7757534","steam_id":85568392924469989,"keywords":["cp","nocrits","nodmgspread","uncletopia"],"game_id":440,"stv_port":27016,"stv_name":"Uncletopia | Frankfurt | 1 | All Maps | STV","players":[{"user_id":777,"name":"I want my dog back","steam_id":76561198318748304,"connected_time":5765000000000,"state":"active","ping":291},{"user_id":792,"name":"i heal gay people","steam_id":76561198032167311,"connected_time":5156000000000,"state":"active","ping":93},{"user_id":846,"name":"EL BICHO","steam_id":76561198146112263,"connected_time":646000000000,"state":"active","ping":82},{"user_id":847,"name":"Estrogen Overdoser","steam_id":76561198288776967,"connected_time":642000000000,"state":"active","ping":79},{"user_id":826,"name":"Trapezoid","steam_id":76561198059369295,"connected_time":2878000000000,"state":"active","ping":77},{"user_id":690,"name":"yeh","steam_id":76561198061197114,"connected_time":10604000000000,"state":"active","ping":75},{"user_id":845,"name":"Mero","steam_id":76561198397289130,"connected_time":1523000000000,"state":"active","ping":73},{"user_id":851,"name":"Mann At Work","steam_id":76561197993335867,"connected_time":4000000000,"state":"spawning","ping":71},{"user_id":818,"name":"Gopnik Pizzafox","steam_id":76561198068429261,"connected_time":3539000000000,"state":"active","ping":70},{"user_id":827,"name":"Fuzz","steam_id":76561198013049077,"connected_time":2872000000000,"state":"active","ping":65},{"user_id":824,"name":"(can't chat)mafutbolero","steam_id":76561199233664005,"connected_time":2989000000000,"state":"active","ping":77},{"user_id":814,"name":"Joe","steam_id":76561198177821721,"connected_time":3840000000000,"state":"active","ping":64},{"user_id":844,"name":"pizzi","steam_id":76561198133085347,"connected_time":1587000000000,"state":"active","ping":56},{"user_id":838,"name":"spada dell'islam","steam_id":76561198038748489,"connected_time":1687000000000,"state":"active","ping":68},{"user_id":807,"name":"Laxslow","steam_id":76561198065361846,"connected_time":4688000000000,"state":"active","ping":59},{"user_id":839,"name":"Msuni","steam_id":76561198334903726,"connected_time":1673000000000,"state":"active","ping":85},{"user_id":849,"name":"blue","steam_id":76561198216200092,"connected_time":45000000000,"state":"spawning","ping":63},{"user_id":831,"name":"Maydup Nem","steam_id":76561198033813057,"connected_time":2737000000000,"state":"active","ping":71},{"user_id":850,"name":"lawn","steam_id":76561198001243486,"connected_time":12000000000,"state":"active","ping":221},{"user_id":840,"name":"BeS","steam_id":76561198045752247,"connected_time":1653000000000,"state":"active","ping":59},{"user_id":842,"name":"khamba","steam_id":76561198054783240,"connected_time":1641000000000,"state":"active","ping":125},{"user_id":834,"name":"Gustavo Fring","steam_id":76561198034769199,"connected_time":2116000000000,"state":"active","ping":69},{"user_id":843,"name":"Adrenaline","steam_id":76561197970852048,"connected_time":1624000000000,"state":"active","ping":60},{"user_id":848,"name":"bananen pizza","steam_id":76561199212990079,"connected_time":620000000000,"state":"active","ping":55}]},{"server_id":110,"name":"Uncletopia | Frankfurt | 2 | All Maps","name_short":"frk-2","host":"frk-1.de.uncletopia.com","port":27025,"enabled":true,"region":"eu","cc":"de","latitude":50.110924,"longitude":8.682127,"reserved":0,"last_update":"0001-01-01T00:00:00Z","name_a2s":"Uncletopia | Frankfurt | 2 | All Maps","protocol":17,"map":"cp_dustbowl","folder":"tf","game":"Team Fortress","app_id":440,"player_count":3,"max_players":24,"Bots":0,"server_type":"Dedicated","server_os":"Linux","password":true,"vac":true,"version":"7757534","steam_id":85568392924469990,"keywords":["cp","nocrits","nodmgspread","uncletopia"],"game_id":440,"stv_port":27026,"stv_name":"Uncletopia | Frankfurt | 2 | All Maps | STV","players":[{"user_id":786,"name":"silenk","steam_id":76561198367689055,"connected_time":21000000000,"state":"spawning","ping":60},{"user_id":783,"name":"aba combo","steam_id":76561199204115316,"connected_time":491000000000,"state":"active","ping":75},{"user_id":782,"name":"Pi0neer","steam_id":76561198873156806,"connected_time":540000000000,"state":"active","ping":84}]},{"server_id":308,"name":"Uncletopia | Frankfurt | 3 | All Maps","name_short":"frk-3","host":"frk-1.de.uncletopia.com","port":27035,"enabled":true,"region":"eu","cc":"de","latitude":50.110924,"longitude":8.682127,"reserved":0,"last_update":"0001-01-01T00:00:00Z","name_a2s":"Uncletopia | Frankfurt | 3 | All Maps","protocol":17,"map":"cp_5gorge","folder":"tf","game":"Team Fortress","app_id":440,"player_count":24,"max_players":24,"Bots":0,"server_type":"Dedicated","server_os":"Linux","password":true,"vac":true,"version":"7757534","steam_id":85568392924504274,"keywords":["cp","nocrits","nodmgspread","uncletopia"],"game_id":440,"stv_port":27036,"stv_name":"Uncletopia | Frankfurt | 3 | All Maps | STV","players":[{"user_id":285,"name":"TidB","steam_id":76561198055342304,"connected_time":1076000000000,"state":"active","ping":55},{"user_id":287,"name":"BR!CK","steam_id":76561199445356088,"connected_time":938000000000,"state":"active","ping":62},{"user_id":260,"name":"Dreadnawght","steam_id":76561198000973506,"connected_time":2390000000000,"state":"active","ping":69},{"user_id":291,"name":"Silent Person","steam_id":76561198107763537,"connected_time":410000000000,"state":"active","ping":72},{"user_id":170,"name":"Lateguy","steam_id":76561198069446079,"connected_time":10275000000000,"state":"active","ping":92},{"user_id":292,"name":"...jla","steam_id":76561198052435481,"connected_time":332000000000,"state":"active","ping":47},{"user_id":267,"name":"I do hate crime","steam_id":76561198102420849,"connected_time":2143000000000,"state":"active","ping":58},{"user_id":270,"name":"TylowStar","steam_id":76561198357107806,"connected_time":1989000000000,"state":"active","ping":72},{"user_id":271,"name":"Malcolm","steam_id":76561199055683606,"connected_time":1928000000000,"state":"active","ping":94},{"user_id":136,"name":"Pipper","steam_id":76561197970326616,"connected_time":13470000000000,"state":"active","ping":56},{"user_id":232,"name":"Engie","steam_id":76561199168186553,"connected_time":4481000000000,"state":"active","ping":165},{"user_id":46,"name":"tekt","steam_id":76561198044554387,"connected_time":19928000000000,"state":"active","ping":106},{"user_id":289,"name":"Farmercy","steam_id":76561198000038039,"connected_time":772000000000,"state":"active","ping":60},{"user_id":253,"name":"Gryoss","steam_id":76561197999837111,"connected_time":3154000000000,"state":"active","ping":97},{"user_id":252,"name":"taylan d√ºndar","steam_id":76561198091648080,"connected_time":3298000000000,"state":"active","ping":100},{"user_id":246,"name":"nyanezt","steam_id":76561198253734265,"connected_time":3682000000000,"state":"active","ping":97},{"user_id":284,"name":"rat performance","steam_id":76561198065854668,"connected_time":1177000000000,"state":"active","ping":56},{"user_id":286,"name":"noVa","steam_id":76561198296550363,"connected_time":987000000000,"state":"active","ping":77},{"user_id":274,"name":"yush","steam_id":76561198121688934,"connected_time":1897000000000,"state":"active","ping":77},{"user_id":264,"name":"Georman Forge","steam_id":76561198256504605,"connected_time":2261000000000,"state":"active","ping":62},{"user_id":288,"name":"pezza","steam_id":76561197995173247,"connected_time":889000000000,"state":"active","ping":75},{"user_id":254,"name":"shrrrrrrekkkkk","steam_id":76561198347241576,"connected_time":2893000000000,"state":"active","ping":64},{"user_id":290,"name":"Aliverysoc021","steam_id":76561199426920744,"connected_time":752000000000,"state":"active","ping":111},{"user_id":281,"name":"catboy trickster","steam_id":76561198075665211,"connected_time":1413000000000,"state":"active","ping":40}]},{"server_id":309,"name":"Uncletopia | Frankfurt | 4 | All Maps","name_short":"frk-4","host":"frk-1.de.uncletopia.com","port":27045,"enabled":true,"region":"eu","cc":"de","latitude":50.110924,"longitude":8.682127,"reserved":0,"last_update":"0001-01-01T00:00:00Z","name_a2s":"Uncletopia | Frankfurt | 4 | All Maps","protocol":17,"map":"koth_viaduct","folder":"tf","game":"Team Fortress","app_id":440,"player_count":3,"max_players":24,"Bots":0,"server_type":"Dedicated","server_os":"Linux","password":true,"vac":true,"version":"7757534","steam_id":85568392924504275,"keywords":["cp","nocrits","nodmgspread","uncletopia"],"game_id":440,"stv_port":27046,"stv_name":"Uncletopia | Frankfurt | 4 | All Maps | STV","players":[{"user_id":486,"name":"full power heart attack","steam_id":76561199196568965,"connected_time":990000000000,"state":"active","ping":80},{"user_id":491,"name":"Popbob (notorious griefer)","steam_id":76561198100730234,"connected_time":50000000000,"state":"active","ping":86},{"user_id":467,"name":"BŒ£NZOIC","steam_id":76561198875665995,"connected_time":3129000000000,"state":"active","ping":82}]},{"server_id":310,"name":"Uncletopia | Frankfurt | 5 | All Maps","name_short":"frk-5","host":"frk-1.de.uncletopia.com","port":27055,"enabled":true,"region":"eu","cc":"de","latitude":50.110924,"longitude":8.682127,"reserved":0,"last_update":"0001-01-01T00:00:00Z","name_a2s":"Uncletopia | Frankfurt | 5 | All Maps","protocol":17,"map":"pl_swiftwater_final1","folder":"tf","game":"Team Fortress","app_id":440,"player_count":23,"max_players":24,"Bots":0,"server_type":"Dedicated","server_os":"Linux","password":true,"vac":true,"version":"7757534","steam_id":85568392924504277,"keywords":["nocrits","nodmgspread","payload","uncletopia"],"game_id":440,"stv_port":27056,"stv_name":"Uncletopia | Frankfurt | 5 | All Maps | STV","players":[{"user_id":520,"name":"Lexiss","steam_id":76561198086211346,"connected_time":3051000000000,"state":"active","ping":67},{"user_id":552,"name":"Spoody #JustPassing","steam_id":76561198031523769,"connected_time":1000000000,"state":"spawning","ping":34},{"user_id":484,"name":"cursedbygod‚ô°","steam_id":76561198318291047,"connected_time":6837000000000,"state":"active","ping":104},{"user_id":546,"name":"akela","steam_id":76561198122010232,"connected_time":795000000000,"state":"active","ping":133},{"user_id":529,"name":"Clorox Consumer","steam_id":76561198120949216,"connected_time":2366000000000,"state":"active","ping":61},{"user_id":537,"name":"√•tem","steam_id":76561198148681931,"connected_time":1489000000000,"state":"active","ping":71},{"user_id":538,"name":"a straight white male","steam_id":76561198381120660,"connected_time":1453000000000,"state":"active","ping":87},{"user_id":524,"name":"Mr. Fox","steam_id":76561198803610709,"connected_time":2968000000000,"state":"active","ping":110},{"user_id":533,"name":"Rave Robber","steam_id":76561199414716848,"connected_time":1738000000000,"state":"active","ping":63},{"user_id":514,"name":"BAD BALD \u0026 BEYOND","steam_id":76561198029873185,"connected_time":3766000000000,"state":"active","ping":56},{"user_id":551,"name":"Volterion #SaveTf2","steam_id":76561198293088484,"connected_time":34000000000,"state":"active","ping":60},{"user_id":532,"name":"deez","steam_id":76561198831476915,"connected_time":1881000000000,"state":"active","ping":71},{"user_id":540,"name":"pijuka #k2","steam_id":76561198083063005,"connected_time":1346000000000,"state":"active","ping":47},{"user_id":491,"name":"–ü–µ—Å –ü–∞—Ç—Ä–æ–Ω","steam_id":76561198273199378,"connected_time":6494000000000,"state":"active","ping":64},{"user_id":506,"name":"Jay.k","steam_id":76561198079387590,"connected_time":4152000000000,"state":"active","ping":80},{"user_id":516,"name":"Kron Krian","steam_id":76561198122541754,"connected_time":3709000000000,"state":"active","ping":74},{"user_id":541,"name":"silly","steam_id":76561199052017231,"connected_time":1331000000000,"state":"active","ping":69},{"user_id":483,"name":"john fortress 2","steam_id":76561198202668788,"connected_time":6999000000000,"state":"active","ping":60},{"user_id":471,"name":"CrashyPlay","steam_id":76561198106125298,"connected_time":8574000000000,"state":"active","ping":61},{"user_id":535,"name":"Yakito119","steam_id":76561199435287357,"connected_time":1659000000000,"state":"active","ping":70},{"user_id":547,"name":"0xdeadbeef | riegls","steam_id":76561198845572553,"connected_time":197000000000,"state":"active","ping":62},{"user_id":494,"name":"Ozzie","steam_id":76561197992915315,"connected_time":6423000000000,"state":"active","ping":79},{"user_id":536,"name":"Denton","steam_id":76561198367991717,"connected_time":1567000000000,"state":"active","ping":74}]},{"server_id":311,"name":"Uncletopia | Frankfurt | 6 | All Maps","name_short":"frk-6","host":"frk-1.de.uncletopia.com","port":27065,"enabled":true,"region":"eu","cc":"de","latitude":50.110924,"longitude":8.682127,"reserved":0,"last_update":"0001-01-01T00:00:00Z","name_a2s":"Uncletopia | Frankfurt | 6 | All Maps","protocol":17,"map":"koth_viaduct","folder":"tf","game":"Team Fortress","app_id":440,"player_count":24,"max_players":24,"Bots":0,"server_type":"Dedicated","server_os":"Linux","password":true,"vac":true,"version":"7757534","steam_id":85568392924504278,"keywords":["cp","nocrits","nodmgspread","uncletopia"],"game_id":440,"stv_port":27066,"stv_name":"Uncletopia | Frankfurt | 6 | All Maps | STV","players":[{"user_id":544,"name":"walking sentry","steam_id":76561199225363633,"connected_time":489000000000,"state":"active","ping":65},{"user_id":508,"name":"Raboute","steam_id":76561198040814507,"connected_time":3493000000000,"state":"active","ping":53},{"user_id":418,"name":"Cumbustible Punda #SaveTF2","steam_id":76561197974274677,"connected_time":8070000000000,"state":"active","ping":49},{"user_id":541,"name":"yuta","steam_id":76561198077922992,"connected_time":656000000000,"state":"active","ping":53},{"user_id":543,"name":"Raymond.","steam_id":76561198026409982,"connected_time":602000000000,"state":"active","ping":62},{"user_id":510,"name":"Billy Genie","steam_id":76561198061724014,"connected_time":3410000000000,"state":"active","ping":46},{"user_id":538,"name":"FR3Dski","steam_id":76561198063944894,"connected_time":847000000000,"state":"active","ping":69},{"user_id":520,"name":"born2shitforced2wipe","steam_id":76561198203074833,"connected_time":2751000000000,"state":"active","ping":81},{"user_id":505,"name":"VioBeeyo ‚ô•","steam_id":76561198066258544,"connected_time":3738000000000,"state":"active","ping":53},{"user_id":524,"name":"TheGreenWolf","steam_id":76561198170607033,"connected_time":2541000000000,"state":"active","ping":76},{"user_id":522,"name":"Frager","steam_id":76561198016575620,"connected_time":2650000000000,"state":"active","ping":83},{"user_id":545,"name":"Toxy","steam_id":76561197983901155,"connected_time":405000000000,"state":"active","ping":177},{"user_id":531,"name":"Critz!","steam_id":76561197998110417,"connected_time":2158000000000,"state":"active","ping":63},{"user_id":535,"name":"HeloOo_per The Communist","steam_id":76561199099995357,"connected_time":1621000000000,"state":"active","ping":84},{"user_id":546,"name":"koji","steam_id":76561198051636999,"connected_time":357000000000,"state":"active","ping":57},{"user_id":450,"name":"video game enjoyer","steam_id":76561198045505082,"connected_time":5441000000000,"state":"active","ping":72},{"user_id":526,"name":"Leituga","steam_id":76561198051127598,"connected_time":2514000000000,"state":"active","ping":98},{"user_id":501,"name":"Penis Contortionist","steam_id":76561198073663784,"connected_time":3912000000000,"state":"active","ping":56},{"user_id":515,"name":"MAKENTAKEN","steam_id":76561199127359587,"connected_time":3261000000000,"state":"active","ping":95},{"user_id":516,"name":"burritoeater","steam_id":76561199124197813,"connected_time":3212000000000,"state":"active","ping":75},{"user_id":500,"name":"Festive Erma","steam_id":76561198038718342,"connected_time":3924000000000,"state":"active","ping":87},{"user_id":547,"name":"scrubd","steam_id":76561198358205209,"connected_time":357000000000,"state":"active","ping":102},{"user_id":528,"name":"TheViper","steam_id":76561199220156752,"connected_time":2484000000000,"state":"active","ping":71},{"user_id":548,"name":"Guz","steam_id":76561198384689388,"connected_time":343000000000,"state":"active","ping":51}]},{"server_id":23,"name":"Uncletopia | Frankfurt | 7 | Stopwatch Beta","name_short":"frk-7","host":"frk-1.de.uncletopia.com","port":27075,"enabled":true,"region":"eu","cc":"de","latitude":50.110924,"longitude":8.682127,"reserved":0,"last_update":"0001-01-01T00:00:00Z","name_a2s":"Uncletopia | Frankfurt | 7 | Stopwatch Beta","protocol":17,"map":"pl_borneo","folder":"tf","game":"Team Fortress","app_id":440,"player_count":0,"max_players":24,"Bots":0,"server_type":"Dedicated","server_os":"Linux","password":true,"vac":true,"version":"7757534","steam_id":85568392924742827,"keywords":["nocrits","nodmgspread","payload","uncletopia"],"game_id":440,"stv_port":27076,"stv_name":"Uncletopia | Frankfurt | 7 | Stopwatch Beta | STV","players":null},{"server_id":24,"name":"Uncletopia | Frankfurt | 8 | Community","name_short":"frk-8","host":"frk-1.de.uncletopia.com","port":27085,"enabled":true,"region":"eu","cc":"de","latitude":50.110924,"longitude":8.682127,"reserved":0,"last_update":"0001-01-01T00:00:00Z","name_a2s":"Uncletopia | Frankfurt | 8 | Community","protocol":17,"map":"workshop/rd_asteroid_redux_b1.ugc2154902912","folder":"tf","game":"Team Fortress","app_id":440,"player_count":0,"max_players":24,"Bots":0,"server_type":"Dedicated","server_os":"Linux","password":true,"vac":true,"version":"7757534","steam_id":85568392924742828,"keywords":["beta","nocrits","nodmgspread","rd","uncletopia"],"game_id":440,"stv_port":27086,"stv_name":"Uncletopia | Frankfurt | 8 | Community | STV","players":null},{"server_id":202,"name":"Uncletopia | Hong Kong | 1 | All Maps","name_short":"hgk-1","host":"hgk-1.hk.uncletopia.com","port":27015,"enabled":true,"region":"asia","cc":"hk","latitude":22.302711,"longitude":114.177216,"reserved":0,"last_update":"0001-01-01T00:00:00Z","name_a2s":"Uncletopia | Hong Kong | 1 | All Maps","protocol":17,"map":"pl_frontier_final","folder":"tf","game":"Team Fortress","app_id":440,"player_count":0,"max_players":24,"Bots":0,"server_type":"Dedicated","server_os":"Linux","password":true,"vac":true,"version":"7757534","steam_id":85568392924494504,"keywords":["nocrits","nodmgspread","payload","uncletopia"],"game_id":440,"stv_port":27016,"stv_name":"Uncletopia | Hong Kong | 1 | All Maps | STV","players":null},{"server_id":1,"name":"Uncletopia | Los Angeles | 1 | All Maps","name_short":"lax-1","host":"lax-1.us.uncletopia.com","port":27015,"enabled":true,"region":"us-west","cc":"us","latitude":33.94279,"longitude":-118.41004,"reserved":0,"last_update":"0001-01-01T00:00:00Z","name_a2s":"Uncletopia | Los Angeles | 1 | All Maps","protocol":17,"map":"koth_lakeside_final","folder":"tf","game":"Team Fortress","app_id":440,"player_count":0,"max_players":24,"Bots":0,"server_type":"Dedicated","server_os":"Linux","password":true,"vac":true,"version":"7757534","steam_id":85568392924469991,"keywords":["cp","nocrits","nodmgspread","uncletopia"],"game_id":440,"stv_port":27016,"stv_name":"Uncletopia | Los Angeles | 1 | All Maps | STV","players":null},{"server_id":112,"name":"Uncletopia | Los Angeles | 2 | All Maps","name_short":"lax-2","host":"lax-1.us.uncletopia.com","port":27025,"enabled":true,"region":"us-west","cc":"us","latitude":33.94279,"longitude":-118.41004,"reserved":0,"last_update":"0001-01-01T00:00:00Z","name_a2s":"Uncletopia | Los Angeles | 2 | All Maps","protocol":17,"map":"pl_snowycoast","folder":"tf","game":"Team Fortress","app_id":440,"player_count":1,"max_players":24,"Bots":0,"server_type":"Dedicated","server_os":"Linux","password":true,"vac":true,"version":"7757534","steam_id":85568392924469992,"keywords":["nocrits","nodmgspread","payload","uncletopia"],"game_id":440,"stv_port":27026,"stv_name":"Uncletopia | Los Angeles | 2 | All Maps | STV","players":[{"user_id":93,"name":"StarGuyVI","steam_id":76561199366304746,"connected_time":36000000000,"state":"active","ping":101}]},{"server_id":324,"name":"Uncletopia | Los Angeles | 3 | All Maps","name_short":"lax-3","host":"lax-1.us.uncletopia.com","port":27035,"enabled":true,"region":"us-west","cc":"us","latitude":33.94279,"longitude":-118.41004,"reserved":0,"last_update":"0001-01-01T00:00:00Z","name_a2s":"Uncletopia | Los Angeles | 3 | All Maps","protocol":17,"map":"pl_upward","folder":"tf","game":"Team Fortress","app_id":440,"player_count":21,"max_players":24,"Bots":0,"server_type":"Dedicated","server_os":"Linux","password":true,"vac":true,"version":"7757534","steam_id":85568392924510198,"keywords":["nocrits","nodmgspread","payload","uncletopia"],"game_id":440,"stv_port":27036,"stv_name":"Uncletopia | Los Angeles | 3 | All Maps | STV","players":[{"user_id":221,"name":"JimmySquid","steam_id":76561198254242530,"connected_time":609000000000,"state":"spawning","ping":81},{"user_id":227,"name":"vanilain","steam_id":76561198058617608,"connected_time":456000000000,"state":"spawning","ping":54},{"user_id":233,"name":"ryminchala","steam_id":76561199204793419,"connected_time":217000000000,"state":"spawning","ping":102},{"user_id":173,"name":"Lev_E3","steam_id":76561198161790079,"connected_time":3394000000000,"state":"spawning","ping":111},{"user_id":174,"name":"[GUT] RiDiK¬Æ","steam_id":76561197969756446,"connected_time":3346000000000,"state":"spawning","ping":97},{"user_id":191,"name":"Bandit","steam_id":76561199087543553,"connected_time":2099000000000,"state":"spawning","ping":49},{"user_id":184,"name":"EEBIGAA","steam_id":76561198056535988,"connected_time":2330000000000,"state":"spawning","ping":96},{"user_id":234,"name":"cabin","steam_id":76561198113194774,"connected_time":41000000000,"state":"spawning","ping":66},{"user_id":170,"name":"doobiebob","steam_id":76561198071963742,"connected_time":4218000000000,"state":"spawning","ping":58},{"user_id":195,"name":"benson","steam_id":76561198105075752,"connected_time":1878000000000,"state":"spawning","ping":66},{"user_id":228,"name":"AiroBirb","steam_id":76561198370692243,"connected_time":399000000000,"state":"spawning","ping":35},{"user_id":207,"name":"spookyturtle","steam_id":76561198079622859,"connected_time":872000000000,"state":"spawning","ping":49},{"user_id":210,"name":"TheBrocklobster","steam_id":76561198039682984,"connected_time":765000000000,"state":"spawning","ping":53},{"user_id":229,"name":"cheese man","steam_id":76561199016285746,"connected_time":372000000000,"state":"spawning","ping":58},{"user_id":231,"name":"plz talk about dogs","steam_id":76561198062924973,"connected_time":291000000000,"state":"spawning","ping":39},{"user_id":213,"name":"CyberZayne","steam_id":76561198002351356,"connected_time":745000000000,"state":"spawning","ping":159},{"user_id":216,"name":"Laxoloni","steam_id":76561199197045700,"connected_time":663000000000,"state":"spawning","ping":105},{"user_id":218,"name":"‚ö† HazardBastard ‚ö†","steam_id":76561198056581580,"connected_time":642000000000,"state":"spawning","ping":67},{"user_id":232,"name":"Everglade","steam_id":76561198068654532,"connected_time":267000000000,"state":"spawning","ping":139},{"user_id":204,"name":"clueless","steam_id":76561199401554276,"connected_time":1214000000000,"state":"spawning","ping":153},{"user_id":127,"name":"Shotgun king the final checkmat","steam_id":76561199233433896,"connected_time":6078000000000,"state":"spawning","ping":128}]},{"server_id":25,"name":"Uncletopia | Los Angeles | 4 | Stopwatch Beta","name_short":"lax-4","host":"lax-1.us.uncletopia.com","port":27045,"enabled":true,"region":"us-west","cc":"us","latitude":33.94279,"longitude":-118.41004,"reserved":0,"last_update":"0001-01-01T00:00:00Z","name_a2s":"Uncletopia | Los Angeles | 4 | Stopwatch Beta","protocol":17,"map":"koth_viaduct","folder":"tf","game":"Team Fortress","app_id":440,"player_count":0,"max_players":24,"Bots":0,"server_type":"Dedicated","server_os":"Linux","password":true,"vac":true,"version":"7757534","steam_id":85568392924510199,"keywords":["cp","nocrits","nodmgspread","uncletopia"],"game_id":440,"stv_port":27046,"stv_name":"Uncletopia | Los Angeles | 4 | Stopwatch Beta | STV","players":null},{"server_id":11,"name":"Uncletopia | London | 1 | All Maps","name_short":"lon-1","host":"lon-1.uk.uncletopia.com","port":27015,"enabled":true,"region":"eu","cc":"gb","latitude":51.509865,"longitude":-0.118092,"reserved":0,"last_update":"0001-01-01T00:00:00Z","name_a2s":"Uncletopia | London | 1 | All Maps","protocol":17,"map":"cp_snakewater_final1","folder":"tf","game":"Team Fortress","app_id":440,"player_count":24,"max_players":24,"Bots":0,"server_type":"Dedicated","server_os":"Linux","password":true,"vac":true,"version":"7757534","steam_id":85568392924367362,"keywords":["cp","nocrits","nodmgspread","uncletopia"],"game_id":440,"stv_port":27016,"stv_name":"Uncletopia | London | 1 | All Maps | STV","players":[{"user_id":737,"name":"nedilya","steam_id":76561198039692077,"connected_time":1059000000000,"state":"active","ping":65},{"user_id":734,"name":"RazorsEdge","steam_id":76561198006549279,"connected_time":1109000000000,"state":"active","ping":52},{"user_id":725,"name":"a very lorge sergal","steam_id":76561197994934838,"connected_time":1679000000000,"state":"active","ping":90},{"user_id":661,"name":"RoXeUr-KaMiKaZe","steam_id":76561197998204782,"connected_time":7196000000000,"state":"active","ping":55},{"user_id":746,"name":"profile","steam_id":76561198073562913,"connected_time":280000000000,"state":"active","ping":74},{"user_id":729,"name":"fortinaity babaji","steam_id":76561198177185310,"connected_time":1584000000000,"state":"active","ping":60},{"user_id":747,"name":"DocTwoEight","steam_id":76561198153488940,"connected_time":269000000000,"state":"active","ping":74},{"user_id":701,"name":"Nesto","steam_id":76561198015065391,"connected_time":3030000000000,"state":"active","ping":85},{"user_id":702,"name":"Kulebra","steam_id":76561198041462031,"connected_time":3019000000000,"state":"active","ping":89},{"user_id":724,"name":"No Status","steam_id":76561198119526557,"connected_time":1684000000000,"state":"active","ping":78},{"user_id":732,"name":"tmac","steam_id":76561198047685716,"connected_time":1317000000000,"state":"active","ping":45},{"user_id":748,"name":"Din Javel","steam_id":76561198043018352,"connected_time":221000000000,"state":"active","ping":70},{"user_id":749,"name":"some guy","steam_id":76561199119000874,"connected_time":205000000000,"state":"active","ping":120},{"user_id":703,"name":"SiLent_Crime","steam_id":76561198191126481,"connected_time":3003000000000,"state":"active","ping":60},{"user_id":722,"name":"Frazzle","steam_id":76561198262577951,"connected_time":2204000000000,"state":"active","ping":64},{"user_id":733,"name":"Pachakamakk","steam_id":76561197989010401,"connected_time":1135000000000,"state":"active","ping":56},{"user_id":686,"name":"Mr_Pulse_","steam_id":76561198095001602,"connected_time":4199000000000,"state":"active","ping":99},{"user_id":750,"name":"hud_saytext_time 0","steam_id":76561198010327228,"connected_time":201000000000,"state":"active","ping":70},{"user_id":705,"name":"FreundD [F.-A.]","steam_id":76561198057727101,"connected_time":2992000000000,"state":"active","ping":65},{"user_id":745,"name":"Poeka","steam_id":76561198031180960,"connected_time":357000000000,"state":"active","ping":86},{"user_id":751,"name":"lant420","steam_id":76561198206673920,"connected_time":178000000000,"state":"active","ping":98},{"user_id":752,"name":"[Q]","steam_id":76561198018729683,"connected_time":151000000000,"state":"active","ping":45},{"user_id":710,"name":"dairy","steam_id":76561198117033273,"connected_time":2953000000000,"state":"active","ping":55},{"user_id":582,"name":"(_ _).ÔΩ°o‚óã","steam_id":76561198298576765,"connected_time":13694000000000,"state":"active","ping":77}]},{"server_id":114,"name":"Uncletopia | London | 2 | All Maps","name_short":"lon-2","host":"lon-1.uk.uncletopia.com","port":27025,"enabled":true,"region":"eu","cc":"gb","latitude":51.509865,"longitude":-0.118092,"reserved":0,"last_update":"0001-01-01T00:00:00Z","name_a2s":"Uncletopia | London | 2 | All Maps","protocol":17,"map":"pl_upward","folder":"tf","game":"Team Fortress","app_id":440,"player_count":24,"max_players":24,"Bots":0,"server_type":"Dedicated","server_os":"Linux","password":true,"vac":true,"version":"7757534","steam_id":85568392924470941,"keywords":["nocrits","nodmgspread","payload","uncletopia"],"game_id":440,"stv_port":27026,"stv_name":"Uncletopia | London | 2 | All Maps | STV","players":[{"user_id":981,"name":"r06u3","steam_id":76561198254099253,"connected_time":1636000000000,"state":"active","ping":179},{"user_id":982,"name":"posht0 @_@","steam_id":76561198106182078,"connected_time":1609000000000,"state":"active","ping":109},{"user_id":1006,"name":"Trash Bandicoot","steam_id":76561198127596400,"connected_time":194000000000,"state":"active","ping":73},{"user_id":1007,"name":"Dr.Disrespect","steam_id":76561198043820228,"connected_time":141000000000,"state":"active","ping":60},{"user_id":915,"name":"podcast","steam_id":76561198531978435,"connected_time":6237000000000,"state":"active","ping":59},{"user_id":963,"name":"ZePequenio","steam_id":76561197968506094,"connected_time":2876000000000,"state":"active","ping":65},{"user_id":989,"name":"davlevan","steam_id":76561198090848620,"connected_time":1207000000000,"state":"active","ping":75},{"user_id":1004,"name":"„Åô LightFlight „Åó","steam_id":76561198079007530,"connected_time":551000000000,"state":"active","ping":56},{"user_id":967,"name":"sabaka jebanoia","steam_id":76561198147249160,"connected_time":2653000000000,"state":"active","ping":105},{"user_id":999,"name":"Medic Gf for sale","steam_id":76561198070154445,"connected_time":1049000000000,"state":"active","ping":149},{"user_id":1008,"name":"Koi-Koi","steam_id":76561198045527771,"connected_time":84000000000,"state":"active","ping":56},{"user_id":991,"name":"steakman10","steam_id":76561198152584691,"connected_time":1163000000000,"state":"active","ping":73},{"user_id":993,"name":"Hedgehogdude‚Ö¢","steam_id":76561198305290568,"connected_time":1140000000000,"state":"active","ping":107},{"user_id":1009,"name":"rez777ka","steam_id":76561198107605938,"connected_time":53000000000,"state":"active","ping":91},{"user_id":1003,"name":"MonkeyBOYXD","steam_id":76561198156224952,"connected_time":568000000000,"state":"active","ping":46},{"user_id":995,"name":"glyph","steam_id":76561197980736364,"connected_time":1127000000000,"state":"active","ping":86},{"user_id":996,"name":"Littleyoshifan","steam_id":76561198445491045,"connected_time":1113000000000,"state":"active","ping":44},{"user_id":934,"name":"TOG II*","steam_id":76561197993906091,"connected_time":4304000000000,"state":"active","ping":50},{"user_id":1002,"name":"STiNGHAN","steam_id":76561198023989090,"connected_time":833000000000,"state":"active","ping":98},{"user_id":979,"name":"eelkir","steam_id":76561198024922946,"connected_time":2195000000000,"state":"active","ping":57},{"user_id":998,"name":"Sodsboy","steam_id":76561198030482006,"connected_time":1056000000000,"state":"active","ping":45},{"user_id":977,"name":"pip","steam_id":76561198731151359,"connected_time":2464000000000,"state":"active","ping":109},{"user_id":978,"name":"sleep","steam_id":76561198034882276,"connected_time":2292000000000,"state":"active","ping":90},{"user_id":1005,"name":"dubysa","steam_id":76561198079774530,"connected_time":217000000000,"state":"active","ping":75}]},{"server_id":320,"name":"Uncletopia | London | 3 | All Maps","name_short":"lon-3","host":"lon-1.uk.uncletopia.com","port":27035,"enabled":true,"region":"eu","cc":"gb","latitude":51.509865,"longitude":-0.118092,"reserved":0,"last_update":"0001-01-01T00:00:00Z","name_a2s":"Uncletopia | London | 3 | All Maps","protocol":17,"map":"cp_process_final","folder":"tf","game":"Team Fortress","app_id":440,"player_count":24,"max_players":24,"Bots":0,"server_type":"Dedicated","server_os":"Linux","password":true,"vac":true,"version":"7757534","steam_id":85568392924510192,"keywords":["cp","nocrits","nodmgspread","uncletopia"],"game_id":440,"stv_port":27036,"stv_name":"Uncletopia | London | 3 | All Maps | STV","players":[{"user_id":655,"name":"Marquis de Hoto","steam_id":76561198080687708,"connected_time":252000000000,"state":"active","ping":73},{"user_id":618,"name":"{{H3inz}] Beanz","steam_id":76561197999459536,"connected_time":3560000000000,"state":"active","ping":57},{"user_id":656,"name":"Totally Something","steam_id":76561198916824935,"connected_time":182000000000,"state":"active","ping":79},{"user_id":635,"name":"Zurreal","steam_id":76561198045318547,"connected_time":1396000000000,"state":"active","ping":74},{"user_id":600,"name":"mylow","steam_id":76561198022291895,"connected_time":4202000000000,"state":"active","ping":46},{"user_id":652,"name":"Benny the Ball","steam_id":76561198043104532,"connected_time":377000000000,"state":"active","ping":46},{"user_id":649,"name":"gvd2002","steam_id":76561198346318605,"connected_time":518000000000,"state":"active","ping":121},{"user_id":631,"name":"akakez","steam_id":76561198095432821,"connected_time":1967000000000,"state":"active","ping":115},{"user_id":650,"name":"PickerGamin","steam_id":76561199096986091,"connected_time":508000000000,"state":"active","ping":100},{"user_id":659,"name":"jaMie","steam_id":76561198170148783,"connected_time":37000000000,"state":"active","ping":44},{"user_id":614,"name":"_zipfile","steam_id":76561198066133808,"connected_time":3796000000000,"state":"active","ping":68},{"user_id":630,"name":"timothytrombone456","steam_id":76561197995676953,"connected_time":1974000000000,"state":"active","ping":51},{"user_id":603,"name":"Brass beast heavy","steam_id":76561198274197623,"connected_time":4093000000000,"state":"active","ping":74},{"user_id":646,"name":"Linkedine Zidane","steam_id":76561197968575924,"connected_time":720000000000,"state":"active","ping":52},{"user_id":641,"name":"Cabbch","steam_id":76561198045955679,"connected_time":864000000000,"state":"active","ping":54},{"user_id":636,"name":"ARTI","steam_id":76561199446989613,"connected_time":1340000000000,"state":"active","ping":60},{"user_id":644,"name":"Life on Kars","steam_id":76561198021047489,"connected_time":804000000000,"state":"active","ping":55},{"user_id":653,"name":"BenteBent","steam_id":76561198297920637,"connected_time":374000000000,"state":"active","ping":69},{"user_id":645,"name":"stepho","steam_id":76561199132035586,"connected_time":730000000000,"state":"active","ping":142},{"user_id":632,"name":"thefatcontroller","steam_id":76561199332965146,"connected_time":1822000000000,"state":"active","ping":88},{"user_id":587,"name":"SoupER","steam_id":76561198063056668,"connected_time":4907000000000,"state":"active","ping":48},{"user_id":585,"name":"Orochi","steam_id":76561198265192382,"connected_time":4980000000000,"state":"active","ping":68},{"user_id":658,"name":"Raizaky","steam_id":76561198130097326,"connected_time":136000000000,"state":"active","ping":69},{"user_id":651,"name":"DiscoTraveler","steam_id":76561199240168088,"connected_time":498000000000,"state":"active","ping":119}]},{"server_id":321,"name":"Uncletopia | London | 4 | All Maps","name_short":"lon-4","host":"lon-1.uk.uncletopia.com","port":27045,"enabled":true,"region":"eu","cc":"gb","latitude":51.509865,"longitude":-0.118092,"reserved":0,"last_update":"0001-01-01T00:00:00Z","name_a2s":"Uncletopia | London | 4 | All Maps","protocol":17,"map":"pl_badwater","folder":"tf","game":"Team Fortress","app_id":440,"player_count":24,"max_players":24,"Bots":0,"server_type":"Dedicated","server_os":"Linux","password":true,"vac":true,"version":"7757534","steam_id":85568392924510193,"keywords":["nocrits","nodmgspread","payload","uncletopia"],"game_id":440,"stv_port":27046,"stv_name":"Uncletopia | London | 4 | All Maps | STV","players":[{"user_id":420,"name":"darktheif54","steam_id":76561198043650119,"connected_time":13018000000000,"state":"active","ping":53},{"user_id":553,"name":"Duke Fishlord","steam_id":76561198079928327,"connected_time":983000000000,"state":"active","ping":70},{"user_id":543,"name":"pizza time","steam_id":76561199015899793,"connected_time":2585000000000,"state":"active","ping":51},{"user_id":528,"name":"onku","steam_id":76561199230709660,"connected_time":4377000000000,"state":"active","ping":61},{"user_id":566,"name":"Videogamer","steam_id":76561198106012909,"connected_time":328000000000,"state":"active","ping":67},{"user_id":512,"name":"Jakk","steam_id":76561198041537908,"connected_time":5523000000000,"state":"active","ping":69},{"user_id":514,"name":"‚òÄAkane Chiasa‚òÄ","steam_id":76561198073865581,"connected_time":5494000000000,"state":"active","ping":81},{"user_id":550,"name":"joona","steam_id":76561198156305446,"connected_time":1593000000000,"state":"active","ping":96},{"user_id":565,"name":"Rem","steam_id":76561198867480648,"connected_time":719000000000,"state":"active","ping":43},{"user_id":549,"name":"Dragul","steam_id":76561198032885938,"connected_time":1867000000000,"state":"active","ping":63},{"user_id":538,"name":"Mauricio‚Ñ¢","steam_id":76561198058727934,"connected_time":3263000000000,"state":"active","ping":50},{"user_id":496,"name":"DeadpoolDealsDamage","steam_id":76561198399472908,"connected_time":7369000000000,"state":"active","ping":53},{"user_id":544,"name":"im red","steam_id":76561199087284519,"connected_time":2527000000000,"state":"active","ping":72},{"user_id":508,"name":"Faeris","steam_id":76561198060980015,"connected_time":6802000000000,"state":"active","ping":76},{"user_id":493,"name":"!!!!!!!!!!!!!!!!!!!!!!!!!!!!!!!","steam_id":76561198069649097,"connected_time":7788000000000,"state":"active","ping":50},{"user_id":546,"name":"dunduu","steam_id":76561198875240717,"connected_time":2449000000000,"state":"active","ping":77},{"user_id":569,"name":"Chaz","steam_id":76561198077292814,"connected_time":38000000000,"state":"spawning","ping":82},{"user_id":471,"name":"Thalgorock","steam_id":76561198195315022,"connected_time":10423000000000,"state":"active","ping":117},{"user_id":495,"name":"HOT HENTAI GIRL","steam_id":76561198104438656,"connected_time":7461000000000,"state":"active","ping":63},{"user_id":547,"name":"Wedgeridoo","steam_id":76561198082813907,"connected_time":2377000000000,"state":"active","ping":87},{"user_id":564,"name":"Lyell","steam_id":76561198350329389,"connected_time":825000000000,"state":"active","ping":84},{"user_id":551,"name":"schaffi","steam_id":76561198061369274,"connected_time":1244000000000,"state":"active","ping":84},{"user_id":552,"name":"scarecrow (evil)","steam_id":76561198082979347,"connected_time":990000000000,"state":"active","ping":129},{"user_id":570,"name":"Classic Duck","steam_id":76561198079413473,"connected_time":21000000000,"state":"active","ping":54}]},{"server_id":21,"name":"Uncletopia | London | 5 | All Maps","name_short":"lon-5","host":"lon-1.uk.uncletopia.com","port":27055,"enabled":true,"region":"eu","cc":"gb","latitude":51.509865,"longitude":-0.118092,"reserved":0,"last_update":"0001-01-01T00:00:00Z","name_a2s":"Uncletopia | London | 5 | All Maps","protocol":17,"map":"cp_granary","folder":"tf","game":"Team Fortress","app_id":440,"player_count":24,"max_players":24,"Bots":0,"server_type":"Dedicated","server_os":"Linux","password":true,"vac":true,"version":"7757534","steam_id":85568392924742829,"keywords":["cp","nocrits","nodmgspread","uncletopia"],"game_id":440,"stv_port":27056,"stv_name":"Uncletopia | London | 5 | All Maps | STV","players":[{"user_id":327,"name":"midnight_heat","steam_id":76561199076696513,"connected_time":1997000000000,"state":"active","ping":87},{"user_id":304,"name":".swayze","steam_id":76561198141744030,"connected_time":3433000000000,"state":"active","ping":54},{"user_id":326,"name":"oldy","steam_id":76561198031899043,"connected_time":2031000000000,"state":"active","ping":91},{"user_id":328,"name":"Kali","steam_id":76561198070745106,"connected_time":1996000000000,"state":"active","ping":45},{"user_id":342,"name":"attack of the ass","steam_id":76561198090648792,"connected_time":1512000000000,"state":"active","ping":92},{"user_id":329,"name":"sergioyruben975","steam_id":76561198418304063,"connected_time":1986000000000,"state":"active","ping":80},{"user_id":321,"name":"Miles","steam_id":76561198084891833,"connected_time":2244000000000,"state":"active","ping":45},{"user_id":338,"name":"Spronch","steam_id":76561198240326602,"connected_time":1649000000000,"state":"active","ping":59},{"user_id":318,"name":"Jangodiot","steam_id":76561199385350969,"connected_time":2665000000000,"state":"active","ping":65},{"user_id":346,"name":"lilyskittle","steam_id":76561198303232638,"connected_time":1384000000000,"state":"active","ping":53},{"user_id":345,"name":"Can my wife use your toilet?","steam_id":76561198132926700,"connected_time":1435000000000,"state":"active","ping":60},{"user_id":333,"name":"Boksman","steam_id":76561198057289963,"connected_time":1760000000000,"state":"active","ping":126},{"user_id":334,"name":"Mantis Toboggan, M.D","steam_id":76561197963562704,"connected_time":1707000000000,"state":"active","ping":71},{"user_id":308,"name":"Thunder_Chief","steam_id":76561198086858957,"connected_time":3402000000000,"state":"active","ping":69},{"user_id":309,"name":"Mads Mikkelsen","steam_id":76561198819699670,"connected_time":3379000000000,"state":"active","ping":99},{"user_id":310,"name":"Ronnie Coleman","steam_id":76561198188676728,"connected_time":3341000000000,"state":"active","ping":105},{"user_id":312,"name":"The rat is Nux","steam_id":76561197999250254,"connected_time":3306000000000,"state":"active","ping":64},{"user_id":335,"name":"FoxHowd","steam_id":76561199112077527,"connected_time":1703000000000,"state":"active","ping":50},{"user_id":339,"name":"Asterisk Bin","steam_id":76561198355017888,"connected_time":1628000000000,"state":"active","ping":55},{"user_id":313,"name":"top_g","steam_id":76561198058970797,"connected_time":3302000000000,"state":"active","ping":96},{"user_id":314,"name":"Kjall","steam_id":76561198159249203,"connected_time":3301000000000,"state":"active","ping":105},{"user_id":344,"name":"Gorgar","steam_id":76561198199363025,"connected_time":1457000000000,"state":"active","ping":97},{"user_id":274,"name":"Pronton","steam_id":76561198082502910,"connected_time":6544000000000,"state":"active","ping":62},{"user_id":348,"name":"ralek","steam_id":76561198337027746,"connected_time":729000000000,"state":"active","ping":103}]},{"server_id":22,"name":"Uncletopia | London | 6 | All Maps","name_short":"lon-6","host":"lon-1.uk.uncletopia.com","port":27065,"enabled":true,"region":"eu","cc":"gb","latitude":51.509865,"longitude":-0.118092,"reserved":0,"last_update":"0001-01-01T00:00:00Z","name_a2s":"Uncletopia | London | 6 | All Maps","protocol":17,"map":"pl_upward","folder":"tf","game":"Team Fortress","app_id":440,"player_count":24,"max_players":24,"Bots":0,"server_type":"Dedicated","server_os":"Linux","password":true,"vac":true,"version":"7757534","steam_id":85568392924742830,"keywords":["nocrits","nodmgspread","payload","uncletopia"],"game_id":440,"stv_port":27066,"stv_name":"Uncletopia | London | 6 | All Maps | STV","players":[{"user_id":769,"name":"Adopted?","steam_id":76561198118667043,"connected_time":568000000000,"state":"active","ping":53},{"user_id":768,"name":"3xample","steam_id":76561198805049375,"connected_time":685000000000,"state":"active","ping":61},{"user_id":737,"name":"AMD8806","steam_id":76561198959208483,"connected_time":2881000000000,"state":"active","ping":49},{"user_id":758,"name":"8 Ball","steam_id":76561197960988736,"connected_time":1717000000000,"state":"active","ping":45},{"user_id":770,"name":"Gr√∏nkj√¶r","steam_id":76561198041075280,"connected_time":560000000000,"state":"active","ping":75},{"user_id":771,"name":"JeanCorben","steam_id":76561197965133561,"connected_time":536000000000,"state":"active","ping":40},{"user_id":757,"name":"VasellineNtoRque","steam_id":76561198451572412,"connected_time":1952000000000,"state":"active","ping":69},{"user_id":738,"name":"glyphoglossus molossus","steam_id":76561198191291749,"connected_time":2878000000000,"state":"active","ping":84},{"user_id":763,"name":"Dangerousbros","steam_id":76561198088952519,"connected_time":1352000000000,"state":"active","ping":32},{"user_id":711,"name":"dopamine overdose","steam_id":76561199032511302,"connected_time":4697000000000,"state":"active","ping":97},{"user_id":701,"name":"ikeaworst","steam_id":76561198936990378,"connected_time":5527000000000,"state":"active","ping":60},{"user_id":775,"name":"Burpman","steam_id":76561198022897937,"connected_time":408000000000,"state":"active","ping":48},{"user_id":739,"name":"dave","steam_id":76561199078847021,"connected_time":2870000000000,"state":"active","ping":84},{"user_id":740,"name":"Lord Commissar Drac","steam_id":76561198030371218,"connected_time":2850000000000,"state":"active","ping":84},{"user_id":764,"name":"mr mufasi","steam_id":76561198068453867,"connected_time":1347000000000,"state":"active","ping":55},{"user_id":750,"name":"DelaNo","steam_id":76561199125086655,"connected_time":2123000000000,"state":"active","ping":53},{"user_id":772,"name":"ShovelLettuce #Savetf2","steam_id":76561198438742557,"connected_time":517000000000,"state":"active","ping":59},{"user_id":765,"name":"keepflatandenjoy","steam_id":76561198976062150,"connected_time":1341000000000,"state":"active","ping":57},{"user_id":753,"name":"Rat Bastard","steam_id":76561198025278054,"connected_time":2073000000000,"state":"active","ping":65},{"user_id":741,"name":"Emo E-boy Twink","steam_id":76561198044624039,"connected_time":2810000000000,"state":"active","ping":53},{"user_id":776,"name":"The Deadly Doughnut","steam_id":76561198079049349,"connected_time":4000000000,"state":"spawning","ping":43},{"user_id":760,"name":"GuSkand","steam_id":76561198043775605,"connected_time":1673000000000,"state":"active","ping":87},{"user_id":743,"name":"croco.","steam_id":76561198988882521,"connected_time":2637000000000,"state":"active","ping":129},{"user_id":773,"name":"Juiceydough","steam_id":76561197997323419,"connected_time":516000000000,"state":"active","ping":87}]},{"server_id":40,"name":"Uncletopia | London | 7 | No Payload","name_short":"lon-7","host":"lon-1.uk.uncletopia.com","port":27075,"enabled":true,"region":"eu","cc":"gb","latitude":51.509865,"longitude":-0.118092,"reserved":0,"last_update":"0001-01-01T00:00:00Z","name_a2s":"Uncletopia | London | 7 | No Payload","protocol":17,"map":"koth_king","folder":"tf","game":"Team Fortress","app_id":440,"player_count":0,"max_players":24,"Bots":0,"server_type":"Dedicated","server_os":"Linux","password":true,"vac":true,"version":"7757534","steam_id":85568392924964314,"keywords":["cp","nocrits","nodmgspread","uncletopia"],"game_id":440,"stv_port":27076,"stv_name":"Uncletopia | London | 7 | No Payload | STV","players":null},{"server_id":41,"name":"Uncletopia | London | 8 | Community","name_short":"lon-8","host":"lon-1.uk.uncletopia.com","port":27085,"enabled":true,"region":"eu","cc":"gb","latitude":51.509865,"longitude":-0.118092,"reserved":0,"last_update":"0001-01-01T00:00:00Z","name_a2s":"Uncletopia | London | 8 | Community","protocol":17,"map":"workshop/koth_ashville_final.ugc2130459942","folder":"tf","game":"Team Fortress","app_id":440,"player_count":0,"max_players":24,"Bots":0,"server_type":"Dedicated","server_os":"Linux","password":true,"vac":true,"version":"7757534","steam_id":85568392924964315,"keywords":["cp","nocrits","nodmgspread","uncletopia"],"game_id":440,"stv_port":27086,"stv_name":"Uncletopia | London | 8 | Community | STV","players":null},{"server_id":300,"name":"Uncletopia | Montr√©al | 1 | All Maps","name_short":"mtl-1","host":"mtl-1.ca.uncletopia.com","port":27015,"enabled":true,"region":"us-east","cc":"ca","latitude":45.50889,"longitude":-73.56167,"reserved":0,"last_update":"0001-01-01T00:00:00Z","name_a2s":"Uncletopia | Montr√©al | 1 | All Maps","protocol":17,"map":"koth_cascade","folder":"tf","game":"Team Fortress","app_id":440,"player_count":0,"max_players":24,"Bots":0,"server_type":"Dedicated","server_os":"Linux","password":true,"vac":true,"version":"7757534","steam_id":85568392924500087,"keywords":["cp","nocrits","nodmgspread","uncletopia"],"game_id":440,"stv_port":27016,"stv_name":"Uncletopia | Montr√©al | 1 | All Maps | STV","players":null},{"server_id":301,"name":"Uncletopia | Montr√©al | 2 | All Maps","name_short":"mtl-2","host":"mtl-1.ca.uncletopia.com","port":27025,"enabled":true,"region":"us-east","cc":"ca","latitude":45.50889,"longitude":-73.56167,"reserved":0,"last_update":"0001-01-01T00:00:00Z","name_a2s":"Uncletopia | Montr√©al | 2 | All Maps","protocol":17,"map":"pl_borneo","folder":"tf","game":"Team Fortress","app_id":440,"player_count":0,"max_players":24,"Bots":0,"server_type":"Dedicated","server_os":"Linux","password":true,"vac":true,"version":"7757534","steam_id":85568392924500088,"keywords":["nocrits","nodmgspread","payload","uncletopia"],"game_id":440,"stv_port":27026,"stv_name":"Uncletopia | Montr√©al | 2 | All Maps | STV","players":null},{"server_id":302,"name":"Uncletopia | Montr√©al | 3 | All Maps","name_short":"mtl-3","host":"mtl-1.ca.uncletopia.com","port":27035,"enabled":true,"region":"us-east","cc":"ca","latitude":45.50889,"longitude":-73.56167,"reserved":0,"last_update":"0001-01-01T00:00:00Z","name_a2s":"Uncletopia | Montr√©al | 3 | All Maps","protocol":17,"map":"cp_sunshine","folder":"tf","game":"Team Fortress","app_id":440,"player_count":0,"max_players":24,"Bots":0,"server_type":"Dedicated","server_os":"Linux","password":true,"vac":true,"version":"7757534","steam_id":85568392924500089,"keywords":["cp","nocrits","nodmgspread","uncletopia"],"game_id":440,"stv_port":27036,"stv_name":"Uncletopia | Montr√©al | 3 | All Maps | STV","players":null},{"server_id":303,"name":"Uncletopia | Montr√©al | 4 | No Payload","name_short":"mtl-4","host":"mtl-1.ca.uncletopia.com","port":27045,"enabled":true,"region":"us-east","cc":"ca","latitude":45.50889,"longitude":-73.56167,"reserved":0,"last_update":"0001-01-01T00:00:00Z","name_a2s":"Uncletopia | Montr√©al | 4 | No Payload","protocol":17,"map":"koth_lakeside_final","folder":"tf","game":"Team Fortress","app_id":440,"player_count":0,"max_players":24,"Bots":0,"server_type":"Dedicated","server_os":"Linux","password":true,"vac":true,"version":"7757534","steam_id":85568392924500090,"keywords":["cp","nocrits","nodmgspread","uncletopia"],"game_id":440,"stv_port":27046,"stv_name":"Uncletopia | Montr√©al | 4 | No Payload | STV","players":null},{"server_id":13,"name":"Uncletopia | New York City | 1 | All Maps","name_short":"nyc-1","host":"nyc-1.us.uncletopia.com","port":27015,"enabled":true,"region":"us-east","cc":"us","latitude":40.73061,"longitude":-73.93524,"reserved":0,"last_update":"0001-01-01T00:00:00Z","name_a2s":"Uncletopia | New York City | 1 | All Maps","protocol":17,"map":"pl_snowycoast","folder":"tf","game":"Team Fortress","app_id":440,"player_count":24,"max_players":24,"Bots":0,"server_type":"Dedicated","server_os":"Linux","password":true,"vac":true,"version":"7757534","steam_id":85568392924469993,"keywords":["nocrits","nodmgspread","payload","uncletopia"],"game_id":440,"stv_port":27016,"stv_name":"Uncletopia | New York City | 1 | All Maps | STV","players":[{"user_id":222,"name":"real mads mikkelsen","steam_id":76561199123152847,"connected_time":398000000000,"state":"active","ping":66},{"user_id":186,"name":"Mara Roo","steam_id":76561198279341789,"connected_time":2270000000000,"state":"active","ping":64},{"user_id":214,"name":"Alfonso Molestro","steam_id":76561197998677099,"connected_time":881000000000,"state":"active","ping":66},{"user_id":203,"name":"Shichinitzi","steam_id":76561198003833732,"connected_time":1308000000000,"state":"active","ping":74},{"user_id":177,"name":"Xavibite","steam_id":76561198209380493,"connected_time":2980000000000,"state":"active","ping":41},{"user_id":212,"name":"mxtry599","steam_id":76561199278383267,"connected_time":982000000000,"state":"active","ping":54},{"user_id":213,"name":"koob","steam_id":76561198987464129,"connected_time":895000000000,"state":"active","ping":54},{"user_id":208,"name":"Brown_Dream","steam_id":76561198975766145,"connected_time":1266000000000,"state":"active","ping":72},{"user_id":192,"name":"Zoey","steam_id":76561198071492875,"connected_time":2076000000000,"state":"active","ping":72},{"user_id":204,"name":"The Hoagie Hero","steam_id":76561198057569298,"connected_time":1299000000000,"state":"active","ping":68},{"user_id":216,"name":"Wso1123","steam_id":76561198048040111,"connected_time":814000000000,"state":"active","ping":89},{"user_id":194,"name":"zenith","steam_id":76561198809227311,"connected_time":2001000000000,"state":"active","ping":47},{"user_id":205,"name":"Boasta' Berry","steam_id":76561198029015179,"connected_time":1298000000000,"state":"active","ping":114},{"user_id":199,"name":"PinkLemonade","steam_id":76561198799286228,"connected_time":1416000000000,"state":"active","ping":52},{"user_id":195,"name":"Acheo","steam_id":76561198068228498,"connected_time":1978000000000,"state":"active","ping":45},{"user_id":221,"name":"Baron von Whoopsie","steam_id":76561197996691013,"connected_time":413000000000,"state":"active","ping":64},{"user_id":151,"name":"Michaelpc1","steam_id":76561198088365519,"connected_time":4935000000000,"state":"active","ping":70},{"user_id":217,"name":"Toygar","steam_id":76561198023679830,"connected_time":573000000000,"state":"active","ping":62},{"user_id":180,"name":"Hell's Reindeer","steam_id":76561198065310364,"connected_time":2530000000000,"state":"active","ping":70},{"user_id":183,"name":"pontiv","steam_id":76561197995384565,"connected_time":2363000000000,"state":"active","ping":46},{"user_id":201,"name":"Grungy_Greg","steam_id":76561198217362968,"connected_time":1412000000000,"state":"active","ping":80},{"user_id":174,"name":"egyptiangodcard","steam_id":76561198855935442,"connected_time":3334000000000,"state":"active","ping":99},{"user_id":196,"name":"veewon","steam_id":76561198276513608,"connected_time":1978000000000,"state":"active","ping":161},{"user_id":220,"name":"e0e0","steam_id":76561198293839750,"connected_time":473000000000,"state":"active","ping":45}]},{"server_id":14,"name":"Uncletopia | New York City | 2 | All Maps","name_short":"nyc-2","host":"nyc-1.us.uncletopia.com","port":27025,"enabled":true,"region":"us-east","cc":"us","latitude":40.73061,"longitude":-73.93524,"reserved":0,"last_update":"0001-01-01T00:00:00Z","name_a2s":"Uncletopia | New York City | 2 | All Maps","protocol":17,"map":"pl_upward","folder":"tf","game":"Team Fortress","app_id":440,"player_count":24,"max_players":24,"Bots":0,"server_type":"Dedicated","server_os":"Linux","password":true,"vac":true,"version":"7757534","steam_id":85568392924469994,"keywords":["nocrits","nodmgspread","payload","uncletopia"],"game_id":440,"stv_port":27026,"stv_name":"Uncletopia | New York City | 2 | All Maps | STV","players":[{"user_id":404,"name":"Csquared","steam_id":76561198169038599,"connected_time":1075000000000,"state":"active","ping":121},{"user_id":387,"name":"MR DADDY","steam_id":76561198350794663,"connected_time":1849000000000,"state":"active","ping":50},{"user_id":349,"name":"cyan","steam_id":76561198019387213,"connected_time":4648000000000,"state":"active","ping":67},{"user_id":411,"name":"doorlarkeded","steam_id":76561199439227968,"connected_time":187000000000,"state":"active","ping":83},{"user_id":412,"name":"The Juicer","steam_id":76561198027247542,"connected_time":184000000000,"state":"active","ping":60},{"user_id":398,"name":"lanoc","steam_id":76561198055415367,"connected_time":1572000000000,"state":"active","ping":60},{"user_id":407,"name":"ndvr","steam_id":76561199379200102,"connected_time":206000000000,"state":"active","ping":53},{"user_id":365,"name":"g00bur","steam_id":76561197993622520,"connected_time":3001000000000,"state":"active","ping":54},{"user_id":415,"name":"Yoga","steam_id":76561198307415093,"connected_time":169000000000,"state":"active","ping":56},{"user_id":408,"name":"stevefelber","steam_id":76561199467139120,"connected_time":197000000000,"state":"active","ping":57},{"user_id":308,"name":"Mr. May","steam_id":76561198132112804,"connected_time":5993000000000,"state":"active","ping":76},{"user_id":416,"name":"nav","steam_id":76561198872608266,"connected_time":165000000000,"state":"active","ping":70},{"user_id":332,"name":"PageBoiSkull","steam_id":76561198237353578,"connected_time":5171000000000,"state":"active","ping":125},{"user_id":405,"name":"AjProductions","steam_id":76561198217950125,"connected_time":1048000000000,"state":"active","ping":130},{"user_id":389,"name":"judas from the binding of isaac","steam_id":76561199068993168,"connected_time":1825000000000,"state":"active","ping":56},{"user_id":396,"name":"one tiny arm","steam_id":76561198000564263,"connected_time":1642000000000,"state":"active","ping":75},{"user_id":342,"name":"Thurricane","steam_id":76561198410724666,"connected_time":4800000000000,"state":"active","ping":52},{"user_id":391,"name":"Mommy Cloud Audios Gaming","steam_id":76561198880304614,"connected_time":1785000000000,"state":"active","ping":40},{"user_id":372,"name":"Wolbey","steam_id":76561198042148095,"connected_time":2774000000000,"state":"active","ping":76},{"user_id":402,"name":"Papillon","steam_id":76561198049725849,"connected_time":1270000000000,"state":"active","ping":89},{"user_id":417,"name":"Devinish","steam_id":76561198024927243,"connected_time":153000000000,"state":"active","ping":86},{"user_id":393,"name":"Boiling","steam_id":76561198278672340,"connected_time":1738000000000,"state":"active","ping":40},{"user_id":394,"name":"Dagoth Ur","steam_id":76561198117028805,"connected_time":1718000000000,"state":"active","ping":134},{"user_id":414,"name":"w key + left click + spacebar","steam_id":76561198319442494,"connected_time":184000000000,"state":"active","ping":111}]},{"server_id":15,"name":"Uncletopia | New York City | 3 | Stopwatch Beta","name_short":"nyc-3","host":"nyc-1.us.uncletopia.com","port":27035,"enabled":true,"region":"us-east","cc":"us","latitude":40.73061,"longitude":-73.93524,"reserved":0,"last_update":"0001-01-01T00:00:00Z","name_a2s":"Uncletopia | New York City | 3 | Stopwatch Beta","protocol":17,"map":"workshop/cp_reckoner_rc6.ugc674719999","folder":"tf","game":"Team Fortress","app_id":440,"player_count":0,"max_players":24,"Bots":0,"server_type":"Dedicated","server_os":"Linux","password":true,"vac":true,"version":"7757534","steam_id":85568392924742820,"keywords":["cp","nocrits","nodmgspread","uncletopia"],"game_id":440,"stv_port":27036,"stv_name":"Uncletopia | New York City | 3 | Stopwatch Beta | STV","players":null},{"server_id":16,"name":"Uncletopia | New York City | 4 | Community","name_short":"nyc-4","host":"nyc-1.us.uncletopia.com","port":27045,"enabled":true,"region":"us-east","cc":"us","latitude":40.73061,"longitude":-73.93524,"reserved":0,"last_update":"0001-01-01T00:00:00Z","name_a2s":"Uncletopia | New York City | 4 | Community","protocol":17,"map":"workshop/cp_overgrown_rc7b.ugc503939302","folder":"tf","game":"Team Fortress","app_id":440,"player_count":0,"max_players":24,"Bots":0,"server_type":"Dedicated","server_os":"Linux","password":true,"vac":true,"version":"7757534","steam_id":85568392924742821,"keywords":["cp","nocrits","nodmgspread","uncletopia"],"game_id":440,"stv_port":27046,"stv_name":"Uncletopia | New York City | 4 | Community | STV","players":null},{"server_id":142,"name":"Uncletopia | S√£o Paulo | 1 | All Maps","name_short":"sao-1","host":"sao-1.br.uncletopia.com","port":27015,"enabled":true,"region":"sa","cc":"br","latitude":-23.533773,"longitude":-46.62529,"reserved":0,"last_update":"0001-01-01T00:00:00Z","name_a2s":"Uncletopia | S√£o Paulo | 1 | All Maps","protocol":17,"map":"koth_highpass","folder":"tf","game":"Team Fortress","app_id":440,"player_count":0,"max_players":24,"Bots":0,"server_type":"Dedicated","server_os":"Linux","password":true,"vac":true,"version":"7757534","steam_id":85568392924469996,"keywords":["cp","nocrits","nodmgspread","uncletopia"],"game_id":440,"stv_port":27016,"stv_name":"Uncletopia | S√£o Paulo | 1 | All Maps | STV","players":null},{"server_id":143,"name":"Uncletopia | S√£o Paulo | 2 | All Maps","name_short":"sao-2","host":"sao-2.br.uncletopia.com","port":27015,"enabled":true,"region":"sa","cc":"br","latitude":-23.533773,"longitude":-46.62529,"reserved":0,"last_update":"0001-01-01T00:00:00Z","name_a2s":"Uncletopia | S√£o Paulo | 2 | All Maps","protocol":17,"map":"pl_pier","folder":"tf","game":"Team Fortress","app_id":440,"player_count":2,"max_players":24,"Bots":0,"server_type":"Dedicated","server_os":"Linux","password":true,"vac":true,"version":"7757534","steam_id":85568392924485349,"keywords":["nocrits","nodmgspread","payload","uncletopia"],"game_id":440,"stv_port":27016,"stv_name":"Uncletopia | S√£o Paulo | 2 | All Maps | STV","players":[{"user_id":58,"name":"Caz","steam_id":76561198255443501,"connected_time":415000000000,"state":"active","ping":74},{"user_id":59,"name":"Elo","steam_id":76561198954337086,"connected_time":359000000000,"state":"active","ping":53}]},{"server_id":7,"name":"Uncletopia | Seattle | 1 | All Maps","name_short":"sea-1","host":"sea-1.us.uncletopia.com","port":27015,"enabled":true,"region":"us-west","cc":"us","latitude":47.608013,"longitude":-122.33517,"reserved":0,"last_update":"0001-01-01T00:00:00Z","name_a2s":"Uncletopia | Seattle | 1 | All Maps","protocol":17,"map":"pl_barnblitz","folder":"tf","game":"Team Fortress","app_id":440,"player_count":24,"max_players":24,"Bots":0,"server_type":"Dedicated","server_os":"Linux","password":true,"vac":true,"version":"7757534","steam_id":85568392924469997,"keywords":["nocrits","nodmgspread","payload","uncletopia"],"game_id":440,"stv_port":27016,"stv_name":"Uncletopia | Seattle | 1 | All Maps | STV","players":[{"user_id":200,"name":"aon135","steam_id":76561197966931637,"connected_time":9049000000000,"state":"active","ping":52},{"user_id":308,"name":"Ayayahuasca","steam_id":76561199002906056,"connected_time":411000000000,"state":"active","ping":46},{"user_id":238,"name":"laggiest player","steam_id":76561198439899407,"connected_time":6958000000000,"state":"spawning","ping":56},{"user_id":292,"name":"DK360","steam_id":76561198796783094,"connected_time":1525000000000,"state":"active","ping":60},{"user_id":305,"name":"Sewer","steam_id":76561198803732690,"connected_time":754000000000,"state":"active","ping":110},{"user_id":316,"name":"cornealvase9152","steam_id":76561198851958868,"connected_time":82000000000,"state":"spawning","ping":67},{"user_id":302,"name":"[TrC] Nosy","steam_id":76561197978859310,"connected_time":983000000000,"state":"active","ping":55},{"user_id":299,"name":"‡ºò ‚ãÜÀöüéßCaffeine‚òï*Àñ¬∞","steam_id":76561199259309294,"connected_time":1196000000000,"state":"spawning","ping":116},{"user_id":304,"name":"[TrC] Dackstrus","steam_id":76561197973518509,"connected_time":834000000000,"state":"active","ping":59},{"user_id":313,"name":"Chara","steam_id":76561198853239207,"connected_time":224000000000,"state":"active","ping":103},{"user_id":291,"name":"delight","steam_id":76561197980280272,"connected_time":1580000000000,"state":"active","ping":43},{"user_id":309,"name":"Jade but like from video games","steam_id":76561198045183265,"connected_time":398000000000,"state":"active","ping":95},{"user_id":318,"name":"Bill","steam_id":76561199245365821,"connected_time":0,"state":"spawning","ping":26},{"user_id":293,"name":"Belmore","steam_id":76561198009355231,"connected_time":1499000000000,"state":"active","ping":85},{"user_id":312,"name":"MisingStick","steam_id":76561198174413110,"connected_time":361000000000,"state":"active","ping":56},{"user_id":277,"name":"Arsonist Goose","steam_id":76561198147441830,"connected_time":2936000000000,"state":"active","ping":76},{"user_id":284,"name":"AmiableNebula","steam_id":76561198094306627,"connected_time":1966000000000,"state":"active","ping":76},{"user_id":267,"name":"rat gets the cheese","steam_id":76561198031234032,"connected_time":4008000000000,"state":"active","ping":101},{"user_id":255,"name":"Amateur Glaswegian","steam_id":76561198030851956,"connected_time":5102000000000,"state":"active","ping":57},{"user_id":306,"name":"the them","steam_id":76561198082922382,"connected_time":422000000000,"state":"active","ping":85},{"user_id":317,"name":"The Mentlegen","steam_id":76561199001855562,"connected_time":30000000000,"state":"active","ping":54},{"user_id":314,"name":"Speedy","steam_id":76561199259388098,"connected_time":138000000000,"state":"spawning","ping":91},{"user_id":263,"name":"COOL master_9","steam_id":76561198073041151,"connected_time":4576000000000,"state":"active","ping":105},{"user_id":242,"name":"thunderous prophet","steam_id":76561198131166135,"connected_time":6631000000000,"state":"active","ping":34}]},{"server_id":119,"name":"Uncletopia | Seattle | 2 | All Maps","name_short":"sea-2","host":"sea-1.us.uncletopia.com","port":27025,"enabled":true,"region":"us-west","cc":"us","latitude":47.608013,"longitude":-122.33517,"reserved":0,"last_update":"0001-01-01T00:00:00Z","name_a2s":"Uncletopia | Seattle | 2 | All Maps","protocol":17,"map":"cp_sunshine","folder":"tf","game":"Team Fortress","app_id":440,"player_count":24,"max_players":24,"Bots":0,"server_type":"Dedicated","server_os":"Linux","password":true,"vac":true,"version":"7757534","steam_id":85568392924469998,"keywords":["cp","nocrits","nodmgspread","uncletopia"],"game_id":440,"stv_port":27026,"stv_name":"Uncletopia | Seattle | 2 | All Maps | STV","players":[{"user_id":193,"name":"2u1t3500_______","steam_id":76561198870649125,"connected_time":1431000000000,"state":"active","ping":70},{"user_id":115,"name":"Villchip","steam_id":76561198198599982,"connected_time":7391000000000,"state":"active","ping":46},{"user_id":201,"name":"Power-Fusion","steam_id":76561197981220590,"connected_time":113000000000,"state":"active","ping":62},{"user_id":203,"name":"Snale","steam_id":76561198039517965,"connected_time":81000000000,"state":"active","ping":61},{"user_id":162,"name":"Crake","steam_id":76561198001959071,"connected_time":3741000000000,"state":"active","ping":55},{"user_id":180,"name":"yeemsta supreme","steam_id":76561199141828157,"connected_time":2948000000000,"state":"active","ping":54},{"user_id":166,"name":"The dreaded jar","steam_id":76561199087010656,"connected_time":3581000000000,"state":"active","ping":56},{"user_id":142,"name":"sara","steam_id":76561198283462369,"connected_time":5595000000000,"state":"active","ping":77},{"user_id":165,"name":"FANG","steam_id":76561199094739690,"connected_time":3596000000000,"state":"active","ping":90},{"user_id":197,"name":"raku","steam_id":76561198124069038,"connected_time":626000000000,"state":"active","ping":62},{"user_id":204,"name":"bruh","steam_id":76561199095370765,"connected_time":76000000000,"state":"active","ping":64},{"user_id":177,"name":"Let's slop 'em up!","steam_id":76561198108791583,"connected_time":3032000000000,"state":"active","ping":48},{"user_id":189,"name":"your mom","steam_id":76561198044400135,"connected_time":2236000000000,"state":"active","ping":91},{"user_id":205,"name":"if watermelons were human","steam_id":76561199044624946,"connected_time":68000000000,"state":"active","ping":130},{"user_id":206,"name":"ba_jailfort_b1","steam_id":76561198283687382,"connected_time":40000000000,"state":"active","ping":95},{"user_id":127,"name":"some nerd","steam_id":76561198297272878,"connected_time":6517000000000,"state":"active","ping":69},{"user_id":192,"name":"Ben Shapiro","steam_id":76561198861436861,"connected_time":2052000000000,"state":"active","ping":67},{"user_id":185,"name":"Optimore","steam_id":76561198047662990,"connected_time":2744000000000,"state":"active","ping":77},{"user_id":124,"name":"machine embodiment","steam_id":76561199081837220,"connected_time":6662000000000,"state":"active","ping":118},{"user_id":207,"name":"ZeiKii","steam_id":76561198353492370,"connected_time":27000000000,"state":"active","ping":111},{"user_id":182,"name":"Snoopy","steam_id":76561198273735974,"connected_time":2866000000000,"state":"active","ping":119},{"user_id":157,"name":"Julien","steam_id":76561199389584938,"connected_time":4398000000000,"state":"active","ping":45},{"user_id":208,"name":"All Tomorrow's Parties","steam_id":76561197995936212,"connected_time":26000000000,"state":"active","ping":77},{"user_id":200,"name":"The Population of Sweden","steam_id":76561198202201644,"connected_time":231000000000,"state":"active","ping":41}]},{"server_id":406,"name":"Uncletopia | Seattle | 3 | Stopwatch Beta","name_short":"sea-3","host":"sea-1.us.uncletopia.com","port":27035,"enabled":true,"region":"us-west","cc":"us","latitude":47.608013,"longitude":-122.33517,"reserved":0,"last_update":"0001-01-01T00:00:00Z","name_a2s":"Uncletopia | Seattle | 3 | Stopwatch Beta","protocol":17,"map":"workshop/pl_barnblitz_pro7.ugc582280235","folder":"tf","game":"Team Fortress","app_id":440,"player_count":0,"max_players":24,"Bots":0,"server_type":"Dedicated","server_os":"Linux","password":true,"vac":true,"version":"7757534","steam_id":85568392924515217,"keywords":["nocrits","nodmgspread","payload","uncletopia"],"game_id":440,"stv_port":27036,"stv_name":"Uncletopia | Seattle | 3 | Stopwatch Beta | STV","players":null},{"server_id":17,"name":"Uncletopia | San Francisco | 1 | All Maps","name_short":"sfo-1","host":"sfo-1.us.uncletopia.com","port":27015,"enabled":true,"region":"us-west","cc":"us","latitude":37.77397,"longitude":-122.4313,"reserved":0,"last_update":"0001-01-01T00:00:00Z","name_a2s":"Uncletopia | San Francisco | 1 | All Maps","protocol":17,"map":"cp_steel","folder":"tf","game":"Team Fortress","app_id":440,"player_count":24,"max_players":24,"Bots":0,"server_type":"Dedicated","server_os":"Linux","password":true,"vac":true,"version":"7757534","steam_id":85568392924469999,"keywords":["cp","nocrits","nodmgspread","uncletopia"],"game_id":440,"stv_port":27016,"stv_name":"Uncletopia | San Francisco | 1 | All Maps | STV","players":[{"user_id":496,"name":"Espresso and scream","steam_id":76561199375501871,"connected_time":459000000000,"state":"active","ping":69},{"user_id":503,"name":"mechanicvirus","steam_id":76561198038161480,"connected_time":211000000000,"state":"active","ping":68},{"user_id":497,"name":"corbenis","steam_id":76561199012442511,"connected_time":445000000000,"state":"active","ping":70},{"user_id":435,"name":"Sammy!","steam_id":76561198184171743,"connected_time":3737000000000,"state":"active","ping":60},{"user_id":500,"name":"Cam(era)","steam_id":76561198285054047,"connected_time":399000000000,"state":"active","ping":67},{"user_id":467,"name":"Starfruit66 LFT Engie","steam_id":76561198069917277,"connected_time":1854000000000,"state":"active","ping":62},{"user_id":436,"name":"JesusLovesYouYAY","steam_id":76561199146362676,"connected_time":3513000000000,"state":"active","ping":64},{"user_id":493,"name":"Alex","steam_id":76561198098800540,"connected_time":501000000000,"state":"active","ping":89},{"user_id":499,"name":"Bloop","steam_id":76561198965341064,"connected_time":431000000000,"state":"active","ping":159},{"user_id":502,"name":"goofy goober","steam_id":76561198870747314,"connected_time":345000000000,"state":"active","ping":79},{"user_id":453,"name":"KingToaster","steam_id":76561198007903802,"connected_time":2531000000000,"state":"active","ping":51},{"user_id":494,"name":"theneedforfeet","steam_id":76561198861637608,"connected_time":478000000000,"state":"active","ping":56},{"user_id":478,"name":"Thicc Boi","steam_id":76561199163799116,"connected_time":1447000000000,"state":"active","ping":71},{"user_id":471,"name":"Biznickel","steam_id":76561199422511230,"connected_time":1799000000000,"state":"active","ping":71},{"user_id":483,"name":"ForAPessimistImPrettyOptimistic","steam_id":76561198170128009,"connected_time":961000000000,"state":"active","ping":57},{"user_id":444,"name":"Oomitch","steam_id":76561198071702759,"connected_time":3173000000000,"state":"active","ping":70},{"user_id":495,"name":"pingus","steam_id":76561198268995867,"connected_time":475000000000,"state":"active","ping":51},{"user_id":506,"name":"Grim","steam_id":76561198016978310,"connected_time":163000000000,"state":"active","ping":58},{"user_id":501,"name":"Nexus","steam_id":76561198187929865,"connected_time":396000000000,"state":"active","ping":100},{"user_id":489,"name":"xerro","steam_id":76561198323340524,"connected_time":524000000000,"state":"active","ping":102},{"user_id":504,"name":"r u guys going trick or treatin","steam_id":76561199074585110,"connected_time":209000000000,"state":"active","ping":55},{"user_id":485,"name":"Gray","steam_id":76561197997214168,"connected_time":637000000000,"state":"active","ping":59},{"user_id":486,"name":"Void","steam_id":76561198308290211,"connected_time":565000000000,"state":"active","ping":71},{"user_id":490,"name":"beheeyem","steam_id":76561198042867745,"connected_time":522000000000,"state":"active","ping":62}]},{"server_id":18,"name":"Uncletopia | San Francisco | 2 | All Maps","name_short":"sfo-2","host":"sfo-1.us.uncletopia.com","port":27025,"enabled":true,"region":"us-west","cc":"us","latitude":37.77397,"longitude":-122.4313,"reserved":0,"last_update":"0001-01-01T00:00:00Z","name_a2s":"Uncletopia | San Francisco | 2 | All Maps","protocol":17,"map":"koth_cascade","folder":"tf","game":"Team Fortress","app_id":440,"player_count":0,"max_players":24,"Bots":0,"server_type":"Dedicated","server_os":"Linux","password":true,"vac":true,"version":"7757534","steam_id":85568392924470000,"keywords":["cp","nocrits","nodmgspread","uncletopia"],"game_id":440,"stv_port":27026,"stv_name":"Uncletopia | San Francisco | 2 | All Maps | STV","players":null},{"server_id":19,"name":"Uncletopia | San Francisco | 3 | Stopwatch Beta","name_short":"sfo-3","host":"sfo-1.us.uncletopia.com","port":27035,"enabled":true,"region":"us-west","cc":"us","latitude":37.77397,"longitude":-122.4313,"reserved":0,"last_update":"0001-01-01T00:00:00Z","name_a2s":"Uncletopia | San Francisco | 3 | Stopwatch Beta","protocol":17,"map":"koth_viaduct","folder":"tf","game":"Team Fortress","app_id":440,"player_count":0,"max_players":24,"Bots":0,"server_type":"Dedicated","server_os":"Linux","password":true,"vac":true,"version":"7757534","steam_id":85568392924742824,"keywords":["cp","nocrits","nodmgspread","uncletopia"],"game_id":440,"stv_port":27036,"stv_name":"Uncletopia | San Francisco | 3 | Stopwatch Beta | STV","players":null},{"server_id":20,"name":"Uncletopia | San Francisco | 4 | Community","name_short":"sfo-4","host":"sfo-1.us.uncletopia.com","port":27045,"enabled":true,"region":"us-west","cc":"us","latitude":37.77397,"longitude":-122.4313,"reserved":0,"last_update":"0001-01-01T00:00:00Z","name_a2s":"Uncletopia | San Francisco | 4 | Community","protocol":17,"map":"workshop/pl_cactuscanyon_redux_rc4b.ugc2579644293","folder":"tf","game":"Team Fortress","app_id":440,"player_count":21,"max_players":24,"Bots":0,"server_type":"Dedicated","server_os":"Linux","password":true,"vac":true,"version":"7757534","steam_id":85568392924742826,"keywords":["nocrits","nodmgspread","payload","uncletopia"],"game_id":440,"stv_port":27046,"stv_name":"Uncletopia | San Francisco | 4 | Community | STV","players":[{"user_id":271,"name":"Flux-Blastoise","steam_id":76561198209106115,"connected_time":179000000000,"state":"active","ping":94},{"user_id":259,"name":"asm_ghost","steam_id":76561199205363547,"connected_time":1207000000000,"state":"active","ping":71},{"user_id":260,"name":"The Gremlin","steam_id":76561198419066993,"connected_time":1188000000000,"state":"active","ping":78},{"user_id":272,"name":"can we get much higher","steam_id":76561198127567508,"connected_time":177000000000,"state":"active","ping":104},{"user_id":273,"name":"Moth","steam_id":76561198170253694,"connected_time":164000000000,"state":"active","ping":86},{"user_id":270,"name":"name","steam_id":76561198173293207,"connected_time":189000000000,"state":"active","ping":185},{"user_id":261,"name":"Big Tony","steam_id":76561198086790000,"connected_time":523000000000,"state":"active","ping":105},{"user_id":257,"name":"bobtheninjaman","steam_id":76561198066424544,"connected_time":1720000000000,"state":"active","ping":64},{"user_id":262,"name":"macky","steam_id":76561198187945523,"connected_time":446000000000,"state":"active","ping":70},{"user_id":275,"name":"Fish_Pancake38","steam_id":76561199381355715,"connected_time":124000000000,"state":"active","ping":114},{"user_id":264,"name":"PonYOOOOOOO","steam_id":76561199067424111,"connected_time":321000000000,"state":"active","ping":61},{"user_id":274,"name":"MarshallMellows","steam_id":76561198231561020,"connected_time":162000000000,"state":"active","ping":61},{"user_id":268,"name":"Reacher","steam_id":76561198010917844,"connected_time":214000000000,"state":"active","ping":54},{"user_id":266,"name":"A Pair of Candy Canes","steam_id":76561198052239472,"connected_time":243000000000,"state":"active","ping":62},{"user_id":267,"name":"Feral","steam_id":76561198440443924,"connected_time":232000000000,"state":"active","ping":80},{"user_id":276,"name":"Games Dean","steam_id":76561198799010228,"connected_time":122000000000,"state":"active","ping":62},{"user_id":277,"name":"A Aron","steam_id":76561198044701629,"connected_time":118000000000,"state":"active","ping":79},{"user_id":278,"name":"Medic GF","steam_id":76561198400531556,"connected_time":118000000000,"state":"active","ping":97},{"user_id":279,"name":"RowdyCJ11","steam_id":76561198088929792,"connected_time":98000000000,"state":"active","ping":89},{"user_id":280,"name":"Mythos #SaveTF2","steam_id":76561198050243068,"connected_time":50000000000,"state":"spawning","ping":233},{"user_id":281,"name":"DommyMommy","steam_id":76561199389627453,"connected_time":7000000000,"state":"spawning","ping":110}]},{"server_id":141,"name":"Uncletopia | Sydney | 1 | All Maps","name_short":"syd-1","host":"syd-1.au.uncletopia.com","port":27015,"enabled":true,"region":"au","cc":"au","latitude":-33.865143,"longitude":151.2099,"reserved":0,"last_update":"0001-01-01T00:00:00Z","name_a2s":"Uncletopia | Sydney | 1 | All Maps","protocol":17,"map":"koth_lakeside_final","folder":"tf","game":"Team Fortress","app_id":440,"player_count":0,"max_players":24,"Bots":0,"server_type":"Dedicated","server_os":"Linux","password":true,"vac":true,"version":"7757534","steam_id":85568392924470001,"keywords":["cp","nocrits","nodmgspread","uncletopia"],"game_id":440,"stv_port":27016,"stv_name":"Uncletopia | Sydney | 1 | All Maps | STV","players":null},{"server_id":123,"name":"Uncletopia | Sydney | 2 | All Maps","name_short":"syd-2","host":"syd-1.au.uncletopia.com","port":27025,"enabled":true,"region":"au","cc":"au","latitude":-33.865143,"longitude":151.2099,"reserved":0,"last_update":"0001-01-01T00:00:00Z","name_a2s":"Uncletopia | Sydney | 2 | All Maps","protocol":17,"map":"koth_viaduct","folder":"tf","game":"Team Fortress","app_id":440,"player_count":0,"max_players":24,"Bots":0,"server_type":"Dedicated","server_os":"Linux","password":true,"vac":true,"version":"7757534","steam_id":85568392924470002,"keywords":["cp","nocrits","nodmgspread","uncletopia"],"game_id":440,"stv_port":27026,"stv_name":"Uncletopia | Sydney | 2 | All Maps | STV","players":null},{"server_id":395,"name":"Uncletopia | Sydney | 3 | All Maps","name_short":"syd-3","host":"syd-1.au.uncletopia.com","port":27035,"enabled":true,"region":"au","cc":"au","latitude":-33.865143,"longitude":151.2099,"reserved":0,"last_update":"0001-01-01T00:00:00Z","name_a2s":"Uncletopia | Sydney | 3 | All Maps","protocol":17,"map":"koth_viaduct","folder":"tf","game":"Team Fortress","app_id":440,"player_count":0,"max_players":24,"Bots":0,"server_type":"Dedicated","server_os":"Linux","password":true,"vac":true,"version":"7757534","steam_id":85568392925194467,"keywords":["cp","nocrits","nodmgspread","uncletopia"],"game_id":440,"stv_port":27036,"stv_name":"Uncletopia | Sydney | 3 | All Maps | STV","players":null},{"server_id":396,"name":"Uncletopia | Sydney | 4 | All Maps","name_short":"syd-4","host":"syd-1.au.uncletopia.com","port":27045,"enabled":true,"region":"au","cc":"au","latitude":-33.865143,"longitude":151.2099,"reserved":0,"last_update":"0001-01-01T00:00:00Z","name_a2s":"Uncletopia | Sydney | 4 | All Maps","protocol":17,"map":"cp_snakewater_final1","folder":"tf","game":"Team Fortress","app_id":440,"player_count":0,"max_players":24,"Bots":0,"server_type":"Dedicated","server_os":"Linux","password":true,"vac":true,"version":"7757534","steam_id":85568392925397958,"keywords":["cp","nocrits","nodmgspread","uncletopia"],"game_id":440,"stv_port":27046,"stv_name":"Uncletopia | Sydney | 4 | All Maps | STV","players":null},{"server_id":58,"name":"Uncletopia | Sydney | 5 | Stopwatch Beta","name_short":"syd-5","host":"syd-1.au.uncletopia.com","port":27055,"enabled":true,"region":"au","cc":"au","latitude":-33.865143,"longitude":151.2099,"reserved":0,"last_update":"0001-01-01T00:00:00Z","name_a2s":"Uncletopia | Sydney | 5 | Stopwatch Beta","protocol":17,"map":"pl_barnblitz","folder":"tf","game":"Team Fortress","app_id":440,"player_count":0,"max_players":24,"Bots":0,"server_type":"Dedicated","server_os":"Linux","password":true,"vac":true,"version":"7757534","steam_id":85568392925397959,"keywords":["nocrits","nodmgspread","payload","uncletopia"],"game_id":440,"stv_port":27056,"stv_name":"Uncletopia | Sydney | 5 | Stopwatch Beta | STV","players":null},{"server_id":59,"name":"Uncletopia | Sydney | 6 | Community","name_short":"syd-6","host":"syd-1.au.uncletopia.com","port":27065,"enabled":true,"region":"au","cc":"au","latitude":-33.865143,"longitude":151.2099,"reserved":0,"last_update":"0001-01-01T00:00:00Z","name_a2s":"Uncletopia | Sydney | 6 | Community","protocol":17,"map":"workshop/koth_ramjam_rc1.ugc459778887","folder":"tf","game":"Team Fortress","app_id":440,"player_count":0,"max_players":24,"Bots":0,"server_type":"Dedicated","server_os":"Linux","password":true,"vac":true,"version":"7757534","steam_id":85568392925397960,"keywords":["cp","nocrits","nodmgspread","uncletopia"],"game_id":440,"stv_port":27066,"stv_name":"Uncletopia | Sydney | 6 | Community | STV","players":null},{"server_id":49,"name":"Uncletopia | Warsaw | 1 | All Maps","name_short":"waw-1","host":"waw-1.pl.uncletopia.com","port":27015,"enabled":true,"region":"eu","cc":"pl","latitude":52.2297,"longitude":21.017532,"reserved":0,"last_update":"0001-01-01T00:00:00Z","name_a2s":"","protocol":0,"map":"","folder":"","game":"","app_id":0,"player_count":0,"max_players":0,"Bots":0,"server_type":"","server_os":"","password":false,"vac":false,"version":"","steam_id":0,"keywords":null,"game_id":0,"stv_port":0,"stv_name":"","players":null},{"server_id":50,"name":"Uncletopia | Warsaw | 2 | All Maps","name_short":"waw-2","host":"waw-1.pl.uncletopia.com","port":27025,"enabled":true,"region":"eu","cc":"pl","latitude":52.2297,"longitude":21.017532,"reserved":0,"last_update":"0001-01-01T00:00:00Z","name_a2s":"Uncletopia | Warsaw | 2 | All Maps","protocol":17,"map":"cp_dustbowl","folder":"tf","game":"Team Fortress","app_id":440,"player_count":0,"max_players":24,"Bots":0,"server_type":"Dedicated","server_os":"Linux","password":true,"vac":true,"version":"7757534","steam_id":85568392925397851,"keywords":["cp","nocrits","nodmgspread","uncletopia"],"game_id":440,"stv_port":27026,"stv_name":"Uncletopia | Warsaw | 2 | All Maps | STV","players":null},{"server_id":51,"name":"Uncletopia | Warsaw | 3 | All Maps","name_short":"waw-3","host":"waw-1.pl.uncletopia.com","port":27035,"enabled":true,"region":"eu","cc":"pl","latitude":52.2297,"longitude":21.017532,"reserved":0,"last_update":"0001-01-01T00:00:00Z","name_a2s":"Uncletopia | Warsaw | 3 | All Maps","protocol":17,"map":"cp_dustbowl","folder":"tf","game":"Team Fortress","app_id":440,"player_count":0,"max_players":24,"Bots":0,"server_type":"Dedicated","server_os":"Linux","password":true,"vac":true,"version":"7757534","steam_id":85568392925397852,"keywords":["cp","nocrits","nodmgspread","uncletopia"],"game_id":440,"stv_port":27036,"stv_name":"Uncletopia | Warsaw | 3 | All Maps | STV","players":null},{"server_id":52,"name":"Uncletopia | Warsaw | 4 | All Maps","name_short":"waw-4","host":"waw-1.pl.uncletopia.com","port":27045,"enabled":true,"region":"eu","cc":"pl","latitude":52.2297,"longitude":21.017532,"reserved":0,"last_update":"0001-01-01T00:00:00Z","name_a2s":"Uncletopia | Warsaw | 4 | All Maps","protocol":17,"map":"koth_highpass","folder":"tf","game":"Team Fortress","app_id":440,"player_count":0,"max_players":24,"Bots":0,"server_type":"Dedicated","server_os":"Linux","password":true,"vac":true,"version":"7757534","steam_id":85568392925397853,"keywords":["cp","nocrits","nodmgspread","uncletopia"],"game_id":440,"stv_port":27046,"stv_name":"Uncletopia | Warsaw | 4 | All Maps | STV","players":null},{"server_id":53,"name":"Uncletopia | Warsaw | 5 | Stopwatch Beta","name_short":"waw-5","host":"waw-1.pl.uncletopia.com","port":27055,"enabled":true,"region":"eu","cc":"pl","latitude":52.2297,"longitude":21.017532,"reserved":0,"last_update":"0001-01-01T00:00:00Z","name_a2s":"Uncletopia | Warsaw | 5 | Stopwatch Beta","protocol":17,"map":"pl_borneo","folder":"tf","game":"Team Fortress","app_id":440,"player_count":0,"max_players":24,"Bots":0,"server_type":"Dedicated","server_os":"Linux","password":true,"vac":true,"version":"7757534","steam_id":85568392925397854,"keywords":["nocrits","nodmgspread","payload","uncletopia"],"game_id":440,"stv_port":27056,"stv_name":"Uncletopia | Warsaw | 5 | Stopwatch Beta | STV","players":null},{"server_id":54,"name":"Uncletopia | Warsaw | 6 | Community","name_short":"waw-6","host":"waw-1.pl.uncletopia.com","port":27065,"enabled":true,"region":"eu","cc":"pl","latitude":52.2297,"longitude":21.017532,"reserved":0,"last_update":"0001-01-01T00:00:00Z","name_a2s":"Uncletopia | Warsaw | 6 | Community","protocol":17,"map":"workshop/rd_asteroid_redux_b1.ugc2154902912","folder":"tf","game":"Team Fortress","app_id":440,"player_count":0,"max_players":24,"Bots":0,"server_type":"Dedicated","server_os":"Linux","password":true,"vac":true,"version":"7757534","steam_id":85568392925397856,"keywords":["beta","nocrits","nodmgspread","rd","uncletopia"],"game_id":440,"stv_port":27066,"stv_name":"Uncletopia | Warsaw | 6 | Community | STV","players":null}]}