{"status":true,"message":"","result":[{"server_id":9,"name":"Uncletopia | Atlanta | 1 | All Maps","name_short":"atl-1","host":"atl-1.us.uncletopia.com","port":27015,"enabled":true,"region":"us-east","cc":"us","latitude":33.753746,"longitude":-84.38633,"reserved":0,"last_update":"0001-01-01T00:00:00Z","name_a2s":"Uncletopia | Atlanta | 1 | All Maps","protocol":17,"map":"pl_pier","folder":"tf","game":"Team Fortress","app_id":440,"player_count":24,"max_players":24,"Bots":0,"server_type":"Dedicated","server_os":"Linux","password":true,"vac":true,"version":"7708610","steam_id":85568392924469982,"keywords":["nocrits","nodmgspread","payload","uncletopia"],"game_id":440,"stv_port":27016,"stv_name":"Uncletopia | Atlanta | 1 | All Maps | STV","players":[{"user_id":699,"name":"Urbanzpinapple","steam_id":76561198115426938,"connected_time":2762000000000,"state":"active","ping":384},{"user_id":703,"name":"QuiteGG","steam_id":76561197998157642,"connected_time":1859000000000,"state":"active","ping":167},{"user_id":733,"name":"mommy claus","steam_id":76561199230929836,"connected_time":263000000000,"state":"active","ping":89},{"user_id":704,"name":"Fred","steam_id":76561197983870604,"connected_time":1850000000000,"state":"active","ping":105},{"user_id":695,"name":"Greg","steam_id":76561198880573799,"connected_time":3079000000000,"state":"active","ping":98},{"user_id":734,"name":"poobis","steam_id":76561198094801861,"connected_time":238000000000,"state":"active","ping":75},{"user_id":718,"name":"ai generated rat","steam_id":76561198856101774,"connected_time":1224000000000,"state":"active","ping":64},{"user_id":659,"name":"ItsThatBear","steam_id":76561198169617659,"connected_time":5226000000000,"state":"active","ping":61},{"user_id":735,"name":"Blusa 23","steam_id":76561199210543494,"connected_time":230000000000,"state":"active","ping":106},{"user_id":723,"name":"Save your wifi","steam_id":76561198286147372,"connected_time":917000000000,"state":"active","ping":47},{"user_id":711,"name":"BIG HOG","steam_id":76561198079923652,"connected_time":1616000000000,"state":"active","ping":67},{"user_id":686,"name":"cola","steam_id":76561198374390458,"connected_time":3442000000000,"state":"active","ping":60},{"user_id":722,"name":"hotcheeto2006 (give me commends","steam_id":76561199069325366,"connected_time":974000000000,"state":"active","ping":85},{"user_id":731,"name":"Thotimus Begonimus","steam_id":76561197970275938,"connected_time":696000000000,"state":"active","ping":45},{"user_id":739,"name":"Boop","steam_id":76561198376703875,"connected_time":98000000000,"state":"active","ping":72},{"user_id":724,"name":"Level 99 Range","steam_id":76561198010170901,"connected_time":892000000000,"state":"active","ping":75},{"user_id":664,"name":"Expert Scrunger","steam_id":76561198799293845,"connected_time":4270000000000,"state":"active","ping":98},{"user_id":712,"name":"Rock Kickass","steam_id":76561198450510841,"connected_time":1588000000000,"state":"active","ping":112},{"user_id":725,"name":"bingchiling_gaming","steam_id":76561199389974145,"connected_time":888000000000,"state":"active","ping":107},{"user_id":737,"name":"Lesbillionaire","steam_id":76561198060118132,"connected_time":186000000000,"state":"active","ping":66},{"user_id":690,"name":"SirFlyingFox","steam_id":76561199116915705,"connected_time":3195000000000,"state":"active","ping":51},{"user_id":738,"name":"CheeseCake488","steam_id":76561199407617942,"connected_time":171000000000,"state":"active","ping":132},{"user_id":666,"name":"floofy","steam_id":76561198389769098,"connected_time":4267000000000,"state":"active","ping":88},{"user_id":730,"name":"JustAWisp","steam_id":76561198311924005,"connected_time":802000000000,"state":"active","ping":94}]},{"server_id":400,"name":"Uncletopia | Atlanta | 3 | All Maps","name_short":"atl-3","host":"atl-1.us.uncletopia.com","port":27035,"enabled":true,"region":"us-east","cc":"us","latitude":33.753746,"longitude":-84.38633,"reserved":0,"last_update":"0001-01-01T00:00:00Z","name_a2s":"Uncletopia | Atlanta | 3 | All Maps","protocol":17,"map":"cp_process_final","folder":"tf","game":"Team Fortress","app_id":440,"player_count":24,"max_players":24,"Bots":0,"server_type":"Dedicated","server_os":"Linux","password":true,"vac":true,"version":"7708610","steam_id":85568392924515187,"keywords":["cp","nocrits","nodmgspread","uncletopia"],"game_id":440,"stv_port":27036,"stv_name":"Uncletopia | Atlanta | 3 | All Maps | STV","players":[{"user_id":601,"name":"Bajooder","steam_id":76561199041110693,"connected_time":376000000000,"state":"active","ping":84},{"user_id":584,"name":"♦♣Quadric♥♠","steam_id":76561198061003853,"connected_time":1965000000000,"state":"active","ping":68},{"user_id":593,"name":"Smuggs","steam_id":76561197999456003,"connected_time":1214000000000,"state":"active","ping":129},{"user_id":549,"name":"Woody","steam_id":76561197960283760,"connected_time":5045000000000,"state":"active","ping":76},{"user_id":571,"name":"♥Noble♥","steam_id":76561198427370124,"connected_time":3417000000000,"state":"active","ping":72},{"user_id":598,"name":"Bob the Builder","steam_id":76561199069029812,"connected_time":460000000000,"state":"active","ping":117},{"user_id":558,"name":"Spoonastic","steam_id":76561198343838009,"connected_time":4428000000000,"state":"active","ping":115},{"user_id":603,"name":"totally not a pile of beans","steam_id":76561198119851931,"connected_time":160000000000,"state":"active","ping":73},{"user_id":594,"name":"Snazzi","steam_id":76561198085208276,"connected_time":911000000000,"state":"active","ping":74},{"user_id":589,"name":"LightBulbGlue #SaveTF2","steam_id":76561198329573529,"connected_time":1446000000000,"state":"active","ping":81},{"user_id":559,"name":"comet sooicidy","steam_id":76561198025173479,"connected_time":4427000000000,"state":"active","ping":76},{"user_id":597,"name":"ED","steam_id":76561198441715445,"connected_time":828000000000,"state":"active","ping":74},{"user_id":575,"name":"Drygongames","steam_id":76561198250418424,"connected_time":2756000000000,"state":"active","ping":50},{"user_id":590,"name":"Jonhy","steam_id":76561198826092573,"connected_time":1407000000000,"state":"active","ping":96},{"user_id":592,"name":"happy man!!! :D!!!!","steam_id":76561198128468316,"connected_time":1390000000000,"state":"active","ping":76},{"user_id":583,"name":"Bruce Leeroy","steam_id":76561198010708247,"connected_time":2114000000000,"state":"active","ping":78},{"user_id":579,"name":"Gabagool","steam_id":76561198365935179,"connected_time":2589000000000,"state":"active","ping":82},{"user_id":586,"name":"FULCRUM faded than a ho","steam_id":76561198274959371,"connected_time":1642000000000,"state":"active","ping":73},{"user_id":595,"name":"DuckMann","steam_id":76561198197058638,"connected_time":874000000000,"state":"active","ping":64},{"user_id":562,"name":"footoftheday","steam_id":76561198052712449,"connected_time":4398000000000,"state":"active","ping":73},{"user_id":491,"name":"A Puppy","steam_id":76561198828184456,"connected_time":9882000000000,"state":"active","ping":57},{"user_id":542,"name":"CAN'T AIM, MUST SCREAM","steam_id":76561198083276946,"connected_time":5993000000000,"state":"active","ping":70},{"user_id":508,"name":"Grimaud","steam_id":76561197975272734,"connected_time":8468000000000,"state":"active","ping":91},{"user_id":599,"name":"Zeetch","steam_id":76561198110579765,"connected_time":458000000000,"state":"active","ping":71}]},{"server_id":401,"name":"Uncletopia | Atlanta | 4 | No Payload","name_short":"atl-4","host":"atl-1.us.uncletopia.com","port":27045,"enabled":true,"region":"us-east","cc":"us","latitude":33.753746,"longitude":-84.38633,"reserved":0,"last_update":"0001-01-01T00:00:00Z","name_a2s":"Uncletopia | Atlanta | 4 | No Payload","protocol":17,"map":"cp_freight_final1","folder":"tf","game":"Team Fortress","app_id":440,"player_count":0,"max_players":24,"Bots":0,"server_type":"Dedicated","server_os":"Linux","password":true,"vac":true,"version":"7708610","steam_id":85568392924515188,"keywords":["cp","nocrits","nodmgspread","uncletopia"],"game_id":440,"stv_port":27046,"stv_name":"Uncletopia | Atlanta | 4 | No Payload | STV","players":null},{"server_id":2,"name":"Uncletopia | Chicago | 1 | All Maps","name_short":"chi-1","host":"chi-1.us.uncletopia.com","port":27015,"enabled":true,"region":"us-central","cc":"us","latitude":41.881832,"longitude":-87.62318,"reserved":0,"last_update":"0001-01-01T00:00:00Z","name_a2s":"Uncletopia | Chicago | 1 | All Maps","protocol":17,"map":"pl_snowycoast","folder":"tf","game":"Team Fortress","app_id":440,"player_count":24,"max_players":24,"Bots":0,"server_type":"Dedicated","server_os":"Linux","password":true,"vac":true,"version":"7708610","steam_id":85568392924469984,"keywords":["nocrits","nodmgspread","payload","uncletopia"],"game_id":440,"stv_port":27016,"stv_name":"Uncletopia | Chicago | 1 | All Maps | STV","players":[{"user_id":651,"name":"qory","steam_id":76561198152064890,"connected_time":548000000000,"state":"active","ping":47},{"user_id":635,"name":"Cleric","steam_id":76561198045887994,"connected_time":1859000000000,"state":"active","ping":45},{"user_id":539,"name":"garf","steam_id":76561198088228311,"connected_time":7045000000000,"state":"active","ping":62},{"user_id":657,"name":"DrD","steam_id":76561198067266383,"connected_time":7000000000,"state":"active","ping":152},{"user_id":649,"name":"Masotan","steam_id":76561199047187302,"connected_time":958000000000,"state":"active","ping":47},{"user_id":650,"name":"idiot","steam_id":76561198270926835,"connected_time":952000000000,"state":"active","ping":97},{"user_id":637,"name":"supa hot fire","steam_id":76561198263271697,"connected_time":1838000000000,"state":"active","ping":38},{"user_id":644,"name":"albert_gamer","steam_id":76561198980666751,"connected_time":1446000000000,"state":"active","ping":72},{"user_id":598,"name":"DuckKey","steam_id":76561198904477889,"connected_time":4296000000000,"state":"active","ping":54},{"user_id":640,"name":"boo_thefeared","steam_id":76561198127967685,"connected_time":1825000000000,"state":"active","ping":133},{"user_id":652,"name":"SsaucySam","steam_id":76561198362539268,"connected_time":533000000000,"state":"active","ping":79},{"user_id":641,"name":"hoodie (illteriate)","steam_id":76561198354284591,"connected_time":1798000000000,"state":"active","ping":47},{"user_id":601,"name":"FUSION","steam_id":76561197972659738,"connected_time":4174000000000,"state":"active","ping":50},{"user_id":606,"name":"diarrhea swirly","steam_id":76561197997194325,"connected_time":3983000000000,"state":"active","ping":76},{"user_id":614,"name":"king shit of fuck mountain","steam_id":76561198044127000,"connected_time":3127000000000,"state":"active","ping":64},{"user_id":604,"name":"urine trouble","steam_id":76561199013266640,"connected_time":4133000000000,"state":"active","ping":85},{"user_id":582,"name":"silly","steam_id":76561199009200975,"connected_time":5842000000000,"state":"active","ping":134},{"user_id":653,"name":"Mister Frank","steam_id":76561198161473385,"connected_time":527000000000,"state":"active","ping":59},{"user_id":629,"name":"David De Bergerac","steam_id":76561198010306294,"connected_time":2446000000000,"state":"active","ping":81},{"user_id":642,"name":"TaiDni","steam_id":76561198087750392,"connected_time":1792000000000,"state":"active","ping":133},{"user_id":654,"name":"Walking Eye!","steam_id":76561198059501252,"connected_time":525000000000,"state":"active","ping":60},{"user_id":647,"name":"[slug]","steam_id":76561197989592178,"connected_time":1271000000000,"state":"active","ping":61},{"user_id":632,"name":"Snom","steam_id":76561198333827920,"connected_time":2191000000000,"state":"active","ping":118},{"user_id":655,"name":"Lia_Reindeer","steam_id":76561198151569597,"connected_time":164000000000,"state":"active","ping":138}]},{"server_id":106,"name":"Uncletopia | Chicago | 2 | All Maps","name_short":"chi-2","host":"chi-1.us.uncletopia.com","port":27025,"enabled":true,"region":"us-central","cc":"us","latitude":41.881832,"longitude":-87.62318,"reserved":0,"last_update":"0001-01-01T00:00:00Z","name_a2s":"Uncletopia | Chicago | 2 | All Maps","protocol":17,"map":"cp_steel","folder":"tf","game":"Team Fortress","app_id":440,"player_count":24,"max_players":24,"Bots":0,"server_type":"Dedicated","server_os":"Linux","password":true,"vac":true,"version":"7708610","steam_id":85568392924469985,"keywords":["cp","nocrits","nodmgspread","uncletopia"],"game_id":440,"stv_port":27026,"stv_name":"Uncletopia | Chicago | 2 | All Maps | STV","players":[{"user_id":522,"name":"Ellis from L4D2, real","steam_id":76561198171466414,"connected_time":370000000000,"state":"active","ping":66},{"user_id":521,"name":"Reindeer Poacher","steam_id":76561198867626964,"connected_time":376000000000,"state":"active","ping":102},{"user_id":496,"name":"sweaterfan","steam_id":76561199389567214,"connected_time":1869000000000,"state":"active","ping":66},{"user_id":491,"name":"Nexusuxen","steam_id":76561198117547131,"connected_time":2359000000000,"state":"active","ping":61},{"user_id":504,"name":"Gigabars","steam_id":76561198119267479,"connected_time":1225000000000,"state":"active","ping":60},{"user_id":500,"name":"extinct111","steam_id":76561199013696367,"connected_time":1255000000000,"state":"active","ping":65},{"user_id":512,"name":"Jelqing Table","steam_id":76561198051373750,"connected_time":1046000000000,"state":"active","ping":68},{"user_id":514,"name":"Adam (Cursed Confetti Creature)","steam_id":76561198317690197,"connected_time":944000000000,"state":"active","ping":46},{"user_id":503,"name":"Mr. J","steam_id":76561198101567155,"connected_time":1229000000000,"state":"active","ping":69},{"user_id":505,"name":"The Burglar","steam_id":76561198325685937,"connected_time":1222000000000,"state":"active","ping":58},{"user_id":482,"name":"DC19","steam_id":76561199161705225,"connected_time":3136000000000,"state":"active","ping":60},{"user_id":506,"name":"Brick4","steam_id":76561198122248795,"connected_time":1219000000000,"state":"active","ping":75},{"user_id":292,"name":"brappy","steam_id":76561198024958319,"connected_time":18161000000000,"state":"active","ping":57},{"user_id":472,"name":"DerpyTC","steam_id":76561198881239323,"connected_time":4962000000000,"state":"active","ping":54},{"user_id":443,"name":"45 Cent","steam_id":76561198048690188,"connected_time":6442000000000,"state":"active","ping":74},{"user_id":519,"name":"tatis","steam_id":76561198317697314,"connected_time":568000000000,"state":"active","ping":126},{"user_id":494,"name":"Jookson","steam_id":76561198413604994,"connected_time":2242000000000,"state":"active","ping":55},{"user_id":516,"name":"Architect","steam_id":76561198015242016,"connected_time":744000000000,"state":"active","ping":41},{"user_id":481,"name":"Tourmaline Lazuli","steam_id":76561198987049358,"connected_time":3648000000000,"state":"active","ping":50},{"user_id":448,"name":"Mengle","steam_id":76561198001953684,"connected_time":6371000000000,"state":"active","ping":62},{"user_id":495,"name":"Goose","steam_id":76561198112847046,"connected_time":2005000000000,"state":"active","ping":45},{"user_id":498,"name":"eats spicy goodness","steam_id":76561198079416036,"connected_time":1616000000000,"state":"active","ping":41},{"user_id":487,"name":"Hat Kid","steam_id":76561198218897383,"connected_time":3026000000000,"state":"active","ping":72},{"user_id":511,"name":"Smet19","steam_id":76561198118455606,"connected_time":1106000000000,"state":"active","ping":48}]},{"server_id":402,"name":"Uncletopia | Chicago | 3 | All Maps","name_short":"chi-3","host":"chi-1.us.uncletopia.com","port":27035,"enabled":true,"region":"us-central","cc":"us","latitude":41.881832,"longitude":-87.62318,"reserved":0,"last_update":"0001-01-01T00:00:00Z","name_a2s":"Uncletopia | Chicago | 3 | All Maps","protocol":17,"map":"cp_altitude","folder":"tf","game":"Team Fortress","app_id":440,"player_count":0,"max_players":24,"Bots":0,"server_type":"Dedicated","server_os":"Linux","password":true,"vac":true,"version":"7708610","steam_id":85568392924515191,"keywords":["cp","nocrits","nodmgspread","uncletopia"],"game_id":440,"stv_port":27036,"stv_name":"Uncletopia | Chicago | 3 | All Maps | STV","players":null},{"server_id":403,"name":"Uncletopia | Chicago | 4 | All Maps","name_short":"chi-4","host":"chi-1.us.uncletopia.com","port":27045,"enabled":true,"region":"us-central","cc":"us","latitude":41.881832,"longitude":-87.62318,"reserved":0,"last_update":"0001-01-01T00:00:00Z","name_a2s":"Uncletopia | Chicago | 4 | All Maps","protocol":17,"map":"koth_viaduct","folder":"tf","game":"Team Fortress","app_id":440,"player_count":24,"max_players":24,"Bots":0,"server_type":"Dedicated","server_os":"Linux","password":true,"vac":true,"version":"7708610","steam_id":85568392924515193,"keywords":["cp","nocrits","nodmgspread","uncletopia"],"game_id":440,"stv_port":27046,"stv_name":"Uncletopia | Chicago | 4 | All Maps | STV","players":[{"user_id":482,"name":"pupy dogy","steam_id":76561199158847498,"connected_time":457000000000,"state":"active","ping":96},{"user_id":345,"name":"Clean Lines","steam_id":76561197960691518,"connected_time":11526000000000,"state":"active","ping":51},{"user_id":390,"name":"Wally The Fukn Walrus","steam_id":76561198019034045,"connected_time":7992000000000,"state":"active","ping":48},{"user_id":418,"name":"sylerrr","steam_id":76561198191198866,"connected_time":4628000000000,"state":"active","ping":50},{"user_id":450,"name":"Festive Cheese","steam_id":76561199207081299,"connected_time":3459000000000,"state":"active","ping":110},{"user_id":471,"name":"Admiral Shackleford","steam_id":76561198051952755,"connected_time":2168000000000,"state":"active","ping":63},{"user_id":486,"name":"Esmo","steam_id":76561198014928825,"connected_time":22000000000,"state":"active","ping":92},{"user_id":397,"name":"thepokeyen","steam_id":76561198236847572,"connected_time":7366000000000,"state":"active","ping":79},{"user_id":434,"name":"tingle shitmouth","steam_id":76561198055109192,"connected_time":4259000000000,"state":"active","ping":72},{"user_id":469,"name":"jimmie","steam_id":76561198042583389,"connected_time":2278000000000,"state":"active","ping":71},{"user_id":480,"name":"☆Meta☆","steam_id":76561198091255996,"connected_time":706000000000,"state":"active","ping":69},{"user_id":455,"name":"BellePepper","steam_id":76561198057459977,"connected_time":3408000000000,"state":"active","ping":60},{"user_id":453,"name":"chiarraz","steam_id":76561198277439571,"connected_time":3433000000000,"state":"active","ping":74},{"user_id":456,"name":"noddlethenoodle","steam_id":76561198303850923,"connected_time":3384000000000,"state":"active","ping":59},{"user_id":484,"name":"Elizabeth truss","steam_id":76561198058250979,"connected_time":404000000000,"state":"active","ping":64},{"user_id":485,"name":"shonyred","steam_id":76561198056336908,"connected_time":61000000000,"state":"active","ping":75},{"user_id":479,"name":"TeaPirate [TTC]","steam_id":76561197993068398,"connected_time":916000000000,"state":"active","ping":64},{"user_id":461,"name":"Hibou!","steam_id":76561198080011858,"connected_time":3119000000000,"state":"active","ping":79},{"user_id":448,"name":"Donnie Blasto","steam_id":76561198043432005,"connected_time":3539000000000,"state":"active","ping":51},{"user_id":481,"name":"lets take benadryl together","steam_id":76561198123770728,"connected_time":471000000000,"state":"active","ping":73},{"user_id":474,"name":"Festive Mythril","steam_id":76561198028488773,"connected_time":2083000000000,"state":"active","ping":67},{"user_id":478,"name":"sasharudzik","steam_id":76561199126617781,"connected_time":1567000000000,"state":"active","ping":67},{"user_id":483,"name":"fantasy","steam_id":76561198879894591,"connected_time":445000000000,"state":"active","ping":81},{"user_id":393,"name":"vimdya gamign :)","steam_id":76561199175434022,"connected_time":7927000000000,"state":"active","ping":101}]},{"server_id":36,"name":"Uncletopia | Chicago | 5 | All Maps","name_short":"chi-5","host":"chi-2.us.uncletopia.com","port":27015,"enabled":true,"region":"us-central","cc":"us","latitude":41.881832,"longitude":-87.62318,"reserved":0,"last_update":"0001-01-01T00:00:00Z","name_a2s":"Uncletopia | Chicago | 5 | All Maps","protocol":17,"map":"cp_snakewater_final1","folder":"tf","game":"Team Fortress","app_id":440,"player_count":24,"max_players":24,"Bots":0,"server_type":"Dedicated","server_os":"Linux","password":true,"vac":true,"version":"7708610","steam_id":85568392924866362,"keywords":["cp","nocrits","nodmgspread","uncletopia"],"game_id":440,"stv_port":27016,"stv_name":"Uncletopia | Chicago | 5 | All Maps | STV","players":[{"user_id":255,"name":"corygaming","steam_id":76561198035669409,"connected_time":3138000000000,"state":"active","ping":131},{"user_id":256,"name":"Pi Guy","steam_id":76561199071784224,"connected_time":3131000000000,"state":"active","ping":63},{"user_id":281,"name":"chilis baby back ribs","steam_id":76561198813516435,"connected_time":1086000000000,"state":"active","ping":101},{"user_id":193,"name":"Liquid Oxycodone","steam_id":76561198154162664,"connected_time":7336000000000,"state":"active","ping":69},{"user_id":223,"name":"Infinity","steam_id":76561199134919099,"connected_time":5708000000000,"state":"active","ping":62},{"user_id":274,"name":"ham bone","steam_id":76561198351143785,"connected_time":1704000000000,"state":"active","ping":60},{"user_id":270,"name":"Cloudtrotter","steam_id":76561198141975528,"connected_time":2373000000000,"state":"active","ping":56},{"user_id":259,"name":"DeathToCats","steam_id":76561198092238353,"connected_time":2951000000000,"state":"active","ping":74},{"user_id":276,"name":"Gyr0sphere","steam_id":76561198183900735,"connected_time":1469000000000,"state":"active","ping":106},{"user_id":231,"name":"Robbie Rotten","steam_id":76561198426759305,"connected_time":4257000000000,"state":"active","ping":76},{"user_id":280,"name":"Qrow","steam_id":76561198355935693,"connected_time":1244000000000,"state":"active","ping":49},{"user_id":286,"name":"Yayifications","steam_id":76561198066227208,"connected_time":672000000000,"state":"active","ping":64},{"user_id":236,"name":"crippling fumo addiction","steam_id":76561198115874625,"connected_time":4065000000000,"state":"active","ping":69},{"user_id":284,"name":"Sup","steam_id":76561198384763147,"connected_time":774000000000,"state":"active","ping":164},{"user_id":282,"name":"Wengatang","steam_id":76561198021747059,"connected_time":1082000000000,"state":"active","ping":59},{"user_id":272,"name":"maniacalcoast0","steam_id":76561198982540746,"connected_time":2181000000000,"state":"active","ping":84},{"user_id":263,"name":"Lord Scrubling","steam_id":76561198263744445,"connected_time":2889000000000,"state":"active","ping":76},{"user_id":283,"name":"Aristotle Voulton","steam_id":76561198100174923,"connected_time":892000000000,"state":"active","ping":80},{"user_id":264,"name":"spaaaaace","steam_id":76561199085974120,"connected_time":2866000000000,"state":"active","ping":67},{"user_id":285,"name":"Uncle Majic the Hip Hop Magicia","steam_id":76561198107924303,"connected_time":766000000000,"state":"active","ping":56},{"user_id":174,"name":"egg roll","steam_id":76561198090486626,"connected_time":8860000000000,"state":"active","ping":41},{"user_id":265,"name":"GRONT","steam_id":76561198040464533,"connected_time":2851000000000,"state":"active","ping":76},{"user_id":271,"name":"ZekeThePlumber","steam_id":76561197995016724,"connected_time":2247000000000,"state":"active","ping":90},{"user_id":275,"name":"St. Michael","steam_id":76561198037611052,"connected_time":1632000000000,"state":"active","ping":67}]},{"server_id":37,"name":"Uncletopia | Chicago | 6 | All Maps","name_short":"chi-6","host":"chi-2.us.uncletopia.com","port":27025,"enabled":true,"region":"us-central","cc":"us","latitude":41.881832,"longitude":-87.62318,"reserved":0,"last_update":"0001-01-01T00:00:00Z","name_a2s":"Uncletopia | Chicago | 6 | All Maps","protocol":17,"map":"pl_barnblitz","folder":"tf","game":"Team Fortress","app_id":440,"player_count":24,"max_players":24,"Bots":0,"server_type":"Dedicated","server_os":"Linux","password":true,"vac":true,"version":"7708610","steam_id":85568392924866363,"keywords":["nocrits","nodmgspread","payload","uncletopia"],"game_id":440,"stv_port":27026,"stv_name":"Uncletopia | Chicago | 6 | All Maps | STV","players":[{"user_id":216,"name":"OrangeShoes","steam_id":76561197971249940,"connected_time":75000000000,"state":"active","ping":77},{"user_id":175,"name":"011","steam_id":76561198882999146,"connected_time":1896000000000,"state":"active","ping":75},{"user_id":177,"name":"ZylalyZ","steam_id":76561198050324378,"connected_time":1838000000000,"state":"active","ping":96},{"user_id":217,"name":"Sleepy Brady","steam_id":76561198867378129,"connected_time":75000000000,"state":"active","ping":66},{"user_id":173,"name":"SlipperyBiz","steam_id":76561198011132403,"connected_time":2152000000000,"state":"active","ping":75},{"user_id":178,"name":"Helper19g","steam_id":76561198157523264,"connected_time":1791000000000,"state":"active","ping":80},{"user_id":179,"name":"Bowensknight","steam_id":76561198868061049,"connected_time":1781000000000,"state":"active","ping":57},{"user_id":222,"name":"GooniOoni","steam_id":76561198102154561,"connected_time":10000000000,"state":"active","ping":47},{"user_id":161,"name":"Your Local Jester","steam_id":76561199120223717,"connected_time":3818000000000,"state":"active","ping":68},{"user_id":180,"name":"Brightwizard21","steam_id":76561198198710257,"connected_time":1758000000000,"state":"active","ping":75},{"user_id":181,"name":"Interrobang","steam_id":76561198385044529,"connected_time":1752000000000,"state":"active","ping":149},{"user_id":223,"name":"GrA1M","steam_id":76561199147118923,"connected_time":9000000000,"state":"spawning","ping":80},{"user_id":206,"name":"Bananas","steam_id":76561198950331271,"connected_time":855000000000,"state":"active","ping":261},{"user_id":185,"name":"Phillip Jeffries","steam_id":76561198064052174,"connected_time":1595000000000,"state":"active","ping":60},{"user_id":186,"name":"William the Pig","steam_id":76561198274561619,"connected_time":1574000000000,"state":"active","ping":84},{"user_id":224,"name":"LeviticusDB","steam_id":76561199079690162,"connected_time":1000000000,"state":"spawning","ping":62},{"user_id":188,"name":"KP101Destroyer","steam_id":76561199042684100,"connected_time":1557000000000,"state":"active","ping":72},{"user_id":191,"name":"Seico Bass","steam_id":76561198123498500,"connected_time":1502000000000,"state":"active","ping":68},{"user_id":192,"name":"ur mommy femboy gf","steam_id":76561198381873223,"connected_time":1496000000000,"state":"active","ping":73},{"user_id":207,"name":"serynsa","steam_id":76561198066987189,"connected_time":797000000000,"state":"active","ping":80},{"user_id":210,"name":"ParkerTheCuber","steam_id":76561199207264629,"connected_time":93000000000,"state":"active","ping":60},{"user_id":220,"name":"prodbyepic","steam_id":76561198853066534,"connected_time":67000000000,"state":"active","ping":61},{"user_id":200,"name":"Illuminaughty","steam_id":76561199163662910,"connected_time":1230000000000,"state":"active","ping":66},{"user_id":164,"name":"savagedachshund","steam_id":76561199208468955,"connected_time":3400000000000,"state":"active","ping":87}]},{"server_id":38,"name":"Uncletopia | Chicago | 7 | No Payload","name_short":"chi-7","host":"chi-2.us.uncletopia.com","port":27035,"enabled":true,"region":"us-central","cc":"us","latitude":41.881832,"longitude":-87.62318,"reserved":0,"last_update":"0001-01-01T00:00:00Z","name_a2s":"Uncletopia | Chicago | 7 | No Payload","protocol":17,"map":"ctf_2fort","folder":"tf","game":"Team Fortress","app_id":440,"player_count":0,"max_players":24,"Bots":0,"server_type":"Dedicated","server_os":"Linux","password":true,"vac":true,"version":"7708610","steam_id":85568392924866364,"keywords":["ctf","nocrits","nodmgspread","uncletopia"],"game_id":440,"stv_port":27036,"stv_name":"Uncletopia | Chicago | 7 | No Payload | STV","players":null},{"server_id":39,"name":"Uncletopia | Chicago | 8 | Community","name_short":"chi-8","host":"chi-2.us.uncletopia.com","port":27045,"enabled":true,"region":"us-central","cc":"us","latitude":41.881832,"longitude":-87.62318,"reserved":0,"last_update":"0001-01-01T00:00:00Z","name_a2s":"Uncletopia | Chicago | 8 | Community","protocol":17,"map":"workshop/koth_bagel_rc5.ugc2514036946","folder":"tf","game":"Team Fortress","app_id":440,"player_count":0,"max_players":24,"Bots":0,"server_type":"Dedicated","server_os":"Linux","password":true,"vac":true,"version":"7708610","steam_id":85568392924866365,"keywords":["cp","nocrits","nodmgspread","uncletopia"],"game_id":440,"stv_port":27046,"stv_name":"Uncletopia | Chicago | 8 | Community | STV","players":null},{"server_id":8,"name":"Uncletopia | Dallas | 1 | All Maps","name_short":"dal-1","host":"dal-1.us.uncletopia.com","port":27015,"enabled":true,"region":"us-central","cc":"us","latitude":32.779167,"longitude":-96.80889,"reserved":0,"last_update":"0001-01-01T00:00:00Z","name_a2s":"Uncletopia | Dallas | 1 | All Maps","protocol":17,"map":"cp_snakewater_final1","folder":"tf","game":"Team Fortress","app_id":440,"player_count":24,"max_players":24,"Bots":0,"server_type":"Dedicated","server_os":"Linux","password":true,"vac":true,"version":"7708610","steam_id":85568392924469986,"keywords":["cp","nocrits","nodmgspread","uncletopia"],"game_id":440,"stv_port":27016,"stv_name":"Uncletopia | Dallas | 1 | All Maps | STV","players":[{"user_id":678,"name":"AlecTheNefarious","steam_id":76561198035291230,"connected_time":292000000000,"state":"active","ping":50},{"user_id":582,"name":"A Gamer [F2P]","steam_id":76561198138712892,"connected_time":5969000000000,"state":"active","ping":43},{"user_id":642,"name":"sithreis","steam_id":76561198000564263,"connected_time":2008000000000,"state":"active","ping":68},{"user_id":533,"name":"The Ultimate Coomer","steam_id":76561199128833757,"connected_time":10760000000000,"state":"active","ping":42},{"user_id":650,"name":"The Krinkler","steam_id":76561198020308956,"connected_time":1532000000000,"state":"active","ping":62},{"user_id":653,"name":"Red Physical","steam_id":76561198151864382,"connected_time":1340000000000,"state":"active","ping":71},{"user_id":663,"name":"no vc no c","steam_id":76561197989503095,"connected_time":1153000000000,"state":"active","ping":178},{"user_id":562,"name":"dobby","steam_id":76561198012274834,"connected_time":7724000000000,"state":"active","ping":68},{"user_id":579,"name":"Bullwinkle J. Moose","steam_id":76561198075977196,"connected_time":6036000000000,"state":"active","ping":76},{"user_id":675,"name":"+rep Fuji","steam_id":76561199168680069,"connected_time":351000000000,"state":"active","ping":75},{"user_id":639,"name":"Trashgaming","steam_id":76561199184268442,"connected_time":2217000000000,"state":"active","ping":98},{"user_id":679,"name":"❄ ǝlddɐǝuᴉd ❄","steam_id":76561198041108726,"connected_time":259000000000,"state":"active","ping":64},{"user_id":657,"name":"p → f","steam_id":76561198042848500,"connected_time":1290000000000,"state":"active","ping":79},{"user_id":674,"name":"meh","steam_id":76561198136808129,"connected_time":424000000000,"state":"active","ping":64},{"user_id":644,"name":"java","steam_id":76561198030276792,"connected_time":2005000000000,"state":"active","ping":62},{"user_id":671,"name":"karbomb","steam_id":76561198120744480,"connected_time":534000000000,"state":"active","ping":56},{"user_id":645,"name":"King","steam_id":76561198010019214,"connected_time":2002000000000,"state":"active","ping":71},{"user_id":621,"name":"Hashmere","steam_id":76561198002797253,"connected_time":3656000000000,"state":"active","ping":86},{"user_id":672,"name":"broc","steam_id":76561199161322235,"connected_time":510000000000,"state":"active","ping":61},{"user_id":661,"name":"rare","steam_id":76561198161403931,"connected_time":1217000000000,"state":"active","ping":34},{"user_id":676,"name":"lanoc","steam_id":76561198055415367,"connected_time":340000000000,"state":"active","ping":62},{"user_id":680,"name":"JeffroTull","steam_id":76561198124157939,"connected_time":200000000000,"state":"active","ping":40},{"user_id":681,"name":"blocky","steam_id":76561198027402239,"connected_time":196000000000,"state":"active","ping":98},{"user_id":665,"name":"Jetcom10","steam_id":76561198076388168,"connected_time":1108000000000,"state":"active","ping":72}]},{"server_id":108,"name":"Uncletopia | Dallas | 2 | All Maps","name_short":"dal-2","host":"dal-1.us.uncletopia.com","port":27025,"enabled":true,"region":"us-central","cc":"us","latitude":32.779167,"longitude":-96.80889,"reserved":0,"last_update":"0001-01-01T00:00:00Z","name_a2s":"Uncletopia | Dallas | 2 | All Maps","protocol":17,"map":"koth_cascade","folder":"tf","game":"Team Fortress","app_id":440,"player_count":24,"max_players":24,"Bots":0,"server_type":"Dedicated","server_os":"Linux","password":true,"vac":true,"version":"7708610","steam_id":85568392924469988,"keywords":["cp","nocrits","nodmgspread","uncletopia"],"game_id":440,"stv_port":27026,"stv_name":"Uncletopia | Dallas | 2 | All Maps | STV","players":[{"user_id":462,"name":"Daz","steam_id":76561198041431938,"connected_time":2094000000000,"state":"active","ping":78},{"user_id":490,"name":"IxMic88","steam_id":76561198018552479,"connected_time":435000000000,"state":"active","ping":51},{"user_id":451,"name":"Sturt","steam_id":76561198418100672,"connected_time":2752000000000,"state":"active","ping":76},{"user_id":452,"name":"SpiderPyro [COMM CLOSED]","steam_id":76561198041100592,"connected_time":2744000000000,"state":"active","ping":62},{"user_id":468,"name":"rubb3r","steam_id":76561198096874230,"connected_time":1843000000000,"state":"active","ping":64},{"user_id":424,"name":"[K.Y.L.L.]Drone #0432 (they/it)","steam_id":76561198027321950,"connected_time":4945000000000,"state":"active","ping":100},{"user_id":469,"name":"Weirdo","steam_id":76561199150514223,"connected_time":1756000000000,"state":"active","ping":113},{"user_id":414,"name":"A Can of Arizona Green Tea","steam_id":76561198062481133,"connected_time":5589000000000,"state":"active","ping":65},{"user_id":491,"name":"colorfulg70","steam_id":76561199010363371,"connected_time":419000000000,"state":"active","ping":100},{"user_id":492,"name":"Shmuzy","steam_id":76561198252123826,"connected_time":417000000000,"state":"active","ping":165},{"user_id":481,"name":"kezia","steam_id":76561198059815894,"connected_time":1234000000000,"state":"active","ping":60},{"user_id":497,"name":"Crashsune","steam_id":76561198030145876,"connected_time":174000000000,"state":"active","ping":86},{"user_id":499,"name":"c0wb0y","steam_id":76561199076182855,"connected_time":70000000000,"state":"active","ping":77},{"user_id":464,"name":"intek","steam_id":76561198052705291,"connected_time":1958000000000,"state":"active","ping":84},{"user_id":478,"name":"[LINUX] F2P=S*(M/B)+H || Spy!","steam_id":76561198093538786,"connected_time":1583000000000,"state":"active","ping":45},{"user_id":485,"name":"D 1NE 86","steam_id":76561198390063866,"connected_time":1072000000000,"state":"active","ping":90},{"user_id":472,"name":"wizorb","steam_id":76561198002172674,"connected_time":1666000000000,"state":"active","ping":66},{"user_id":459,"name":"tv","steam_id":76561198110579925,"connected_time":2623000000000,"state":"active","ping":71},{"user_id":493,"name":"Hodeman","steam_id":76561197975982368,"connected_time":354000000000,"state":"active","ping":80},{"user_id":494,"name":"ki","steam_id":76561198277979851,"connected_time":348000000000,"state":"active","ping":79},{"user_id":475,"name":"MS milkman","steam_id":76561198995925158,"connected_time":1618000000000,"state":"active","ping":94},{"user_id":498,"name":"havent played final fantasy","steam_id":76561198120345289,"connected_time":157000000000,"state":"active","ping":87},{"user_id":496,"name":"Billy Bong Thorton","steam_id":76561198075779335,"connected_time":270000000000,"state":"active","ping":105},{"user_id":398,"name":"J The Jounin","steam_id":76561198034583622,"connected_time":7232000000000,"state":"active","ping":59}]},{"server_id":5,"name":"Uncletopia | Frankfurt | 1 | All Maps","name_short":"frk-1","host":"frk-1.de.uncletopia.com","port":27015,"enabled":true,"region":"eu","cc":"de","latitude":50.110924,"longitude":8.682127,"reserved":0,"last_update":"0001-01-01T00:00:00Z","name_a2s":"Uncletopia | Frankfurt | 1 | All Maps","protocol":17,"map":"cp_dustbowl","folder":"tf","game":"Team Fortress","app_id":440,"player_count":2,"max_players":24,"Bots":0,"server_type":"Dedicated","server_os":"Linux","password":true,"vac":true,"version":"7708610","steam_id":85568392924469989,"keywords":["cp","nocrits","nodmgspread","uncletopia"],"game_id":440,"stv_port":27016,"stv_name":"Uncletopia | Frankfurt | 1 | All Maps | STV","players":[{"user_id":828,"name":"master","steam_id":76561198119439177,"connected_time":1662000000000,"state":"active","ping":59},{"user_id":813,"name":"Mr.Schnittlauch (Tired asf)","steam_id":76561198295868113,"connected_time":10476000000000,"state":"active","ping":53}]},{"server_id":110,"name":"Uncletopia | Frankfurt | 2 | All Maps","name_short":"frk-2","host":"frk-1.de.uncletopia.com","port":27025,"enabled":true,"region":"eu","cc":"de","latitude":50.110924,"longitude":8.682127,"reserved":0,"last_update":"0001-01-01T00:00:00Z","name_a2s":"Uncletopia | Frankfurt | 2 | All Maps","protocol":17,"map":"koth_cascade","folder":"tf","game":"Team Fortress","app_id":440,"player_count":0,"max_players":24,"Bots":0,"server_type":"Dedicated","server_os":"Linux","password":true,"vac":true,"version":"7708610","steam_id":85568392924469990,"keywords":["cp","nocrits","nodmgspread","uncletopia"],"game_id":440,"stv_port":27026,"stv_name":"Uncletopia | Frankfurt | 2 | All Maps | STV","players":null},{"server_id":308,"name":"Uncletopia | Frankfurt | 3 | All Maps","name_short":"frk-3","host":"frk-1.de.uncletopia.com","port":27035,"enabled":true,"region":"eu","cc":"de","latitude":50.110924,"longitude":8.682127,"reserved":0,"last_update":"0001-01-01T00:00:00Z","name_a2s":"Uncletopia | Frankfurt | 3 | All Maps","protocol":17,"map":"koth_viaduct","folder":"tf","game":"Team Fortress","app_id":440,"player_count":0,"max_players":24,"Bots":0,"server_type":"Dedicated","server_os":"Linux","password":true,"vac":true,"version":"7708610","steam_id":85568392924504274,"keywords":["cp","nocrits","nodmgspread","uncletopia"],"game_id":440,"stv_port":27036,"stv_name":"Uncletopia | Frankfurt | 3 | All Maps | STV","players":null},{"server_id":309,"name":"Uncletopia | Frankfurt | 4 | All Maps","name_short":"frk-4","host":"frk-1.de.uncletopia.com","port":27045,"enabled":true,"region":"eu","cc":"de","latitude":50.110924,"longitude":8.682127,"reserved":0,"last_update":"0001-01-01T00:00:00Z","name_a2s":"Uncletopia | Frankfurt | 4 | All Maps","protocol":17,"map":"cp_mountainlab","folder":"tf","game":"Team Fortress","app_id":440,"player_count":0,"max_players":24,"Bots":0,"server_type":"Dedicated","server_os":"Linux","password":true,"vac":true,"version":"7708610","steam_id":85568392924504275,"keywords":["cp","nocrits","nodmgspread","uncletopia"],"game_id":440,"stv_port":27046,"stv_name":"Uncletopia | Frankfurt | 4 | All Maps | STV","players":null},{"server_id":310,"name":"Uncletopia | Frankfurt | 5 | All Maps","name_short":"frk-5","host":"frk-1.de.uncletopia.com","port":27055,"enabled":true,"region":"eu","cc":"de","latitude":50.110924,"longitude":8.682127,"reserved":0,"last_update":"0001-01-01T00:00:00Z","name_a2s":"Uncletopia | Frankfurt | 5 | All Maps","protocol":17,"map":"koth_highpass","folder":"tf","game":"Team Fortress","app_id":440,"player_count":0,"max_players":24,"Bots":0,"server_type":"Dedicated","server_os":"Linux","password":true,"vac":true,"version":"7708610","steam_id":85568392924504277,"keywords":["cp","nocrits","nodmgspread","uncletopia"],"game_id":440,"stv_port":27056,"stv_name":"Uncletopia | Frankfurt | 5 | All Maps | STV","players":null},{"server_id":311,"name":"Uncletopia | Frankfurt | 6 | All Maps","name_short":"frk-6","host":"frk-1.de.uncletopia.com","port":27065,"enabled":true,"region":"eu","cc":"de","latitude":50.110924,"longitude":8.682127,"reserved":0,"last_update":"0001-01-01T00:00:00Z","name_a2s":"Uncletopia | Frankfurt | 6 | All Maps","protocol":17,"map":"pl_swiftwater_final1","folder":"tf","game":"Team Fortress","app_id":440,"player_count":0,"max_players":24,"Bots":0,"server_type":"Dedicated","server_os":"Linux","password":true,"vac":true,"version":"7708610","steam_id":85568392924504278,"keywords":["nocrits","nodmgspread","payload","uncletopia"],"game_id":440,"stv_port":27066,"stv_name":"Uncletopia | Frankfurt | 6 | All Maps | STV","players":null},{"server_id":23,"name":"Uncletopia | Frankfurt | 7 | No Payload","name_short":"frk-7","host":"frk-1.de.uncletopia.com","port":27075,"enabled":true,"region":"eu","cc":"de","latitude":50.110924,"longitude":8.682127,"reserved":0,"last_update":"0001-01-01T00:00:00Z","name_a2s":"Uncletopia | Frankfurt | 7 | No Payload","protocol":17,"map":"cp_junction_final","folder":"tf","game":"Team Fortress","app_id":440,"player_count":0,"max_players":24,"Bots":0,"server_type":"Dedicated","server_os":"Linux","password":true,"vac":true,"version":"7708610","steam_id":85568392924742827,"keywords":["cp","nocrits","nodmgspread","uncletopia"],"game_id":440,"stv_port":27076,"stv_name":"Uncletopia | Frankfurt | 7 | No Payload | STV","players":null},{"server_id":24,"name":"Uncletopia | Frankfurt | 8 | Community","name_short":"frk-8","host":"frk-1.de.uncletopia.com","port":27085,"enabled":true,"region":"eu","cc":"de","latitude":50.110924,"longitude":8.682127,"reserved":0,"last_update":"0001-01-01T00:00:00Z","name_a2s":"Uncletopia | Frankfurt | 8 | Community","protocol":17,"map":"workshop/koth_slaughter_rc1.ugc1712845210","folder":"tf","game":"Team Fortress","app_id":440,"player_count":0,"max_players":24,"Bots":0,"server_type":"Dedicated","server_os":"Linux","password":true,"vac":true,"version":"7708610","steam_id":85568392924742828,"keywords":["cp","nocrits","nodmgspread","uncletopia"],"game_id":440,"stv_port":27086,"stv_name":"Uncletopia | Frankfurt | 8 | Community | STV","players":null},{"server_id":202,"name":"Uncletopia | Hong Kong | 1 | All Maps","name_short":"hgk-1","host":"hgk-1.hk.uncletopia.com","port":27015,"enabled":true,"region":"asia","cc":"hk","latitude":22.302711,"longitude":114.177216,"reserved":0,"last_update":"0001-01-01T00:00:00Z","name_a2s":"Uncletopia | Hong Kong | 1 | All Maps","protocol":17,"map":"cp_dustbowl","folder":"tf","game":"Team Fortress","app_id":440,"player_count":24,"max_players":24,"Bots":0,"server_type":"Dedicated","server_os":"Linux","password":true,"vac":true,"version":"7708610","steam_id":85568392924494504,"keywords":["cp","nocrits","nodmgspread","uncletopia"],"game_id":440,"stv_port":27016,"stv_name":"Uncletopia | Hong Kong | 1 | All Maps | STV","players":[{"user_id":107,"name":"\"SKS\"","steam_id":76561198187995386,"connected_time":16000000000,"state":"spawning","ping":82},{"user_id":25,"name":"master glu eater","steam_id":76561198069402937,"connected_time":6499000000000,"state":"active","ping":66},{"user_id":77,"name":"Windmill","steam_id":76561199230997986,"connected_time":3673000000000,"state":"active","ping":79},{"user_id":36,"name":"Mewsical_player","steam_id":76561199203795375,"connected_time":5403000000000,"state":"active","ping":82},{"user_id":42,"name":"S c u m p","steam_id":76561199172582978,"connected_time":4865000000000,"state":"active","ping":142},{"user_id":82,"name":"Corn_Archer","steam_id":76561199185044554,"connected_time":2860000000000,"state":"active","ping":69},{"user_id":87,"name":"TomProPlayer","steam_id":76561199223292521,"connected_time":2190000000000,"state":"active","ping":66},{"user_id":98,"name":"JayJ","steam_id":76561198324008555,"connected_time":437000000000,"state":"active","ping":67},{"user_id":99,"name":"bookman","steam_id":76561198989168133,"connected_time":424000000000,"state":"active","ping":77},{"user_id":95,"name":"yw","steam_id":76561199382726488,"connected_time":1123000000000,"state":"active","ping":35},{"user_id":78,"name":"JohnnySimps12","steam_id":76561199244754236,"connected_time":3501000000000,"state":"active","ping":100},{"user_id":89,"name":"+","steam_id":76561198121311286,"connected_time":2162000000000,"state":"active","ping":72},{"user_id":81,"name":"screaming sniper","steam_id":76561199085568674,"connected_time":3045000000000,"state":"active","ping":70},{"user_id":92,"name":"Noyour","steam_id":76561198323259830,"connected_time":1761000000000,"state":"active","ping":113},{"user_id":101,"name":"max121357","steam_id":76561199280466437,"connected_time":352000000000,"state":"active","ping":91},{"user_id":72,"name":":)","steam_id":76561198437941450,"connected_time":3972000000000,"state":"active","ping":79},{"user_id":50,"name":"bonito borzoi","steam_id":76561198230213828,"connected_time":4709000000000,"state":"active","ping":73},{"user_id":93,"name":"Rebecca, EdgeRunner","steam_id":76561199023086791,"connected_time":1717000000000,"state":"active","ping":64},{"user_id":104,"name":"ogey","steam_id":76561198074339034,"connected_time":141000000000,"state":"active","ping":77},{"user_id":88,"name":"c","steam_id":76561199099271055,"connected_time":2167000000000,"state":"active","ping":84},{"user_id":94,"name":"Giouri","steam_id":76561199152247162,"connected_time":1503000000000,"state":"active","ping":79},{"user_id":73,"name":"Pillboi","steam_id":76561198011172886,"connected_time":3955000000000,"state":"active","ping":44},{"user_id":97,"name":"the butchers club","steam_id":76561198318126190,"connected_time":653000000000,"state":"active","ping":100},{"user_id":100,"name":"Col_Gate","steam_id":76561198115459326,"connected_time":422000000000,"state":"active","ping":73}]},{"server_id":1,"name":"Uncletopia | Los Angeles | 1 | All Maps","name_short":"lax-1","host":"lax-1.us.uncletopia.com","port":27015,"enabled":true,"region":"us-west","cc":"us","latitude":33.94279,"longitude":-118.41004,"reserved":0,"last_update":"0001-01-01T00:00:00Z","name_a2s":"Uncletopia | Los Angeles | 1 | All Maps","protocol":17,"map":"koth_lakeside_final","folder":"tf","game":"Team Fortress","app_id":440,"player_count":2,"max_players":24,"Bots":0,"server_type":"Dedicated","server_os":"Linux","password":true,"vac":true,"version":"7708610","steam_id":85568392924469991,"keywords":["cp","nocrits","nodmgspread","uncletopia"],"game_id":440,"stv_port":27016,"stv_name":"Uncletopia | Los Angeles | 1 | All Maps | STV","players":[{"user_id":16,"name":"Werewolfo","steam_id":76561198143597449,"connected_time":1114000000000,"state":"active","ping":68},{"user_id":17,"name":"ChubbinsMothYT","steam_id":76561198999215730,"connected_time":476000000000,"state":"active","ping":117}]},{"server_id":112,"name":"Uncletopia | Los Angeles | 2 | All Maps","name_short":"lax-2","host":"lax-1.us.uncletopia.com","port":27025,"enabled":true,"region":"us-west","cc":"us","latitude":33.94279,"longitude":-118.41004,"reserved":0,"last_update":"0001-01-01T00:00:00Z","name_a2s":"Uncletopia | Los Angeles | 2 | All Maps","protocol":17,"map":"pl_thundermountain","folder":"tf","game":"Team Fortress","app_id":440,"player_count":23,"max_players":24,"Bots":0,"server_type":"Dedicated","server_os":"Linux","password":true,"vac":true,"version":"7708610","steam_id":85568392924469992,"keywords":["nocrits","nodmgspread","payload","uncletopia"],"game_id":440,"stv_port":27026,"stv_name":"Uncletopia | Los Angeles | 2 | All Maps | STV","players":[{"user_id":246,"name":"Ian","steam_id":76561198159334435,"connected_time":1087000000000,"state":"active","ping":179},{"user_id":244,"name":"Apprentice Pybro","steam_id":76561197996353534,"connected_time":1216000000000,"state":"active","ping":84},{"user_id":208,"name":"Drive-By-Fish-Guy","steam_id":76561198105513652,"connected_time":3020000000000,"state":"active","ping":53},{"user_id":232,"name":"hedahman","steam_id":76561198052398134,"connected_time":1877000000000,"state":"active","ping":76},{"user_id":200,"name":"MR.BadassMCLee","steam_id":76561198043787818,"connected_time":4923000000000,"state":"active","ping":63},{"user_id":84,"name":"Feel the bern","steam_id":76561198078824519,"connected_time":13540000000000,"state":"active","ping":45},{"user_id":247,"name":"DemoDog","steam_id":76561198352437621,"connected_time":1035000000000,"state":"active","ping":89},{"user_id":217,"name":"Owl_eyes","steam_id":76561198066199203,"connected_time":2556000000000,"state":"active","ping":51},{"user_id":233,"name":"Mina's Ninas","steam_id":76561198046502179,"connected_time":1845000000000,"state":"active","ping":57},{"user_id":234,"name":"upcasthunder35","steam_id":76561198269299495,"connected_time":1845000000000,"state":"active","ping":128},{"user_id":235,"name":"bong hits for jesus","steam_id":76561198093276401,"connected_time":1701000000000,"state":"active","ping":61},{"user_id":263,"name":"Underscore","steam_id":76561198374209415,"connected_time":61000000000,"state":"active","ping":90},{"user_id":213,"name":"tweet","steam_id":76561198166515735,"connected_time":2639000000000,"state":"active","ping":55},{"user_id":241,"name":"tobo","steam_id":76561199366968526,"connected_time":1307000000000,"state":"active","ping":54},{"user_id":249,"name":"fatsweatyballs","steam_id":76561198144156347,"connected_time":820000000000,"state":"active","ping":112},{"user_id":242,"name":"oh the misery","steam_id":76561198052431073,"connected_time":1307000000000,"state":"active","ping":72},{"user_id":250,"name":"Pistol Freeman","steam_id":76561198026818915,"connected_time":727000000000,"state":"active","ping":121},{"user_id":227,"name":"mechanicvirus","steam_id":76561198038161480,"connected_time":2210000000000,"state":"active","ping":47},{"user_id":258,"name":"Yossarian","steam_id":76561198006213177,"connected_time":325000000000,"state":"active","ping":127},{"user_id":254,"name":"ki3ly4","steam_id":76561198249172818,"connected_time":431000000000,"state":"active","ping":93},{"user_id":259,"name":"plutonium isotope","steam_id":76561198319442494,"connected_time":312000000000,"state":"active","ping":59},{"user_id":205,"name":"Van","steam_id":76561198073518712,"connected_time":3553000000000,"state":"active","ping":121},{"user_id":199,"name":"benglengler","steam_id":76561198150137369,"connected_time":5067000000000,"state":"active","ping":52}]},{"server_id":324,"name":"Uncletopia | Los Angeles | 3 | All Maps","name_short":"lax-3","host":"lax-1.us.uncletopia.com","port":27035,"enabled":true,"region":"us-west","cc":"us","latitude":33.94279,"longitude":-118.41004,"reserved":0,"last_update":"0001-01-01T00:00:00Z","name_a2s":"Uncletopia | Los Angeles | 3 | All Maps","protocol":17,"map":"ctf_2fort","folder":"tf","game":"Team Fortress","app_id":440,"player_count":0,"max_players":24,"Bots":0,"server_type":"Dedicated","server_os":"Linux","password":true,"vac":true,"version":"7708610","steam_id":85568392924510198,"keywords":["ctf","nocrits","nodmgspread","uncletopia"],"game_id":440,"stv_port":27036,"stv_name":"Uncletopia | Los Angeles | 3 | All Maps | STV","players":null},{"server_id":25,"name":"Uncletopia | Los Angeles | 4 | No Payload","name_short":"lax-4","host":"lax-1.us.uncletopia.com","port":27045,"enabled":true,"region":"us-west","cc":"us","latitude":33.94279,"longitude":-118.41004,"reserved":0,"last_update":"0001-01-01T00:00:00Z","name_a2s":"Uncletopia | Los Angeles | 4 | No Payload","protocol":17,"map":"plr_pipeline","folder":"tf","game":"Team Fortress","app_id":440,"player_count":0,"max_players":24,"Bots":0,"server_type":"Dedicated","server_os":"Linux","password":true,"vac":true,"version":"7708610","steam_id":85568392924510199,"keywords":["nocrits","nodmgspread","payload","uncletopia"],"game_id":440,"stv_port":27046,"stv_name":"Uncletopia | Los Angeles | 4 | No Payload | STV","players":null},{"server_id":11,"name":"Uncletopia | London | 1 | All Maps","name_short":"lon-1","host":"lon-1.uk.uncletopia.com","port":27015,"enabled":true,"region":"eu","cc":"gb","latitude":51.509865,"longitude":-0.118092,"reserved":0,"last_update":"0001-01-01T00:00:00Z","name_a2s":"Uncletopia | London | 1 | All Maps","protocol":17,"map":"pl_borneo","folder":"tf","game":"Team Fortress","app_id":440,"player_count":24,"max_players":24,"Bots":0,"server_type":"Dedicated","server_os":"Linux","password":true,"vac":true,"version":"7708610","steam_id":85568392924367362,"keywords":["nocrits","nodmgspread","payload","uncletopia"],"game_id":440,"stv_port":27016,"stv_name":"Uncletopia | London | 1 | All Maps | STV","players":[{"user_id":669,"name":"Echoing","steam_id":76561199172072079,"connected_time":3434000000000,"state":"active","ping":143},{"user_id":665,"name":"lvl. 50 honkler","steam_id":76561198061688660,"connected_time":3837000000000,"state":"active","ping":103},{"user_id":768,"name":"akciq ⁧⁧respect","steam_id":76561198390963456,"connected_time":1593000000000,"state":"active","ping":75},{"user_id":797,"name":"NightHawk⚣","steam_id":76561197999225521,"connected_time":1225000000000,"state":"active","ping":56},{"user_id":767,"name":"worry about it","steam_id":76561199414716848,"connected_time":1607000000000,"state":"active","ping":68},{"user_id":800,"name":"BarrackOmaha","steam_id":76561198027922724,"connected_time":958000000000,"state":"active","ping":66},{"user_id":654,"name":"breeksdown","steam_id":76561198800323869,"connected_time":4731000000000,"state":"active","ping":55},{"user_id":813,"name":"Sniper","steam_id":76561198414175953,"connected_time":765000000000,"state":"active","ping":46},{"user_id":634,"name":"🃔 Nugg1t(sme/lly)","steam_id":76561198065652251,"connected_time":6869000000000,"state":"active","ping":51},{"user_id":817,"name":"Retrowave","steam_id":76561198061921346,"connected_time":575000000000,"state":"active","ping":132},{"user_id":648,"name":"CAMON ENGELAND","steam_id":76561198054301125,"connected_time":5581000000000,"state":"active","ping":78},{"user_id":822,"name":"Teffg","steam_id":76561198274386094,"connected_time":241000000000,"state":"active","ping":80},{"user_id":653,"name":"Guardian","steam_id":76561198098932840,"connected_time":4891000000000,"state":"active","ping":76},{"user_id":651,"name":"Stitch","steam_id":76561198104613474,"connected_time":4966000000000,"state":"active","ping":66},{"user_id":692,"name":"puck","steam_id":76561198121260981,"connected_time":2221000000000,"state":"active","ping":33},{"user_id":687,"name":"Pence","steam_id":76561198124994550,"connected_time":2297000000000,"state":"active","ping":52},{"user_id":637,"name":"Tsuruko","steam_id":76561198063618114,"connected_time":6703000000000,"state":"active","ping":63},{"user_id":670,"name":"Exalegits","steam_id":76561198852289690,"connected_time":3390000000000,"state":"active","ping":162},{"user_id":721,"name":"Max","steam_id":76561198138959361,"connected_time":2020000000000,"state":"active","ping":60},{"user_id":672,"name":"Landyian","steam_id":76561199132901423,"connected_time":3310000000000,"state":"active","ping":149},{"user_id":674,"name":"Fishum","steam_id":76561198148556559,"connected_time":3198000000000,"state":"active","ping":52},{"user_id":815,"name":"Shynii","steam_id":76561198194682105,"connected_time":753000000000,"state":"active","ping":63},{"user_id":816,"name":"aph","steam_id":76561198057722639,"connected_time":752000000000,"state":"active","ping":60},{"user_id":819,"name":"Vivrilou","steam_id":76561199064479665,"connected_time":377000000000,"state":"active","ping":139}]},{"server_id":114,"name":"Uncletopia | London | 2 | All Maps","name_short":"lon-2","host":"lon-1.uk.uncletopia.com","port":27025,"enabled":true,"region":"eu","cc":"gb","latitude":51.509865,"longitude":-0.118092,"reserved":0,"last_update":"0001-01-01T00:00:00Z","name_a2s":"Uncletopia | London | 2 | All Maps","protocol":17,"map":"koth_highpass","folder":"tf","game":"Team Fortress","app_id":440,"player_count":0,"max_players":24,"Bots":0,"server_type":"Dedicated","server_os":"Linux","password":true,"vac":true,"version":"7708610","steam_id":85568392924470941,"keywords":["cp","nocrits","nodmgspread","uncletopia"],"game_id":440,"stv_port":27026,"stv_name":"Uncletopia | London | 2 | All Maps | STV","players":null},{"server_id":320,"name":"Uncletopia | London | 3 | All Maps","name_short":"lon-3","host":"lon-1.uk.uncletopia.com","port":27035,"enabled":true,"region":"eu","cc":"gb","latitude":51.509865,"longitude":-0.118092,"reserved":0,"last_update":"0001-01-01T00:00:00Z","name_a2s":"Uncletopia | London | 3 | All Maps","protocol":17,"map":"koth_cascade","folder":"tf","game":"Team Fortress","app_id":440,"player_count":0,"max_players":24,"Bots":0,"server_type":"Dedicated","server_os":"Linux","password":true,"vac":true,"version":"7708610","steam_id":85568392924510192,"keywords":["cp","nocrits","nodmgspread","uncletopia"],"game_id":440,"stv_port":27036,"stv_name":"Uncletopia | London | 3 | All Maps | STV","players":null},{"server_id":321,"name":"Uncletopia | London | 4 | All Maps","name_short":"lon-4","host":"lon-1.uk.uncletopia.com","port":27045,"enabled":true,"region":"eu","cc":"gb","latitude":51.509865,"longitude":-0.118092,"reserved":0,"last_update":"0001-01-01T00:00:00Z","name_a2s":"Uncletopia | London | 4 | All Maps","protocol":17,"map":"koth_viaduct","folder":"tf","game":"Team Fortress","app_id":440,"player_count":0,"max_players":24,"Bots":0,"server_type":"Dedicated","server_os":"Linux","password":true,"vac":true,"version":"7708610","steam_id":85568392924510193,"keywords":["cp","nocrits","nodmgspread","uncletopia"],"game_id":440,"stv_port":27046,"stv_name":"Uncletopia | London | 4 | All Maps | STV","players":null},{"server_id":21,"name":"Uncletopia | London | 5 | All Maps","name_short":"lon-5","host":"lon-1.uk.uncletopia.com","port":27055,"enabled":true,"region":"eu","cc":"gb","latitude":51.509865,"longitude":-0.118092,"reserved":0,"last_update":"0001-01-01T00:00:00Z","name_a2s":"Uncletopia | London | 5 | All Maps","protocol":17,"map":"pl_frontier_final","folder":"tf","game":"Team Fortress","app_id":440,"player_count":0,"max_players":24,"Bots":0,"server_type":"Dedicated","server_os":"Linux","password":true,"vac":true,"version":"7708610","steam_id":85568392924742829,"keywords":["nocrits","nodmgspread","payload","uncletopia"],"game_id":440,"stv_port":27056,"stv_name":"Uncletopia | London | 5 | All Maps | STV","players":null},{"server_id":22,"name":"Uncletopia | London | 6 | All Maps","name_short":"lon-6","host":"lon-1.uk.uncletopia.com","port":27065,"enabled":true,"region":"eu","cc":"gb","latitude":51.509865,"longitude":-0.118092,"reserved":0,"last_update":"0001-01-01T00:00:00Z","name_a2s":"Uncletopia | London | 6 | All Maps","protocol":17,"map":"koth_viaduct","folder":"tf","game":"Team Fortress","app_id":440,"player_count":0,"max_players":24,"Bots":0,"server_type":"Dedicated","server_os":"Linux","password":true,"vac":true,"version":"7708610","steam_id":85568392924742830,"keywords":["cp","nocrits","nodmgspread","uncletopia"],"game_id":440,"stv_port":27066,"stv_name":"Uncletopia | London | 6 | All Maps | STV","players":null},{"server_id":40,"name":"Uncletopia | London | 7 | No Payload","name_short":"lon-7","host":"lon-1.uk.uncletopia.com","port":27075,"enabled":true,"region":"eu","cc":"gb","latitude":51.509865,"longitude":-0.118092,"reserved":0,"last_update":"0001-01-01T00:00:00Z","name_a2s":"Uncletopia | London | 7 | No Payload","protocol":17,"map":"koth_cascade","folder":"tf","game":"Team Fortress","app_id":440,"player_count":0,"max_players":24,"Bots":0,"server_type":"Dedicated","server_os":"Linux","password":true,"vac":true,"version":"7708610","steam_id":85568392924964314,"keywords":["cp","nocrits","nodmgspread","uncletopia"],"game_id":440,"stv_port":27076,"stv_name":"Uncletopia | London | 7 | No Payload | STV","players":null},{"server_id":41,"name":"Uncletopia | London | 8 | Community","name_short":"lon-8","host":"lon-1.uk.uncletopia.com","port":27085,"enabled":true,"region":"eu","cc":"gb","latitude":51.509865,"longitude":-0.118092,"reserved":0,"last_update":"0001-01-01T00:00:00Z","name_a2s":"Uncletopia | London | 8 | Community","protocol":17,"map":"workshop/koth_synthetic_rc6a.ugc1549817316","folder":"tf","game":"Team Fortress","app_id":440,"player_count":0,"max_players":24,"Bots":0,"server_type":"Dedicated","server_os":"Linux","password":true,"vac":true,"version":"7708610","steam_id":85568392924964315,"keywords":["cp","nocrits","nodmgspread","uncletopia"],"game_id":440,"stv_port":27086,"stv_name":"Uncletopia | London | 8 | Community | STV","players":null},{"server_id":300,"name":"Uncletopia | Montréal | 1 | All Maps","name_short":"mtl-1","host":"mtl-1.ca.uncletopia.com","port":27015,"enabled":true,"region":"us-east","cc":"ca","latitude":45.50889,"longitude":-73.56167,"reserved":0,"last_update":"0001-01-01T00:00:00Z","name_a2s":"Uncletopia | Montréal | 1 | All Maps","protocol":17,"map":"koth_viaduct","folder":"tf","game":"Team Fortress","app_id":440,"player_count":0,"max_players":24,"Bots":0,"server_type":"Dedicated","server_os":"Linux","password":true,"vac":true,"version":"7708610","steam_id":85568392924500087,"keywords":["cp","nocrits","nodmgspread","uncletopia"],"game_id":440,"stv_port":27016,"stv_name":"Uncletopia | Montréal | 1 | All Maps | STV","players":null},{"server_id":301,"name":"Uncletopia | Montréal | 2 | All Maps","name_short":"mtl-2","host":"mtl-1.ca.uncletopia.com","port":27025,"enabled":true,"region":"us-east","cc":"ca","latitude":45.50889,"longitude":-73.56167,"reserved":0,"last_update":"0001-01-01T00:00:00Z","name_a2s":"Uncletopia | Montréal | 2 | All Maps","protocol":17,"map":"koth_lakeside_final","folder":"tf","game":"Team Fortress","app_id":440,"player_count":0,"max_players":24,"Bots":0,"server_type":"Dedicated","server_os":"Linux","password":true,"vac":true,"version":"7708610","steam_id":85568392924500088,"keywords":["cp","nocrits","nodmgspread","uncletopia"],"game_id":440,"stv_port":27026,"stv_name":"Uncletopia | Montréal | 2 | All Maps | STV","players":null},{"server_id":302,"name":"Uncletopia | Montréal | 3 | All Maps","name_short":"mtl-3","host":"mtl-1.ca.uncletopia.com","port":27035,"enabled":true,"region":"us-east","cc":"ca","latitude":45.50889,"longitude":-73.56167,"reserved":0,"last_update":"0001-01-01T00:00:00Z","name_a2s":"Uncletopia | Montréal | 3 | All Maps","protocol":17,"map":"koth_cascade","folder":"tf","game":"Team Fortress","app_id":440,"player_count":0,"max_players":24,"Bots":0,"server_type":"Dedicated","server_os":"Linux","password":true,"vac":true,"version":"7708610","steam_id":85568392924500089,"keywords":["cp","nocrits","nodmgspread","uncletopia"],"game_id":440,"stv_port":27036,"stv_name":"Uncletopia | Montréal | 3 | All Maps | STV","players":null},{"server_id":303,"name":"Uncletopia | Montréal | 4 | No Payload","name_short":"mtl-4","host":"mtl-1.ca.uncletopia.com","port":27045,"enabled":true,"region":"us-east","cc":"ca","latitude":45.50889,"longitude":-73.56167,"reserved":0,"last_update":"0001-01-01T00:00:00Z","name_a2s":"Uncletopia | Montréal | 4 | No Payload","protocol":17,"map":"koth_brazil","folder":"tf","game":"Team Fortress","app_id":440,"player_count":0,"max_players":24,"Bots":0,"server_type":"Dedicated","server_os":"Linux","password":true,"vac":true,"version":"7708610","steam_id":85568392924500090,"keywords":["cp","nocrits","nodmgspread","uncletopia"],"game_id":440,"stv_port":27046,"stv_name":"Uncletopia | Montréal | 4 | No Payload | STV","players":null},{"server_id":13,"name":"Uncletopia | New York City | 1 | All Maps","name_short":"nyc-1","host":"nyc-1.us.uncletopia.com","port":27015,"enabled":true,"region":"us-east","cc":"us","latitude":40.73061,"longitude":-73.93524,"reserved":0,"last_update":"0001-01-01T00:00:00Z","name_a2s":"Uncletopia | New York City | 1 | All Maps","protocol":17,"map":"pl_upward","folder":"tf","game":"Team Fortress","app_id":440,"player_count":24,"max_players":24,"Bots":0,"server_type":"Dedicated","server_os":"Linux","password":true,"vac":true,"version":"7708610","steam_id":85568392924469993,"keywords":["nocrits","nodmgspread","payload","uncletopia"],"game_id":440,"stv_port":27016,"stv_name":"Uncletopia | New York City | 1 | All Maps | STV","players":[{"user_id":712,"name":"Ignalis","steam_id":76561198025662927,"connected_time":526000000000,"state":"active","ping":51},{"user_id":707,"name":"Green","steam_id":76561198003139381,"connected_time":746000000000,"state":"active","ping":74},{"user_id":718,"name":"pukey","steam_id":76561198125961489,"connected_time":449000000000,"state":"active","ping":55},{"user_id":725,"name":"Zamich","steam_id":76561198087033116,"connected_time":303000000000,"state":"active","ping":56},{"user_id":688,"name":"MrBeast (Real)","steam_id":76561199139182003,"connected_time":1815000000000,"state":"active","ping":42},{"user_id":690,"name":"InstantSnowcone","steam_id":76561198067556825,"connected_time":1730000000000,"state":"active","ping":78},{"user_id":734,"name":"flappyflap2","steam_id":76561198285048973,"connected_time":55000000000,"state":"active","ping":38},{"user_id":715,"name":"CassandraRC7 (She/her)","steam_id":76561198094123940,"connected_time":472000000000,"state":"active","ping":74},{"user_id":735,"name":"nachopugz","steam_id":76561199120480873,"connected_time":54000000000,"state":"active","ping":132},{"user_id":719,"name":"NutInsideYourBrother","steam_id":76561198066812433,"connected_time":445000000000,"state":"active","ping":57},{"user_id":727,"name":"The unsung hero","steam_id":76561199198863237,"connected_time":250000000000,"state":"active","ping":95},{"user_id":652,"name":"ShiYor","steam_id":76561199117260032,"connected_time":2469000000000,"state":"active","ping":119},{"user_id":677,"name":"Bartleby","steam_id":76561198028522711,"connected_time":2004000000000,"state":"active","ping":60},{"user_id":722,"name":"ailee","steam_id":76561198284326069,"connected_time":366000000000,"state":"active","ping":56},{"user_id":705,"name":"mbs","steam_id":76561198013079739,"connected_time":1109000000000,"state":"active","ping":140},{"user_id":736,"name":"TriM","steam_id":76561198048332533,"connected_time":3000000000,"state":"spawning","ping":35},{"user_id":706,"name":"nauts salt","steam_id":76561198045832398,"connected_time":999000000000,"state":"active","ping":93},{"user_id":708,"name":"Remy the rat","steam_id":76561198080519558,"connected_time":680000000000,"state":"active","ping":83},{"user_id":724,"name":"chillhomie22","steam_id":76561198026393621,"connected_time":348000000000,"state":"active","ping":68},{"user_id":731,"name":"seb","steam_id":76561198295332727,"connected_time":125000000000,"state":"active","ping":72},{"user_id":733,"name":"GOATC mahik","steam_id":76561198012270322,"connected_time":75000000000,"state":"active","ping":58},{"user_id":702,"name":"StarWither","steam_id":76561198383264295,"connected_time":1275000000000,"state":"active","ping":117},{"user_id":684,"name":"Souper Scott","steam_id":76561198045518926,"connected_time":1893000000000,"state":"active","ping":73},{"user_id":703,"name":"Captain Crimson","steam_id":76561198129099233,"connected_time":1275000000000,"state":"active","ping":78}]},{"server_id":14,"name":"Uncletopia | New York City | 2 | All Maps","name_short":"nyc-2","host":"nyc-1.us.uncletopia.com","port":27025,"enabled":true,"region":"us-east","cc":"us","latitude":40.73061,"longitude":-73.93524,"reserved":0,"last_update":"0001-01-01T00:00:00Z","name_a2s":"Uncletopia | New York City | 2 | All Maps","protocol":17,"map":"koth_viaduct","folder":"tf","game":"Team Fortress","app_id":440,"player_count":1,"max_players":24,"Bots":0,"server_type":"Dedicated","server_os":"Linux","password":true,"vac":true,"version":"7708610","steam_id":85568392924469994,"keywords":["cp","nocrits","nodmgspread","uncletopia"],"game_id":440,"stv_port":27026,"stv_name":"Uncletopia | New York City | 2 | All Maps | STV","players":[{"user_id":495,"name":"Earl Of Lemongrab","steam_id":76561198119740881,"connected_time":76000000000,"state":"active","ping":48}]},{"server_id":15,"name":"Uncletopia | New York City | 3 | All Maps","name_short":"nyc-3","host":"nyc-1.us.uncletopia.com","port":27035,"enabled":true,"region":"us-east","cc":"us","latitude":40.73061,"longitude":-73.93524,"reserved":0,"last_update":"0001-01-01T00:00:00Z","name_a2s":"Uncletopia | New York City | 3 | All Maps","protocol":17,"map":"cp_gorge","folder":"tf","game":"Team Fortress","app_id":440,"player_count":24,"max_players":24,"Bots":0,"server_type":"Dedicated","server_os":"Linux","password":true,"vac":true,"version":"7708610","steam_id":85568392924742820,"keywords":["cp","nocrits","nodmgspread","uncletopia"],"game_id":440,"stv_port":27036,"stv_name":"Uncletopia | New York City | 3 | All Maps | STV","players":[{"user_id":280,"name":"Kermode the Lemon","steam_id":76561199011148755,"connected_time":1563000000000,"state":"active","ping":49},{"user_id":314,"name":"Anhkrehg","steam_id":76561197963201684,"connected_time":181000000000,"state":"active","ping":73},{"user_id":228,"name":"Zuf","steam_id":76561198263787899,"connected_time":4658000000000,"state":"active","ping":58},{"user_id":309,"name":"WasaboDuckBoy","steam_id":76561198955940668,"connected_time":338000000000,"state":"active","ping":83},{"user_id":277,"name":"🌸Red🌸","steam_id":76561198037346199,"connected_time":1644000000000,"state":"active","ping":184},{"user_id":278,"name":"arcade","steam_id":76561198024735544,"connected_time":1603000000000,"state":"active","ping":68},{"user_id":311,"name":"brn","steam_id":76561198118211523,"connected_time":255000000000,"state":"active","ping":44},{"user_id":310,"name":"PrinceGrotle","steam_id":76561198206131603,"connected_time":316000000000,"state":"active","ping":46},{"user_id":272,"name":"ExtraSoap","steam_id":76561198008712409,"connected_time":2100000000000,"state":"active","ping":46},{"user_id":313,"name":"Caoticaos","steam_id":76561198114800227,"connected_time":189000000000,"state":"active","ping":159},{"user_id":290,"name":"VioletSpecs","steam_id":76561198089366466,"connected_time":1186000000000,"state":"active","ping":60},{"user_id":315,"name":"puudiistuff","steam_id":76561199089963269,"connected_time":170000000000,"state":"active","ping":67},{"user_id":303,"name":"Pizza Party","steam_id":76561198165730754,"connected_time":556000000000,"state":"active","ping":60},{"user_id":295,"name":"PAC-MATH","steam_id":76561198327729748,"connected_time":967000000000,"state":"active","ping":66},{"user_id":274,"name":"Doominic","steam_id":76561198259172209,"connected_time":1850000000000,"state":"active","ping":76},{"user_id":316,"name":"feleven","steam_id":76561198853721046,"connected_time":169000000000,"state":"active","ping":33},{"user_id":287,"name":"Scrapp","steam_id":76561198060705509,"connected_time":1364000000000,"state":"active","ping":55},{"user_id":299,"name":"Grundle Thunder","steam_id":76561197960790338,"connected_time":658000000000,"state":"active","ping":58},{"user_id":306,"name":"confused","steam_id":76561198018654093,"connected_time":537000000000,"state":"active","ping":60},{"user_id":273,"name":"ferdy","steam_id":76561198140926729,"connected_time":2060000000000,"state":"active","ping":76},{"user_id":265,"name":"Mr. Squidward","steam_id":76561198103821671,"connected_time":2777000000000,"state":"active","ping":55},{"user_id":259,"name":"rat gaming","steam_id":76561199238923581,"connected_time":3244000000000,"state":"active","ping":118},{"user_id":307,"name":"john \"eater of worlds\" smith","steam_id":76561198123878798,"connected_time":527000000000,"state":"active","ping":65},{"user_id":195,"name":"greydog","steam_id":76561198165934551,"connected_time":7346000000000,"state":"active","ping":46}]},{"server_id":16,"name":"Uncletopia | New York City | 4 | Community","name_short":"nyc-4","host":"nyc-1.us.uncletopia.com","port":27045,"enabled":true,"region":"us-east","cc":"us","latitude":40.73061,"longitude":-73.93524,"reserved":0,"last_update":"0001-01-01T00:00:00Z","name_a2s":"Uncletopia | New York City | 4 | Community","protocol":17,"map":"workshop/cp_reckoner_rc6.ugc674719999","folder":"tf","game":"Team Fortress","app_id":440,"player_count":0,"max_players":24,"Bots":0,"server_type":"Dedicated","server_os":"Linux","password":true,"vac":true,"version":"7708610","steam_id":85568392924742821,"keywords":["cp","nocrits","nodmgspread","uncletopia"],"game_id":440,"stv_port":27046,"stv_name":"Uncletopia | New York City | 4 | Community | STV","players":null},{"server_id":142,"name":"Uncletopia | São Paulo | 1 | All Maps","name_short":"sao-1","host":"sao-1.br.uncletopia.com","port":27015,"enabled":true,"region":"sa","cc":"br","latitude":-23.533773,"longitude":-46.62529,"reserved":0,"last_update":"0001-01-01T00:00:00Z","name_a2s":"Uncletopia | São Paulo | 1 | All Maps","protocol":17,"map":"pl_upward","folder":"tf","game":"Team Fortress","app_id":440,"player_count":22,"max_players":24,"Bots":0,"server_type":"Dedicated","server_os":"Linux","password":true,"vac":true,"version":"7708610","steam_id":85568392924469996,"keywords":["nocrits","nodmgspread","payload","uncletopia"],"game_id":440,"stv_port":27016,"stv_name":"Uncletopia | São Paulo | 1 | All Maps | STV","players":[{"user_id":507,"name":"posta","steam_id":76561198302870271,"connected_time":2365000000000,"state":"active","ping":60},{"user_id":500,"name":"URINATE!!","steam_id":76561198380824431,"connected_time":3043000000000,"state":"active","ping":49},{"user_id":503,"name":"F♯ A♯ ∞","steam_id":76561198118943620,"connected_time":2727000000000,"state":"active","ping":37},{"user_id":504,"name":"$r. Hello There #savetf2","steam_id":76561198874231807,"connected_time":2532000000000,"state":"active","ping":44},{"user_id":468,"name":"Gogoyle50","steam_id":76561198148524228,"connected_time":5578000000000,"state":"active","ping":49},{"user_id":528,"name":"swetsita","steam_id":76561198394721432,"connected_time":1471000000000,"state":"active","ping":90},{"user_id":533,"name":"Negro Piñera","steam_id":76561199137071092,"connected_time":697000000000,"state":"active","ping":86},{"user_id":518,"name":"DaviMiguel","steam_id":76561198261309073,"connected_time":2075000000000,"state":"active","ping":59},{"user_id":497,"name":" Mr_jimmy ","steam_id":76561198937690773,"connected_time":3434000000000,"state":"active","ping":91},{"user_id":527,"name":"lapollita","steam_id":76561199211500891,"connected_time":1727000000000,"state":"active","ping":113},{"user_id":541,"name":"Nostalgico天","steam_id":76561198148518370,"connected_time":61000000000,"state":"active","ping":136},{"user_id":538,"name":"lucas.pls_","steam_id":76561198217200095,"connected_time":132000000000,"state":"active","ping":44},{"user_id":511,"name":"Netre","steam_id":76561198145332676,"connected_time":2250000000000,"state":"active","ping":74},{"user_id":520,"name":"Docipla","steam_id":76561199385267293,"connected_time":1961000000000,"state":"active","ping":72},{"user_id":536,"name":"dez anos no xadrez","steam_id":76561198846361407,"connected_time":484000000000,"state":"active","ping":31},{"user_id":519,"name":"Mortadella","steam_id":76561198057716113,"connected_time":1983000000000,"state":"active","ping":46},{"user_id":521,"name":"melão.dota","steam_id":76561198138018476,"connected_time":1956000000000,"state":"active","ping":47},{"user_id":436,"name":"ebd_Failnaught","steam_id":76561198108041555,"connected_time":8542000000000,"state":"active","ping":64},{"user_id":523,"name":"lol#recominion","steam_id":76561199157058940,"connected_time":1951000000000,"state":"active","ping":106},{"user_id":524,"name":"SPYRYTTS","steam_id":76561197983312920,"connected_time":1940000000000,"state":"active","ping":60},{"user_id":525,"name":"ame🌸","steam_id":76561199052902777,"connected_time":1934000000000,"state":"active","ping":79},{"user_id":387,"name":"Milla-chan supremacy","steam_id":76561198351902011,"connected_time":12499000000000,"state":"active","ping":52}]},{"server_id":143,"name":"Uncletopia | São Paulo | 2 | All Maps","name_short":"sao-2","host":"sao-2.br.uncletopia.com","port":27015,"enabled":true,"region":"sa","cc":"br","latitude":-23.533773,"longitude":-46.62529,"reserved":0,"last_update":"0001-01-01T00:00:00Z","name_a2s":"Uncletopia | São Paulo | 2 | All Maps","protocol":17,"map":"koth_cascade","folder":"tf","game":"Team Fortress","app_id":440,"player_count":0,"max_players":24,"Bots":0,"server_type":"Dedicated","server_os":"Linux","password":true,"vac":true,"version":"7708610","steam_id":85568392924485349,"keywords":["cp","nocrits","nodmgspread","uncletopia"],"game_id":440,"stv_port":27016,"stv_name":"Uncletopia | São Paulo | 2 | All Maps | STV","players":null},{"server_id":7,"name":"Uncletopia | Seattle | 1 | All Maps","name_short":"sea-1","host":"sea-1.us.uncletopia.com","port":27015,"enabled":true,"region":"us-west","cc":"us","latitude":47.608013,"longitude":-122.33517,"reserved":0,"last_update":"0001-01-01T00:00:00Z","name_a2s":"Uncletopia | Seattle | 1 | All Maps","protocol":17,"map":"pl_badwater","folder":"tf","game":"Team Fortress","app_id":440,"player_count":24,"max_players":24,"Bots":0,"server_type":"Dedicated","server_os":"Linux","password":true,"vac":true,"version":"7708610","steam_id":85568392924469997,"keywords":["nocrits","nodmgspread","payload","uncletopia"],"game_id":440,"stv_port":27016,"stv_name":"Uncletopia | Seattle | 1 | All Maps | STV","players":[{"user_id":538,"name":"Mystery Guy","steam_id":76561198359281076,"connected_time":437000000000,"state":"active","ping":49},{"user_id":465,"name":"eraser cat","steam_id":76561199045570463,"connected_time":2214000000000,"state":"active","ping":48},{"user_id":508,"name":"Ayayahuasca","steam_id":76561199002906056,"connected_time":997000000000,"state":"active","ping":43},{"user_id":487,"name":"ikuyo","steam_id":76561198996950205,"connected_time":2151000000000,"state":"active","ping":68},{"user_id":493,"name":"lil raph","steam_id":76561198870682982,"connected_time":1751000000000,"state":"active","ping":52},{"user_id":495,"name":"dave strider","steam_id":76561198065112186,"connected_time":1660000000000,"state":"active","ping":53},{"user_id":546,"name":"SmallDickJohn","steam_id":76561199071213094,"connected_time":317000000000,"state":"active","ping":53},{"user_id":501,"name":"American freedom bird","steam_id":76561198366142388,"connected_time":1349000000000,"state":"active","ping":82},{"user_id":498,"name":"Crake","steam_id":76561198001959071,"connected_time":1603000000000,"state":"active","ping":53},{"user_id":474,"name":"MY WIFE BEATS ME","steam_id":76561199025513044,"connected_time":2214000000000,"state":"active","ping":81},{"user_id":504,"name":"GP-Stealth","steam_id":76561198142906368,"connected_time":1123000000000,"state":"active","ping":69},{"user_id":510,"name":"chompmastr","steam_id":76561199121805899,"connected_time":976000000000,"state":"active","ping":55},{"user_id":503,"name":"Killer_Queen.exe","steam_id":76561198065624326,"connected_time":1199000000000,"state":"active","ping":69},{"user_id":505,"name":"Artillery Cannon | Ham Mafia |","steam_id":76561198840172740,"connected_time":1088000000000,"state":"active","ping":114},{"user_id":507,"name":"festive pocket monster","steam_id":76561198081232540,"connected_time":1054000000000,"state":"active","ping":46},{"user_id":517,"name":"Kitsu ♥","steam_id":76561198091741658,"connected_time":684000000000,"state":"active","ping":75},{"user_id":512,"name":"El Gato Paranoico","steam_id":76561198116567116,"connected_time":863000000000,"state":"active","ping":118},{"user_id":513,"name":"ุ","steam_id":76561198062459671,"connected_time":847000000000,"state":"active","ping":80},{"user_id":514,"name":"squid game","steam_id":76561199248960166,"connected_time":792000000000,"state":"active","ping":37},{"user_id":540,"name":"mrhazman","steam_id":76561198040467069,"connected_time":410000000000,"state":"active","ping":53},{"user_id":532,"name":"stuff","steam_id":76561198190770226,"connected_time":502000000000,"state":"active","ping":52},{"user_id":527,"name":"doomshroom","steam_id":76561198092827250,"connected_time":615000000000,"state":"active","ping":51},{"user_id":555,"name":"Aux","steam_id":76561199091651065,"connected_time":215000000000,"state":"active","ping":64},{"user_id":522,"name":"itBeABruhMoment","steam_id":76561199152720501,"connected_time":659000000000,"state":"active","ping":44}]},{"server_id":119,"name":"Uncletopia | Seattle | 2 | All Maps","name_short":"sea-2","host":"sea-1.us.uncletopia.com","port":27025,"enabled":true,"region":"us-west","cc":"us","latitude":47.608013,"longitude":-122.33517,"reserved":0,"last_update":"0001-01-01T00:00:00Z","name_a2s":"Uncletopia | Seattle | 2 | All Maps","protocol":17,"map":"pl_badwater","folder":"tf","game":"Team Fortress","app_id":440,"player_count":24,"max_players":24,"Bots":0,"server_type":"Dedicated","server_os":"Linux","password":true,"vac":true,"version":"7708610","steam_id":85568392924469998,"keywords":["nocrits","nodmgspread","payload","uncletopia"],"game_id":440,"stv_port":27026,"stv_name":"Uncletopia | Seattle | 2 | All Maps | STV","players":[{"user_id":443,"name":"Himbo Gaming","steam_id":76561198052548519,"connected_time":2564000000000,"state":"active","ping":46},{"user_id":417,"name":"SSBM Pelican","steam_id":76561198040697907,"connected_time":5384000000000,"state":"active","ping":94},{"user_id":369,"name":"Soap Man","steam_id":76561198000490235,"connected_time":8410000000000,"state":"active","ping":67},{"user_id":372,"name":"PROFILE NAME","steam_id":76561199438851854,"connected_time":8010000000000,"state":"active","ping":52},{"user_id":217,"name":"Anon","steam_id":76561198109740776,"connected_time":15959000000000,"state":"active","ping":94},{"user_id":442,"name":"Kenpachi","steam_id":76561198803824764,"connected_time":2601000000000,"state":"active","ping":71},{"user_id":405,"name":"Fire_box41238","steam_id":76561199185673650,"connected_time":6163000000000,"state":"active","ping":49},{"user_id":430,"name":"JacenHan","steam_id":76561198077796718,"connected_time":3745000000000,"state":"active","ping":49},{"user_id":406,"name":"tconnors1976","steam_id":76561198840033336,"connected_time":6144000000000,"state":"active","ping":53},{"user_id":467,"name":"[Bandit]","steam_id":76561197986919852,"connected_time":950000000000,"state":"active","ping":51},{"user_id":458,"name":"MCman","steam_id":76561198412110305,"connected_time":1911000000000,"state":"active","ping":74},{"user_id":459,"name":"I eat cold Mac \u0026 Cheese","steam_id":76561198100385184,"connected_time":1885000000000,"state":"active","ping":84},{"user_id":434,"name":"Idontknow","steam_id":76561199207044048,"connected_time":2966000000000,"state":"active","ping":44},{"user_id":451,"name":"BoX_hEaD101","steam_id":76561198200875467,"connected_time":2313000000000,"state":"active","ping":89},{"user_id":446,"name":"Crazy Hungarian","steam_id":76561198025498172,"connected_time":2417000000000,"state":"active","ping":54},{"user_id":413,"name":"Jimbo Quiz","steam_id":76561199215695536,"connected_time":5886000000000,"state":"active","ping":117},{"user_id":454,"name":"Stapler","steam_id":76561198099295077,"connected_time":2095000000000,"state":"active","ping":62},{"user_id":464,"name":"goldhed","steam_id":76561198051751133,"connected_time":1413000000000,"state":"active","ping":59},{"user_id":447,"name":"josie","steam_id":76561198170848553,"connected_time":2416000000000,"state":"active","ping":47},{"user_id":461,"name":"raindrop","steam_id":76561198023076467,"connected_time":1685000000000,"state":"active","ping":109},{"user_id":429,"name":"lili.winters","steam_id":76561199391478575,"connected_time":3963000000000,"state":"active","ping":76},{"user_id":418,"name":"net rough","steam_id":76561198131458027,"connected_time":5383000000000,"state":"active","ping":152},{"user_id":466,"name":"The CEO of cement","steam_id":76561199107177460,"connected_time":1294000000000,"state":"active","ping":109},{"user_id":457,"name":"h","steam_id":76561198868164815,"connected_time":2053000000000,"state":"active","ping":59}]},{"server_id":17,"name":"Uncletopia | San Francisco | 1 | All Maps","name_short":"sfo-1","host":"sfo-1.us.uncletopia.com","port":27015,"enabled":true,"region":"us-west","cc":"us","latitude":37.77397,"longitude":-122.4313,"reserved":0,"last_update":"0001-01-01T00:00:00Z","name_a2s":"Uncletopia | San Francisco | 1 | All Maps","protocol":17,"map":"koth_cascade","folder":"tf","game":"Team Fortress","app_id":440,"player_count":1,"max_players":24,"Bots":0,"server_type":"Dedicated","server_os":"Linux","password":true,"vac":true,"version":"7708610","steam_id":85568392924469999,"keywords":["cp","nocrits","nodmgspread","uncletopia"],"game_id":440,"stv_port":27016,"stv_name":"Uncletopia | San Francisco | 1 | All Maps | STV","players":[{"user_id":12,"name":"Livin' Like Larry","steam_id":76561198313360974,"connected_time":199000000000,"state":"active","ping":40}]},{"server_id":18,"name":"Uncletopia | San Francisco | 2 | All Maps","name_short":"sfo-2","host":"sfo-1.us.uncletopia.com","port":27025,"enabled":true,"region":"us-west","cc":"us","latitude":37.77397,"longitude":-122.4313,"reserved":0,"last_update":"0001-01-01T00:00:00Z","name_a2s":"Uncletopia | San Francisco | 2 | All Maps","protocol":17,"map":"pl_pier","folder":"tf","game":"Team Fortress","app_id":440,"player_count":24,"max_players":24,"Bots":0,"server_type":"Dedicated","server_os":"Linux","password":true,"vac":true,"version":"7708610","steam_id":85568392924470000,"keywords":["nocrits","nodmgspread","payload","uncletopia"],"game_id":440,"stv_port":27026,"stv_name":"Uncletopia | San Francisco | 2 | All Maps | STV","players":[{"user_id":127,"name":"Dispenser (Goblin King)","steam_id":76561198157878163,"connected_time":3156000000000,"state":"active","ping":77},{"user_id":146,"name":"Nick","steam_id":76561198056329143,"connected_time":2360000000000,"state":"active","ping":61},{"user_id":162,"name":"Grim","steam_id":76561198016978310,"connected_time":923000000000,"state":"active","ping":62},{"user_id":122,"name":"DraconicApprentice","steam_id":76561199192401120,"connected_time":3456000000000,"state":"active","ping":62},{"user_id":153,"name":"TeriyakiDynamite","steam_id":76561198050049346,"connected_time":1157000000000,"state":"active","ping":73},{"user_id":154,"name":"toes","steam_id":76561198069220874,"connected_time":1156000000000,"state":"active","ping":63},{"user_id":156,"name":"PickleKing23","steam_id":76561198179529599,"connected_time":1091000000000,"state":"active","ping":49},{"user_id":140,"name":"Acid","steam_id":76561199233285844,"connected_time":2753000000000,"state":"active","ping":68},{"user_id":142,"name":"ShiverJay","steam_id":76561198080679495,"connected_time":2736000000000,"state":"active","ping":123},{"user_id":167,"name":"lol emoji","steam_id":76561198072796208,"connected_time":670000000000,"state":"active","ping":87},{"user_id":166,"name":"Lock robster","steam_id":76561198978665598,"connected_time":679000000000,"state":"active","ping":32},{"user_id":168,"name":"Zanna","steam_id":76561198015996590,"connected_time":501000000000,"state":"active","ping":57},{"user_id":160,"name":"1 Gallon of Bees","steam_id":76561198297585031,"connected_time":969000000000,"state":"active","ping":62},{"user_id":170,"name":"Just Another Stoned Eevee","steam_id":76561198262852705,"connected_time":469000000000,"state":"active","ping":78},{"user_id":143,"name":"Lambchop","steam_id":76561198043900363,"connected_time":2659000000000,"state":"active","ping":60},{"user_id":151,"name":"K-2","steam_id":76561198322606535,"connected_time":1170000000000,"state":"active","ping":70},{"user_id":148,"name":"Eggnog","steam_id":76561197968179862,"connected_time":2335000000000,"state":"active","ping":70},{"user_id":169,"name":"Punished Jඞff #NeverSimpAgain","steam_id":76561198304252584,"connected_time":481000000000,"state":"active","ping":57},{"user_id":161,"name":"corbenis","steam_id":76561199012442511,"connected_time":933000000000,"state":"active","ping":61},{"user_id":171,"name":"boxy443 (f2p)","steam_id":76561199386363103,"connected_time":468000000000,"state":"active","ping":71},{"user_id":152,"name":"tS | maxgb2000","steam_id":76561198079886300,"connected_time":1168000000000,"state":"active","ping":64},{"user_id":164,"name":"bongcloud","steam_id":76561198116337540,"connected_time":799000000000,"state":"active","ping":83},{"user_id":165,"name":"Gaming123","steam_id":76561198801780168,"connected_time":766000000000,"state":"active","ping":120},{"user_id":137,"name":"what da dog doin","steam_id":76561198090573639,"connected_time":3029000000000,"state":"active","ping":61}]},{"server_id":19,"name":"Uncletopia | San Francisco | 3 | No Payload","name_short":"sfo-3","host":"sfo-1.us.uncletopia.com","port":27035,"enabled":true,"region":"us-west","cc":"us","latitude":37.77397,"longitude":-122.4313,"reserved":0,"last_update":"0001-01-01T00:00:00Z","name_a2s":"Uncletopia | San Francisco | 3 | No Payload","protocol":17,"map":"cp_junction_final","folder":"tf","game":"Team Fortress","app_id":440,"player_count":0,"max_players":24,"Bots":0,"server_type":"Dedicated","server_os":"Linux","password":true,"vac":true,"version":"7708610","steam_id":85568392924742824,"keywords":["cp","nocrits","nodmgspread","uncletopia"],"game_id":440,"stv_port":27036,"stv_name":"Uncletopia | San Francisco | 3 | No Payload | STV","players":null},{"server_id":20,"name":"Uncletopia | San Francisco | 4 | Community","name_short":"sfo-4","host":"sfo-1.us.uncletopia.com","port":27045,"enabled":true,"region":"us-west","cc":"us","latitude":37.77397,"longitude":-122.4313,"reserved":0,"last_update":"0001-01-01T00:00:00Z","name_a2s":"Uncletopia | San Francisco | 4 | Community","protocol":17,"map":"workshop/koth_ramjam_v2_b2.ugc2865676487","folder":"tf","game":"Team Fortress","app_id":440,"player_count":0,"max_players":24,"Bots":0,"server_type":"Dedicated","server_os":"Linux","password":true,"vac":true,"version":"7708610","steam_id":85568392924742826,"keywords":["cp","nocrits","nodmgspread","uncletopia"],"game_id":440,"stv_port":27046,"stv_name":"Uncletopia | San Francisco | 4 | Community | STV","players":null},{"server_id":141,"name":"Uncletopia | Sydney | 1 | All Maps","name_short":"syd-1","host":"syd-1.au.uncletopia.com","port":27015,"enabled":true,"region":"au","cc":"au","latitude":-33.865143,"longitude":151.2099,"reserved":0,"last_update":"0001-01-01T00:00:00Z","name_a2s":"Uncletopia | Sydney | 1 | All Maps","protocol":17,"map":"cp_dustbowl","folder":"tf","game":"Team Fortress","app_id":440,"player_count":24,"max_players":24,"Bots":0,"server_type":"Dedicated","server_os":"Linux","password":true,"vac":true,"version":"7708610","steam_id":85568392924470001,"keywords":["cp","nocrits","nodmgspread","uncletopia"],"game_id":440,"stv_port":27016,"stv_name":"Uncletopia | Sydney | 1 | All Maps | STV","players":[{"user_id":269,"name":"Dr Barry Mundy PhD","steam_id":76561198034512686,"connected_time":2847000000000,"state":"active","ping":45},{"user_id":285,"name":"The Fungus","steam_id":76561199205924575,"connected_time":1546000000000,"state":"active","ping":57},{"user_id":280,"name":"DeezNutz69Gamer","steam_id":76561199221531190,"connected_time":1919000000000,"state":"active","ping":147},{"user_id":281,"name":"Hydraulic Foreskin","steam_id":76561198195563143,"connected_time":1842000000000,"state":"active","ping":67},{"user_id":296,"name":"FIX","steam_id":76561197995157189,"connected_time":191000000000,"state":"active","ping":43},{"user_id":209,"name":"pixerler2point0","steam_id":76561199102787464,"connected_time":6260000000000,"state":"active","ping":60},{"user_id":262,"name":"Jazbae","steam_id":76561198350910486,"connected_time":3004000000000,"state":"active","ping":59},{"user_id":275,"name":"Raw Dog God","steam_id":76561198833290341,"connected_time":2332000000000,"state":"active","ping":91},{"user_id":253,"name":"B4SIC","steam_id":76561198859236021,"connected_time":4116000000000,"state":"active","ping":68},{"user_id":259,"name":"swag messiah","steam_id":76561198387274195,"connected_time":3015000000000,"state":"active","ping":102},{"user_id":284,"name":"lime.daleks","steam_id":76561198155866980,"connected_time":1576000000000,"state":"active","ping":62},{"user_id":279,"name":"jimmy.grasinili143@yahoo.com","steam_id":76561199017917212,"connected_time":1945000000000,"state":"active","ping":56},{"user_id":265,"name":"KeeperOfBalance","steam_id":76561198028070089,"connected_time":2927000000000,"state":"active","ping":82},{"user_id":294,"name":"ANiceCupOfJam","steam_id":76561199256914958,"connected_time":610000000000,"state":"active","ping":55},{"user_id":298,"name":"Dr. Hoppity","steam_id":76561197999715646,"connected_time":142000000000,"state":"active","ping":61},{"user_id":225,"name":"Detergent Burger","steam_id":76561198362462506,"connected_time":5727000000000,"state":"active","ping":65},{"user_id":297,"name":"Lateralus","steam_id":76561198007865860,"connected_time":177000000000,"state":"active","ping":113},{"user_id":276,"name":"nameex","steam_id":76561198044686536,"connected_time":2326000000000,"state":"active","ping":63},{"user_id":295,"name":"Kratos","steam_id":76561198392444454,"connected_time":514000000000,"state":"active","ping":82},{"user_id":283,"name":"phu999m","steam_id":76561199028574184,"connected_time":1669000000000,"state":"active","ping":154},{"user_id":271,"name":"Top G","steam_id":76561198001134675,"connected_time":2769000000000,"state":"active","ping":39},{"user_id":286,"name":"Puelfire","steam_id":76561198066315666,"connected_time":1504000000000,"state":"active","ping":87},{"user_id":292,"name":"Camothy","steam_id":76561198023285645,"connected_time":731000000000,"state":"active","ping":80},{"user_id":218,"name":"KuraiGOD","steam_id":76561198067641096,"connected_time":6059000000000,"state":"active","ping":47}]},{"server_id":123,"name":"Uncletopia | Sydney | 2 | All Maps","name_short":"syd-2","host":"syd-1.au.uncletopia.com","port":27025,"enabled":true,"region":"au","cc":"au","latitude":-33.865143,"longitude":151.2099,"reserved":0,"last_update":"0001-01-01T00:00:00Z","name_a2s":"Uncletopia | Sydney | 2 | All Maps","protocol":17,"map":"cp_snakewater_final1","folder":"tf","game":"Team Fortress","app_id":440,"player_count":9,"max_players":24,"Bots":0,"server_type":"Dedicated","server_os":"Linux","password":true,"vac":true,"version":"7708610","steam_id":85568392924470002,"keywords":["cp","nocrits","nodmgspread","uncletopia"],"game_id":440,"stv_port":27026,"stv_name":"Uncletopia | Sydney | 2 | All Maps | STV","players":[{"user_id":15,"name":"can of beans","steam_id":76561199005815714,"connected_time":2619000000000,"state":"active","ping":59},{"user_id":16,"name":"Pickled Cow","steam_id":76561198292517991,"connected_time":2562000000000,"state":"active","ping":45},{"user_id":21,"name":"Almond_Robin","steam_id":76561198823996617,"connected_time":897000000000,"state":"active","ping":82},{"user_id":22,"name":"Scienceaturtles","steam_id":76561198827854308,"connected_time":891000000000,"state":"active","ping":72},{"user_id":23,"name":"JayTheLlamaKing","steam_id":76561198836354249,"connected_time":877000000000,"state":"active","ping":48},{"user_id":24,"name":"scout tf2","steam_id":76561198251386932,"connected_time":874000000000,"state":"active","ping":62},{"user_id":25,"name":"quiche","steam_id":76561199389567487,"connected_time":648000000000,"state":"active","ping":171},{"user_id":26,"name":"a loaf of bread","steam_id":76561198206424961,"connected_time":491000000000,"state":"active","ping":64},{"user_id":29,"name":"Taliban member","steam_id":76561198964787160,"connected_time":321000000000,"state":"active","ping":63}]},{"server_id":395,"name":"Uncletopia | Sydney | 3 | All Maps","name_short":"syd-3","host":"syd-1.au.uncletopia.com","port":27035,"enabled":true,"region":"au","cc":"au","latitude":-33.865143,"longitude":151.2099,"reserved":0,"last_update":"0001-01-01T00:00:00Z","name_a2s":"Uncletopia | Sydney | 3 | All Maps","protocol":17,"map":"pl_thundermountain","folder":"tf","game":"Team Fortress","app_id":440,"player_count":21,"max_players":24,"Bots":0,"server_type":"Dedicated","server_os":"Linux","password":true,"vac":true,"version":"7708610","steam_id":85568392925194467,"keywords":["nocrits","nodmgspread","payload","uncletopia"],"game_id":440,"stv_port":27036,"stv_name":"Uncletopia | Sydney | 3 | All Maps | STV","players":[{"user_id":171,"name":"Mission","steam_id":76561199218935728,"connected_time":458000000000,"state":"active","ping":74},{"user_id":168,"name":"Sypher","steam_id":76561198010674657,"connected_time":826000000000,"state":"active","ping":50},{"user_id":177,"name":"whiteshaq","steam_id":76561198131988811,"connected_time":317000000000,"state":"active","ping":75},{"user_id":152,"name":"EpicGuy4227","steam_id":76561198094132328,"connected_time":1331000000000,"state":"active","ping":54},{"user_id":159,"name":"cornbred","steam_id":76561198027726671,"connected_time":1091000000000,"state":"active","ping":44},{"user_id":180,"name":"Hona","steam_id":76561198221809496,"connected_time":156000000000,"state":"active","ping":59},{"user_id":143,"name":"ljpaters","steam_id":76561198094354484,"connected_time":1959000000000,"state":"active","ping":52},{"user_id":138,"name":"canned tuna","steam_id":76561198420727269,"connected_time":2376000000000,"state":"active","ping":44},{"user_id":122,"name":"Parachuting_Parakeet","steam_id":76561198049986399,"connected_time":3898000000000,"state":"active","ping":57},{"user_id":160,"name":"lizzy-wizzy","steam_id":76561198281156018,"connected_time":1078000000000,"state":"active","ping":69},{"user_id":169,"name":"Fresh Mulk","steam_id":76561198078058482,"connected_time":817000000000,"state":"active","ping":59},{"user_id":150,"name":"No comment","steam_id":76561199305879202,"connected_time":1380000000000,"state":"active","ping":94},{"user_id":181,"name":"Eddie","steam_id":76561198081031350,"connected_time":143000000000,"state":"active","ping":44},{"user_id":170,"name":"nice lad","steam_id":76561198055333637,"connected_time":761000000000,"state":"active","ping":36},{"user_id":178,"name":"little raw meat boy","steam_id":76561199248254676,"connected_time":271000000000,"state":"active","ping":61},{"user_id":183,"name":"Tsolis:","steam_id":76561198013950614,"connected_time":40000000000,"state":"spawning","ping":76},{"user_id":175,"name":"Critz Eastwood","steam_id":76561198050094688,"connected_time":390000000000,"state":"active","ping":55},{"user_id":182,"name":"haiiii ^_^ hi!! \u003c3 haiii hii :3","steam_id":76561198930683342,"connected_time":127000000000,"state":"active","ping":56},{"user_id":184,"name":"The Zoo","steam_id":76561198061713340,"connected_time":32000000000,"state":"spawning","ping":328},{"user_id":165,"name":"FreedomSpite","steam_id":76561198152368094,"connected_time":938000000000,"state":"active","ping":31},{"user_id":173,"name":"Zort","steam_id":76561198056414289,"connected_time":417000000000,"state":"active","ping":63}]},{"server_id":396,"name":"Uncletopia | Sydney | 4 | All Maps","name_short":"syd-4","host":"syd-1.au.uncletopia.com","port":27045,"enabled":true,"region":"au","cc":"au","latitude":-33.865143,"longitude":151.2099,"reserved":0,"last_update":"0001-01-01T00:00:00Z","name_a2s":"Uncletopia | Sydney | 4 | All Maps","protocol":17,"map":"koth_lakeside_final","folder":"tf","game":"Team Fortress","app_id":440,"player_count":0,"max_players":24,"Bots":0,"server_type":"Dedicated","server_os":"Linux","password":true,"vac":true,"version":"7708610","steam_id":85568392925397958,"keywords":["cp","nocrits","nodmgspread","uncletopia"],"game_id":440,"stv_port":0,"stv_name":"","players":null},{"server_id":58,"name":"Uncletopia | Sydney | 5 | No Payload","name_short":"syd-5","host":"syd-1.au.uncletopia.com","port":27055,"enabled":true,"region":"au","cc":"au","latitude":-33.865143,"longitude":151.2099,"reserved":0,"last_update":"0001-01-01T00:00:00Z","name_a2s":"Uncletopia | Sydney | 5 | No Payload","protocol":17,"map":"koth_cascade","folder":"tf","game":"Team Fortress","app_id":440,"player_count":0,"max_players":24,"Bots":0,"server_type":"Dedicated","server_os":"Linux","password":true,"vac":true,"version":"7708610","steam_id":85568392925397959,"keywords":["cp","nocrits","nodmgspread","uncletopia"],"game_id":440,"stv_port":0,"stv_name":"","players":null},{"server_id":59,"name":"Uncletopia | Sydney | 6 | Community","name_short":"syd-6","host":"syd-1.au.uncletopia.com","port":27065,"enabled":true,"region":"au","cc":"au","latitude":-33.865143,"longitude":151.2099,"reserved":0,"last_update":"0001-01-01T00:00:00Z","name_a2s":"Uncletopia | Sydney | 6 | Community","protocol":17,"map":"pl_borneo","folder":"tf","game":"Team Fortress","app_id":440,"player_count":0,"max_players":24,"Bots":0,"server_type":"Dedicated","server_os":"Linux","password":true,"vac":true,"version":"7708610","steam_id":85568392925397960,"keywords":["nocrits","nodmgspread","payload","uncletopia"],"game_id":440,"stv_port":0,"stv_name":"","players":null},{"server_id":49,"name":"Uncletopia | Warsaw | 1 | All Maps","name_short":"waw-1","host":"waw-1.pl.uncletopia.com","port":27015,"enabled":true,"region":"eu","cc":"pl","latitude":52.2297,"longitude":21.017532,"reserved":0,"last_update":"0001-01-01T00:00:00Z","name_a2s":"Uncletopia | Warsaw | 1 | All Maps","protocol":17,"map":"cp_process_final","folder":"tf","game":"Team Fortress","app_id":440,"player_count":0,"max_players":24,"Bots":0,"server_type":"Dedicated","server_os":"Linux","password":true,"vac":true,"version":"7708610","steam_id":85568392925397850,"keywords":["cp","nocrits","nodmgspread","uncletopia"],"game_id":440,"stv_port":27016,"stv_name":"Uncletopia | Warsaw | 1 | All Maps | STV","players":null},{"server_id":50,"name":"Uncletopia | Warsaw | 2 | All Maps","name_short":"waw-2","host":"waw-1.pl.uncletopia.com","port":27025,"enabled":true,"region":"eu","cc":"pl","latitude":52.2297,"longitude":21.017532,"reserved":0,"last_update":"0001-01-01T00:00:00Z","name_a2s":"Uncletopia | Warsaw | 2 | All Maps","protocol":17,"map":"koth_highpass","folder":"tf","game":"Team Fortress","app_id":440,"player_count":0,"max_players":24,"Bots":0,"server_type":"Dedicated","server_os":"Linux","password":true,"vac":true,"version":"7708610","steam_id":85568392925397851,"keywords":["cp","nocrits","nodmgspread","uncletopia"],"game_id":440,"stv_port":27026,"stv_name":"Uncletopia | Warsaw | 2 | All Maps | STV","players":null},{"server_id":51,"name":"Uncletopia | Warsaw | 3 | All Maps","name_short":"waw-3","host":"waw-1.pl.uncletopia.com","port":27035,"enabled":true,"region":"eu","cc":"pl","latitude":52.2297,"longitude":21.017532,"reserved":0,"last_update":"0001-01-01T00:00:00Z","name_a2s":"Uncletopia | Warsaw | 3 | All Maps","protocol":17,"map":"koth_cascade","folder":"tf","game":"Team Fortress","app_id":440,"player_count":0,"max_players":24,"Bots":0,"server_type":"Dedicated","server_os":"Linux","password":true,"vac":true,"version":"7708610","steam_id":85568392925397852,"keywords":["cp","nocrits","nodmgspread","uncletopia"],"game_id":440,"stv_port":0,"stv_name":"","players":null},{"server_id":52,"name":"Uncletopia | Warsaw | 4 | All Maps","name_short":"waw-4","host":"waw-1.pl.uncletopia.com","port":27045,"enabled":true,"region":"eu","cc":"pl","latitude":52.2297,"longitude":21.017532,"reserved":0,"last_update":"0001-01-01T00:00:00Z","name_a2s":"Uncletopia | Warsaw | 4 | All Maps","protocol":17,"map":"pl_frontier_final","folder":"tf","game":"Team Fortress","app_id":440,"player_count":0,"max_players":24,"Bots":0,"server_type":"Dedicated","server_os":"Linux","password":true,"vac":true,"version":"7708610","steam_id":85568392925397853,"keywords":["nocrits","nodmgspread","payload","uncletopia"],"game_id":440,"stv_port":27046,"stv_name":"Uncletopia | Warsaw | 4 | All Maps | STV","players":null},{"server_id":53,"name":"Uncletopia | Warsaw | 5 | No Payload","name_short":"waw-5","host":"waw-1.pl.uncletopia.com","port":27055,"enabled":true,"region":"eu","cc":"pl","latitude":52.2297,"longitude":21.017532,"reserved":0,"last_update":"0001-01-01T00:00:00Z","name_a2s":"Uncletopia | Warsaw | 5 | No Payload","protocol":17,"map":"cp_steel","folder":"tf","game":"Team Fortress","app_id":440,"player_count":0,"max_players":24,"Bots":0,"server_type":"Dedicated","server_os":"Linux","password":true,"vac":true,"version":"7708610","steam_id":85568392925397854,"keywords":["cp","nocrits","nodmgspread","uncletopia"],"game_id":440,"stv_port":27056,"stv_name":"Uncletopia | Warsaw | 5 | No Payload | STV","players":null},{"server_id":54,"name":"Uncletopia | Warsaw | 6 | Community","name_short":"waw-6","host":"waw-1.pl.uncletopia.com","port":27065,"enabled":true,"region":"eu","cc":"pl","latitude":52.2297,"longitude":21.017532,"reserved":0,"last_update":"0001-01-01T00:00:00Z","name_a2s":"Uncletopia | Warsaw | 6 | Community","protocol":17,"map":"workshop/pl_vigil_rc9.ugc1266210012","folder":"tf","game":"Team Fortress","app_id":440,"player_count":0,"max_players":24,"Bots":0,"server_type":"Dedicated","server_os":"Linux","password":true,"vac":true,"version":"7708610","steam_id":85568392925397856,"keywords":["nocrits","nodmgspread","payload","uncletopia"],"game_id":440,"stv_port":27066,"stv_name":"Uncletopia | Warsaw | 6 | Community | STV","players":null}]}