{"status":true,"message":"","result":[{"server_id":9,"name":"Uncletopia | Atlanta | 1 | All Maps","name_short":"atl-1","host":"atl-1.us.uncletopia.com","port":27015,"enabled":true,"region":"us-east","cc":"us","latitude":33.753746,"longitude":-84.38633,"reserved":0,"last_update":"0001-01-01T00:00:00Z","name_a2s":"Uncletopia | Atlanta | 1 | All Maps","protocol":17,"map":"pl_upward","folder":"tf","game":"Team Fortress","app_id":440,"player_count":24,"max_players":24,"Bots":0,"server_type":"Dedicated","server_os":"Linux","password":true,"vac":true,"version":"7757534","steam_id":85568392924469982,"keywords":["nocrits","nodmgspread","payload","uncletopia"],"game_id":440,"stv_port":27016,"stv_name":"Uncletopia | Atlanta | 1 | All Maps | STV","players":[{"user_id":506,"name":"Space_Cowboy","steam_id":76561198202240772,"connected_time":2200000000000,"state":"active","ping":71},{"user_id":530,"name":"Rawhate","steam_id":76561198079736945,"connected_time":424000000000,"state":"active","ping":100},{"user_id":523,"name":"Motreir","steam_id":76561198151717946,"connected_time":669000000000,"state":"active","ping":79},{"user_id":521,"name":"Tough Puffin","steam_id":76561198024011010,"connected_time":830000000000,"state":"active","ping":93},{"user_id":522,"name":"SparkStorm","steam_id":76561198095817025,"connected_time":714000000000,"state":"active","ping":36},{"user_id":520,"name":"M249 | Spectre","steam_id":76561198118334485,"connected_time":1124000000000,"state":"active","ping":88},{"user_id":526,"name":"kidd thunder","steam_id":76561198105515914,"connected_time":646000000000,"state":"active","ping":89},{"user_id":507,"name":"paetho YT","steam_id":76561198152690003,"connected_time":2200000000000,"state":"active","ping":52},{"user_id":525,"name":"Herr Müller","steam_id":76561198064876829,"connected_time":650000000000,"state":"active","ping":74},{"user_id":518,"name":"ShapedSilver","steam_id":76561199073305310,"connected_time":1415000000000,"state":"active","ping":76},{"user_id":538,"name":"chubbbo","steam_id":76561198943598378,"connected_time":103000000000,"state":"active","ping":44},{"user_id":527,"name":"Grand Wizard Autismo","steam_id":76561198069834979,"connected_time":642000000000,"state":"active","ping":54},{"user_id":501,"name":"Jin Gulilo","steam_id":76561198065151242,"connected_time":3216000000000,"state":"active","ping":76},{"user_id":534,"name":"da bong lord","steam_id":76561198301019618,"connected_time":248000000000,"state":"active","ping":114},{"user_id":498,"name":"morphine","steam_id":76561198072124799,"connected_time":3823000000000,"state":"active","ping":85},{"user_id":537,"name":"Aniz","steam_id":76561199226665024,"connected_time":153000000000,"state":"active","ping":162},{"user_id":513,"name":"TwizzstedLlama","steam_id":76561198054021548,"connected_time":2127000000000,"state":"active","ping":70},{"user_id":515,"name":"bogginwater","steam_id":76561198155547142,"connected_time":1953000000000,"state":"active","ping":65},{"user_id":528,"name":"G_Bob","steam_id":76561198098133233,"connected_time":642000000000,"state":"active","ping":60},{"user_id":529,"name":"Halibard","steam_id":76561198011239659,"connected_time":642000000000,"state":"active","ping":103},{"user_id":439,"name":"Bag","steam_id":76561198012395490,"connected_time":7335000000000,"state":"active","ping":57},{"user_id":441,"name":"Jabawakai","steam_id":76561198088881254,"connected_time":7123000000000,"state":"active","ping":72},{"user_id":535,"name":"Mister","steam_id":76561198097164652,"connected_time":248000000000,"state":"active","ping":66},{"user_id":377,"name":"Oddball","steam_id":76561198040440984,"connected_time":12496000000000,"state":"active","ping":90}]},{"server_id":104,"name":"Uncletopia | Atlanta | 2 | All Maps","name_short":"atl-2","host":"atl-1.us.uncletopia.com","port":27025,"enabled":true,"region":"us-east","cc":"us","latitude":33.753746,"longitude":-84.38633,"reserved":0,"last_update":"0001-01-01T00:00:00Z","name_a2s":"Uncletopia | Atlanta | 2 | All Maps","protocol":17,"map":"cp_dustbowl","folder":"tf","game":"Team Fortress","app_id":440,"player_count":24,"max_players":24,"Bots":0,"server_type":"Dedicated","server_os":"Linux","password":true,"vac":true,"version":"7757534","steam_id":85568392924469983,"keywords":["cp","nocrits","nodmgspread","uncletopia"],"game_id":440,"stv_port":27026,"stv_name":"Uncletopia | Atlanta | 2 | All Maps | STV","players":[{"user_id":467,"name":"sly","steam_id":76561198139240845,"connected_time":259000000000,"state":"active","ping":63},{"user_id":461,"name":"TruffleShuffl","steam_id":76561198833742625,"connected_time":602000000000,"state":"active","ping":56},{"user_id":447,"name":"a jungle ride cool","steam_id":76561198068543939,"connected_time":873000000000,"state":"active","ping":97},{"user_id":434,"name":"Cassini","steam_id":76561198318526294,"connected_time":1237000000000,"state":"active","ping":57},{"user_id":409,"name":"bussy enjoyer","steam_id":76561198381136912,"connected_time":3627000000000,"state":"active","ping":81},{"user_id":396,"name":"Autism Cat","steam_id":76561198048476555,"connected_time":4210000000000,"state":"active","ping":97},{"user_id":456,"name":"Trevj1012","steam_id":76561198107906712,"connected_time":752000000000,"state":"active","ping":73},{"user_id":457,"name":"10 years in the joint man","steam_id":76561199007540371,"connected_time":742000000000,"state":"active","ping":81},{"user_id":436,"name":"Chlorophyll","steam_id":76561198153121196,"connected_time":1214000000000,"state":"active","ping":91},{"user_id":429,"name":"KoolBucky","steam_id":76561198147927648,"connected_time":1450000000000,"state":"active","ping":67},{"user_id":450,"name":"Rock Bottom","steam_id":76561198097815395,"connected_time":835000000000,"state":"active","ping":85},{"user_id":458,"name":"HanakoToast","steam_id":76561198045233131,"connected_time":703000000000,"state":"active","ping":127},{"user_id":443,"name":"SpaceLeezerd","steam_id":76561198171026678,"connected_time":981000000000,"state":"active","ping":67},{"user_id":440,"name":"totally not a pile of beans","steam_id":76561198119851931,"connected_time":1165000000000,"state":"active","ping":77},{"user_id":427,"name":"Biflexual","steam_id":76561198317718938,"connected_time":1581000000000,"state":"active","ping":93},{"user_id":465,"name":"Marty Mailbox","steam_id":76561198024974886,"connected_time":284000000000,"state":"active","ping":75},{"user_id":432,"name":"Thirty-Two Double-Yoos","steam_id":76561198068231069,"connected_time":1260000000000,"state":"active","ping":112},{"user_id":462,"name":"Lane","steam_id":76561197965828506,"connected_time":563000000000,"state":"active","ping":46},{"user_id":438,"name":"grimy waifu","steam_id":76561198013053082,"connected_time":1197000000000,"state":"active","ping":70},{"user_id":451,"name":"いちごまろ","steam_id":76561198166100997,"connected_time":832000000000,"state":"active","ping":74},{"user_id":452,"name":"i eat pallet","steam_id":76561198101378377,"connected_time":831000000000,"state":"active","ping":93},{"user_id":362,"name":"Captain Emerald The Changeling","steam_id":76561198320651177,"connected_time":7206000000000,"state":"active","ping":76},{"user_id":464,"name":"Speedy","steam_id":76561198080761661,"connected_time":456000000000,"state":"active","ping":83},{"user_id":466,"name":"Chemist","steam_id":76561198175623743,"connected_time":277000000000,"state":"active","ping":67}]},{"server_id":400,"name":"Uncletopia | Atlanta | 3 | Community","name_short":"atl-3","host":"atl-1.us.uncletopia.com","port":27035,"enabled":true,"region":"us-east","cc":"us","latitude":33.753746,"longitude":-84.38633,"reserved":0,"last_update":"0001-01-01T00:00:00Z","name_a2s":"Uncletopia | Atlanta | 3 | Community","protocol":17,"map":"workshop/koth_ramjam_rc1.ugc459778887","folder":"tf","game":"Team Fortress","app_id":440,"player_count":24,"max_players":24,"Bots":0,"server_type":"Dedicated","server_os":"Linux","password":true,"vac":true,"version":"7757534","steam_id":85568392924515187,"keywords":["cp","nocrits","nodmgspread","uncletopia"],"game_id":440,"stv_port":27036,"stv_name":"Uncletopia | Atlanta | 3 | Community | STV","players":[{"user_id":158,"name":"The Ghost of Jay Leno","steam_id":76561198058938897,"connected_time":3614000000000,"state":"active","ping":75},{"user_id":180,"name":"plasmaofthedawn","steam_id":76561198287916194,"connected_time":1427000000000,"state":"active","ping":61},{"user_id":175,"name":"OY!","steam_id":76561198044189319,"connected_time":1627000000000,"state":"active","ping":104},{"user_id":187,"name":"troll","steam_id":76561198040890252,"connected_time":623000000000,"state":"active","ping":54},{"user_id":194,"name":"Dist","steam_id":76561198029442784,"connected_time":20000000000,"state":"active","ping":57},{"user_id":167,"name":"i live in your attic","steam_id":76561198796525948,"connected_time":2715000000000,"state":"active","ping":52},{"user_id":189,"name":"felted","steam_id":76561198099507130,"connected_time":553000000000,"state":"active","ping":99},{"user_id":177,"name":"M4TT","steam_id":76561198118496274,"connected_time":1528000000000,"state":"active","ping":75},{"user_id":137,"name":"Daz","steam_id":76561198041431938,"connected_time":4923000000000,"state":"active","ping":72},{"user_id":164,"name":"Dask","steam_id":76561198043385839,"connected_time":2962000000000,"state":"active","ping":74},{"user_id":181,"name":"Mr_Frosty","steam_id":76561199380389079,"connected_time":1293000000000,"state":"active","ping":71},{"user_id":178,"name":"BreakfastTacos","steam_id":76561198847620442,"connected_time":1522000000000,"state":"active","ping":82},{"user_id":183,"name":"laszlo","steam_id":76561198141198352,"connected_time":1055000000000,"state":"active","ping":60},{"user_id":190,"name":"Blue Zelda","steam_id":76561198022750476,"connected_time":537000000000,"state":"active","ping":76},{"user_id":166,"name":"Thotimus Begonimus","steam_id":76561197970275938,"connected_time":2761000000000,"state":"active","ping":43},{"user_id":170,"name":"Tranq","steam_id":76561197967250757,"connected_time":2659000000000,"state":"active","ping":75},{"user_id":179,"name":"beyonder","steam_id":76561198045844070,"connected_time":1493000000000,"state":"active","ping":89},{"user_id":141,"name":"Mr. Green","steam_id":76561199172956318,"connected_time":4122000000000,"state":"active","ping":65},{"user_id":182,"name":"Peketo","steam_id":76561199104376294,"connected_time":1285000000000,"state":"active","ping":71},{"user_id":143,"name":"Muffin","steam_id":76561198209987299,"connected_time":4116000000000,"state":"active","ping":122},{"user_id":174,"name":"how do i girl???","steam_id":76561198050290565,"connected_time":1645000000000,"state":"active","ping":58},{"user_id":191,"name":"Ramalho","steam_id":76561198909009076,"connected_time":516000000000,"state":"active","ping":183},{"user_id":192,"name":"Hard Soap","steam_id":76561198267905614,"connected_time":418000000000,"state":"active","ping":63},{"user_id":193,"name":"ゴ?!Jon Chainsaw!?ゴ","steam_id":76561198400240040,"connected_time":326000000000,"state":"active","ping":85}]},{"server_id":401,"name":"Uncletopia | Atlanta | 4 | No Payload","name_short":"atl-4","host":"atl-1.us.uncletopia.com","port":27045,"enabled":true,"region":"us-east","cc":"us","latitude":33.753746,"longitude":-84.38633,"reserved":0,"last_update":"0001-01-01T00:00:00Z","name_a2s":"","protocol":0,"map":"","folder":"","game":"","app_id":0,"player_count":0,"max_players":0,"Bots":0,"server_type":"","server_os":"","password":false,"vac":false,"version":"","steam_id":0,"keywords":null,"game_id":0,"stv_port":0,"stv_name":"","players":null},{"server_id":2,"name":"Uncletopia | Chicago | 1 | All Maps","name_short":"chi-1","host":"chi-1.us.uncletopia.com","port":27015,"enabled":true,"region":"us-central","cc":"us","latitude":41.881832,"longitude":-87.62318,"reserved":0,"last_update":"0001-01-01T00:00:00Z","name_a2s":"Uncletopia | Chicago | 1 | All Maps","protocol":17,"map":"koth_sawmill","folder":"tf","game":"Team Fortress","app_id":440,"player_count":20,"max_players":24,"Bots":0,"server_type":"Dedicated","server_os":"Linux","password":true,"vac":true,"version":"7757534","steam_id":85568392924469984,"keywords":["cp","nocrits","nodmgspread","uncletopia"],"game_id":440,"stv_port":27016,"stv_name":"Uncletopia | Chicago | 1 | All Maps | STV","players":[{"user_id":457,"name":"Bear of the Polar Variety","steam_id":76561198370330710,"connected_time":3475000000000,"state":"active","ping":46},{"user_id":452,"name":"DuckKey","steam_id":76561198904477889,"connected_time":4195000000000,"state":"active","ping":59},{"user_id":494,"name":"aversa","steam_id":76561198840460101,"connected_time":409000000000,"state":"active","ping":60},{"user_id":498,"name":"Lowvast","steam_id":76561198068455981,"connected_time":100000000000,"state":"active","ping":84},{"user_id":470,"name":"Filthy Acts at Reasonable Price","steam_id":76561198354615890,"connected_time":2333000000000,"state":"active","ping":56},{"user_id":472,"name":"Thy.Roid","steam_id":76561198122291992,"connected_time":2329000000000,"state":"active","ping":48},{"user_id":495,"name":"Sturt","steam_id":76561198418100672,"connected_time":391000000000,"state":"active","ping":60},{"user_id":488,"name":"Craig Isonychia","steam_id":76561198272013678,"connected_time":699000000000,"state":"active","ping":71},{"user_id":451,"name":"Astro Knight","steam_id":76561198062767484,"connected_time":4588000000000,"state":"active","ping":83},{"user_id":486,"name":"MoanfulMilk","steam_id":76561199229169396,"connected_time":719000000000,"state":"active","ping":72},{"user_id":419,"name":"Crimson","steam_id":76561198129326627,"connected_time":7434000000000,"state":"active","ping":75},{"user_id":479,"name":"Hylic","steam_id":76561199051314589,"connected_time":1961000000000,"state":"active","ping":72},{"user_id":496,"name":"Carnoraptor 《one pIECE?\u003e?》","steam_id":76561199061302377,"connected_time":370000000000,"state":"active","ping":75},{"user_id":469,"name":"Adored","steam_id":76561199121862728,"connected_time":2637000000000,"state":"active","ping":68},{"user_id":483,"name":"birbmanminty","steam_id":76561199159145275,"connected_time":1285000000000,"state":"active","ping":104},{"user_id":497,"name":"toho","steam_id":76561198117747254,"connected_time":361000000000,"state":"active","ping":60},{"user_id":399,"name":"Queen Frau the Round","steam_id":76561197999942134,"connected_time":9415000000000,"state":"active","ping":46},{"user_id":492,"name":"Thundermonkey (SMOKE)","steam_id":76561198017631728,"connected_time":507000000000,"state":"active","ping":63},{"user_id":480,"name":"Mocanthl","steam_id":76561198043778324,"connected_time":1843000000000,"state":"active","ping":70},{"user_id":493,"name":"Hovg9000.TV","steam_id":76561199191556710,"connected_time":500000000000,"state":"active","ping":100}]},{"server_id":106,"name":"Uncletopia | Chicago | 2 | All Maps","name_short":"chi-2","host":"chi-1.us.uncletopia.com","port":27025,"enabled":true,"region":"us-central","cc":"us","latitude":41.881832,"longitude":-87.62318,"reserved":0,"last_update":"0001-01-01T00:00:00Z","name_a2s":"Uncletopia | Chicago | 2 | All Maps","protocol":17,"map":"pl_badwater","folder":"tf","game":"Team Fortress","app_id":440,"player_count":24,"max_players":24,"Bots":0,"server_type":"Dedicated","server_os":"Linux","password":true,"vac":true,"version":"7757534","steam_id":85568392924469985,"keywords":["nocrits","nodmgspread","payload","uncletopia"],"game_id":440,"stv_port":27026,"stv_name":"Uncletopia | Chicago | 2 | All Maps | STV","players":[{"user_id":733,"name":"Smittywerbenjager-manjenson","steam_id":76561198067060742,"connected_time":1424000000000,"state":"active","ping":64},{"user_id":738,"name":"Ozirion","steam_id":76561198108901767,"connected_time":1365000000000,"state":"active","ping":69},{"user_id":736,"name":"Mr.Philosoraptor","steam_id":76561198192838687,"connected_time":1385000000000,"state":"active","ping":75},{"user_id":746,"name":"remote_tenor","steam_id":76561198102941724,"connected_time":849000000000,"state":"active","ping":89},{"user_id":750,"name":"Animal Slices","steam_id":76561198137545511,"connected_time":257000000000,"state":"active","ping":69},{"user_id":542,"name":"HumFreY","steam_id":76561198076639682,"connected_time":7461000000000,"state":"active","ping":75},{"user_id":740,"name":"Family Guy Funny Moments","steam_id":76561198847752839,"connected_time":1345000000000,"state":"active","ping":105},{"user_id":657,"name":"LORD CANTI","steam_id":76561198254479725,"connected_time":2730000000000,"state":"active","ping":46},{"user_id":597,"name":"C4K3","steam_id":76561197996963285,"connected_time":3685000000000,"state":"active","ping":70},{"user_id":748,"name":"Bleok","steam_id":76561198078212322,"connected_time":715000000000,"state":"active","ping":127},{"user_id":745,"name":"classic lockpick","steam_id":76561198046650995,"connected_time":1035000000000,"state":"active","ping":87},{"user_id":665,"name":"supermannx","steam_id":76561198142124129,"connected_time":2637000000000,"state":"active","ping":115},{"user_id":578,"name":"crashymicsplody","steam_id":76561198213916765,"connected_time":4057000000000,"state":"active","ping":73},{"user_id":691,"name":"root beer enthusiast","steam_id":76561198124791670,"connected_time":2065000000000,"state":"active","ping":56},{"user_id":749,"name":"Texan texting","steam_id":76561198833868695,"connected_time":478000000000,"state":"active","ping":67},{"user_id":655,"name":"enmgxcltayiqoacx","steam_id":76561197974965536,"connected_time":2756000000000,"state":"active","ping":61},{"user_id":742,"name":"Bilgecrank","steam_id":76561197967191751,"connected_time":1338000000000,"state":"active","ping":89},{"user_id":747,"name":"Roberto Del Fuego","steam_id":76561198043458554,"connected_time":763000000000,"state":"active","ping":50},{"user_id":744,"name":"watchfull","steam_id":76561198433266742,"connected_time":1323000000000,"state":"active","ping":106},{"user_id":573,"name":"Jombi","steam_id":76561198427813097,"connected_time":4746000000000,"state":"active","ping":71},{"user_id":561,"name":"hashmap","steam_id":76561198043794014,"connected_time":5764000000000,"state":"active","ping":50},{"user_id":731,"name":"John16Mark","steam_id":76561198119445407,"connected_time":1440000000000,"state":"active","ping":90},{"user_id":569,"name":"oh fuck im in","steam_id":76561198277163301,"connected_time":4968000000000,"state":"active","ping":70},{"user_id":714,"name":"Soju","steam_id":76561198044130442,"connected_time":1733000000000,"state":"active","ping":81}]},{"server_id":402,"name":"Uncletopia | Chicago | 3 | All Maps","name_short":"chi-3","host":"chi-1.us.uncletopia.com","port":27035,"enabled":true,"region":"us-central","cc":"us","latitude":41.881832,"longitude":-87.62318,"reserved":0,"last_update":"0001-01-01T00:00:00Z","name_a2s":"Uncletopia | Chicago | 3 | All Maps","protocol":17,"map":"pl_pier","folder":"tf","game":"Team Fortress","app_id":440,"player_count":22,"max_players":24,"Bots":0,"server_type":"Dedicated","server_os":"Linux","password":true,"vac":true,"version":"7757534","steam_id":85568392924515191,"keywords":["nocrits","nodmgspread","payload","uncletopia"],"game_id":440,"stv_port":27036,"stv_name":"Uncletopia | Chicago | 3 | All Maps | STV","players":[{"user_id":499,"name":"TransSammie","steam_id":76561198046331930,"connected_time":6706000000000,"state":"active","ping":90},{"user_id":528,"name":"wiiblob","steam_id":76561198109106242,"connected_time":5235000000000,"state":"active","ping":137},{"user_id":581,"name":"hej","steam_id":76561197996366940,"connected_time":168000000000,"state":"active","ping":56},{"user_id":585,"name":"Eve","steam_id":76561198039832932,"connected_time":66000000000,"state":"active","ping":55},{"user_id":573,"name":"Blazing Hyena","steam_id":76561199121852680,"connected_time":1691000000000,"state":"active","ping":97},{"user_id":545,"name":"Old St. Scat","steam_id":76561198322096569,"connected_time":3440000000000,"state":"active","ping":69},{"user_id":583,"name":"Messi","steam_id":76561198121023233,"connected_time":86000000000,"state":"active","ping":51},{"user_id":539,"name":"Protato","steam_id":76561198061182563,"connected_time":4868000000000,"state":"active","ping":70},{"user_id":533,"name":"Tay","steam_id":76561198059605568,"connected_time":5177000000000,"state":"active","ping":75},{"user_id":544,"name":"Mister Rattlebones","steam_id":76561198065560157,"connected_time":4248000000000,"state":"active","ping":48},{"user_id":577,"name":"Gandalf's Old Man Farts","steam_id":76561198058300151,"connected_time":754000000000,"state":"active","ping":73},{"user_id":584,"name":"MedRed™ #IATAH","steam_id":76561198002962970,"connected_time":83000000000,"state":"active","ping":93},{"user_id":576,"name":"JetZ","steam_id":76561199122488957,"connected_time":967000000000,"state":"active","ping":68},{"user_id":566,"name":"Javis","steam_id":76561198204163123,"connected_time":1855000000000,"state":"active","ping":60},{"user_id":579,"name":"nongs","steam_id":76561198182994463,"connected_time":575000000000,"state":"active","ping":49},{"user_id":554,"name":"Casual Costanza","steam_id":76561198024409325,"connected_time":3315000000000,"state":"active","ping":71},{"user_id":582,"name":"Discourse","steam_id":76561198984286678,"connected_time":95000000000,"state":"active","ping":50},{"user_id":580,"name":"Coolgamer12","steam_id":76561198025601344,"connected_time":178000000000,"state":"active","ping":60},{"user_id":551,"name":"Poyo Boyo","steam_id":76561198010201227,"connected_time":3338000000000,"state":"active","ping":75},{"user_id":527,"name":"LegendaryMister151","steam_id":76561198064890524,"connected_time":5244000000000,"state":"active","ping":86},{"user_id":561,"name":"Nuwrox1","steam_id":76561198406951007,"connected_time":2707000000000,"state":"active","ping":59},{"user_id":569,"name":"Wallem","steam_id":76561198052361822,"connected_time":1740000000000,"state":"active","ping":73}]},{"server_id":403,"name":"Uncletopia | Chicago | 4 | All Maps","name_short":"chi-4","host":"chi-1.us.uncletopia.com","port":27045,"enabled":true,"region":"us-central","cc":"us","latitude":41.881832,"longitude":-87.62318,"reserved":0,"last_update":"0001-01-01T00:00:00Z","name_a2s":"Uncletopia | Chicago | 4 | All Maps","protocol":17,"map":"pl_snowycoast","folder":"tf","game":"Team Fortress","app_id":440,"player_count":24,"max_players":24,"Bots":0,"server_type":"Dedicated","server_os":"Linux","password":true,"vac":true,"version":"7757534","steam_id":85568392924515193,"keywords":["nocrits","nodmgspread","payload","uncletopia"],"game_id":440,"stv_port":27046,"stv_name":"Uncletopia | Chicago | 4 | All Maps | STV","players":[{"user_id":552,"name":"★ dane","steam_id":76561198354081121,"connected_time":2439000000000,"state":"active","ping":56},{"user_id":463,"name":"❤ Ashley ❤","steam_id":76561198056428303,"connected_time":6915000000000,"state":"active","ping":91},{"user_id":560,"name":"TrustworthyStranger","steam_id":76561198154105678,"connected_time":734000000000,"state":"active","ping":77},{"user_id":536,"name":"African Despot","steam_id":76561198169966346,"connected_time":3068000000000,"state":"active","ping":84},{"user_id":495,"name":"Battery Acid Addict","steam_id":76561198439793697,"connected_time":5175000000000,"state":"active","ping":77},{"user_id":556,"name":"Victor Skull","steam_id":76561198352212864,"connected_time":2014000000000,"state":"active","ping":57},{"user_id":558,"name":"Robin","steam_id":76561198121165149,"connected_time":1242000000000,"state":"active","ping":45},{"user_id":496,"name":"Dr. Dick","steam_id":76561198138011922,"connected_time":5166000000000,"state":"active","ping":85},{"user_id":567,"name":"I hate spy so much","steam_id":76561198148724163,"connected_time":188000000000,"state":"active","ping":127},{"user_id":561,"name":"caption cool","steam_id":76561197990612056,"connected_time":733000000000,"state":"active","ping":46},{"user_id":566,"name":"Fiendish Frog","steam_id":76561198029478821,"connected_time":442000000000,"state":"active","ping":73},{"user_id":466,"name":"self sufficient kitten","steam_id":76561197960592612,"connected_time":6902000000000,"state":"active","ping":91},{"user_id":559,"name":"objective permanence","steam_id":76561198050393061,"connected_time":792000000000,"state":"active","ping":70},{"user_id":557,"name":"LeRoy42","steam_id":76561198035591428,"connected_time":1570000000000,"state":"active","ping":72},{"user_id":498,"name":"centuronstar","steam_id":76561198277177841,"connected_time":5120000000000,"state":"active","ping":72},{"user_id":542,"name":"beans","steam_id":76561199082781884,"connected_time":2985000000000,"state":"active","ping":69},{"user_id":512,"name":"Also Known As Assteeth","steam_id":76561198049837377,"connected_time":4143000000000,"state":"active","ping":54},{"user_id":544,"name":"aoka","steam_id":76561198838294547,"connected_time":2791000000000,"state":"active","ping":75},{"user_id":548,"name":"goldgardian","steam_id":76561198319471339,"connected_time":2737000000000,"state":"active","ping":104},{"user_id":562,"name":"Nyko","steam_id":76561198143197549,"connected_time":729000000000,"state":"active","ping":84},{"user_id":543,"name":"Sparkchazer352","steam_id":76561198306339761,"connected_time":2977000000000,"state":"active","ping":54},{"user_id":563,"name":"FullMetalSlugCat","steam_id":76561199193784099,"connected_time":715000000000,"state":"active","ping":86},{"user_id":568,"name":"nav","steam_id":76561198872608266,"connected_time":167000000000,"state":"active","ping":96},{"user_id":471,"name":"Baoshan Iron \u0026 Steel Co., Ltd.","steam_id":76561198095313463,"connected_time":6820000000000,"state":"active","ping":83}]},{"server_id":36,"name":"Uncletopia | Chicago | 5 | All Maps","name_short":"chi-5","host":"chi-2.us.uncletopia.com","port":27015,"enabled":true,"region":"us-central","cc":"us","latitude":41.881832,"longitude":-87.62318,"reserved":0,"last_update":"0001-01-01T00:00:00Z","name_a2s":"Uncletopia | Chicago | 5 | All Maps","protocol":17,"map":"pl_borneo","folder":"tf","game":"Team Fortress","app_id":440,"player_count":22,"max_players":24,"Bots":0,"server_type":"Dedicated","server_os":"Linux","password":true,"vac":true,"version":"7757534","steam_id":85568392924866362,"keywords":["nocrits","nodmgspread","payload","uncletopia"],"game_id":440,"stv_port":27016,"stv_name":"Uncletopia | Chicago | 5 | All Maps | STV","players":[{"user_id":292,"name":"soupy","steam_id":76561197974283797,"connected_time":93000000000,"state":"active","ping":41},{"user_id":286,"name":"Doubting Dave","steam_id":76561198066410749,"connected_time":1294000000000,"state":"active","ping":80},{"user_id":293,"name":"Skeech","steam_id":76561198119215388,"connected_time":54000000000,"state":"active","ping":72},{"user_id":283,"name":"krwax","steam_id":76561198272053849,"connected_time":1378000000000,"state":"active","ping":57},{"user_id":294,"name":"nbwingdinger","steam_id":76561198412627015,"connected_time":50000000000,"state":"active","ping":112},{"user_id":278,"name":"Seico Bass","steam_id":76561198123498500,"connected_time":1978000000000,"state":"active","ping":85},{"user_id":220,"name":"Digitic","steam_id":76561198080295536,"connected_time":7978000000000,"state":"active","ping":76},{"user_id":287,"name":"squid","steam_id":76561198092509893,"connected_time":1286000000000,"state":"active","ping":73},{"user_id":290,"name":"SuperKirby","steam_id":76561198058449669,"connected_time":443000000000,"state":"active","ping":49},{"user_id":221,"name":"DoubleX2000","steam_id":76561198164134387,"connected_time":7972000000000,"state":"active","ping":104},{"user_id":276,"name":"c9","steam_id":76561198136642793,"connected_time":2830000000000,"state":"active","ping":67},{"user_id":277,"name":"claeb :)","steam_id":76561198028761580,"connected_time":1988000000000,"state":"active","ping":64},{"user_id":288,"name":"yoko","steam_id":76561199086546171,"connected_time":914000000000,"state":"active","ping":95},{"user_id":295,"name":"silly little feller","steam_id":76561198041975003,"connected_time":47000000000,"state":"active","ping":77},{"user_id":272,"name":"Hey, It's Me! Goku!","steam_id":76561199103120314,"connected_time":3001000000000,"state":"active","ping":109},{"user_id":263,"name":"AYAYA!!!","steam_id":76561198992102180,"connected_time":3937000000000,"state":"active","ping":52},{"user_id":273,"name":"cactus eater","steam_id":76561199107499844,"connected_time":2995000000000,"state":"active","ping":114},{"user_id":296,"name":"Stauxie","steam_id":76561198255030077,"connected_time":45000000000,"state":"active","ping":80},{"user_id":297,"name":"shake","steam_id":76561199064204750,"connected_time":41000000000,"state":"active","ping":79},{"user_id":274,"name":"MY GIRL SHOT ME BUT I #THUGITOU","steam_id":76561198144766439,"connected_time":2987000000000,"state":"active","ping":51},{"user_id":280,"name":"Monochi","steam_id":76561198093093118,"connected_time":1960000000000,"state":"active","ping":75},{"user_id":275,"name":"CollDragon","steam_id":76561198067534450,"connected_time":2950000000000,"state":"active","ping":68}]},{"server_id":37,"name":"Uncletopia | Chicago | 6 | All Maps","name_short":"chi-6","host":"chi-2.us.uncletopia.com","port":27025,"enabled":true,"region":"us-central","cc":"us","latitude":41.881832,"longitude":-87.62318,"reserved":0,"last_update":"0001-01-01T00:00:00Z","name_a2s":"Uncletopia | Chicago | 6 | All Maps","protocol":17,"map":"cp_sunshine","folder":"tf","game":"Team Fortress","app_id":440,"player_count":24,"max_players":24,"Bots":0,"server_type":"Dedicated","server_os":"Linux","password":true,"vac":true,"version":"7757534","steam_id":85568392924866363,"keywords":["cp","nocrits","nodmgspread","uncletopia"],"game_id":440,"stv_port":27026,"stv_name":"Uncletopia | Chicago | 6 | All Maps | STV","players":[{"user_id":423,"name":"noahjwarner09","steam_id":76561199444479988,"connected_time":601000000000,"state":"active","ping":70},{"user_id":416,"name":"Star_Mann_Jr.","steam_id":76561198071148924,"connected_time":1889000000000,"state":"active","ping":111},{"user_id":424,"name":"merlin","steam_id":76561198334511480,"connected_time":584000000000,"state":"active","ping":77},{"user_id":425,"name":"warehouse13xx","steam_id":76561198193379762,"connected_time":583000000000,"state":"active","ping":113},{"user_id":417,"name":"TF3 Medic gaming","steam_id":76561199053687718,"connected_time":1478000000000,"state":"active","ping":124},{"user_id":436,"name":"Epicdisc","steam_id":76561198025483504,"connected_time":331000000000,"state":"active","ping":66},{"user_id":400,"name":"Final_MarioXD","steam_id":76561199184862419,"connected_time":2998000000000,"state":"active","ping":98},{"user_id":401,"name":"Bongo Bill","steam_id":76561198028004398,"connected_time":2932000000000,"state":"active","ping":73},{"user_id":426,"name":"O","steam_id":76561198450073779,"connected_time":551000000000,"state":"active","ping":100},{"user_id":404,"name":"josegonzales2008","steam_id":76561198896091253,"connected_time":2612000000000,"state":"active","ping":94},{"user_id":405,"name":"[CD-i] PuddingFace","steam_id":76561198043999626,"connected_time":2588000000000,"state":"active","ping":59},{"user_id":433,"name":"Connie","steam_id":76561198068661013,"connected_time":447000000000,"state":"active","ping":75},{"user_id":420,"name":"ae","steam_id":76561198012945016,"connected_time":1424000000000,"state":"active","ping":56},{"user_id":437,"name":"Retro Phoenix","steam_id":76561198077176271,"connected_time":318000000000,"state":"active","ping":61},{"user_id":421,"name":"Perfume Department","steam_id":76561198128299594,"connected_time":1417000000000,"state":"active","ping":109},{"user_id":408,"name":"fug","steam_id":76561198043706112,"connected_time":2572000000000,"state":"active","ping":60},{"user_id":428,"name":"Amy Roxwell","steam_id":76561198303391830,"connected_time":479000000000,"state":"active","ping":126},{"user_id":429,"name":"yomo","steam_id":76561198063175935,"connected_time":475000000000,"state":"active","ping":77},{"user_id":438,"name":"nelly modelo","steam_id":76561198044875206,"connected_time":296000000000,"state":"active","ping":87},{"user_id":435,"name":"Thot Police","steam_id":76561198084299100,"connected_time":380000000000,"state":"active","ping":75},{"user_id":431,"name":"Tirlby","steam_id":76561198045231233,"connected_time":459000000000,"state":"active","ping":73},{"user_id":381,"name":"The_Pacific_gamer","steam_id":76561198089491446,"connected_time":5188000000000,"state":"active","ping":99},{"user_id":434,"name":"呪われ兎","steam_id":76561198067610427,"connected_time":388000000000,"state":"active","ping":85},{"user_id":415,"name":"Gary Gaming","steam_id":76561198853378233,"connected_time":2281000000000,"state":"active","ping":129}]},{"server_id":38,"name":"Uncletopia | Chicago | 7 | Stopwatch Beta","name_short":"chi-7","host":"chi-2.us.uncletopia.com","port":27035,"enabled":true,"region":"us-central","cc":"us","latitude":41.881832,"longitude":-87.62318,"reserved":0,"last_update":"0001-01-01T00:00:00Z","name_a2s":"Uncletopia | Chicago | 7 | Stopwatch Beta","protocol":17,"map":"pl_barnblitz","folder":"tf","game":"Team Fortress","app_id":440,"player_count":0,"max_players":24,"Bots":0,"server_type":"Dedicated","server_os":"Linux","password":true,"vac":true,"version":"7757534","steam_id":85568392924866364,"keywords":["nocrits","nodmgspread","payload","uncletopia"],"game_id":440,"stv_port":27036,"stv_name":"Uncletopia | Chicago | 7 | Stopwatch Beta | STV","players":null},{"server_id":39,"name":"Uncletopia | Chicago | 8 | Community","name_short":"chi-8","host":"chi-2.us.uncletopia.com","port":27045,"enabled":true,"region":"us-central","cc":"us","latitude":41.881832,"longitude":-87.62318,"reserved":0,"last_update":"0001-01-01T00:00:00Z","name_a2s":"Uncletopia | Chicago | 8 | Community","protocol":17,"map":"workshop/pl_cashworks_final1.ugc2904065412","folder":"tf","game":"Team Fortress","app_id":440,"player_count":24,"max_players":24,"Bots":0,"server_type":"Dedicated","server_os":"Linux","password":true,"vac":true,"version":"7757534","steam_id":85568392924866365,"keywords":["nocrits","nodmgspread","payload","uncletopia"],"game_id":440,"stv_port":27046,"stv_name":"Uncletopia | Chicago | 8 | Community | STV","players":[{"user_id":166,"name":"PieMatt","steam_id":76561198356272670,"connected_time":3082000000000,"state":"active","ping":71},{"user_id":164,"name":"st3shk4a","steam_id":76561198025322638,"connected_time":3236000000000,"state":"active","ping":92},{"user_id":177,"name":"[TF2Apples] Intense Green Apple","steam_id":76561198803561622,"connected_time":1529000000000,"state":"active","ping":82},{"user_id":99,"name":"Front Facing Magikarp","steam_id":76561198085888959,"connected_time":6211000000000,"state":"active","ping":61},{"user_id":187,"name":"H4V0C","steam_id":76561199129350925,"connected_time":726000000000,"state":"active","ping":103},{"user_id":173,"name":"player 2 role","steam_id":76561198173860681,"connected_time":2620000000000,"state":"active","ping":59},{"user_id":189,"name":"Grandpa Simpson (Official)","steam_id":76561198057607033,"connected_time":530000000000,"state":"active","ping":61},{"user_id":127,"name":"DeckofDragons","steam_id":76561198057398213,"connected_time":4661000000000,"state":"active","ping":79},{"user_id":179,"name":"Viciosa","steam_id":76561198115155449,"connected_time":1464000000000,"state":"active","ping":73},{"user_id":194,"name":"bill (philosopher)","steam_id":76561198188776646,"connected_time":317000000000,"state":"active","ping":46},{"user_id":180,"name":"Infinitytacos","steam_id":76561198884260211,"connected_time":1459000000000,"state":"active","ping":51},{"user_id":126,"name":"frank","steam_id":76561198137777483,"connected_time":4757000000000,"state":"active","ping":65},{"user_id":190,"name":"Saucy Boy","steam_id":76561198178332031,"connected_time":499000000000,"state":"active","ping":73},{"user_id":181,"name":"Impossible Ears","steam_id":76561198841832664,"connected_time":1383000000000,"state":"active","ping":83},{"user_id":172,"name":"Kirboidal","steam_id":76561199158833991,"connected_time":2815000000000,"state":"active","ping":75},{"user_id":169,"name":"shadowpelt","steam_id":76561198198709679,"connected_time":3023000000000,"state":"active","ping":92},{"user_id":182,"name":"shibaba bababool","steam_id":76561197972601902,"connected_time":1376000000000,"state":"active","ping":92},{"user_id":170,"name":"Karma's Camera","steam_id":76561198059385185,"connected_time":2968000000000,"state":"active","ping":63},{"user_id":186,"name":"Spicy Within Reason","steam_id":76561198066700370,"connected_time":783000000000,"state":"active","ping":91},{"user_id":185,"name":"defcon","steam_id":76561198100656328,"connected_time":1206000000000,"state":"active","ping":84},{"user_id":184,"name":"Hyjanx","steam_id":76561198258917772,"connected_time":1372000000000,"state":"active","ping":100},{"user_id":123,"name":"Error 4 Oh Four","steam_id":76561198121637567,"connected_time":4909000000000,"state":"active","ping":99},{"user_id":171,"name":"Sea Raider","steam_id":76561198055654064,"connected_time":2964000000000,"state":"active","ping":86},{"user_id":193,"name":"⊰Aero⊱","steam_id":76561198084648457,"connected_time":324000000000,"state":"active","ping":64}]},{"server_id":8,"name":"Uncletopia | Dallas | 1 | All Maps","name_short":"dal-1","host":"dal-1.us.uncletopia.com","port":27015,"enabled":true,"region":"us-central","cc":"us","latitude":32.779167,"longitude":-96.80889,"reserved":0,"last_update":"0001-01-01T00:00:00Z","name_a2s":"Uncletopia | Dallas | 1 | All Maps","protocol":17,"map":"pl_upward","folder":"tf","game":"Team Fortress","app_id":440,"player_count":24,"max_players":24,"Bots":0,"server_type":"Dedicated","server_os":"Linux","password":true,"vac":true,"version":"7757534","steam_id":85568392924469986,"keywords":["nocrits","nodmgspread","payload","uncletopia"],"game_id":440,"stv_port":27016,"stv_name":"Uncletopia | Dallas | 1 | All Maps | STV","players":[{"user_id":525,"name":"scarecrow (evil)","steam_id":76561198082979347,"connected_time":1685000000000,"state":"active","ping":74},{"user_id":483,"name":"errant","steam_id":76561197961758410,"connected_time":5164000000000,"state":"active","ping":33},{"user_id":469,"name":"DJThunderHeart","steam_id":76561198274197575,"connected_time":5920000000000,"state":"active","ping":82},{"user_id":540,"name":"kozei","steam_id":76561198073002821,"connected_time":310000000000,"state":"active","ping":90},{"user_id":534,"name":"catrinaisahuman","steam_id":76561198281355729,"connected_time":423000000000,"state":"active","ping":60},{"user_id":496,"name":"!","steam_id":76561198116821551,"connected_time":4465000000000,"state":"active","ping":76},{"user_id":541,"name":"iluvtoust","steam_id":76561198869269207,"connected_time":70000000000,"state":"active","ping":53},{"user_id":527,"name":"Aegis","steam_id":76561198272052750,"connected_time":1440000000000,"state":"active","ping":81},{"user_id":536,"name":"linus","steam_id":76561198106196691,"connected_time":404000000000,"state":"active","ping":90},{"user_id":475,"name":"Gocel","steam_id":76561198071467515,"connected_time":5771000000000,"state":"active","ping":86},{"user_id":521,"name":"The indomitable human spirit","steam_id":76561198282395338,"connected_time":2137000000000,"state":"active","ping":87},{"user_id":532,"name":"Snoogs","steam_id":76561198444880931,"connected_time":433000000000,"state":"active","ping":95},{"user_id":526,"name":"Squirrel","steam_id":76561198026605788,"connected_time":1610000000000,"state":"active","ping":94},{"user_id":490,"name":"Cofi","steam_id":76561199026721822,"connected_time":4664000000000,"state":"active","ping":83},{"user_id":537,"name":"Xraverz","steam_id":76561198008891628,"connected_time":399000000000,"state":"active","ping":111},{"user_id":419,"name":"riSygneD","steam_id":76561198331618687,"connected_time":9509000000000,"state":"active","ping":72},{"user_id":492,"name":"Aurro","steam_id":76561198315692300,"connected_time":4590000000000,"state":"active","ping":75},{"user_id":495,"name":"mac_cheese","steam_id":76561198071334162,"connected_time":4501000000000,"state":"active","ping":97},{"user_id":501,"name":"Kumies","steam_id":76561199481315713,"connected_time":3440000000000,"state":"active","ping":65},{"user_id":542,"name":"warp","steam_id":76561198190417719,"connected_time":37000000000,"state":"active","ping":59},{"user_id":510,"name":"Chief Diggery K.","steam_id":76561198066629137,"connected_time":2842000000000,"state":"active","ping":86},{"user_id":478,"name":"peee pee man","steam_id":76561198044979205,"connected_time":5713000000000,"state":"active","ping":100},{"user_id":511,"name":"CaptainKn1ght","steam_id":76561198018979695,"connected_time":2833000000000,"state":"active","ping":82},{"user_id":523,"name":"i fell in luv w dah bandz","steam_id":76561198042600523,"connected_time":2129000000000,"state":"active","ping":57}]},{"server_id":108,"name":"Uncletopia | Dallas | 2 | All Maps","name_short":"dal-2","host":"dal-1.us.uncletopia.com","port":27025,"enabled":true,"region":"us-central","cc":"us","latitude":32.779167,"longitude":-96.80889,"reserved":0,"last_update":"0001-01-01T00:00:00Z","name_a2s":"Uncletopia | Dallas | 2 | All Maps","protocol":17,"map":"pl_upward","folder":"tf","game":"Team Fortress","app_id":440,"player_count":24,"max_players":24,"Bots":0,"server_type":"Dedicated","server_os":"Linux","password":true,"vac":true,"version":"7757534","steam_id":85568392924469988,"keywords":["nocrits","nodmgspread","payload","uncletopia"],"game_id":440,"stv_port":27026,"stv_name":"Uncletopia | Dallas | 2 | All Maps | STV","players":[{"user_id":474,"name":"Paul","steam_id":76561198156358796,"connected_time":1043000000000,"state":"active","ping":74},{"user_id":467,"name":"Shylo","steam_id":76561199276858045,"connected_time":1089000000000,"state":"active","ping":58},{"user_id":475,"name":"Aeri","steam_id":76561197996522919,"connected_time":1043000000000,"state":"active","ping":98},{"user_id":476,"name":"Monty","steam_id":76561197993567253,"connected_time":1036000000000,"state":"active","ping":98},{"user_id":434,"name":"EvilPigglet","steam_id":76561197987243470,"connected_time":5446000000000,"state":"active","ping":76},{"user_id":486,"name":"0x01FE","steam_id":76561198838881917,"connected_time":432000000000,"state":"active","ping":62},{"user_id":466,"name":"Burger_Girl_CD","steam_id":76561198164569922,"connected_time":1141000000000,"state":"active","ping":170},{"user_id":477,"name":"Poseidon","steam_id":76561198093983903,"connected_time":1024000000000,"state":"active","ping":84},{"user_id":468,"name":"Your Local NPR Station","steam_id":76561198143830279,"connected_time":1076000000000,"state":"active","ping":60},{"user_id":478,"name":"Olly","steam_id":76561198054273611,"connected_time":1015000000000,"state":"active","ping":85},{"user_id":464,"name":"Marc Antony","steam_id":76561198011366517,"connected_time":1691000000000,"state":"active","ping":73},{"user_id":471,"name":"Pan-Demonica","steam_id":76561198294350105,"connected_time":1061000000000,"state":"active","ping":69},{"user_id":465,"name":"spot","steam_id":76561198151135298,"connected_time":1679000000000,"state":"active","ping":72},{"user_id":453,"name":"Bread Makes you Fat","steam_id":76561198985126532,"connected_time":3798000000000,"state":"active","ping":68},{"user_id":479,"name":"kjr :d","steam_id":76561198206903132,"connected_time":997000000000,"state":"active","ping":81},{"user_id":452,"name":"chunkysquare","steam_id":76561199076468383,"connected_time":3884000000000,"state":"active","ping":75},{"user_id":447,"name":"SHADOW (he/him)","steam_id":76561198207768148,"connected_time":3946000000000,"state":"active","ping":100},{"user_id":429,"name":"The Ultimate Coomer","steam_id":76561199128833757,"connected_time":6152000000000,"state":"active","ping":54},{"user_id":456,"name":"cringe","steam_id":76561198104086771,"connected_time":3042000000000,"state":"active","ping":77},{"user_id":446,"name":"Derply","steam_id":76561198871211642,"connected_time":4015000000000,"state":"active","ping":81},{"user_id":407,"name":"_Lusty_","steam_id":76561198876948142,"connected_time":7236000000000,"state":"active","ping":64},{"user_id":470,"name":"1 2 Oatmeal","steam_id":76561197999318398,"connected_time":1068000000000,"state":"active","ping":100},{"user_id":480,"name":"Littlebean","steam_id":76561198087597267,"connected_time":993000000000,"state":"active","ping":93},{"user_id":485,"name":"gamerpro","steam_id":76561199207927917,"connected_time":881000000000,"state":"active","ping":85}]},{"server_id":5,"name":"Uncletopia | Frankfurt | 1 | All Maps","name_short":"frk-1","host":"frk-1.de.uncletopia.com","port":27015,"enabled":true,"region":"eu","cc":"de","latitude":50.110924,"longitude":8.682127,"reserved":0,"last_update":"0001-01-01T00:00:00Z","name_a2s":"Uncletopia | Frankfurt | 1 | All Maps","protocol":17,"map":"koth_lakeside_final","folder":"tf","game":"Team Fortress","app_id":440,"player_count":0,"max_players":24,"Bots":0,"server_type":"Dedicated","server_os":"Linux","password":true,"vac":true,"version":"7757534","steam_id":85568392924469989,"keywords":["cp","nocrits","nodmgspread","uncletopia"],"game_id":440,"stv_port":27016,"stv_name":"Uncletopia | Frankfurt | 1 | All Maps | STV","players":null},{"server_id":110,"name":"Uncletopia | Frankfurt | 2 | All Maps","name_short":"frk-2","host":"frk-1.de.uncletopia.com","port":27025,"enabled":true,"region":"eu","cc":"de","latitude":50.110924,"longitude":8.682127,"reserved":0,"last_update":"0001-01-01T00:00:00Z","name_a2s":"Uncletopia | Frankfurt | 2 | All Maps","protocol":17,"map":"pl_snowycoast","folder":"tf","game":"Team Fortress","app_id":440,"player_count":0,"max_players":24,"Bots":0,"server_type":"Dedicated","server_os":"Linux","password":true,"vac":true,"version":"7757534","steam_id":85568392924469990,"keywords":["nocrits","nodmgspread","payload","uncletopia"],"game_id":440,"stv_port":27026,"stv_name":"Uncletopia | Frankfurt | 2 | All Maps | STV","players":null},{"server_id":308,"name":"Uncletopia | Frankfurt | 3 | All Maps","name_short":"frk-3","host":"frk-1.de.uncletopia.com","port":27035,"enabled":true,"region":"eu","cc":"de","latitude":50.110924,"longitude":8.682127,"reserved":0,"last_update":"0001-01-01T00:00:00Z","name_a2s":"Uncletopia | Frankfurt | 3 | All Maps","protocol":17,"map":"koth_cascade","folder":"tf","game":"Team Fortress","app_id":440,"player_count":0,"max_players":24,"Bots":0,"server_type":"Dedicated","server_os":"Linux","password":true,"vac":true,"version":"7757534","steam_id":85568392924504274,"keywords":["cp","nocrits","nodmgspread","uncletopia"],"game_id":440,"stv_port":27036,"stv_name":"Uncletopia | Frankfurt | 3 | All Maps | STV","players":null},{"server_id":309,"name":"Uncletopia | Frankfurt | 4 | All Maps","name_short":"frk-4","host":"frk-1.de.uncletopia.com","port":27045,"enabled":true,"region":"eu","cc":"de","latitude":50.110924,"longitude":8.682127,"reserved":0,"last_update":"0001-01-01T00:00:00Z","name_a2s":"Uncletopia | Frankfurt | 4 | All Maps","protocol":17,"map":"cp_altitude","folder":"tf","game":"Team Fortress","app_id":440,"player_count":0,"max_players":24,"Bots":0,"server_type":"Dedicated","server_os":"Linux","password":true,"vac":true,"version":"7757534","steam_id":85568392924504275,"keywords":["cp","nocrits","nodmgspread","uncletopia"],"game_id":440,"stv_port":27046,"stv_name":"Uncletopia | Frankfurt | 4 | All Maps | STV","players":null},{"server_id":310,"name":"Uncletopia | Frankfurt | 5 | All Maps","name_short":"frk-5","host":"frk-1.de.uncletopia.com","port":27055,"enabled":true,"region":"eu","cc":"de","latitude":50.110924,"longitude":8.682127,"reserved":0,"last_update":"0001-01-01T00:00:00Z","name_a2s":"Uncletopia | Frankfurt | 5 | All Maps","protocol":17,"map":"cp_sunshine","folder":"tf","game":"Team Fortress","app_id":440,"player_count":0,"max_players":24,"Bots":0,"server_type":"Dedicated","server_os":"Linux","password":true,"vac":true,"version":"7757534","steam_id":85568392924504277,"keywords":["cp","nocrits","nodmgspread","uncletopia"],"game_id":440,"stv_port":27056,"stv_name":"Uncletopia | Frankfurt | 5 | All Maps | STV","players":null},{"server_id":311,"name":"Uncletopia | Frankfurt | 6 | All Maps","name_short":"frk-6","host":"frk-1.de.uncletopia.com","port":27065,"enabled":true,"region":"eu","cc":"de","latitude":50.110924,"longitude":8.682127,"reserved":0,"last_update":"0001-01-01T00:00:00Z","name_a2s":"Uncletopia | Frankfurt | 6 | All Maps","protocol":17,"map":"cp_sunshine","folder":"tf","game":"Team Fortress","app_id":440,"player_count":0,"max_players":24,"Bots":0,"server_type":"Dedicated","server_os":"Linux","password":true,"vac":true,"version":"7757534","steam_id":85568392924504278,"keywords":["cp","nocrits","nodmgspread","uncletopia"],"game_id":440,"stv_port":27066,"stv_name":"Uncletopia | Frankfurt | 6 | All Maps | STV","players":null},{"server_id":23,"name":"Uncletopia | Frankfurt | 7 | Stopwatch Beta","name_short":"frk-7","host":"frk-1.de.uncletopia.com","port":27075,"enabled":true,"region":"eu","cc":"de","latitude":50.110924,"longitude":8.682127,"reserved":0,"last_update":"0001-01-01T00:00:00Z","name_a2s":"Uncletopia | Frankfurt | 7 | Stopwatch Beta","protocol":17,"map":"workshop/koth_ramjam_rc1.ugc459778887","folder":"tf","game":"Team Fortress","app_id":440,"player_count":0,"max_players":24,"Bots":0,"server_type":"Dedicated","server_os":"Linux","password":true,"vac":true,"version":"7757534","steam_id":85568392924742827,"keywords":["cp","nocrits","nodmgspread","uncletopia"],"game_id":440,"stv_port":27076,"stv_name":"Uncletopia | Frankfurt | 7 | Stopwatch Beta | STV","players":null},{"server_id":24,"name":"Uncletopia | Frankfurt | 8 | Community","name_short":"frk-8","host":"frk-1.de.uncletopia.com","port":27085,"enabled":true,"region":"eu","cc":"de","latitude":50.110924,"longitude":8.682127,"reserved":0,"last_update":"0001-01-01T00:00:00Z","name_a2s":"Uncletopia | Frankfurt | 8 | Community","protocol":17,"map":"workshop/koth_ashville_final.ugc2130459942","folder":"tf","game":"Team Fortress","app_id":440,"player_count":0,"max_players":24,"Bots":0,"server_type":"Dedicated","server_os":"Linux","password":true,"vac":true,"version":"7757534","steam_id":85568392924742828,"keywords":["cp","nocrits","nodmgspread","uncletopia"],"game_id":440,"stv_port":27086,"stv_name":"Uncletopia | Frankfurt | 8 | Community | STV","players":null},{"server_id":202,"name":"Uncletopia | Hong Kong | 1 | All Maps","name_short":"hgk-1","host":"hgk-1.hk.uncletopia.com","port":27015,"enabled":true,"region":"asia","cc":"hk","latitude":22.302711,"longitude":114.177216,"reserved":0,"last_update":"0001-01-01T00:00:00Z","name_a2s":"Uncletopia | Hong Kong | 1 | All Maps","protocol":17,"map":"pl_upward","folder":"tf","game":"Team Fortress","app_id":440,"player_count":0,"max_players":24,"Bots":0,"server_type":"Dedicated","server_os":"Linux","password":true,"vac":true,"version":"7757534","steam_id":85568392924494504,"keywords":["nocrits","nodmgspread","payload","uncletopia"],"game_id":440,"stv_port":27016,"stv_name":"Uncletopia | Hong Kong | 1 | All Maps | STV","players":null},{"server_id":1,"name":"Uncletopia | Los Angeles | 1 | All Maps","name_short":"lax-1","host":"lax-1.us.uncletopia.com","port":27015,"enabled":true,"region":"us-west","cc":"us","latitude":33.94279,"longitude":-118.41004,"reserved":0,"last_update":"0001-01-01T00:00:00Z","name_a2s":"Uncletopia | Los Angeles | 1 | All Maps","protocol":17,"map":"pl_upward","folder":"tf","game":"Team Fortress","app_id":440,"player_count":24,"max_players":24,"Bots":0,"server_type":"Dedicated","server_os":"Linux","password":true,"vac":true,"version":"7757534","steam_id":85568392924469991,"keywords":["nocrits","nodmgspread","payload","uncletopia"],"game_id":440,"stv_port":27016,"stv_name":"Uncletopia | Los Angeles | 1 | All Maps | STV","players":[{"user_id":270,"name":"monsterkill4567","steam_id":76561198272986367,"connected_time":2535000000000,"state":"active","ping":65},{"user_id":296,"name":"🎄AndreaJingling🎄","steam_id":76561198198658783,"connected_time":569000000000,"state":"active","ping":81},{"user_id":284,"name":":\u003c","steam_id":76561198072789439,"connected_time":1373000000000,"state":"active","ping":67},{"user_id":297,"name":"pentUpinaBlind♏","steam_id":76561198146684778,"connected_time":478000000000,"state":"active","ping":55},{"user_id":287,"name":"StarWither","steam_id":76561198383264295,"connected_time":902000000000,"state":"active","ping":84},{"user_id":210,"name":"Sunny","steam_id":76561198261667312,"connected_time":6099000000000,"state":"active","ping":76},{"user_id":261,"name":"Courier711","steam_id":76561198053232343,"connected_time":2822000000000,"state":"active","ping":54},{"user_id":283,"name":"MightyRectangle","steam_id":76561198094236144,"connected_time":1600000000000,"state":"active","ping":52},{"user_id":294,"name":"A Shiny Meat Bicycle","steam_id":76561198358757709,"connected_time":644000000000,"state":"active","ping":121},{"user_id":282,"name":"BootyOcho1","steam_id":76561199035019199,"connected_time":1658000000000,"state":"active","ping":63},{"user_id":303,"name":"Pyro_Gaming","steam_id":76561199472442044,"connected_time":110000000000,"state":"active","ping":57},{"user_id":299,"name":"Waluigi Gaming","steam_id":76561199255694844,"connected_time":436000000000,"state":"active","ping":54},{"user_id":290,"name":"R1verz","steam_id":76561198056087178,"connected_time":891000000000,"state":"active","ping":89},{"user_id":293,"name":"Amogous Supreme","steam_id":76561198025476774,"connected_time":747000000000,"state":"active","ping":62},{"user_id":298,"name":"Snugboo","steam_id":76561198147970327,"connected_time":461000000000,"state":"active","ping":101},{"user_id":220,"name":"Perri002","steam_id":76561199227901389,"connected_time":5944000000000,"state":"active","ping":62},{"user_id":260,"name":"Thunder","steam_id":76561198097721532,"connected_time":2828000000000,"state":"active","ping":49},{"user_id":286,"name":"♥Doadley♥","steam_id":76561198114356108,"connected_time":980000000000,"state":"active","ping":46},{"user_id":304,"name":"JohnnyBoi","steam_id":76561199082599937,"connected_time":71000000000,"state":"active","ping":59},{"user_id":265,"name":":3","steam_id":76561198058890821,"connected_time":2761000000000,"state":"active","ping":105},{"user_id":292,"name":"Shmoo","steam_id":76561198809915108,"connected_time":874000000000,"state":"active","ping":85},{"user_id":300,"name":"squidDMV","steam_id":76561199481268436,"connected_time":409000000000,"state":"active","ping":78},{"user_id":277,"name":"⛧Alkahestry","steam_id":76561198109641497,"connected_time":2206000000000,"state":"active","ping":43},{"user_id":279,"name":"flo rida","steam_id":76561198226169704,"connected_time":1957000000000,"state":"active","ping":55}]},{"server_id":112,"name":"Uncletopia | Los Angeles | 2 | All Maps","name_short":"lax-2","host":"lax-1.us.uncletopia.com","port":27025,"enabled":true,"region":"us-west","cc":"us","latitude":33.94279,"longitude":-118.41004,"reserved":0,"last_update":"0001-01-01T00:00:00Z","name_a2s":"Uncletopia | Los Angeles | 2 | All Maps","protocol":17,"map":"pl_thundermountain","folder":"tf","game":"Team Fortress","app_id":440,"player_count":24,"max_players":24,"Bots":0,"server_type":"Dedicated","server_os":"Linux","password":true,"vac":true,"version":"7757534","steam_id":85568392924469992,"keywords":["nocrits","nodmgspread","payload","uncletopia"],"game_id":440,"stv_port":27026,"stv_name":"Uncletopia | Los Angeles | 2 | All Maps | STV","players":[{"user_id":69,"name":"cunt","steam_id":76561198118644686,"connected_time":7376000000000,"state":"active","ping":55},{"user_id":142,"name":"FireFighter_Jeffery","steam_id":76561198070823022,"connected_time":2923000000000,"state":"active","ping":65},{"user_id":144,"name":"WalrusNyetheBonkGuy","steam_id":76561197995626774,"connected_time":2689000000000,"state":"active","ping":72},{"user_id":145,"name":"Chalupa Jones","steam_id":76561198335855588,"connected_time":2685000000000,"state":"active","ping":50},{"user_id":163,"name":"boosh","steam_id":76561198034218020,"connected_time":1203000000000,"state":"active","ping":64},{"user_id":137,"name":"i cry .","steam_id":76561199193020423,"connected_time":3832000000000,"state":"active","ping":53},{"user_id":150,"name":"Thrackerzod","steam_id":76561198130870200,"connected_time":2609000000000,"state":"active","ping":128},{"user_id":83,"name":"primordialheath","steam_id":76561199386942638,"connected_time":6809000000000,"state":"active","ping":105},{"user_id":147,"name":"Agent Q","steam_id":76561198830829003,"connected_time":2669000000000,"state":"active","ping":67},{"user_id":88,"name":"Marzbee115","steam_id":76561198095821025,"connected_time":6600000000000,"state":"active","ping":47},{"user_id":154,"name":"NooBHatteR","steam_id":76561198077662703,"connected_time":2104000000000,"state":"active","ping":59},{"user_id":157,"name":"Das_","steam_id":76561198055908152,"connected_time":1965000000000,"state":"active","ping":130},{"user_id":158,"name":"Ken-Sama","steam_id":76561198040465331,"connected_time":1950000000000,"state":"active","ping":54},{"user_id":169,"name":"♥Cat in a Tub♥","steam_id":76561198170443243,"connected_time":333000000000,"state":"active","ping":59},{"user_id":127,"name":"Big Yoshi","steam_id":76561199160576376,"connected_time":4937000000000,"state":"active","ping":73},{"user_id":160,"name":"Antwan","steam_id":76561198246200638,"connected_time":1507000000000,"state":"active","ping":73},{"user_id":132,"name":"b00gz","steam_id":76561198024804904,"connected_time":4659000000000,"state":"active","ping":151},{"user_id":162,"name":"Nyges","steam_id":76561198139236154,"connected_time":1403000000000,"state":"active","ping":45},{"user_id":148,"name":"ExplosiveGamer21","steam_id":76561198132370955,"connected_time":2649000000000,"state":"active","ping":79},{"user_id":166,"name":"ERM... HELLO?? BITCHES???","steam_id":76561198041017977,"connected_time":886000000000,"state":"active","ping":141},{"user_id":52,"name":"demomanfan2008","steam_id":76561198077030486,"connected_time":8483000000000,"state":"active","ping":88},{"user_id":164,"name":"Michael Fettuccine","steam_id":76561198056953903,"connected_time":1003000000000,"state":"active","ping":50},{"user_id":141,"name":"Ronnie Pickering!","steam_id":76561198041842118,"connected_time":3302000000000,"state":"active","ping":60},{"user_id":168,"name":"[Colorbomb]","steam_id":76561198006316527,"connected_time":865000000000,"state":"active","ping":63}]},{"server_id":324,"name":"Uncletopia | Los Angeles | 3 | All Maps","name_short":"lax-3","host":"lax-1.us.uncletopia.com","port":27035,"enabled":true,"region":"us-west","cc":"us","latitude":33.94279,"longitude":-118.41004,"reserved":0,"last_update":"0001-01-01T00:00:00Z","name_a2s":"Uncletopia | Los Angeles | 3 | All Maps","protocol":17,"map":"ctf_2fort","folder":"tf","game":"Team Fortress","app_id":440,"player_count":20,"max_players":24,"Bots":0,"server_type":"Dedicated","server_os":"Linux","password":true,"vac":true,"version":"7757534","steam_id":85568392924510198,"keywords":["ctf","nocrits","nodmgspread","uncletopia"],"game_id":440,"stv_port":27036,"stv_name":"Uncletopia | Los Angeles | 3 | All Maps | STV","players":[{"user_id":20,"name":"Fencer!","steam_id":76561198029081038,"connected_time":2130000000000,"state":"active","ping":101},{"user_id":21,"name":"West","steam_id":76561198020871712,"connected_time":2124000000000,"state":"active","ping":111},{"user_id":22,"name":"Horse","steam_id":76561199112075552,"connected_time":2118000000000,"state":"active","ping":116},{"user_id":55,"name":"Salmonoize","steam_id":76561198282517395,"connected_time":261000000000,"state":"active","ping":43},{"user_id":56,"name":"SturmTea","steam_id":76561198027371308,"connected_time":252000000000,"state":"active","ping":75},{"user_id":57,"name":"yummy","steam_id":76561198193457726,"connected_time":233000000000,"state":"active","ping":52},{"user_id":59,"name":"squeebo","steam_id":76561198061775121,"connected_time":198000000000,"state":"active","ping":66},{"user_id":60,"name":"chum","steam_id":76561199328301077,"connected_time":112000000000,"state":"active","ping":54},{"user_id":28,"name":"Googol","steam_id":76561198015967429,"connected_time":1995000000000,"state":"active","ping":34},{"user_id":29,"name":"Just Dez","steam_id":76561199327664719,"connected_time":1989000000000,"state":"active","ping":133},{"user_id":61,"name":"Doz","steam_id":76561198324747816,"connected_time":25000000000,"state":"active","ping":53},{"user_id":31,"name":"Gwalchmei","steam_id":76561198433713046,"connected_time":1854000000000,"state":"active","ping":177},{"user_id":53,"name":"VanillaBlue","steam_id":76561198092420116,"connected_time":453000000000,"state":"active","ping":30},{"user_id":33,"name":"Mom","steam_id":76561198207936000,"connected_time":1828000000000,"state":"active","ping":45},{"user_id":34,"name":"canakblasteran","steam_id":76561199472518822,"connected_time":1825000000000,"state":"active","ping":67},{"user_id":35,"name":"MrCakeMan14","steam_id":76561198014898179,"connected_time":1818000000000,"state":"active","ping":93},{"user_id":62,"name":"PersonMan","steam_id":76561198153426326,"connected_time":20000000000,"state":"spawning","ping":2386},{"user_id":63,"name":"Mac Tonight","steam_id":76561199010426983,"connected_time":6000000000,"state":"spawning","ping":30},{"user_id":38,"name":"mcjuice","steam_id":76561198087730829,"connected_time":1798000000000,"state":"active","ping":101},{"user_id":41,"name":"Sens","steam_id":76561198019334820,"connected_time":1745000000000,"state":"active","ping":77}]},{"server_id":25,"name":"Uncletopia | Los Angeles | 4 | Stopwatch Beta","name_short":"lax-4","host":"lax-1.us.uncletopia.com","port":27045,"enabled":true,"region":"us-west","cc":"us","latitude":33.94279,"longitude":-118.41004,"reserved":0,"last_update":"0001-01-01T00:00:00Z","name_a2s":"Uncletopia | Los Angeles | 4 | Stopwatch Beta","protocol":17,"map":"pl_swiftwater_final1","folder":"tf","game":"Team Fortress","app_id":440,"player_count":0,"max_players":24,"Bots":0,"server_type":"Dedicated","server_os":"Linux","password":true,"vac":true,"version":"7757534","steam_id":85568392924510199,"keywords":["nocrits","nodmgspread","payload","uncletopia"],"game_id":440,"stv_port":27046,"stv_name":"Uncletopia | Los Angeles | 4 | Stopwatch Beta | STV","players":null},{"server_id":11,"name":"Uncletopia | London | 1 | All Maps","name_short":"lon-1","host":"lon-1.uk.uncletopia.com","port":27015,"enabled":true,"region":"eu","cc":"gb","latitude":51.509865,"longitude":-0.118092,"reserved":0,"last_update":"0001-01-01T00:00:00Z","name_a2s":"Uncletopia | London | 1 | All Maps","protocol":17,"map":"plr_bananabay","folder":"tf","game":"Team Fortress","app_id":440,"player_count":20,"max_players":24,"Bots":0,"server_type":"Dedicated","server_os":"Linux","password":true,"vac":true,"version":"7757534","steam_id":85568392924367362,"keywords":["nocrits","nodmgspread","payload","uncletopia"],"game_id":440,"stv_port":27016,"stv_name":"Uncletopia | London | 1 | All Maps | STV","players":[{"user_id":958,"name":"˹Fate's·Marionette˼","steam_id":76561198034197381,"connected_time":419000000000,"state":"active","ping":49},{"user_id":964,"name":"Pumper","steam_id":76561198800459538,"connected_time":255000000000,"state":"active","ping":135},{"user_id":936,"name":"Dr.Livesey","steam_id":76561198423099559,"connected_time":2305000000000,"state":"active","ping":75},{"user_id":933,"name":"❤ Ingi","steam_id":76561197985628247,"connected_time":2519000000000,"state":"active","ping":87},{"user_id":937,"name":"Average Enjoyer","steam_id":76561198889819695,"connected_time":2300000000000,"state":"active","ping":75},{"user_id":942,"name":"originalakalil","steam_id":76561199481172481,"connected_time":2004000000000,"state":"active","ping":160},{"user_id":915,"name":"disc0rd","steam_id":76561197985965776,"connected_time":4395000000000,"state":"active","ping":65},{"user_id":959,"name":"Arkainiel Silver","steam_id":76561198188302519,"connected_time":398000000000,"state":"active","ping":56},{"user_id":965,"name":"Adhamashraf88","steam_id":76561198372865366,"connected_time":230000000000,"state":"active","ping":117},{"user_id":941,"name":"Shimshaw Creamtime","steam_id":76561198087144636,"connected_time":2078000000000,"state":"active","ping":121},{"user_id":943,"name":"Pan Pan","steam_id":76561199074670515,"connected_time":1984000000000,"state":"active","ping":104},{"user_id":931,"name":"❤ milkkore","steam_id":76561198019165469,"connected_time":2748000000000,"state":"active","ping":64},{"user_id":957,"name":"milktea","steam_id":76561198080168182,"connected_time":696000000000,"state":"active","ping":79},{"user_id":950,"name":"snorrbrod","steam_id":76561198142389396,"connected_time":1470000000000,"state":"active","ping":79},{"user_id":932,"name":"BetrayedBanana","steam_id":76561198053470223,"connected_time":2525000000000,"state":"active","ping":57},{"user_id":858,"name":"xTheDarkLight","steam_id":76561198239128298,"connected_time":8574000000000,"state":"active","ping":59},{"user_id":904,"name":"™⁧⁧乃ȽOOD PRINCΞ","steam_id":76561198137835796,"connected_time":4881000000000,"state":"active","ping":59},{"user_id":961,"name":"Hugal","steam_id":76561198026864436,"connected_time":360000000000,"state":"active","ping":91},{"user_id":962,"name":"Dr. Lambda","steam_id":76561198952939545,"connected_time":349000000000,"state":"active","ping":122},{"user_id":954,"name":"volkiano","steam_id":76561198319802031,"connected_time":1188000000000,"state":"active","ping":58}]},{"server_id":114,"name":"Uncletopia | London | 2 | All Maps","name_short":"lon-2","host":"lon-1.uk.uncletopia.com","port":27025,"enabled":true,"region":"eu","cc":"gb","latitude":51.509865,"longitude":-0.118092,"reserved":0,"last_update":"0001-01-01T00:00:00Z","name_a2s":"Uncletopia | London | 2 | All Maps","protocol":17,"map":"pl_borneo","folder":"tf","game":"Team Fortress","app_id":440,"player_count":0,"max_players":24,"Bots":0,"server_type":"Dedicated","server_os":"Linux","password":true,"vac":true,"version":"7757534","steam_id":85568392924470941,"keywords":["nocrits","nodmgspread","payload","uncletopia"],"game_id":440,"stv_port":27026,"stv_name":"Uncletopia | London | 2 | All Maps | STV","players":null},{"server_id":320,"name":"Uncletopia | London | 3 | All Maps","name_short":"lon-3","host":"lon-1.uk.uncletopia.com","port":27035,"enabled":true,"region":"eu","cc":"gb","latitude":51.509865,"longitude":-0.118092,"reserved":0,"last_update":"0001-01-01T00:00:00Z","name_a2s":"Uncletopia | London | 3 | All Maps","protocol":17,"map":"koth_highpass","folder":"tf","game":"Team Fortress","app_id":440,"player_count":0,"max_players":24,"Bots":0,"server_type":"Dedicated","server_os":"Linux","password":true,"vac":true,"version":"7757534","steam_id":85568392924510192,"keywords":["cp","nocrits","nodmgspread","uncletopia"],"game_id":440,"stv_port":27036,"stv_name":"Uncletopia | London | 3 | All Maps | STV","players":null},{"server_id":321,"name":"Uncletopia | London | 4 | All Maps","name_short":"lon-4","host":"lon-1.uk.uncletopia.com","port":27045,"enabled":true,"region":"eu","cc":"gb","latitude":51.509865,"longitude":-0.118092,"reserved":0,"last_update":"0001-01-01T00:00:00Z","name_a2s":"Uncletopia | London | 4 | All Maps","protocol":17,"map":"cp_junction_final","folder":"tf","game":"Team Fortress","app_id":440,"player_count":18,"max_players":24,"Bots":0,"server_type":"Dedicated","server_os":"Linux","password":true,"vac":true,"version":"7757534","steam_id":85568392924510193,"keywords":["cp","nocrits","nodmgspread","uncletopia"],"game_id":440,"stv_port":27046,"stv_name":"Uncletopia | London | 4 | All Maps | STV","players":[{"user_id":936,"name":"guy","steam_id":76561198284148324,"connected_time":179000000000,"state":"active","ping":37},{"user_id":862,"name":"Kjat","steam_id":76561198839433592,"connected_time":6104000000000,"state":"active","ping":60},{"user_id":906,"name":"Aregularhuman","steam_id":76561198343319848,"connected_time":2990000000000,"state":"active","ping":45},{"user_id":937,"name":"Ted","steam_id":76561198835482044,"connected_time":152000000000,"state":"active","ping":49},{"user_id":920,"name":"lily morry","steam_id":76561198089234939,"connected_time":1796000000000,"state":"active","ping":126},{"user_id":907,"name":"RobTheKid","steam_id":76561198346638308,"connected_time":2940000000000,"state":"active","ping":59},{"user_id":921,"name":"шпрунгель","steam_id":76561198400912339,"connected_time":1778000000000,"state":"active","ping":115},{"user_id":917,"name":"AndLogin","steam_id":76561198108601962,"connected_time":2140000000000,"state":"active","ping":101},{"user_id":931,"name":"Tank","steam_id":76561199059174576,"connected_time":886000000000,"state":"active","ping":175},{"user_id":883,"name":"etc","steam_id":76561197998394797,"connected_time":4595000000000,"state":"active","ping":54},{"user_id":845,"name":"Fat Juicy Girlcock","steam_id":76561198022584980,"connected_time":7182000000000,"state":"active","ping":76},{"user_id":933,"name":"Lseudo","steam_id":76561198346929065,"connected_time":666000000000,"state":"active","ping":117},{"user_id":903,"name":"The Punch","steam_id":76561198212488780,"connected_time":3133000000000,"state":"active","ping":70},{"user_id":909,"name":"Rarou","steam_id":76561197988802856,"connected_time":2928000000000,"state":"active","ping":61},{"user_id":928,"name":"Peanut","steam_id":76561198018865486,"connected_time":1115000000000,"state":"active","ping":70},{"user_id":924,"name":"Qxillum","steam_id":76561198037201297,"connected_time":1460000000000,"state":"active","ping":54},{"user_id":932,"name":"Hamst123","steam_id":76561198957312452,"connected_time":838000000000,"state":"active","ping":59},{"user_id":930,"name":"MatarArg","steam_id":76561198280246498,"connected_time":1015000000000,"state":"active","ping":234}]},{"server_id":21,"name":"Uncletopia | London | 5 | All Maps","name_short":"lon-5","host":"lon-1.uk.uncletopia.com","port":27055,"enabled":true,"region":"eu","cc":"gb","latitude":51.509865,"longitude":-0.118092,"reserved":0,"last_update":"0001-01-01T00:00:00Z","name_a2s":"Uncletopia | London | 5 | All Maps","protocol":17,"map":"koth_cascade","folder":"tf","game":"Team Fortress","app_id":440,"player_count":0,"max_players":24,"Bots":0,"server_type":"Dedicated","server_os":"Linux","password":true,"vac":true,"version":"7757534","steam_id":85568392924742829,"keywords":["cp","nocrits","nodmgspread","uncletopia"],"game_id":440,"stv_port":27056,"stv_name":"Uncletopia | London | 5 | All Maps | STV","players":null},{"server_id":22,"name":"Uncletopia | London | 6 | All Maps","name_short":"lon-6","host":"lon-1.uk.uncletopia.com","port":27065,"enabled":true,"region":"eu","cc":"gb","latitude":51.509865,"longitude":-0.118092,"reserved":0,"last_update":"0001-01-01T00:00:00Z","name_a2s":"Uncletopia | London | 6 | All Maps","protocol":17,"map":"koth_cascade","folder":"tf","game":"Team Fortress","app_id":440,"player_count":0,"max_players":24,"Bots":0,"server_type":"Dedicated","server_os":"Linux","password":true,"vac":true,"version":"7757534","steam_id":85568392924742830,"keywords":["cp","nocrits","nodmgspread","uncletopia"],"game_id":440,"stv_port":27066,"stv_name":"Uncletopia | London | 6 | All Maps | STV","players":null},{"server_id":40,"name":"Uncletopia | London | 7 | No Payload","name_short":"lon-7","host":"lon-1.uk.uncletopia.com","port":27075,"enabled":true,"region":"eu","cc":"gb","latitude":51.509865,"longitude":-0.118092,"reserved":0,"last_update":"0001-01-01T00:00:00Z","name_a2s":"Uncletopia | London | 7 | No Payload","protocol":17,"map":"koth_highpass","folder":"tf","game":"Team Fortress","app_id":440,"player_count":0,"max_players":24,"Bots":0,"server_type":"Dedicated","server_os":"Linux","password":true,"vac":true,"version":"7757534","steam_id":85568392924964314,"keywords":["cp","nocrits","nodmgspread","uncletopia"],"game_id":440,"stv_port":27076,"stv_name":"Uncletopia | London | 7 | No Payload | STV","players":null},{"server_id":41,"name":"Uncletopia | London | 8 | Community","name_short":"lon-8","host":"lon-1.uk.uncletopia.com","port":27085,"enabled":true,"region":"eu","cc":"gb","latitude":51.509865,"longitude":-0.118092,"reserved":0,"last_update":"0001-01-01T00:00:00Z","name_a2s":"Uncletopia | London | 8 | Community","protocol":17,"map":"workshop/cp_villa_b19.ugc2113052569","folder":"tf","game":"Team Fortress","app_id":440,"player_count":0,"max_players":24,"Bots":0,"server_type":"Dedicated","server_os":"Linux","password":true,"vac":true,"version":"7757534","steam_id":85568392924964315,"keywords":["cp","nocrits","nodmgspread","uncletopia"],"game_id":440,"stv_port":27086,"stv_name":"Uncletopia | London | 8 | Community | STV","players":null},{"server_id":300,"name":"Uncletopia | Montréal | 1 | All Maps","name_short":"mtl-1","host":"mtl-1.ca.uncletopia.com","port":27015,"enabled":true,"region":"us-east","cc":"ca","latitude":45.50889,"longitude":-73.56167,"reserved":0,"last_update":"0001-01-01T00:00:00Z","name_a2s":"Uncletopia | Montréal | 1 | All Maps","protocol":17,"map":"pl_pier","folder":"tf","game":"Team Fortress","app_id":440,"player_count":24,"max_players":24,"Bots":0,"server_type":"Dedicated","server_os":"Linux","password":true,"vac":true,"version":"7757534","steam_id":85568392924500087,"keywords":["nocrits","nodmgspread","payload","uncletopia"],"game_id":440,"stv_port":27016,"stv_name":"Uncletopia | Montréal | 1 | All Maps | STV","players":[{"user_id":192,"name":"1-800-GHOST-DANCE","steam_id":76561198835430429,"connected_time":774000000000,"state":"active","ping":79},{"user_id":122,"name":"Laxatives","steam_id":76561198079494201,"connected_time":9044000000000,"state":"active","ping":81},{"user_id":198,"name":"Frontier Psychiatrist","steam_id":76561198038689088,"connected_time":466000000000,"state":"active","ping":104},{"user_id":188,"name":"Oixo","steam_id":76561198076035468,"connected_time":1622000000000,"state":"active","ping":74},{"user_id":193,"name":"Roar","steam_id":76561199476592495,"connected_time":740000000000,"state":"active","ping":46},{"user_id":208,"name":"younggflylyfe","steam_id":76561199477357832,"connected_time":205000000000,"state":"active","ping":78},{"user_id":196,"name":"Hot Pink Millie","steam_id":76561198006259725,"connected_time":569000000000,"state":"active","ping":70},{"user_id":199,"name":"The Final Terminus","steam_id":76561197964985183,"connected_time":454000000000,"state":"active","ping":51},{"user_id":189,"name":"Reverie","steam_id":76561198987005784,"connected_time":1526000000000,"state":"active","ping":82},{"user_id":209,"name":"DiscoTraveler","steam_id":76561199240168088,"connected_time":201000000000,"state":"active","ping":56},{"user_id":86,"name":"SchmitySchmit","steam_id":76561198127024448,"connected_time":11323000000000,"state":"active","ping":75},{"user_id":197,"name":"JiffyJelly","steam_id":76561198407800887,"connected_time":555000000000,"state":"active","ping":76},{"user_id":88,"name":"Intex","steam_id":76561198231061660,"connected_time":11311000000000,"state":"active","ping":117},{"user_id":210,"name":"[12V] Marv","steam_id":76561198158638384,"connected_time":144000000000,"state":"active","ping":71},{"user_id":169,"name":"RattleMeBones50","steam_id":76561198318133303,"connected_time":3302000000000,"state":"active","ping":94},{"user_id":202,"name":"bain dmg","steam_id":76561198102681457,"connected_time":369000000000,"state":"active","ping":99},{"user_id":92,"name":"Otis","steam_id":76561198170925422,"connected_time":11293000000000,"state":"active","ping":93},{"user_id":93,"name":"Horizon","steam_id":76561198088957930,"connected_time":11290000000000,"state":"active","ping":73},{"user_id":173,"name":"nova","steam_id":76561198143528814,"connected_time":3010000000000,"state":"active","ping":78},{"user_id":203,"name":"M0T0BREATH  \\TG/","steam_id":76561197961205221,"connected_time":336000000000,"state":"active","ping":64},{"user_id":205,"name":"Phillip Jeffries","steam_id":76561198064052174,"connected_time":276000000000,"state":"active","ping":72},{"user_id":121,"name":"M N Carlton","steam_id":76561198882151853,"connected_time":9194000000000,"state":"active","ping":81},{"user_id":206,"name":"McPissPants","steam_id":76561198118928054,"connected_time":270000000000,"state":"active","ping":63},{"user_id":207,"name":"Shields","steam_id":76561198092694035,"connected_time":231000000000,"state":"active","ping":85}]},{"server_id":301,"name":"Uncletopia | Montréal | 2 | All Maps","name_short":"mtl-2","host":"mtl-1.ca.uncletopia.com","port":27025,"enabled":true,"region":"us-east","cc":"ca","latitude":45.50889,"longitude":-73.56167,"reserved":0,"last_update":"0001-01-01T00:00:00Z","name_a2s":"Uncletopia | Montréal | 2 | All Maps","protocol":17,"map":"pl_frontier_final","folder":"tf","game":"Team Fortress","app_id":440,"player_count":9,"max_players":24,"Bots":0,"server_type":"Dedicated","server_os":"Linux","password":true,"vac":true,"version":"7757534","steam_id":85568392924500088,"keywords":["nocrits","nodmgspread","payload","uncletopia"],"game_id":440,"stv_port":27026,"stv_name":"Uncletopia | Montréal | 2 | All Maps | STV","players":[{"user_id":67,"name":"dongus","steam_id":76561198042774930,"connected_time":964000000000,"state":"active","ping":145},{"user_id":30,"name":"AQUΛRIA","steam_id":76561198065592204,"connected_time":5539000000000,"state":"active","ping":68},{"user_id":64,"name":"yeetfarklebum","steam_id":76561199247787401,"connected_time":1752000000000,"state":"active","ping":105},{"user_id":70,"name":"UNIT 220","steam_id":76561198042243497,"connected_time":429000000000,"state":"active","ping":77},{"user_id":71,"name":"Importality","steam_id":76561198049943127,"connected_time":394000000000,"state":"active","ping":101},{"user_id":73,"name":"thatbedrockblock","steam_id":76561199069286524,"connected_time":158000000000,"state":"active","ping":113},{"user_id":65,"name":"Jesus","steam_id":76561198122469115,"connected_time":1674000000000,"state":"active","ping":89},{"user_id":29,"name":"Mecha","steam_id":76561198094531215,"connected_time":5563000000000,"state":"active","ping":66},{"user_id":31,"name":"JakeLemons","steam_id":76561198065945816,"connected_time":5530000000000,"state":"active","ping":60}]},{"server_id":302,"name":"Uncletopia | Montréal | 3 | All Maps","name_short":"mtl-3","host":"mtl-1.ca.uncletopia.com","port":27035,"enabled":true,"region":"us-east","cc":"ca","latitude":45.50889,"longitude":-73.56167,"reserved":0,"last_update":"0001-01-01T00:00:00Z","name_a2s":"Uncletopia | Montréal | 3 | All Maps","protocol":17,"map":"cp_snakewater_final1","folder":"tf","game":"Team Fortress","app_id":440,"player_count":0,"max_players":24,"Bots":0,"server_type":"Dedicated","server_os":"Linux","password":true,"vac":true,"version":"7757534","steam_id":85568392924500089,"keywords":["cp","nocrits","nodmgspread","uncletopia"],"game_id":440,"stv_port":27036,"stv_name":"Uncletopia | Montréal | 3 | All Maps | STV","players":null},{"server_id":303,"name":"Uncletopia | Montréal | 4 | No Payload","name_short":"mtl-4","host":"mtl-1.ca.uncletopia.com","port":27045,"enabled":true,"region":"us-east","cc":"ca","latitude":45.50889,"longitude":-73.56167,"reserved":0,"last_update":"0001-01-01T00:00:00Z","name_a2s":"Uncletopia | Montréal | 4 | No Payload","protocol":17,"map":"cp_snakewater_final1","folder":"tf","game":"Team Fortress","app_id":440,"player_count":0,"max_players":24,"Bots":0,"server_type":"Dedicated","server_os":"Linux","password":true,"vac":true,"version":"7757534","steam_id":85568392924500090,"keywords":["cp","nocrits","nodmgspread","uncletopia"],"game_id":440,"stv_port":27046,"stv_name":"Uncletopia | Montréal | 4 | No Payload | STV","players":null},{"server_id":13,"name":"Uncletopia | New York City | 1 | All Maps","name_short":"nyc-1","host":"nyc-1.us.uncletopia.com","port":27015,"enabled":true,"region":"us-east","cc":"us","latitude":40.73061,"longitude":-73.93524,"reserved":0,"last_update":"0001-01-01T00:00:00Z","name_a2s":"Uncletopia | New York City | 1 | All Maps","protocol":17,"map":"cp_steel","folder":"tf","game":"Team Fortress","app_id":440,"player_count":22,"max_players":24,"Bots":0,"server_type":"Dedicated","server_os":"Linux","password":true,"vac":true,"version":"7757534","steam_id":85568392924469993,"keywords":["cp","nocrits","nodmgspread","uncletopia"],"game_id":440,"stv_port":27016,"stv_name":"Uncletopia | New York City | 1 | All Maps | STV","players":[{"user_id":752,"name":"PinkLemonade","steam_id":76561198799286228,"connected_time":4167000000000,"state":"active","ping":55},{"user_id":759,"name":"Cult of neurodivergency 🏳","steam_id":76561199112194007,"connected_time":3483000000000,"state":"active","ping":64},{"user_id":791,"name":"Medic Pocket Girlfriend","steam_id":76561198378587138,"connected_time":901000000000,"state":"active","ping":108},{"user_id":794,"name":"Two-Teste Tommy","steam_id":76561198064308936,"connected_time":521000000000,"state":"active","ping":54},{"user_id":743,"name":"Super D Duper","steam_id":76561198078203677,"connected_time":4605000000000,"state":"active","ping":53},{"user_id":796,"name":"Space Cops","steam_id":76561198032414253,"connected_time":345000000000,"state":"active","ping":53},{"user_id":732,"name":"Dr. drippenstein","steam_id":76561198209380493,"connected_time":5117000000000,"state":"active","ping":43},{"user_id":779,"name":"OldGreg97","steam_id":76561198048772813,"connected_time":2014000000000,"state":"active","ping":55},{"user_id":788,"name":"sam","steam_id":76561198217362968,"connected_time":1212000000000,"state":"active","ping":71},{"user_id":765,"name":"Zeek","steam_id":76561197987204351,"connected_time":2914000000000,"state":"active","ping":45},{"user_id":787,"name":"Monkey","steam_id":76561198031015186,"connected_time":1385000000000,"state":"active","ping":62},{"user_id":753,"name":"Bobfleadip","steam_id":76561198043788642,"connected_time":4053000000000,"state":"active","ping":80},{"user_id":769,"name":"frizzle fried","steam_id":76561198062991744,"connected_time":2872000000000,"state":"active","ping":45},{"user_id":778,"name":"Mr. Call You Back","steam_id":76561198025172811,"connected_time":2026000000000,"state":"active","ping":41},{"user_id":560,"name":"WALL-E","steam_id":76561198154701370,"connected_time":11387000000000,"state":"active","ping":62},{"user_id":797,"name":"𝙴 𝚡 𝚌 𝚎 𝚕 𝚕 \ufffd","steam_id":76561198011887958,"connected_time":60000000000,"state":"active","ping":57},{"user_id":790,"name":"xen","steam_id":76561198048568188,"connected_time":1039000000000,"state":"active","ping":57},{"user_id":786,"name":"Foot Fiend","steam_id":76561198106320012,"connected_time":1422000000000,"state":"active","ping":88},{"user_id":793,"name":"Krusty Nut","steam_id":76561198120637924,"connected_time":628000000000,"state":"active","ping":54},{"user_id":780,"name":"Keelasher","steam_id":76561198076027990,"connected_time":1843000000000,"state":"active","ping":57},{"user_id":773,"name":"Hoot","steam_id":76561198129302416,"connected_time":2810000000000,"state":"active","ping":58},{"user_id":795,"name":"jeremimi","steam_id":76561198818225102,"connected_time":475000000000,"state":"active","ping":124}]},{"server_id":14,"name":"Uncletopia | New York City | 2 | All Maps","name_short":"nyc-2","host":"nyc-1.us.uncletopia.com","port":27025,"enabled":true,"region":"us-east","cc":"us","latitude":40.73061,"longitude":-73.93524,"reserved":0,"last_update":"0001-01-01T00:00:00Z","name_a2s":"Uncletopia | New York City | 2 | All Maps","protocol":17,"map":"pl_upward","folder":"tf","game":"Team Fortress","app_id":440,"player_count":22,"max_players":24,"Bots":0,"server_type":"Dedicated","server_os":"Linux","password":true,"vac":true,"version":"7757534","steam_id":85568392924469994,"keywords":["nocrits","nodmgspread","payload","uncletopia"],"game_id":440,"stv_port":27026,"stv_name":"Uncletopia | New York City | 2 | All Maps | STV","players":[{"user_id":553,"name":"The magic doo bus","steam_id":76561198243387974,"connected_time":2487000000000,"state":"active","ping":49},{"user_id":577,"name":"Matayankis","steam_id":76561198024513380,"connected_time":245000000000,"state":"active","ping":130},{"user_id":539,"name":"Nekoknight","steam_id":76561198400058665,"connected_time":3306000000000,"state":"active","ping":60},{"user_id":571,"name":"Lore","steam_id":76561198098407538,"connected_time":891000000000,"state":"active","ping":60},{"user_id":549,"name":"SunbroStang","steam_id":76561197992074636,"connected_time":2983000000000,"state":"active","ping":74},{"user_id":522,"name":"Scorp","steam_id":76561198070619615,"connected_time":4934000000000,"state":"active","ping":70},{"user_id":558,"name":"13/8 time signature","steam_id":76561198397662124,"connected_time":2166000000000,"state":"active","ping":103},{"user_id":578,"name":"Treeckogeek","steam_id":76561198453328078,"connected_time":89000000000,"state":"active","ping":71},{"user_id":575,"name":"whoopsydoodle","steam_id":76561198045145360,"connected_time":383000000000,"state":"active","ping":45},{"user_id":568,"name":"Chillin Turt","steam_id":76561198025796849,"connected_time":1236000000000,"state":"active","ping":61},{"user_id":572,"name":"JHLO","steam_id":76561198074359967,"connected_time":888000000000,"state":"active","ping":53},{"user_id":559,"name":"Micahlele","steam_id":76561198155872356,"connected_time":2130000000000,"state":"active","ping":37},{"user_id":556,"name":"name420","steam_id":76561198129374525,"connected_time":2376000000000,"state":"active","ping":64},{"user_id":563,"name":"Ω Silver136 Ω","steam_id":76561198018657413,"connected_time":1873000000000,"state":"active","ping":58},{"user_id":544,"name":"coms","steam_id":76561198359456881,"connected_time":3225000000000,"state":"active","ping":60},{"user_id":579,"name":"Colonel Chikara","steam_id":76561198010021087,"connected_time":72000000000,"state":"active","ping":102},{"user_id":576,"name":"Axio","steam_id":76561198046826031,"connected_time":328000000000,"state":"active","ping":135},{"user_id":580,"name":"DEMO JUMPSCARE","steam_id":76561198976760150,"connected_time":38000000000,"state":"active","ping":105},{"user_id":581,"name":"Murrdogg","steam_id":76561198210491188,"connected_time":24000000000,"state":"active","ping":79},{"user_id":565,"name":"kasper","steam_id":76561198263271697,"connected_time":1852000000000,"state":"active","ping":50},{"user_id":573,"name":"Sim","steam_id":76561198119227922,"connected_time":863000000000,"state":"active","ping":65},{"user_id":493,"name":"open.gif","steam_id":76561198046055673,"connected_time":8165000000000,"state":"active","ping":50}]},{"server_id":15,"name":"Uncletopia | New York City | 3 | Stopwatch Beta","name_short":"nyc-3","host":"nyc-1.us.uncletopia.com","port":27035,"enabled":true,"region":"us-east","cc":"us","latitude":40.73061,"longitude":-73.93524,"reserved":0,"last_update":"0001-01-01T00:00:00Z","name_a2s":"Uncletopia | New York City | 3 | Stopwatch Beta","protocol":17,"map":"pl_upward","folder":"tf","game":"Team Fortress","app_id":440,"player_count":0,"max_players":24,"Bots":0,"server_type":"Dedicated","server_os":"Linux","password":true,"vac":true,"version":"7757534","steam_id":85568392924742820,"keywords":["nocrits","nodmgspread","payload","uncletopia"],"game_id":440,"stv_port":27036,"stv_name":"Uncletopia | New York City | 3 | Stopwatch Beta | STV","players":null},{"server_id":16,"name":"Uncletopia | New York City | 4 | Community","name_short":"nyc-4","host":"nyc-1.us.uncletopia.com","port":27045,"enabled":true,"region":"us-east","cc":"us","latitude":40.73061,"longitude":-73.93524,"reserved":0,"last_update":"0001-01-01T00:00:00Z","name_a2s":"Uncletopia | New York City | 4 | Community","protocol":17,"map":"workshop/koth_slaughter_rc1.ugc1712845210","folder":"tf","game":"Team Fortress","app_id":440,"player_count":0,"max_players":24,"Bots":0,"server_type":"Dedicated","server_os":"Linux","password":true,"vac":true,"version":"7757534","steam_id":85568392924742821,"keywords":["cp","nocrits","nodmgspread","uncletopia"],"game_id":440,"stv_port":27046,"stv_name":"Uncletopia | New York City | 4 | Community | STV","players":null},{"server_id":142,"name":"Uncletopia | São Paulo | 1 | All Maps","name_short":"sao-1","host":"sao-1.br.uncletopia.com","port":27015,"enabled":true,"region":"sa","cc":"br","latitude":-23.533773,"longitude":-46.62529,"reserved":0,"last_update":"0001-01-01T00:00:00Z","name_a2s":"Uncletopia | São Paulo | 1 | All Maps","protocol":17,"map":"koth_cascade","folder":"tf","game":"Team Fortress","app_id":440,"player_count":0,"max_players":24,"Bots":0,"server_type":"Dedicated","server_os":"Linux","password":true,"vac":true,"version":"7757534","steam_id":85568392924469996,"keywords":["cp","nocrits","nodmgspread","uncletopia"],"game_id":440,"stv_port":27016,"stv_name":"Uncletopia | São Paulo | 1 | All Maps | STV","players":null},{"server_id":143,"name":"Uncletopia | São Paulo | 2 | All Maps","name_short":"sao-2","host":"sao-2.br.uncletopia.com","port":27015,"enabled":true,"region":"sa","cc":"br","latitude":-23.533773,"longitude":-46.62529,"reserved":0,"last_update":"0001-01-01T00:00:00Z","name_a2s":"Uncletopia | São Paulo | 2 | All Maps","protocol":17,"map":"pl_pier","folder":"tf","game":"Team Fortress","app_id":440,"player_count":0,"max_players":24,"Bots":0,"server_type":"Dedicated","server_os":"Linux","password":true,"vac":true,"version":"7757534","steam_id":85568392924485349,"keywords":["nocrits","nodmgspread","payload","uncletopia"],"game_id":440,"stv_port":27016,"stv_name":"Uncletopia | São Paulo | 2 | All Maps | STV","players":null},{"server_id":7,"name":"Uncletopia | Seattle | 1 | All Maps","name_short":"sea-1","host":"sea-1.us.uncletopia.com","port":27015,"enabled":true,"region":"us-west","cc":"us","latitude":47.608013,"longitude":-122.33517,"reserved":0,"last_update":"0001-01-01T00:00:00Z","name_a2s":"Uncletopia | Seattle | 1 | All Maps","protocol":17,"map":"cp_fastlane","folder":"tf","game":"Team Fortress","app_id":440,"player_count":24,"max_players":24,"Bots":0,"server_type":"Dedicated","server_os":"Linux","password":true,"vac":true,"version":"7757534","steam_id":85568392924469997,"keywords":["cp","nocrits","nodmgspread","uncletopia"],"game_id":440,"stv_port":27016,"stv_name":"Uncletopia | Seattle | 1 | All Maps | STV","players":[{"user_id":565,"name":"Mr. No","steam_id":76561198130536526,"connected_time":4172000000000,"state":"active","ping":118},{"user_id":580,"name":"HaphazardHazel","steam_id":76561198316812693,"connected_time":2731000000000,"state":"active","ping":130},{"user_id":607,"name":"♥haunti","steam_id":76561199235580556,"connected_time":999000000000,"state":"active","ping":46},{"user_id":592,"name":"camp3r","steam_id":76561197992870439,"connected_time":2306000000000,"state":"active","ping":34},{"user_id":614,"name":"Pepperman","steam_id":76561198334918935,"connected_time":38000000000,"state":"active","ping":101},{"user_id":609,"name":"lavender","steam_id":76561199069518286,"connected_time":508000000000,"state":"active","ping":67},{"user_id":471,"name":"Snorgdarf","steam_id":76561198047962582,"connected_time":11376000000000,"state":"active","ping":48},{"user_id":613,"name":"ikuyo","steam_id":76561198996950205,"connected_time":256000000000,"state":"active","ping":73},{"user_id":608,"name":"actual chappaquiddick doer","steam_id":76561198025020072,"connected_time":521000000000,"state":"active","ping":57},{"user_id":542,"name":"toes","steam_id":76561198221151676,"connected_time":5682000000000,"state":"active","ping":58},{"user_id":545,"name":"ุ","steam_id":76561198084134025,"connected_time":5397000000000,"state":"active","ping":68},{"user_id":556,"name":"Idontknow","steam_id":76561199207044048,"connected_time":4917000000000,"state":"active","ping":42},{"user_id":603,"name":"Tazzz","steam_id":76561198280897107,"connected_time":1275000000000,"state":"active","ping":40},{"user_id":593,"name":"blinkerton city","steam_id":76561198054270410,"connected_time":2226000000000,"state":"active","ping":58},{"user_id":611,"name":"gnoblin","steam_id":76561198314221897,"connected_time":297000000000,"state":"active","ping":50},{"user_id":535,"name":"ImmuneToPeas","steam_id":76561198342411594,"connected_time":6462000000000,"state":"active","ping":61},{"user_id":612,"name":"EDJRMorpheus95","steam_id":76561198830669778,"connected_time":281000000000,"state":"active","ping":120},{"user_id":606,"name":"Larry Koopa","steam_id":76561199433618989,"connected_time":1031000000000,"state":"active","ping":94},{"user_id":541,"name":"lili ezili","steam_id":76561199391478575,"connected_time":5854000000000,"state":"active","ping":69},{"user_id":561,"name":"--)YawgMoss(-- \"The Salt\"","steam_id":76561198072971649,"connected_time":4628000000000,"state":"active","ping":63},{"user_id":596,"name":"Quarter Cheese","steam_id":76561198115814588,"connected_time":1514000000000,"state":"active","ping":44},{"user_id":597,"name":"Lochness_monster","steam_id":76561198417831973,"connected_time":1513000000000,"state":"active","ping":63},{"user_id":583,"name":"Peppy","steam_id":76561198866629645,"connected_time":2558000000000,"state":"active","ping":103},{"user_id":602,"name":"forest (girldick)","steam_id":76561198157960257,"connected_time":1447000000000,"state":"active","ping":40}]},{"server_id":119,"name":"Uncletopia | Seattle | 2 | All Maps","name_short":"sea-2","host":"sea-1.us.uncletopia.com","port":27025,"enabled":true,"region":"us-west","cc":"us","latitude":47.608013,"longitude":-122.33517,"reserved":0,"last_update":"0001-01-01T00:00:00Z","name_a2s":"Uncletopia | Seattle | 2 | All Maps","protocol":17,"map":"koth_harvest_final","folder":"tf","game":"Team Fortress","app_id":440,"player_count":24,"max_players":24,"Bots":0,"server_type":"Dedicated","server_os":"Linux","password":true,"vac":true,"version":"7757534","steam_id":85568392924469998,"keywords":["cp","nocrits","nodmgspread","uncletopia"],"game_id":440,"stv_port":27026,"stv_name":"Uncletopia | Seattle | 2 | All Maps | STV","players":[{"user_id":467,"name":"MEDICINAL CRACK ENJOYER","steam_id":76561198113427343,"connected_time":505000000000,"state":"active","ping":81},{"user_id":471,"name":"your alcoholic step father","steam_id":76561199386363103,"connected_time":443000000000,"state":"active","ping":60},{"user_id":464,"name":"equinox","steam_id":76561199380301475,"connected_time":1343000000000,"state":"active","ping":107},{"user_id":477,"name":"The Super Mario Bros. Movie","steam_id":76561198871692156,"connected_time":112000000000,"state":"active","ping":45},{"user_id":452,"name":"Starkiller","steam_id":76561198101643120,"connected_time":2450000000000,"state":"active","ping":55},{"user_id":469,"name":"Ellis","steam_id":76561198993634489,"connected_time":499000000000,"state":"active","ping":73},{"user_id":470,"name":"Shaquille Oatmeal","steam_id":76561198283213819,"connected_time":497000000000,"state":"active","ping":90},{"user_id":472,"name":"wmjledger","steam_id":76561198443046861,"connected_time":407000000000,"state":"active","ping":59},{"user_id":418,"name":"Bendidy","steam_id":76561198041964300,"connected_time":4928000000000,"state":"active","ping":78},{"user_id":474,"name":"Rat_king","steam_id":76561199465689129,"connected_time":359000000000,"state":"active","ping":105},{"user_id":454,"name":"Sly Marbo","steam_id":76561198135271741,"connected_time":2229000000000,"state":"active","ping":64},{"user_id":466,"name":"Pho Queue","steam_id":76561198988285392,"connected_time":636000000000,"state":"active","ping":69},{"user_id":423,"name":"jibby","steam_id":76561198046872382,"connected_time":4808000000000,"state":"active","ping":98},{"user_id":450,"name":"Patio","steam_id":76561197986082608,"connected_time":2507000000000,"state":"active","ping":47},{"user_id":440,"name":"Qas","steam_id":76561198067564482,"connected_time":3731000000000,"state":"active","ping":66},{"user_id":463,"name":"Iron","steam_id":76561198247918478,"connected_time":1364000000000,"state":"active","ping":102},{"user_id":441,"name":"BreadQuest","steam_id":76561198082425960,"connected_time":3588000000000,"state":"active","ping":44},{"user_id":417,"name":"glue eater","steam_id":76561198210322871,"connected_time":4955000000000,"state":"active","ping":73},{"user_id":461,"name":"Haydob13","steam_id":76561198110378191,"connected_time":1558000000000,"state":"active","ping":61},{"user_id":465,"name":"Ken","steam_id":76561198859871970,"connected_time":989000000000,"state":"active","ping":115},{"user_id":453,"name":"Snow_Squid","steam_id":76561198180840049,"connected_time":2433000000000,"state":"active","ping":84},{"user_id":475,"name":"chocky","steam_id":76561198057491296,"connected_time":349000000000,"state":"active","ping":49},{"user_id":413,"name":"TheGhostThatWas","steam_id":76561198055836483,"connected_time":5378000000000,"state":"active","ping":120},{"user_id":476,"name":"-(( Jet ))-","steam_id":76561197972695636,"connected_time":333000000000,"state":"active","ping":81}]},{"server_id":406,"name":"Uncletopia | Seattle | 3 | Stopwatch Beta","name_short":"sea-3","host":"sea-1.us.uncletopia.com","port":27035,"enabled":true,"region":"us-west","cc":"us","latitude":47.608013,"longitude":-122.33517,"reserved":0,"last_update":"0001-01-01T00:00:00Z","name_a2s":"Uncletopia | Seattle | 3 | Stopwatch Beta","protocol":17,"map":"cp_granary","folder":"tf","game":"Team Fortress","app_id":440,"player_count":20,"max_players":24,"Bots":0,"server_type":"Dedicated","server_os":"Linux","password":true,"vac":true,"version":"7757534","steam_id":85568392924515217,"keywords":["cp","nocrits","nodmgspread","uncletopia"],"game_id":440,"stv_port":27036,"stv_name":"Uncletopia | Seattle | 3 | Stopwatch Beta | STV","players":[{"user_id":478,"name":"Fuse","steam_id":76561198047018079,"connected_time":33000000000,"state":"active","ping":93},{"user_id":447,"name":"cornshot","steam_id":76561198043496387,"connected_time":1617000000000,"state":"active","ping":62},{"user_id":468,"name":"Zeubiess","steam_id":76561198074392917,"connected_time":891000000000,"state":"active","ping":56},{"user_id":372,"name":"Gratt","steam_id":76561198134657114,"connected_time":5829000000000,"state":"active","ping":80},{"user_id":453,"name":"sora","steam_id":76561198094256973,"connected_time":1335000000000,"state":"active","ping":70},{"user_id":449,"name":"BioluminescentBostonBoy","steam_id":76561198333194621,"connected_time":1496000000000,"state":"active","ping":89},{"user_id":450,"name":"Stinky","steam_id":76561198971257562,"connected_time":1415000000000,"state":"active","ping":67},{"user_id":460,"name":"Mr8bittripper","steam_id":76561198133894229,"connected_time":1133000000000,"state":"active","ping":45},{"user_id":469,"name":"xXx_SasukeMaster69_xXx","steam_id":76561199481395004,"connected_time":832000000000,"state":"active","ping":105},{"user_id":473,"name":"Parker","steam_id":76561198046044893,"connected_time":738000000000,"state":"active","ping":99},{"user_id":459,"name":"Literally Me","steam_id":76561198269487635,"connected_time":1240000000000,"state":"active","ping":104},{"user_id":422,"name":"Seriously Bruh","steam_id":76561198070408485,"connected_time":3257000000000,"state":"active","ping":52},{"user_id":465,"name":"StatingKnot","steam_id":76561199190634968,"connected_time":991000000000,"state":"active","ping":109},{"user_id":457,"name":"Day","steam_id":76561198346908503,"connected_time":1314000000000,"state":"active","ping":105},{"user_id":451,"name":"Coolshroomish","steam_id":76561199109440924,"connected_time":1390000000000,"state":"active","ping":52},{"user_id":461,"name":"Shazzy","steam_id":76561198145460523,"connected_time":1116000000000,"state":"active","ping":44},{"user_id":446,"name":"John Wick's puppy","steam_id":76561198064662875,"connected_time":1688000000000,"state":"active","ping":61},{"user_id":464,"name":"A Can of Arizona Green Tea","steam_id":76561198062481133,"connected_time":1016000000000,"state":"active","ping":86},{"user_id":467,"name":"Branz","steam_id":76561198076632143,"connected_time":935000000000,"state":"active","ping":88},{"user_id":475,"name":"greens beans","steam_id":76561198153611491,"connected_time":592000000000,"state":"active","ping":41}]},{"server_id":17,"name":"Uncletopia | San Francisco | 1 | All Maps","name_short":"sfo-1","host":"sfo-1.us.uncletopia.com","port":27015,"enabled":true,"region":"us-west","cc":"us","latitude":37.77397,"longitude":-122.4313,"reserved":0,"last_update":"0001-01-01T00:00:00Z","name_a2s":"Uncletopia | San Francisco | 1 | All Maps","protocol":17,"map":"cp_mossrock","folder":"tf","game":"Team Fortress","app_id":440,"player_count":25,"max_players":24,"Bots":0,"server_type":"Dedicated","server_os":"Linux","password":true,"vac":true,"version":"7757534","steam_id":85568392924469999,"keywords":["cp","nocrits","nodmgspread","uncletopia"],"game_id":440,"stv_port":27016,"stv_name":"Uncletopia | San Francisco | 1 | All Maps | STV","players":[{"user_id":671,"name":"ari7ona","steam_id":76561198077649250,"connected_time":1836000000000,"state":"active","ping":132},{"user_id":682,"name":"LovingKindne2z","steam_id":76561199064932372,"connected_time":1167000000000,"state":"active","ping":51},{"user_id":690,"name":"Arthur Boyle","steam_id":76561199071991661,"connected_time":220000000000,"state":"active","ping":106},{"user_id":693,"name":"Tobi","steam_id":76561198246136324,"connected_time":204000000000,"state":"active","ping":106},{"user_id":656,"name":"Kaluka","steam_id":76561198036861445,"connected_time":3510000000000,"state":"active","ping":105},{"user_id":675,"name":"OneLess","steam_id":76561198150870338,"connected_time":1765000000000,"state":"active","ping":98},{"user_id":688,"name":"Engynier Gaimeang (F2P)","steam_id":76561199013888779,"connected_time":236000000000,"state":"active","ping":67},{"user_id":689,"name":"akin","steam_id":76561198065895033,"connected_time":236000000000,"state":"active","ping":127},{"user_id":645,"name":"Ian","steam_id":76561198159334435,"connected_time":3748000000000,"state":"active","ping":162},{"user_id":700,"name":"Spiralimp","steam_id":76561198275979182,"connected_time":74000000000,"state":"spawning","ping":205},{"user_id":663,"name":"Jimmy","steam_id":76561198857959855,"connected_time":2909000000000,"state":"active","ping":55},{"user_id":668,"name":"CELLGOD1","steam_id":76561198967902002,"connected_time":2481000000000,"state":"active","ping":109},{"user_id":691,"name":"Jamarcus","steam_id":76561198150272587,"connected_time":215000000000,"state":"connecting","ping":0},{"user_id":636,"name":"QueenPinharam","steam_id":76561199015626409,"connected_time":4289000000000,"state":"active","ping":101},{"user_id":685,"name":"Otterman Empire","steam_id":76561198047758442,"connected_time":945000000000,"state":"active","ping":84},{"user_id":672,"name":"Kurtle","steam_id":76561199099898602,"connected_time":1829000000000,"state":"active","ping":73},{"user_id":615,"name":"Natalie (she/her)","steam_id":76561198048848289,"connected_time":5718000000000,"state":"active","ping":65},{"user_id":698,"name":"Bony","steam_id":76561199001748822,"connected_time":107000000000,"state":"active","ping":59},{"user_id":670,"name":"great1photo","steam_id":76561198085481933,"connected_time":1850000000000,"state":"active","ping":134},{"user_id":697,"name":"s4lmon","steam_id":76561198055882807,"connected_time":128000000000,"state":"active","ping":69},{"user_id":696,"name":"BurningPride","steam_id":76561198080592800,"connected_time":146000000000,"state":"active","ping":72},{"user_id":687,"name":"porksoda","steam_id":76561198021451377,"connected_time":433000000000,"state":"active","ping":61},{"user_id":667,"name":"cringy","steam_id":76561198323000455,"connected_time":2510000000000,"state":"active","ping":72},{"user_id":644,"name":"[DATS➡] Sugar Meowth","steam_id":76561197995251793,"connected_time":4042000000000,"state":"active","ping":61},{"user_id":699,"name":"highmechs","steam_id":76561198013650292,"connected_time":98000000000,"state":"active","ping":133}]},{"server_id":18,"name":"Uncletopia | San Francisco | 2 | All Maps","name_short":"sfo-2","host":"sfo-1.us.uncletopia.com","port":27025,"enabled":true,"region":"us-west","cc":"us","latitude":37.77397,"longitude":-122.4313,"reserved":0,"last_update":"0001-01-01T00:00:00Z","name_a2s":"Uncletopia | San Francisco | 2 | All Maps","protocol":17,"map":"pl_pier","folder":"tf","game":"Team Fortress","app_id":440,"player_count":23,"max_players":24,"Bots":0,"server_type":"Dedicated","server_os":"Linux","password":true,"vac":true,"version":"7757534","steam_id":85568392924470000,"keywords":["nocrits","nodmgspread","payload","uncletopia"],"game_id":440,"stv_port":27026,"stv_name":"Uncletopia | San Francisco | 2 | All Maps | STV","players":[{"user_id":108,"name":"Stapler","steam_id":76561198099295077,"connected_time":1179000000000,"state":"active","ping":45},{"user_id":69,"name":"Igrium","steam_id":76561198119549811,"connected_time":4546000000000,"state":"active","ping":56},{"user_id":99,"name":"SHMINKA808","steam_id":76561199221796181,"connected_time":2551000000000,"state":"active","ping":117},{"user_id":103,"name":"Shemoe Nullott","steam_id":76561199475616335,"connected_time":2080000000000,"state":"active","ping":114},{"user_id":112,"name":"Lambchop","steam_id":76561198043900363,"connected_time":1066000000000,"state":"active","ping":60},{"user_id":105,"name":"pikminmaster128","steam_id":76561198958620086,"connected_time":1993000000000,"state":"active","ping":72},{"user_id":101,"name":"DetectiveHorse","steam_id":76561198278726152,"connected_time":2103000000000,"state":"active","ping":122},{"user_id":115,"name":"e7","steam_id":76561198154265084,"connected_time":818000000000,"state":"active","ping":74},{"user_id":73,"name":"MILF PLANET","steam_id":76561198079026982,"connected_time":3897000000000,"state":"active","ping":56},{"user_id":116,"name":"Romans 10:9-11","steam_id":76561198141858576,"connected_time":679000000000,"state":"active","ping":126},{"user_id":117,"name":"Sinn","steam_id":76561199013434543,"connected_time":640000000000,"state":"active","ping":57},{"user_id":118,"name":"me shoot floor","steam_id":76561198046526036,"connected_time":319000000000,"state":"active","ping":60},{"user_id":94,"name":"MantisToboggan","steam_id":76561197969447887,"connected_time":2877000000000,"state":"active","ping":92},{"user_id":76,"name":"boomawrnamglrhejgoughdrg","steam_id":76561198056324307,"connected_time":3346000000000,"state":"active","ping":93},{"user_id":83,"name":"4 life","steam_id":76561198175961598,"connected_time":3256000000000,"state":"active","ping":68},{"user_id":100,"name":"Johnson, Navin R.","steam_id":76561197961107982,"connected_time":2497000000000,"state":"active","ping":107},{"user_id":113,"name":"DoubleTee","steam_id":76561198018980347,"connected_time":979000000000,"state":"active","ping":135},{"user_id":71,"name":"mrjibjaber","steam_id":76561198025229908,"connected_time":3961000000000,"state":"active","ping":55},{"user_id":95,"name":"cuh","steam_id":76561198321545921,"connected_time":2807000000000,"state":"active","ping":68},{"user_id":111,"name":"t","steam_id":76561198175988929,"connected_time":1073000000000,"state":"active","ping":72},{"user_id":77,"name":"Gabe","steam_id":76561198081153719,"connected_time":3345000000000,"state":"active","ping":56},{"user_id":88,"name":"Paul Blart","steam_id":76561198068110623,"connected_time":3162000000000,"state":"active","ping":67},{"user_id":106,"name":"ceres","steam_id":76561198291976960,"connected_time":1257000000000,"state":"active","ping":66}]},{"server_id":19,"name":"Uncletopia | San Francisco | 3 | Stopwatch Beta","name_short":"sfo-3","host":"sfo-1.us.uncletopia.com","port":27035,"enabled":true,"region":"us-west","cc":"us","latitude":37.77397,"longitude":-122.4313,"reserved":0,"last_update":"0001-01-01T00:00:00Z","name_a2s":"Uncletopia | San Francisco | 3 | Stopwatch Beta","protocol":17,"map":"cp_sunshine","folder":"tf","game":"Team Fortress","app_id":440,"player_count":24,"max_players":24,"Bots":0,"server_type":"Dedicated","server_os":"Linux","password":true,"vac":true,"version":"7757534","steam_id":85568392924742824,"keywords":["cp","nocrits","nodmgspread","uncletopia"],"game_id":440,"stv_port":27036,"stv_name":"Uncletopia | San Francisco | 3 | Stopwatch Beta | STV","players":[{"user_id":78,"name":"goongremlin","steam_id":76561198278196215,"connected_time":446000000000,"state":"active","ping":46},{"user_id":65,"name":"video games enjoyer","steam_id":76561199057086773,"connected_time":848000000000,"state":"active","ping":131},{"user_id":79,"name":"holymolee","steam_id":76561198894230126,"connected_time":442000000000,"state":"active","ping":65},{"user_id":66,"name":"CaliforniaPizzaChristian","steam_id":76561198051370676,"connected_time":785000000000,"state":"active","ping":73},{"user_id":49,"name":"big car","steam_id":76561198067082350,"connected_time":2167000000000,"state":"active","ping":53},{"user_id":64,"name":"[S]Mr. X [No Monitor]","steam_id":76561197963746035,"connected_time":866000000000,"state":"active","ping":84},{"user_id":67,"name":"boneyard","steam_id":76561199080454140,"connected_time":779000000000,"state":"active","ping":119},{"user_id":68,"name":"Evenaris","steam_id":76561198087544319,"connected_time":746000000000,"state":"active","ping":56},{"user_id":19,"name":"nachotaco101","steam_id":76561198272387316,"connected_time":3782000000000,"state":"active","ping":114},{"user_id":86,"name":"Spaceman","steam_id":76561198349305249,"connected_time":180000000000,"state":"active","ping":75},{"user_id":71,"name":"kohaku gaming","steam_id":76561198071600385,"connected_time":702000000000,"state":"active","ping":124},{"user_id":41,"name":"Exp4nd_","steam_id":76561198151431682,"connected_time":3015000000000,"state":"active","ping":77},{"user_id":76,"name":"LostAnkh","steam_id":76561197992856184,"connected_time":547000000000,"state":"active","ping":91},{"user_id":32,"name":"7billion","steam_id":76561198274476276,"connected_time":3166000000000,"state":"active","ping":96},{"user_id":46,"name":"Scout3192","steam_id":76561198316619499,"connected_time":2911000000000,"state":"active","ping":100},{"user_id":77,"name":"Cammicus","steam_id":76561198033375316,"connected_time":501000000000,"state":"active","ping":113},{"user_id":87,"name":"NotThatGuyPal","steam_id":76561199127607812,"connected_time":65000000000,"state":"active","ping":88},{"user_id":34,"name":"A Little Guy","steam_id":76561198142464684,"connected_time":3156000000000,"state":"active","ping":99},{"user_id":81,"name":"zaza addict","steam_id":76561198202982780,"connected_time":354000000000,"state":"active","ping":113},{"user_id":82,"name":"Wicki","steam_id":76561198122590990,"connected_time":322000000000,"state":"active","ping":84},{"user_id":37,"name":"lil rat","steam_id":76561198083413316,"connected_time":3109000000000,"state":"active","ping":63},{"user_id":84,"name":"[ibb™]Shadow20X6-ENGI","steam_id":76561198019292755,"connected_time":268000000000,"state":"active","ping":66},{"user_id":51,"name":"Furious George","steam_id":76561198405111646,"connected_time":1625000000000,"state":"active","ping":56},{"user_id":85,"name":"checkswing","steam_id":76561198999816132,"connected_time":245000000000,"state":"active","ping":131}]},{"server_id":20,"name":"Uncletopia | San Francisco | 4 | Community","name_short":"sfo-4","host":"sfo-1.us.uncletopia.com","port":27045,"enabled":true,"region":"us-west","cc":"us","latitude":37.77397,"longitude":-122.4313,"reserved":0,"last_update":"0001-01-01T00:00:00Z","name_a2s":"Uncletopia | San Francisco | 4 | Community","protocol":17,"map":"workshop/pl_fifthcurve_rc1.ugc648227046","folder":"tf","game":"Team Fortress","app_id":440,"player_count":0,"max_players":24,"Bots":0,"server_type":"Dedicated","server_os":"Linux","password":true,"vac":true,"version":"7757534","steam_id":85568392924742826,"keywords":["nocrits","nodmgspread","payload","uncletopia"],"game_id":440,"stv_port":27046,"stv_name":"Uncletopia | San Francisco | 4 | Community | STV","players":null},{"server_id":141,"name":"Uncletopia | Sydney | 1 | All Maps","name_short":"syd-1","host":"syd-1.au.uncletopia.com","port":27015,"enabled":true,"region":"au","cc":"au","latitude":-33.865143,"longitude":151.2099,"reserved":0,"last_update":"0001-01-01T00:00:00Z","name_a2s":"Uncletopia | Sydney | 1 | All Maps","protocol":17,"map":"pl_snowycoast","folder":"tf","game":"Team Fortress","app_id":440,"player_count":24,"max_players":24,"Bots":0,"server_type":"Dedicated","server_os":"Linux","password":true,"vac":true,"version":"7757534","steam_id":85568392924470001,"keywords":["nocrits","nodmgspread","payload","uncletopia"],"game_id":440,"stv_port":27016,"stv_name":"Uncletopia | Sydney | 1 | All Maps | STV","players":[{"user_id":142,"name":"whiteshaq","steam_id":76561198131988811,"connected_time":2414000000000,"state":"active","ping":49},{"user_id":158,"name":"dinxie","steam_id":76561199448765541,"connected_time":1195000000000,"state":"active","ping":69},{"user_id":172,"name":"Bobby Wilkinson","steam_id":76561198054985347,"connected_time":9000000000,"state":"spawning","ping":58},{"user_id":132,"name":"Ratbagus","steam_id":76561197993827486,"connected_time":3013000000000,"state":"active","ping":75},{"user_id":163,"name":"ForUnlimitedඞ","steam_id":76561198025037215,"connected_time":984000000000,"state":"active","ping":45},{"user_id":153,"name":"perturb","steam_id":76561198085124297,"connected_time":1813000000000,"state":"active","ping":58},{"user_id":154,"name":"Toody","steam_id":76561198212656752,"connected_time":1788000000000,"state":"active","ping":65},{"user_id":166,"name":"Symphony377","steam_id":76561198051564385,"connected_time":785000000000,"state":"active","ping":86},{"user_id":138,"name":"Grumple","steam_id":76561198089208147,"connected_time":2737000000000,"state":"active","ping":64},{"user_id":169,"name":"13£","steam_id":76561198425726464,"connected_time":96000000000,"state":"active","ping":290},{"user_id":135,"name":"YeahJJ","steam_id":76561198838332365,"connected_time":2857000000000,"state":"active","ping":65},{"user_id":130,"name":"frog","steam_id":76561198300661780,"connected_time":3107000000000,"state":"active","ping":34},{"user_id":136,"name":"OofImDuck","steam_id":76561198806600517,"connected_time":2834000000000,"state":"active","ping":64},{"user_id":160,"name":"fungus","steam_id":76561198082217365,"connected_time":1146000000000,"state":"active","ping":89},{"user_id":167,"name":"thrax","steam_id":76561197992385270,"connected_time":209000000000,"state":"active","ping":50},{"user_id":137,"name":"Polar","steam_id":76561198085148049,"connected_time":2803000000000,"state":"active","ping":55},{"user_id":159,"name":"badmn","steam_id":76561198056462343,"connected_time":1152000000000,"state":"active","ping":52},{"user_id":143,"name":"TheNeutrality","steam_id":76561199017954062,"connected_time":2338000000000,"state":"active","ping":181},{"user_id":155,"name":"Eugene (built different)","steam_id":76561198079108027,"connected_time":1650000000000,"state":"active","ping":59},{"user_id":171,"name":"JayCatnip","steam_id":76561198125106357,"connected_time":77000000000,"state":"active","ping":75},{"user_id":170,"name":"electricwalrus","steam_id":76561197994346012,"connected_time":85000000000,"state":"active","ping":62},{"user_id":104,"name":"distraction","steam_id":76561198119112358,"connected_time":4854000000000,"state":"active","ping":46},{"user_id":109,"name":"Pug","steam_id":76561198136794372,"connected_time":4436000000000,"state":"active","ping":59},{"user_id":164,"name":"lavanderpumpernickle","steam_id":76561199093611800,"connected_time":945000000000,"state":"active","ping":51}]},{"server_id":123,"name":"Uncletopia | Sydney | 2 | All Maps","name_short":"syd-2","host":"syd-1.au.uncletopia.com","port":27025,"enabled":true,"region":"au","cc":"au","latitude":-33.865143,"longitude":151.2099,"reserved":0,"last_update":"0001-01-01T00:00:00Z","name_a2s":"Uncletopia | Sydney | 2 | All Maps","protocol":17,"map":"cp_altitude","folder":"tf","game":"Team Fortress","app_id":440,"player_count":0,"max_players":24,"Bots":0,"server_type":"Dedicated","server_os":"Linux","password":true,"vac":true,"version":"7757534","steam_id":85568392924470002,"keywords":["cp","nocrits","nodmgspread","uncletopia"],"game_id":440,"stv_port":27026,"stv_name":"Uncletopia | Sydney | 2 | All Maps | STV","players":null},{"server_id":395,"name":"Uncletopia | Sydney | 3 | All Maps","name_short":"syd-3","host":"syd-1.au.uncletopia.com","port":27035,"enabled":true,"region":"au","cc":"au","latitude":-33.865143,"longitude":151.2099,"reserved":0,"last_update":"0001-01-01T00:00:00Z","name_a2s":"Uncletopia | Sydney | 3 | All Maps","protocol":17,"map":"pl_swiftwater_final1","folder":"tf","game":"Team Fortress","app_id":440,"player_count":0,"max_players":24,"Bots":0,"server_type":"Dedicated","server_os":"Linux","password":true,"vac":true,"version":"7757534","steam_id":85568392925194467,"keywords":["nocrits","nodmgspread","payload","uncletopia"],"game_id":440,"stv_port":27036,"stv_name":"Uncletopia | Sydney | 3 | All Maps | STV","players":null},{"server_id":396,"name":"Uncletopia | Sydney | 4 | All Maps","name_short":"syd-4","host":"syd-1.au.uncletopia.com","port":27045,"enabled":true,"region":"au","cc":"au","latitude":-33.865143,"longitude":151.2099,"reserved":0,"last_update":"0001-01-01T00:00:00Z","name_a2s":"Uncletopia | Sydney | 4 | All Maps","protocol":17,"map":"koth_highpass","folder":"tf","game":"Team Fortress","app_id":440,"player_count":0,"max_players":24,"Bots":0,"server_type":"Dedicated","server_os":"Linux","password":true,"vac":true,"version":"7757534","steam_id":85568392925397958,"keywords":["cp","nocrits","nodmgspread","uncletopia"],"game_id":440,"stv_port":27046,"stv_name":"Uncletopia | Sydney | 4 | All Maps | STV","players":null},{"server_id":58,"name":"Uncletopia | Sydney | 5 | Stopwatch Beta","name_short":"syd-5","host":"syd-1.au.uncletopia.com","port":27055,"enabled":true,"region":"au","cc":"au","latitude":-33.865143,"longitude":151.2099,"reserved":0,"last_update":"0001-01-01T00:00:00Z","name_a2s":"Uncletopia | Sydney | 5 | Stopwatch Beta","protocol":17,"map":"cp_metalworks","folder":"tf","game":"Team Fortress","app_id":440,"player_count":2,"max_players":24,"Bots":0,"server_type":"Dedicated","server_os":"Linux","password":true,"vac":true,"version":"7757534","steam_id":85568392925397959,"keywords":["cp","nocrits","nodmgspread","uncletopia"],"game_id":440,"stv_port":27056,"stv_name":"Uncletopia | Sydney | 5 | Stopwatch Beta | STV","players":[{"user_id":4,"name":"Beany \u003c3","steam_id":76561198383859773,"connected_time":3419000000000,"state":"active","ping":65},{"user_id":7,"name":"XeniaoGaming","steam_id":76561199145538313,"connected_time":2950000000000,"state":"active","ping":69}]},{"server_id":59,"name":"Uncletopia | Sydney | 6 | Community","name_short":"syd-6","host":"syd-1.au.uncletopia.com","port":27065,"enabled":true,"region":"au","cc":"au","latitude":-33.865143,"longitude":151.2099,"reserved":0,"last_update":"0001-01-01T00:00:00Z","name_a2s":"Uncletopia | Sydney | 6 | Community","protocol":17,"map":"cp_snakewater_final1","folder":"tf","game":"Team Fortress","app_id":440,"player_count":0,"max_players":24,"Bots":0,"server_type":"Dedicated","server_os":"Linux","password":true,"vac":true,"version":"7757534","steam_id":85568392925397960,"keywords":["cp","nocrits","nodmgspread","uncletopia"],"game_id":440,"stv_port":27066,"stv_name":"Uncletopia | Sydney | 6 | Community | STV","players":null},{"server_id":49,"name":"Uncletopia | Warsaw | 1 | All Maps","name_short":"waw-1","host":"waw-1.pl.uncletopia.com","port":27015,"enabled":true,"region":"eu","cc":"pl","latitude":52.2297,"longitude":21.017532,"reserved":0,"last_update":"0001-01-01T00:00:00Z","name_a2s":"","protocol":0,"map":"","folder":"","game":"","app_id":0,"player_count":0,"max_players":0,"Bots":0,"server_type":"","server_os":"","password":false,"vac":false,"version":"","steam_id":0,"keywords":null,"game_id":0,"stv_port":0,"stv_name":"","players":null},{"server_id":50,"name":"Uncletopia | Warsaw | 2 | All Maps","name_short":"waw-2","host":"waw-1.pl.uncletopia.com","port":27025,"enabled":true,"region":"eu","cc":"pl","latitude":52.2297,"longitude":21.017532,"reserved":0,"last_update":"0001-01-01T00:00:00Z","name_a2s":"Uncletopia | Warsaw | 2 | All Maps","protocol":17,"map":"koth_highpass","folder":"tf","game":"Team Fortress","app_id":440,"player_count":0,"max_players":24,"Bots":0,"server_type":"Dedicated","server_os":"Linux","password":true,"vac":true,"version":"7757534","steam_id":85568392925397851,"keywords":["cp","nocrits","nodmgspread","uncletopia"],"game_id":440,"stv_port":27026,"stv_name":"Uncletopia | Warsaw | 2 | All Maps | STV","players":null},{"server_id":51,"name":"Uncletopia | Warsaw | 3 | All Maps","name_short":"waw-3","host":"waw-1.pl.uncletopia.com","port":27035,"enabled":true,"region":"eu","cc":"pl","latitude":52.2297,"longitude":21.017532,"reserved":0,"last_update":"0001-01-01T00:00:00Z","name_a2s":"Uncletopia | Warsaw | 3 | All Maps","protocol":17,"map":"koth_cascade","folder":"tf","game":"Team Fortress","app_id":440,"player_count":0,"max_players":24,"Bots":0,"server_type":"Dedicated","server_os":"Linux","password":true,"vac":true,"version":"7757534","steam_id":85568392925397852,"keywords":["cp","nocrits","nodmgspread","uncletopia"],"game_id":440,"stv_port":27036,"stv_name":"Uncletopia | Warsaw | 3 | All Maps | STV","players":null},{"server_id":52,"name":"Uncletopia | Warsaw | 4 | All Maps","name_short":"waw-4","host":"waw-1.pl.uncletopia.com","port":27045,"enabled":true,"region":"eu","cc":"pl","latitude":52.2297,"longitude":21.017532,"reserved":0,"last_update":"0001-01-01T00:00:00Z","name_a2s":"Uncletopia | Warsaw | 4 | All Maps","protocol":17,"map":"koth_lakeside_final","folder":"tf","game":"Team Fortress","app_id":440,"player_count":0,"max_players":24,"Bots":0,"server_type":"Dedicated","server_os":"Linux","password":true,"vac":true,"version":"7757534","steam_id":85568392925397853,"keywords":["cp","nocrits","nodmgspread","uncletopia"],"game_id":440,"stv_port":27046,"stv_name":"Uncletopia | Warsaw | 4 | All Maps | STV","players":null},{"server_id":53,"name":"Uncletopia | Warsaw | 5 | Stopwatch Beta","name_short":"waw-5","host":"waw-1.pl.uncletopia.com","port":27055,"enabled":true,"region":"eu","cc":"pl","latitude":52.2297,"longitude":21.017532,"reserved":0,"last_update":"0001-01-01T00:00:00Z","name_a2s":"Uncletopia | Warsaw | 5 | Stopwatch Beta","protocol":17,"map":"pl_borneo","folder":"tf","game":"Team Fortress","app_id":440,"player_count":0,"max_players":24,"Bots":0,"server_type":"Dedicated","server_os":"Linux","password":true,"vac":true,"version":"7757534","steam_id":85568392925397854,"keywords":["nocrits","nodmgspread","payload","uncletopia"],"game_id":440,"stv_port":27056,"stv_name":"Uncletopia | Warsaw | 5 | Stopwatch Beta | STV","players":null},{"server_id":54,"name":"Uncletopia | Warsaw | 6 | Community","name_short":"waw-6","host":"waw-1.pl.uncletopia.com","port":27065,"enabled":true,"region":"eu","cc":"pl","latitude":52.2297,"longitude":21.017532,"reserved":0,"last_update":"0001-01-01T00:00:00Z","name_a2s":"Uncletopia | Warsaw | 6 | Community","protocol":17,"map":"koth_lakeside_final","folder":"tf","game":"Team Fortress","app_id":440,"player_count":0,"max_players":24,"Bots":0,"server_type":"Dedicated","server_os":"Linux","password":true,"vac":true,"version":"7757534","steam_id":85568392925397856,"keywords":["cp","nocrits","nodmgspread","uncletopia"],"game_id":440,"stv_port":27066,"stv_name":"Uncletopia | Warsaw | 6 | Community | STV","players":null}]}