{"status":true,"message":"","result":[{"server_id":9,"name":"Uncletopia | Atlanta | 1 | All Maps","name_short":"atl-1","host":"atl-1.us.uncletopia.com","port":27015,"enabled":true,"region":"us-east","cc":"us","latitude":33.753746,"longitude":-84.38633,"reserved":0,"last_update":"0001-01-01T00:00:00Z","name_a2s":"Uncletopia | Atlanta | 1 | All Maps","protocol":17,"map":"pl_frontier_final","folder":"tf","game":"Team Fortress","app_id":440,"player_count":23,"max_players":24,"Bots":0,"server_type":"Dedicated","server_os":"Linux","password":true,"vac":true,"version":"7757534","steam_id":85568392924469982,"keywords":["nocrits","nodmgspread","payload","uncletopia"],"game_id":440,"stv_port":27016,"stv_name":"Uncletopia | Atlanta | 1 | All Maps | STV","players":[{"user_id":794,"name":"nomad","steam_id":76561197998740399,"connected_time":3015000000000,"state":"active","ping":64},{"user_id":798,"name":"the taxi driver","steam_id":76561198830243167,"connected_time":2989000000000,"state":"active","ping":75},{"user_id":827,"name":"Spiderfight1","steam_id":76561199189991528,"connected_time":155000000000,"state":"active","ping":74},{"user_id":833,"name":"joe","steam_id":76561198045781320,"connected_time":29000000000,"state":"active","ping":62},{"user_id":812,"name":"David De Bergerac","steam_id":76561198010306294,"connected_time":2019000000000,"state":"active","ping":82},{"user_id":659,"name":"eish","steam_id":76561198089463603,"connected_time":17162000000000,"state":"active","ping":124},{"user_id":813,"name":"Draven","steam_id":76561198074776388,"connected_time":1942000000000,"state":"active","ping":71},{"user_id":819,"name":"Axon","steam_id":76561198117444710,"connected_time":619000000000,"state":"active","ping":47},{"user_id":830,"name":"Onyx","steam_id":76561198275349640,"connected_time":146000000000,"state":"active","ping":74},{"user_id":828,"name":"Intestinal Straw","steam_id":76561198082095303,"connected_time":155000000000,"state":"active","ping":69},{"user_id":796,"name":"ya!!!","steam_id":76561198243965308,"connected_time":3012000000000,"state":"active","ping":54},{"user_id":809,"name":"ゴ?!Jon Chainsaw!?ゴ","steam_id":76561198400240040,"connected_time":2469000000000,"state":"active","ping":80},{"user_id":789,"name":"ATL1 | Crystron","steam_id":76561198880437428,"connected_time":4140000000000,"state":"active","ping":83},{"user_id":831,"name":"spoon","steam_id":76561198927517471,"connected_time":143000000000,"state":"active","ping":56},{"user_id":824,"name":"PETER GRIFFIN","steam_id":76561198930116758,"connected_time":412000000000,"state":"active","ping":60},{"user_id":724,"name":"lynt","steam_id":76561198988333976,"connected_time":11037000000000,"state":"active","ping":39},{"user_id":801,"name":"ClearAster","steam_id":76561198113615374,"connected_time":2885000000000,"state":"active","ping":130},{"user_id":802,"name":"JestinJester","steam_id":76561198411846094,"connected_time":2878000000000,"state":"active","ping":70},{"user_id":822,"name":"darkeagle157","steam_id":76561198287919502,"connected_time":428000000000,"state":"active","ping":76},{"user_id":826,"name":"xthyl","steam_id":76561199361299006,"connected_time":207000000000,"state":"active","ping":100},{"user_id":766,"name":"Dolphinjuice","steam_id":76561198047012433,"connected_time":6419000000000,"state":"active","ping":88},{"user_id":804,"name":"Jeeper","steam_id":76561198155583692,"connected_time":2686000000000,"state":"active","ping":66},{"user_id":821,"name":"noob","steam_id":76561198170840838,"connected_time":618000000000,"state":"active","ping":79}]},{"server_id":104,"name":"Uncletopia | Atlanta | 2 | All Maps","name_short":"atl-2","host":"atl-1.us.uncletopia.com","port":27025,"enabled":true,"region":"us-east","cc":"us","latitude":33.753746,"longitude":-84.38633,"reserved":0,"last_update":"0001-01-01T00:00:00Z","name_a2s":"Uncletopia | Atlanta | 2 | All Maps","protocol":17,"map":"pl_frontier_final","folder":"tf","game":"Team Fortress","app_id":440,"player_count":23,"max_players":24,"Bots":0,"server_type":"Dedicated","server_os":"Linux","password":true,"vac":true,"version":"7757534","steam_id":85568392924469983,"keywords":["nocrits","nodmgspread","payload","uncletopia"],"game_id":440,"stv_port":27026,"stv_name":"Uncletopia | Atlanta | 2 | All Maps | STV","players":[{"user_id":740,"name":"kingeibon","steam_id":76561198056238702,"connected_time":1341000000000,"state":"active","ping":85},{"user_id":754,"name":"The Builder","steam_id":76561198093432863,"connected_time":313000000000,"state":"active","ping":71},{"user_id":732,"name":"KlulessKitsune","steam_id":76561198136903610,"connected_time":1872000000000,"state":"active","ping":57},{"user_id":733,"name":"Mayonnaise","steam_id":76561198062419832,"connected_time":1754000000000,"state":"active","ping":156},{"user_id":741,"name":"spondy","steam_id":76561198081201520,"connected_time":1339000000000,"state":"active","ping":73},{"user_id":742,"name":"AGagagaga","steam_id":76561199008585183,"connected_time":1242000000000,"state":"active","ping":58},{"user_id":756,"name":"Nuke 4 Duke","steam_id":76561198371279948,"connected_time":239000000000,"state":"active","ping":119},{"user_id":734,"name":"Pissy The Bucket","steam_id":76561198258456734,"connected_time":1687000000000,"state":"active","ping":69},{"user_id":744,"name":"Punished Shitster","steam_id":76561198150452857,"connected_time":1135000000000,"state":"active","ping":77},{"user_id":745,"name":"Sabaman55","steam_id":76561198212267979,"connected_time":1104000000000,"state":"active","ping":67},{"user_id":758,"name":"scoochie raincock","steam_id":76561199186722146,"connected_time":177000000000,"state":"active","ping":66},{"user_id":736,"name":"Pixel","steam_id":76561198129243055,"connected_time":1603000000000,"state":"active","ping":64},{"user_id":759,"name":"Cyan","steam_id":76561198090433914,"connected_time":159000000000,"state":"active","ping":99},{"user_id":719,"name":"rossypu","steam_id":76561198410774298,"connected_time":2426000000000,"state":"active","ping":83},{"user_id":753,"name":"Quiver Cakes ._.","steam_id":76561198243155576,"connected_time":315000000000,"state":"active","ping":75},{"user_id":762,"name":"intek","steam_id":76561198052705291,"connected_time":104000000000,"state":"active","ping":90},{"user_id":761,"name":"=(eGO)= G-Funk","steam_id":76561198089248055,"connected_time":117000000000,"state":"active","ping":94},{"user_id":764,"name":"Vacation","steam_id":76561198348081238,"connected_time":68000000000,"state":"active","ping":148},{"user_id":738,"name":"Unchained Zeity","steam_id":76561198414129606,"connected_time":1577000000000,"state":"active","ping":159},{"user_id":765,"name":"XCellent","steam_id":76561198805514323,"connected_time":60000000000,"state":"active","ping":127},{"user_id":731,"name":"Restricted_Files","steam_id":76561199448121007,"connected_time":2020000000000,"state":"active","ping":178},{"user_id":683,"name":"Ninjy","steam_id":76561198203017400,"connected_time":6150000000000,"state":"active","ping":82},{"user_id":739,"name":"HelloJones","steam_id":76561199043591312,"connected_time":1567000000000,"state":"active","ping":81}]},{"server_id":400,"name":"Uncletopia | Atlanta | 3 | Community","name_short":"atl-3","host":"atl-1.us.uncletopia.com","port":27035,"enabled":true,"region":"us-east","cc":"us","latitude":33.753746,"longitude":-84.38633,"reserved":0,"last_update":"0001-01-01T00:00:00Z","name_a2s":"Uncletopia | Atlanta | 3 | Community","protocol":17,"map":"workshop/cp_kalinka_rc6a.ugc1272700588","folder":"tf","game":"Team Fortress","app_id":440,"player_count":1,"max_players":24,"Bots":0,"server_type":"Dedicated","server_os":"Linux","password":true,"vac":true,"version":"7757534","steam_id":85568392924515187,"keywords":["cp","nocrits","nodmgspread","uncletopia"],"game_id":440,"stv_port":27036,"stv_name":"Uncletopia | Atlanta | 3 | Community | STV","players":[{"user_id":220,"name":"TF3 Medic gaming","steam_id":76561199053687718,"connected_time":3583000000000,"state":"active","ping":89}]},{"server_id":401,"name":"Uncletopia | Atlanta | 4 | No Payload","name_short":"atl-4","host":"atl-1.us.uncletopia.com","port":27045,"enabled":true,"region":"us-east","cc":"us","latitude":33.753746,"longitude":-84.38633,"reserved":0,"last_update":"0001-01-01T00:00:00Z","name_a2s":"","protocol":0,"map":"","folder":"","game":"","app_id":0,"player_count":0,"max_players":0,"Bots":0,"server_type":"","server_os":"","password":false,"vac":false,"version":"","steam_id":0,"keywords":null,"game_id":0,"stv_port":0,"stv_name":"","players":null},{"server_id":2,"name":"Uncletopia | Chicago | 1 | All Maps","name_short":"chi-1","host":"chi-1.us.uncletopia.com","port":27015,"enabled":true,"region":"us-central","cc":"us","latitude":41.881832,"longitude":-87.62318,"reserved":0,"last_update":"0001-01-01T00:00:00Z","name_a2s":"Uncletopia | Chicago | 1 | All Maps","protocol":17,"map":"pl_barnblitz","folder":"tf","game":"Team Fortress","app_id":440,"player_count":24,"max_players":24,"Bots":0,"server_type":"Dedicated","server_os":"Linux","password":true,"vac":true,"version":"7757534","steam_id":85568392924469984,"keywords":["nocrits","nodmgspread","payload","uncletopia"],"game_id":440,"stv_port":27016,"stv_name":"Uncletopia | Chicago | 1 | All Maps | STV","players":[{"user_id":851,"name":"Kyso","steam_id":76561199011185438,"connected_time":3534000000000,"state":"active","ping":47},{"user_id":852,"name":"Marksito14","steam_id":76561199132272437,"connected_time":3521000000000,"state":"active","ping":133},{"user_id":847,"name":"PuzzlePuddles","steam_id":76561198856494882,"connected_time":4206000000000,"state":"active","ping":71},{"user_id":850,"name":"sammy #freecream","steam_id":76561199001307670,"connected_time":3651000000000,"state":"active","ping":102},{"user_id":872,"name":"star cluster","steam_id":76561198799922000,"connected_time":1256000000000,"state":"active","ping":104},{"user_id":731,"name":"CORGI.EXE","steam_id":76561198077093432,"connected_time":11687000000000,"state":"active","ping":67},{"user_id":871,"name":"hazel","steam_id":76561198173271218,"connected_time":1685000000000,"state":"active","ping":78},{"user_id":864,"name":"comet sooicidy","steam_id":76561198025173479,"connected_time":2584000000000,"state":"active","ping":91},{"user_id":859,"name":"Mischievous44","steam_id":76561198106532712,"connected_time":3087000000000,"state":"active","ping":54},{"user_id":873,"name":"roller","steam_id":76561198091233439,"connected_time":1251000000000,"state":"active","ping":42},{"user_id":855,"name":"Mefir","steam_id":76561198013650292,"connected_time":3450000000000,"state":"active","ping":118},{"user_id":874,"name":"kendrick lamar bigmac ost","steam_id":76561198070136627,"connected_time":1229000000000,"state":"active","ping":91},{"user_id":860,"name":"AOTFB | Eminem Fortnite","steam_id":76561198064631314,"connected_time":2841000000000,"state":"active","ping":69},{"user_id":840,"name":"freewave","steam_id":76561198197047443,"connected_time":4554000000000,"state":"active","ping":71},{"user_id":849,"name":"cow","steam_id":76561198117331762,"connected_time":3954000000000,"state":"active","ping":46},{"user_id":811,"name":"eloressa","steam_id":76561198120330867,"connected_time":7353000000000,"state":"active","ping":56},{"user_id":866,"name":"Swirl","steam_id":76561199202761955,"connected_time":2275000000000,"state":"active","ping":69},{"user_id":875,"name":"lag","steam_id":76561198117898839,"connected_time":1210000000000,"state":"active","ping":112},{"user_id":822,"name":"Hammerhead","steam_id":76561198897122890,"connected_time":6042000000000,"state":"active","ping":58},{"user_id":844,"name":"illegal","steam_id":76561198871530383,"connected_time":4536000000000,"state":"active","ping":47},{"user_id":862,"name":"Craig Isonychia","steam_id":76561198272013678,"connected_time":2752000000000,"state":"active","ping":75},{"user_id":824,"name":"Argo","steam_id":76561198353725622,"connected_time":6016000000000,"state":"active","ping":75},{"user_id":870,"name":"Furry Saul Goodman","steam_id":76561198069580305,"connected_time":1903000000000,"state":"active","ping":46},{"user_id":858,"name":"Ademar","steam_id":76561199391802581,"connected_time":3159000000000,"state":"active","ping":55}]},{"server_id":106,"name":"Uncletopia | Chicago | 2 | All Maps","name_short":"chi-2","host":"chi-1.us.uncletopia.com","port":27025,"enabled":true,"region":"us-central","cc":"us","latitude":41.881832,"longitude":-87.62318,"reserved":0,"last_update":"0001-01-01T00:00:00Z","name_a2s":"Uncletopia | Chicago | 2 | All Maps","protocol":17,"map":"cp_altitude","folder":"tf","game":"Team Fortress","app_id":440,"player_count":21,"max_players":24,"Bots":0,"server_type":"Dedicated","server_os":"Linux","password":true,"vac":true,"version":"7757534","steam_id":85568392924469985,"keywords":["cp","nocrits","nodmgspread","uncletopia"],"game_id":440,"stv_port":27026,"stv_name":"Uncletopia | Chicago | 2 | All Maps | STV","players":[{"user_id":776,"name":"Duddyboy","steam_id":76561198064187979,"connected_time":156000000000,"state":"active","ping":165},{"user_id":730,"name":"lorelius hogglefart","steam_id":76561198211781375,"connected_time":2134000000000,"state":"active","ping":78},{"user_id":751,"name":"DemoLiberTF2","steam_id":76561198095378689,"connected_time":1398000000000,"state":"active","ping":129},{"user_id":770,"name":"Am I Good At The Video Game?","steam_id":76561198046053281,"connected_time":383000000000,"state":"active","ping":70},{"user_id":744,"name":"storepilled grocerycel","steam_id":76561198097588802,"connected_time":1772000000000,"state":"active","ping":50},{"user_id":768,"name":"Pourpel","steam_id":76561198059125470,"connected_time":435000000000,"state":"active","ping":70},{"user_id":771,"name":"Cheetose Intolerant","steam_id":76561198013399809,"connected_time":381000000000,"state":"active","ping":78},{"user_id":762,"name":"MagikCactus","steam_id":76561198035678261,"connected_time":866000000000,"state":"active","ping":98},{"user_id":703,"name":"vergil","steam_id":76561197972605325,"connected_time":4179000000000,"state":"active","ping":182},{"user_id":706,"name":"Drizzle","steam_id":76561198152143806,"connected_time":4105000000000,"state":"active","ping":53},{"user_id":715,"name":"Go-Go-Rilla","steam_id":76561198143066254,"connected_time":3801000000000,"state":"active","ping":70},{"user_id":769,"name":"Gustavo Fring","steam_id":76561198132807405,"connected_time":419000000000,"state":"active","ping":87},{"user_id":710,"name":"ScoutSecoTF2","steam_id":76561198366212156,"connected_time":3910000000000,"state":"active","ping":104},{"user_id":734,"name":"cyclops","steam_id":76561197970370198,"connected_time":2078000000000,"state":"active","ping":59},{"user_id":735,"name":"El Gato Paranoico","steam_id":76561198116567116,"connected_time":2051000000000,"state":"active","ping":92},{"user_id":716,"name":"PissCake","steam_id":76561199085472936,"connected_time":3789000000000,"state":"active","ping":72},{"user_id":736,"name":"Michaelpc1","steam_id":76561198088365519,"connected_time":2050000000000,"state":"active","ping":77},{"user_id":737,"name":"Alfonso Molestro","steam_id":76561197998677099,"connected_time":2047000000000,"state":"active","ping":77},{"user_id":759,"name":"PhantomTheMate","steam_id":76561198051814495,"connected_time":999000000000,"state":"active","ping":64},{"user_id":754,"name":"ComputeCore167","steam_id":76561198301250353,"connected_time":1325000000000,"state":"active","ping":75},{"user_id":761,"name":"Spleen","steam_id":76561198047656761,"connected_time":946000000000,"state":"active","ping":160}]},{"server_id":402,"name":"Uncletopia | Chicago | 3 | All Maps","name_short":"chi-3","host":"chi-1.us.uncletopia.com","port":27035,"enabled":true,"region":"us-central","cc":"us","latitude":41.881832,"longitude":-87.62318,"reserved":0,"last_update":"0001-01-01T00:00:00Z","name_a2s":"Uncletopia | Chicago | 3 | All Maps","protocol":17,"map":"pl_upward","folder":"tf","game":"Team Fortress","app_id":440,"player_count":23,"max_players":24,"Bots":0,"server_type":"Dedicated","server_os":"Linux","password":true,"vac":true,"version":"7757534","steam_id":85568392924515191,"keywords":["nocrits","nodmgspread","payload","uncletopia"],"game_id":440,"stv_port":27036,"stv_name":"Uncletopia | Chicago | 3 | All Maps | STV","players":[{"user_id":500,"name":"Garfield","steam_id":76561198037803087,"connected_time":1820000000000,"state":"active","ping":70},{"user_id":523,"name":"CEOlifestyle","steam_id":76561198025747866,"connected_time":348000000000,"state":"active","ping":90},{"user_id":524,"name":"Dreamzapp","steam_id":76561199084936632,"connected_time":326000000000,"state":"active","ping":116},{"user_id":502,"name":"dicksnip","steam_id":76561198356515396,"connected_time":1756000000000,"state":"active","ping":77},{"user_id":517,"name":"pinglefingle","steam_id":76561198216580197,"connected_time":949000000000,"state":"active","ping":74},{"user_id":516,"name":"grill pilled","steam_id":76561197997466876,"connected_time":999000000000,"state":"active","ping":40},{"user_id":518,"name":"Superman123389","steam_id":76561198267472539,"connected_time":924000000000,"state":"active","ping":92},{"user_id":476,"name":"Poyo Boyo","steam_id":76561198010201227,"connected_time":3763000000000,"state":"active","ping":75},{"user_id":525,"name":"Reduxxtion","steam_id":76561199029162443,"connected_time":312000000000,"state":"active","ping":101},{"user_id":435,"name":"footoftheday","steam_id":76561198052712449,"connected_time":5996000000000,"state":"active","ping":68},{"user_id":526,"name":"Xtar","steam_id":76561198301774048,"connected_time":279000000000,"state":"active","ping":119},{"user_id":528,"name":"cbagels","steam_id":76561198453866972,"connected_time":256000000000,"state":"active","ping":117},{"user_id":529,"name":"Toast","steam_id":76561198401995265,"connected_time":241000000000,"state":"active","ping":55},{"user_id":530,"name":"Shrake","steam_id":76561198114379995,"connected_time":237000000000,"state":"active","ping":42},{"user_id":506,"name":"PL4T Jack","steam_id":76561199135213338,"connected_time":1623000000000,"state":"active","ping":100},{"user_id":531,"name":"Gay Loogi Gang","steam_id":76561198097031529,"connected_time":219000000000,"state":"active","ping":83},{"user_id":532,"name":"Sarbanes-Oxley","steam_id":76561197975898479,"connected_time":206000000000,"state":"active","ping":76},{"user_id":537,"name":"bur","steam_id":76561198004231658,"connected_time":48000000000,"state":"active","ping":71},{"user_id":460,"name":"BiggFoot","steam_id":76561197998605599,"connected_time":4256000000000,"state":"active","ping":82},{"user_id":534,"name":"Smittywerbenjager-manjenson","steam_id":76561198067060742,"connected_time":157000000000,"state":"active","ping":67},{"user_id":504,"name":"Calypso","steam_id":76561198082939544,"connected_time":1737000000000,"state":"active","ping":88},{"user_id":535,"name":"GregGaming098","steam_id":76561198882415360,"connected_time":147000000000,"state":"active","ping":99},{"user_id":536,"name":"i taunt every time i kill a pyr","steam_id":76561198143132686,"connected_time":132000000000,"state":"active","ping":78}]},{"server_id":403,"name":"Uncletopia | Chicago | 4 | All Maps","name_short":"chi-4","host":"chi-1.us.uncletopia.com","port":27045,"enabled":true,"region":"us-central","cc":"us","latitude":41.881832,"longitude":-87.62318,"reserved":0,"last_update":"0001-01-01T00:00:00Z","name_a2s":"Uncletopia | Chicago | 4 | All Maps","protocol":17,"map":"pl_badwater","folder":"tf","game":"Team Fortress","app_id":440,"player_count":23,"max_players":24,"Bots":0,"server_type":"Dedicated","server_os":"Linux","password":true,"vac":true,"version":"7757534","steam_id":85568392924515193,"keywords":["nocrits","nodmgspread","payload","uncletopia"],"game_id":440,"stv_port":27046,"stv_name":"Uncletopia | Chicago | 4 | All Maps | STV","players":[{"user_id":489,"name":"Coke Himmy","steam_id":76561198397459211,"connected_time":706000000000,"state":"active","ping":79},{"user_id":486,"name":"Cyborg","steam_id":76561198278373788,"connected_time":1098000000000,"state":"active","ping":42},{"user_id":494,"name":"DoubleCheck","steam_id":76561198105194407,"connected_time":79000000000,"state":"active","ping":34},{"user_id":490,"name":"Infinity","steam_id":76561199134919099,"connected_time":665000000000,"state":"active","ping":70},{"user_id":470,"name":"Testosteroblerone","steam_id":76561199031278496,"connected_time":2688000000000,"state":"active","ping":73},{"user_id":479,"name":"reimupeek","steam_id":76561198126358045,"connected_time":1931000000000,"state":"active","ping":67},{"user_id":460,"name":"CroMaLaka","steam_id":76561198380926090,"connected_time":3131000000000,"state":"active","ping":45},{"user_id":468,"name":"DontNessWithMe9","steam_id":76561199098002877,"connected_time":2804000000000,"state":"active","ping":146},{"user_id":495,"name":"Mousey Moment","steam_id":76561198077843943,"connected_time":64000000000,"state":"active","ping":71},{"user_id":475,"name":"DatFluffyPancake","steam_id":76561198271958697,"connected_time":2504000000000,"state":"active","ping":79},{"user_id":487,"name":"Goblin Mode","steam_id":76561198064870076,"connected_time":1026000000000,"state":"active","ping":86},{"user_id":420,"name":"TheRealFryingDutchMan!","steam_id":76561199193784099,"connected_time":5903000000000,"state":"active","ping":86},{"user_id":496,"name":"snobis gaming","steam_id":76561198084927866,"connected_time":40000000000,"state":"active","ping":54},{"user_id":455,"name":"ShadBad","steam_id":76561198248287390,"connected_time":3750000000000,"state":"active","ping":106},{"user_id":461,"name":"himejoshi gaming","steam_id":76561198114679256,"connected_time":3050000000000,"state":"active","ping":57},{"user_id":478,"name":"America","steam_id":76561199385464043,"connected_time":1947000000000,"state":"active","ping":76},{"user_id":491,"name":"Mintchacolate","steam_id":76561198058011580,"connected_time":607000000000,"state":"active","ping":55},{"user_id":463,"name":"big golden rock boy","steam_id":76561199384986721,"connected_time":2895000000000,"state":"active","ping":78},{"user_id":477,"name":"Metroid Prime (creature)","steam_id":76561198249811492,"connected_time":2233000000000,"state":"active","ping":43},{"user_id":483,"name":"bad spy player","steam_id":76561198873699671,"connected_time":1355000000000,"state":"active","ping":102},{"user_id":431,"name":"Theory-ZaZa","steam_id":76561198116419931,"connected_time":5300000000000,"state":"active","ping":104},{"user_id":484,"name":"pudge USAF","steam_id":76561197997216538,"connected_time":1269000000000,"state":"active","ping":114},{"user_id":445,"name":"Malcor","steam_id":76561198017594953,"connected_time":4700000000000,"state":"active","ping":69}]},{"server_id":36,"name":"Uncletopia | Chicago | 5 | All Maps","name_short":"chi-5","host":"chi-2.us.uncletopia.com","port":27015,"enabled":true,"region":"us-central","cc":"us","latitude":41.881832,"longitude":-87.62318,"reserved":0,"last_update":"0001-01-01T00:00:00Z","name_a2s":"Uncletopia | Chicago | 5 | All Maps","protocol":17,"map":"cp_dustbowl","folder":"tf","game":"Team Fortress","app_id":440,"player_count":24,"max_players":24,"Bots":0,"server_type":"Dedicated","server_os":"Linux","password":true,"vac":true,"version":"7757534","steam_id":85568392924866362,"keywords":["cp","nocrits","nodmgspread","uncletopia"],"game_id":440,"stv_port":27016,"stv_name":"Uncletopia | Chicago | 5 | All Maps | STV","players":[{"user_id":761,"name":"SORPER","steam_id":76561198425503395,"connected_time":103000000000,"state":"active","ping":61},{"user_id":736,"name":"YASAI JUICE","steam_id":76561198131971992,"connected_time":948000000000,"state":"active","ping":38},{"user_id":749,"name":"ARGON Soulidity","steam_id":76561198429603550,"connected_time":505000000000,"state":"active","ping":65},{"user_id":706,"name":"dob","steam_id":76561198004385130,"connected_time":2981000000000,"state":"active","ping":67},{"user_id":739,"name":"Six","steam_id":76561198052472822,"connected_time":834000000000,"state":"active","ping":62},{"user_id":738,"name":"Dr. Pleasant","steam_id":76561198111945101,"connected_time":880000000000,"state":"active","ping":69},{"user_id":750,"name":"Kiwimpediment","steam_id":76561198322781400,"connected_time":463000000000,"state":"active","ping":67},{"user_id":762,"name":"Mr. Magic Doggy","steam_id":76561198020229255,"connected_time":48000000000,"state":"active","ping":74},{"user_id":740,"name":"HOT SOUP","steam_id":76561199077389918,"connected_time":828000000000,"state":"active","ping":71},{"user_id":709,"name":"the222attacker","steam_id":76561198969690191,"connected_time":2946000000000,"state":"active","ping":61},{"user_id":753,"name":"theeyeofsauronmc","steam_id":76561199157250663,"connected_time":383000000000,"state":"active","ping":70},{"user_id":663,"name":"A Very Confused Gentleman","steam_id":76561198051686391,"connected_time":7584000000000,"state":"active","ping":56},{"user_id":710,"name":"RURU","steam_id":76561198039758987,"connected_time":2938000000000,"state":"active","ping":94},{"user_id":763,"name":"NEO_NoiseBomb","steam_id":76561198100375003,"connected_time":8000000000,"state":"spawning","ping":74},{"user_id":754,"name":"Baunach","steam_id":76561198188794241,"connected_time":380000000000,"state":"active","ping":73},{"user_id":755,"name":"DiscoTraveler","steam_id":76561199240168088,"connected_time":323000000000,"state":"active","ping":63},{"user_id":716,"name":"Walter White","steam_id":76561198875469297,"connected_time":2720000000000,"state":"active","ping":66},{"user_id":719,"name":"Shwal","steam_id":76561198138840448,"connected_time":2648000000000,"state":"active","ping":78},{"user_id":760,"name":"OpenDown","steam_id":76561198064132688,"connected_time":261000000000,"state":"active","ping":71},{"user_id":722,"name":"Duck (Level-3)","steam_id":76561198035863569,"connected_time":2289000000000,"state":"active","ping":81},{"user_id":744,"name":"Cement Eater","steam_id":76561198080890217,"connected_time":744000000000,"state":"active","ping":55},{"user_id":757,"name":"Tom Hot Dog Cart","steam_id":76561198044696803,"connected_time":315000000000,"state":"active","ping":71},{"user_id":728,"name":"DO THE DEVIL CHALLENGE","steam_id":76561198045437723,"connected_time":2112000000000,"state":"active","ping":86},{"user_id":758,"name":"CLOWN-BABY","steam_id":76561198042130696,"connected_time":310000000000,"state":"active","ping":95}]},{"server_id":37,"name":"Uncletopia | Chicago | 6 | All Maps","name_short":"chi-6","host":"chi-2.us.uncletopia.com","port":27025,"enabled":true,"region":"us-central","cc":"us","latitude":41.881832,"longitude":-87.62318,"reserved":0,"last_update":"0001-01-01T00:00:00Z","name_a2s":"Uncletopia | Chicago | 6 | All Maps","protocol":17,"map":"koth_nucleus","folder":"tf","game":"Team Fortress","app_id":440,"player_count":22,"max_players":24,"Bots":0,"server_type":"Dedicated","server_os":"Linux","password":true,"vac":true,"version":"7757534","steam_id":85568392924866363,"keywords":["cp","nocrits","nodmgspread","uncletopia"],"game_id":440,"stv_port":27026,"stv_name":"Uncletopia | Chicago | 6 | All Maps | STV","players":[{"user_id":246,"name":"trinqette","steam_id":76561198119543621,"connected_time":2980000000000,"state":"active","ping":62},{"user_id":215,"name":"Foof","steam_id":76561198068996707,"connected_time":4380000000000,"state":"active","ping":74},{"user_id":267,"name":"you've been deuced on!","steam_id":76561198236028020,"connected_time":1465000000000,"state":"active","ping":94},{"user_id":280,"name":"SquishyDog","steam_id":76561198059014380,"connected_time":607000000000,"state":"active","ping":61},{"user_id":231,"name":"Thomas the train","steam_id":76561198040153410,"connected_time":3588000000000,"state":"active","ping":46},{"user_id":286,"name":"Hazeyboi","steam_id":76561198130687838,"connected_time":27000000000,"state":"active","ping":44},{"user_id":273,"name":"galunga","steam_id":76561198027184320,"connected_time":1199000000000,"state":"active","ping":66},{"user_id":268,"name":"Battery Acid Addict","steam_id":76561198439793697,"connected_time":1463000000000,"state":"active","ping":77},{"user_id":277,"name":"bingo bango","steam_id":76561198068933412,"connected_time":916000000000,"state":"active","ping":50},{"user_id":287,"name":"autumnal.messenger","steam_id":76561199345816635,"connected_time":6000000000,"state":"spawning","ping":99},{"user_id":269,"name":"Aeri","steam_id":76561197996522919,"connected_time":1459000000000,"state":"active","ping":82},{"user_id":276,"name":"Dr. Doctor Ph.D.","steam_id":76561198023522112,"connected_time":1029000000000,"state":"active","ping":78},{"user_id":270,"name":"nnobi","steam_id":76561198878729277,"connected_time":1413000000000,"state":"active","ping":76},{"user_id":266,"name":"lazarust","steam_id":76561198355322731,"connected_time":1802000000000,"state":"active","ping":82},{"user_id":110,"name":"Periculosum PhD in Funny","steam_id":76561198123370914,"connected_time":14109000000000,"state":"active","ping":75},{"user_id":275,"name":"BasedGod","steam_id":76561198061177973,"connected_time":1077000000000,"state":"active","ping":92},{"user_id":181,"name":"Sarah","steam_id":76561199013702818,"connected_time":7852000000000,"state":"active","ping":64},{"user_id":252,"name":"chiswola","steam_id":76561198046920142,"connected_time":2847000000000,"state":"active","ping":87},{"user_id":253,"name":"earthbound393","steam_id":76561199444276547,"connected_time":2779000000000,"state":"active","ping":111},{"user_id":210,"name":"Gian","steam_id":76561198041434512,"connected_time":4759000000000,"state":"active","ping":116},{"user_id":239,"name":"BigOrca54","steam_id":76561198181360271,"connected_time":3359000000000,"state":"active","ping":64},{"user_id":261,"name":"Dot.","steam_id":76561198149463984,"connected_time":2244000000000,"state":"active","ping":47}]},{"server_id":38,"name":"Uncletopia | Chicago | 7 | Stopwatch Beta","name_short":"chi-7","host":"chi-2.us.uncletopia.com","port":27035,"enabled":true,"region":"us-central","cc":"us","latitude":41.881832,"longitude":-87.62318,"reserved":0,"last_update":"0001-01-01T00:00:00Z","name_a2s":"Uncletopia | Chicago | 7 | Stopwatch Beta","protocol":17,"map":"workshop/pl_summercoast_rc8e.ugc1761528829","folder":"tf","game":"Team Fortress","app_id":440,"player_count":0,"max_players":24,"Bots":0,"server_type":"Dedicated","server_os":"Linux","password":true,"vac":true,"version":"7757534","steam_id":85568392924866364,"keywords":["nocrits","nodmgspread","payload","uncletopia"],"game_id":440,"stv_port":27036,"stv_name":"Uncletopia | Chicago | 7 | Stopwatch Beta | STV","players":null},{"server_id":39,"name":"Uncletopia | Chicago | 8 | Community","name_short":"chi-8","host":"chi-2.us.uncletopia.com","port":27045,"enabled":true,"region":"us-central","cc":"us","latitude":41.881832,"longitude":-87.62318,"reserved":0,"last_update":"0001-01-01T00:00:00Z","name_a2s":"Uncletopia | Chicago | 8 | Community","protocol":17,"map":"workshop/koth_bagel_rc6.ugc2514036946","folder":"tf","game":"Team Fortress","app_id":440,"player_count":22,"max_players":24,"Bots":0,"server_type":"Dedicated","server_os":"Linux","password":true,"vac":true,"version":"7757534","steam_id":85568392924866365,"keywords":["cp","nocrits","nodmgspread","uncletopia"],"game_id":440,"stv_port":27046,"stv_name":"Uncletopia | Chicago | 8 | Community | STV","players":[{"user_id":95,"name":"jalapeno handjob","steam_id":76561198123298824,"connected_time":881000000000,"state":"active","ping":64},{"user_id":96,"name":"Annie DW3","steam_id":76561198268990628,"connected_time":840000000000,"state":"active","ping":85},{"user_id":92,"name":"Cable_tz","steam_id":76561199078745117,"connected_time":928000000000,"state":"active","ping":87},{"user_id":71,"name":"That Guy","steam_id":76561198798973444,"connected_time":2482000000000,"state":"active","ping":70},{"user_id":89,"name":"TwinAirplane959","steam_id":76561198866756840,"connected_time":1244000000000,"state":"active","ping":85},{"user_id":102,"name":"joyboy","steam_id":76561198400381132,"connected_time":405000000000,"state":"active","ping":61},{"user_id":103,"name":"wroh2801","steam_id":76561199103292218,"connected_time":395000000000,"state":"active","ping":56},{"user_id":23,"name":"Robo Intern","steam_id":76561199067098696,"connected_time":6749000000000,"state":"active","ping":92},{"user_id":72,"name":"Pimastr","steam_id":76561198230996464,"connected_time":2433000000000,"state":"active","ping":73},{"user_id":109,"name":"Engie Buddy©","steam_id":76561199026911063,"connected_time":291000000000,"state":"active","ping":110},{"user_id":98,"name":"[DEEP] Danmar33","steam_id":76561198056453091,"connected_time":764000000000,"state":"active","ping":51},{"user_id":100,"name":"Chief Diggery K.","steam_id":76561198066629137,"connected_time":638000000000,"state":"active","ping":93},{"user_id":29,"name":"Dr.Barber","steam_id":76561198053164815,"connected_time":6132000000000,"state":"active","ping":63},{"user_id":112,"name":"Yume","steam_id":76561198018060136,"connected_time":49000000000,"state":"spawning","ping":261},{"user_id":31,"name":"Goldfire","steam_id":76561198061999410,"connected_time":5778000000000,"state":"active","ping":99},{"user_id":108,"name":"Durazorn","steam_id":76561198096327396,"connected_time":295000000000,"state":"active","ping":111},{"user_id":93,"name":"abdelmajed2005","steam_id":76561199249911165,"connected_time":916000000000,"state":"active","ping":59},{"user_id":106,"name":"Yosh","steam_id":76561198027078899,"connected_time":376000000000,"state":"active","ping":75},{"user_id":82,"name":"Snowbolt","steam_id":76561197974085095,"connected_time":1533000000000,"state":"active","ping":48},{"user_id":110,"name":"Peepster","steam_id":76561198297854733,"connected_time":266000000000,"state":"active","ping":72},{"user_id":111,"name":"Bunt","steam_id":76561198124477567,"connected_time":265000000000,"state":"active","ping":70},{"user_id":83,"name":"Feathers","steam_id":76561198045424567,"connected_time":1517000000000,"state":"active","ping":72}]},{"server_id":8,"name":"Uncletopia | Dallas | 1 | All Maps","name_short":"dal-1","host":"dal-1.us.uncletopia.com","port":27015,"enabled":true,"region":"us-central","cc":"us","latitude":32.779167,"longitude":-96.80889,"reserved":0,"last_update":"0001-01-01T00:00:00Z","name_a2s":"Uncletopia | Dallas | 1 | All Maps","protocol":17,"map":"pl_barnblitz","folder":"tf","game":"Team Fortress","app_id":440,"player_count":24,"max_players":24,"Bots":0,"server_type":"Dedicated","server_os":"Linux","password":true,"vac":true,"version":"7757534","steam_id":85568392924469986,"keywords":["nocrits","nodmgspread","payload","uncletopia"],"game_id":440,"stv_port":27016,"stv_name":"Uncletopia | Dallas | 1 | All Maps | STV","players":[{"user_id":591,"name":"keep life warm","steam_id":76561198044443985,"connected_time":2496000000000,"state":"active","ping":67},{"user_id":558,"name":"JakeisJake","steam_id":76561198980265522,"connected_time":5248000000000,"state":"active","ping":59},{"user_id":593,"name":"Ping","steam_id":76561199206514106,"connected_time":2081000000000,"state":"active","ping":75},{"user_id":511,"name":"Rick Beato","steam_id":76561199080451611,"connected_time":8411000000000,"state":"active","ping":72},{"user_id":581,"name":"NUKAHOLIC","steam_id":76561198095051652,"connected_time":3475000000000,"state":"active","ping":38},{"user_id":606,"name":"Pope","steam_id":76561198053768137,"connected_time":1068000000000,"state":"active","ping":54},{"user_id":605,"name":"Person","steam_id":76561198093244204,"connected_time":1093000000000,"state":"active","ping":92},{"user_id":565,"name":"Aü","steam_id":76561199031241776,"connected_time":4599000000000,"state":"active","ping":49},{"user_id":549,"name":"Claybrd","steam_id":76561198332695592,"connected_time":5890000000000,"state":"active","ping":62},{"user_id":610,"name":"Bzamo","steam_id":76561198039883392,"connected_time":212000000000,"state":"active","ping":81},{"user_id":583,"name":"Anxious Nerd Bird","steam_id":76561198112178602,"connected_time":3303000000000,"state":"active","ping":83},{"user_id":548,"name":"RectalExam","steam_id":76561197970502312,"connected_time":5984000000000,"state":"active","ping":70},{"user_id":594,"name":"makeshift_burrito","steam_id":76561198042510825,"connected_time":2069000000000,"state":"active","ping":94},{"user_id":588,"name":"EvilPigglet","steam_id":76561197987243470,"connected_time":2675000000000,"state":"active","ping":77},{"user_id":584,"name":"seriousbirb","steam_id":76561199047851076,"connected_time":3294000000000,"state":"active","ping":118},{"user_id":598,"name":"Outlander","steam_id":76561197998995746,"connected_time":1905000000000,"state":"active","ping":100},{"user_id":601,"name":"Dragonofponies","steam_id":76561199016800803,"connected_time":1375000000000,"state":"active","ping":60},{"user_id":579,"name":"DargaribdusPersonOfLordlyCalibe","steam_id":76561198020876416,"connected_time":3562000000000,"state":"active","ping":66},{"user_id":602,"name":"Mury","steam_id":76561198069743049,"connected_time":1337000000000,"state":"active","ping":106},{"user_id":596,"name":"Matches_                       ","steam_id":76561198048925904,"connected_time":2032000000000,"state":"active","ping":80},{"user_id":585,"name":"CreativeUsername","steam_id":76561198186045503,"connected_time":3280000000000,"state":"active","ping":76},{"user_id":604,"name":"Pie","steam_id":76561198054721133,"connected_time":1223000000000,"state":"active","ping":69},{"user_id":589,"name":"Budd","steam_id":76561198140843256,"connected_time":2671000000000,"state":"active","ping":99},{"user_id":523,"name":"[ØWQJØ]chubacaalatake","steam_id":76561198136201697,"connected_time":7704000000000,"state":"active","ping":118}]},{"server_id":108,"name":"Uncletopia | Dallas | 2 | All Maps","name_short":"dal-2","host":"dal-1.us.uncletopia.com","port":27025,"enabled":true,"region":"us-central","cc":"us","latitude":32.779167,"longitude":-96.80889,"reserved":0,"last_update":"0001-01-01T00:00:00Z","name_a2s":"Uncletopia | Dallas | 2 | All Maps","protocol":17,"map":"cp_process_final","folder":"tf","game":"Team Fortress","app_id":440,"player_count":24,"max_players":24,"Bots":0,"server_type":"Dedicated","server_os":"Linux","password":true,"vac":true,"version":"7757534","steam_id":85568392924469988,"keywords":["cp","nocrits","nodmgspread","uncletopia"],"game_id":440,"stv_port":27026,"stv_name":"Uncletopia | Dallas | 2 | All Maps | STV","players":[{"user_id":583,"name":"spy","steam_id":76561198937717599,"connected_time":1058000000000,"state":"active","ping":31},{"user_id":567,"name":"DrBenjas","steam_id":76561198345883103,"connected_time":2195000000000,"state":"active","ping":73},{"user_id":564,"name":"eek","steam_id":76561198332896682,"connected_time":3253000000000,"state":"active","ping":90},{"user_id":576,"name":"Mr.Pan","steam_id":76561198069030613,"connected_time":1920000000000,"state":"active","ping":61},{"user_id":380,"name":"moe5x","steam_id":76561198316877833,"connected_time":17907000000000,"state":"active","ping":79},{"user_id":529,"name":"ChottoAMinute","steam_id":76561198873157775,"connected_time":6213000000000,"state":"active","ping":38},{"user_id":566,"name":"Dylan","steam_id":76561198265522923,"connected_time":2218000000000,"state":"active","ping":43},{"user_id":588,"name":"Fireheart888","steam_id":76561198044555953,"connected_time":93000000000,"state":"active","ping":91},{"user_id":482,"name":"Zigadox","steam_id":76561198079813479,"connected_time":10392000000000,"state":"active","ping":88},{"user_id":545,"name":"DragonHeart","steam_id":76561198013245625,"connected_time":4736000000000,"state":"active","ping":74},{"user_id":538,"name":"twin","steam_id":76561198055626638,"connected_time":5199000000000,"state":"active","ping":126},{"user_id":582,"name":"Sanic","steam_id":76561198083124962,"connected_time":1138000000000,"state":"active","ping":47},{"user_id":585,"name":"Risky","steam_id":76561198231029328,"connected_time":164000000000,"state":"active","ping":71},{"user_id":573,"name":"craxyt","steam_id":76561198050192689,"connected_time":1994000000000,"state":"active","ping":83},{"user_id":587,"name":"MRramdom","steam_id":76561199097710386,"connected_time":108000000000,"state":"active","ping":97},{"user_id":586,"name":"His buddy Eric","steam_id":76561198275362375,"connected_time":143000000000,"state":"active","ping":85},{"user_id":571,"name":"white woman","steam_id":76561199116679777,"connected_time":2170000000000,"state":"active","ping":64},{"user_id":584,"name":"Yummy Kabobz","steam_id":76561198067661705,"connected_time":836000000000,"state":"active","ping":108},{"user_id":589,"name":"Flam","steam_id":76561198390834457,"connected_time":92000000000,"state":"active","ping":120},{"user_id":590,"name":"Etomb","steam_id":76561198210017208,"connected_time":64000000000,"state":"active","ping":76},{"user_id":575,"name":"Goblin Merchant (50 OFF)","steam_id":76561199323707429,"connected_time":1964000000000,"state":"active","ping":60},{"user_id":544,"name":"bolainassr0","steam_id":76561199079078845,"connected_time":4748000000000,"state":"active","ping":97},{"user_id":553,"name":"A Can of Arizona Green Tea","steam_id":76561198062481133,"connected_time":4430000000000,"state":"active","ping":75},{"user_id":579,"name":"Addy \u003c3","steam_id":76561198045819723,"connected_time":1478000000000,"state":"active","ping":115}]},{"server_id":5,"name":"Uncletopia | Frankfurt | 1 | All Maps","name_short":"frk-1","host":"frk-1.de.uncletopia.com","port":27015,"enabled":true,"region":"eu","cc":"de","latitude":50.110924,"longitude":8.682127,"reserved":0,"last_update":"0001-01-01T00:00:00Z","name_a2s":"Uncletopia | Frankfurt | 1 | All Maps","protocol":17,"map":"pl_snowycoast","folder":"tf","game":"Team Fortress","app_id":440,"player_count":0,"max_players":24,"Bots":0,"server_type":"Dedicated","server_os":"Linux","password":true,"vac":true,"version":"7757534","steam_id":85568392924469989,"keywords":["nocrits","nodmgspread","payload","uncletopia"],"game_id":440,"stv_port":27016,"stv_name":"Uncletopia | Frankfurt | 1 | All Maps | STV","players":null},{"server_id":110,"name":"Uncletopia | Frankfurt | 2 | All Maps","name_short":"frk-2","host":"frk-1.de.uncletopia.com","port":27025,"enabled":true,"region":"eu","cc":"de","latitude":50.110924,"longitude":8.682127,"reserved":0,"last_update":"0001-01-01T00:00:00Z","name_a2s":"Uncletopia | Frankfurt | 2 | All Maps","protocol":17,"map":"cp_mountainlab","folder":"tf","game":"Team Fortress","app_id":440,"player_count":0,"max_players":24,"Bots":0,"server_type":"Dedicated","server_os":"Linux","password":true,"vac":true,"version":"7757534","steam_id":85568392924469990,"keywords":["cp","nocrits","nodmgspread","uncletopia"],"game_id":440,"stv_port":27026,"stv_name":"Uncletopia | Frankfurt | 2 | All Maps | STV","players":null},{"server_id":308,"name":"Uncletopia | Frankfurt | 3 | All Maps","name_short":"frk-3","host":"frk-1.de.uncletopia.com","port":27035,"enabled":true,"region":"eu","cc":"de","latitude":50.110924,"longitude":8.682127,"reserved":0,"last_update":"0001-01-01T00:00:00Z","name_a2s":"Uncletopia | Frankfurt | 3 | All Maps","protocol":17,"map":"pl_swiftwater_final1","folder":"tf","game":"Team Fortress","app_id":440,"player_count":0,"max_players":24,"Bots":0,"server_type":"Dedicated","server_os":"Linux","password":true,"vac":true,"version":"7757534","steam_id":85568392924504274,"keywords":["nocrits","nodmgspread","payload","uncletopia"],"game_id":440,"stv_port":27036,"stv_name":"Uncletopia | Frankfurt | 3 | All Maps | STV","players":null},{"server_id":309,"name":"Uncletopia | Frankfurt | 4 | All Maps","name_short":"frk-4","host":"frk-1.de.uncletopia.com","port":27045,"enabled":true,"region":"eu","cc":"de","latitude":50.110924,"longitude":8.682127,"reserved":0,"last_update":"0001-01-01T00:00:00Z","name_a2s":"Uncletopia | Frankfurt | 4 | All Maps","protocol":17,"map":"koth_viaduct","folder":"tf","game":"Team Fortress","app_id":440,"player_count":0,"max_players":24,"Bots":0,"server_type":"Dedicated","server_os":"Linux","password":true,"vac":true,"version":"7757534","steam_id":85568392924504275,"keywords":["cp","nocrits","nodmgspread","uncletopia"],"game_id":440,"stv_port":27046,"stv_name":"Uncletopia | Frankfurt | 4 | All Maps | STV","players":null},{"server_id":310,"name":"Uncletopia | Frankfurt | 5 | All Maps","name_short":"frk-5","host":"frk-1.de.uncletopia.com","port":27055,"enabled":true,"region":"eu","cc":"de","latitude":50.110924,"longitude":8.682127,"reserved":0,"last_update":"0001-01-01T00:00:00Z","name_a2s":"Uncletopia | Frankfurt | 5 | All Maps","protocol":17,"map":"koth_lakeside_final","folder":"tf","game":"Team Fortress","app_id":440,"player_count":0,"max_players":24,"Bots":0,"server_type":"Dedicated","server_os":"Linux","password":true,"vac":true,"version":"7757534","steam_id":85568392924504277,"keywords":["cp","nocrits","nodmgspread","uncletopia"],"game_id":440,"stv_port":27056,"stv_name":"Uncletopia | Frankfurt | 5 | All Maps | STV","players":null},{"server_id":311,"name":"Uncletopia | Frankfurt | 6 | All Maps","name_short":"frk-6","host":"frk-1.de.uncletopia.com","port":27065,"enabled":true,"region":"eu","cc":"de","latitude":50.110924,"longitude":8.682127,"reserved":0,"last_update":"0001-01-01T00:00:00Z","name_a2s":"Uncletopia | Frankfurt | 6 | All Maps","protocol":17,"map":"pl_frontier_final","folder":"tf","game":"Team Fortress","app_id":440,"player_count":0,"max_players":24,"Bots":0,"server_type":"Dedicated","server_os":"Linux","password":true,"vac":true,"version":"7757534","steam_id":85568392924504278,"keywords":["nocrits","nodmgspread","payload","uncletopia"],"game_id":440,"stv_port":27066,"stv_name":"Uncletopia | Frankfurt | 6 | All Maps | STV","players":null},{"server_id":23,"name":"Uncletopia | Frankfurt | 7 | Stopwatch Beta","name_short":"frk-7","host":"frk-1.de.uncletopia.com","port":27075,"enabled":true,"region":"eu","cc":"de","latitude":50.110924,"longitude":8.682127,"reserved":0,"last_update":"0001-01-01T00:00:00Z","name_a2s":"Uncletopia | Frankfurt | 7 | Stopwatch Beta","protocol":17,"map":"cp_sunshine","folder":"tf","game":"Team Fortress","app_id":440,"player_count":0,"max_players":24,"Bots":0,"server_type":"Dedicated","server_os":"Linux","password":true,"vac":true,"version":"7757534","steam_id":85568392924742827,"keywords":["cp","nocrits","nodmgspread","uncletopia"],"game_id":440,"stv_port":27076,"stv_name":"Uncletopia | Frankfurt | 7 | Stopwatch Beta | STV","players":null},{"server_id":24,"name":"Uncletopia | Frankfurt | 8 | Community","name_short":"frk-8","host":"frk-1.de.uncletopia.com","port":27085,"enabled":true,"region":"eu","cc":"de","latitude":50.110924,"longitude":8.682127,"reserved":0,"last_update":"0001-01-01T00:00:00Z","name_a2s":"Uncletopia | Frankfurt | 8 | Community","protocol":17,"map":"koth_lakeside_final","folder":"tf","game":"Team Fortress","app_id":440,"player_count":0,"max_players":24,"Bots":0,"server_type":"Dedicated","server_os":"Linux","password":true,"vac":true,"version":"7757534","steam_id":85568392924742828,"keywords":["cp","nocrits","nodmgspread","uncletopia"],"game_id":440,"stv_port":27086,"stv_name":"Uncletopia | Frankfurt | 8 | Community | STV","players":null},{"server_id":202,"name":"Uncletopia | Hong Kong | 1 | All Maps","name_short":"hgk-1","host":"hgk-1.hk.uncletopia.com","port":27015,"enabled":true,"region":"asia","cc":"hk","latitude":22.302711,"longitude":114.177216,"reserved":0,"last_update":"0001-01-01T00:00:00Z","name_a2s":"Uncletopia | Hong Kong | 1 | All Maps","protocol":17,"map":"koth_cascade","folder":"tf","game":"Team Fortress","app_id":440,"player_count":9,"max_players":24,"Bots":0,"server_type":"Dedicated","server_os":"Linux","password":true,"vac":true,"version":"7757534","steam_id":85568392924494504,"keywords":["cp","nocrits","nodmgspread","uncletopia"],"game_id":440,"stv_port":27016,"stv_name":"Uncletopia | Hong Kong | 1 | All Maps | STV","players":[{"user_id":42,"name":"안녕하세요","steam_id":76561198803841268,"connected_time":731000000000,"state":"active","ping":101},{"user_id":39,"name":"Akira_Dead #SaveTF2","steam_id":76561198925749720,"connected_time":857000000000,"state":"active","ping":165},{"user_id":40,"name":"derek.patriarca30","steam_id":76561199427230206,"connected_time":817000000000,"state":"active","ping":59},{"user_id":43,"name":"NOPE","steam_id":76561199244543572,"connected_time":725000000000,"state":"active","ping":71},{"user_id":52,"name":"Jumanji™","steam_id":76561198431664383,"connected_time":228000000000,"state":"active","ping":60},{"user_id":45,"name":"David Keithson","steam_id":76561199279393636,"connected_time":481000000000,"state":"active","ping":85},{"user_id":46,"name":"Saffron","steam_id":76561199025320247,"connected_time":382000000000,"state":"active","ping":73},{"user_id":47,"name":"MySejahtera","steam_id":76561198331763015,"connected_time":364000000000,"state":"active","ping":78},{"user_id":53,"name":"animal loverr (NOT FURRY)","steam_id":76561198963382881,"connected_time":165000000000,"state":"active","ping":118}]},{"server_id":1,"name":"Uncletopia | Los Angeles | 1 | All Maps","name_short":"lax-1","host":"lax-1.us.uncletopia.com","port":27015,"enabled":true,"region":"us-west","cc":"us","latitude":33.94279,"longitude":-118.41004,"reserved":0,"last_update":"0001-01-01T00:00:00Z","name_a2s":"Uncletopia | Los Angeles | 1 | All Maps","protocol":17,"map":"pl_upward","folder":"tf","game":"Team Fortress","app_id":440,"player_count":24,"max_players":24,"Bots":0,"server_type":"Dedicated","server_os":"Linux","password":true,"vac":true,"version":"7757534","steam_id":85568392924469991,"keywords":["nocrits","nodmgspread","payload","uncletopia"],"game_id":440,"stv_port":27016,"stv_name":"Uncletopia | Los Angeles | 1 | All Maps | STV","players":[{"user_id":349,"name":"Chalupa Jones","steam_id":76561198335855588,"connected_time":5863000000000,"state":"active","ping":52},{"user_id":403,"name":"Ken-Sama","steam_id":76561198040465331,"connected_time":2340000000000,"state":"active","ping":47},{"user_id":405,"name":"trashbro","steam_id":76561199417993197,"connected_time":2272000000000,"state":"active","ping":66},{"user_id":411,"name":"Tobias Nightbringer","steam_id":76561197964373792,"connected_time":1686000000000,"state":"active","ping":49},{"user_id":393,"name":"Akustin","steam_id":76561198110015463,"connected_time":2661000000000,"state":"active","ping":58},{"user_id":385,"name":"Starshine","steam_id":76561198044035740,"connected_time":3436000000000,"state":"active","ping":52},{"user_id":420,"name":"Adolf Rizzler","steam_id":76561198392407790,"connected_time":1152000000000,"state":"active","ping":47},{"user_id":379,"name":"Grammaring","steam_id":76561198867366139,"connected_time":3911000000000,"state":"active","ping":90},{"user_id":406,"name":"avesarchive","steam_id":76561199476779708,"connected_time":2256000000000,"state":"active","ping":62},{"user_id":425,"name":"megaroboleg","steam_id":76561198844644993,"connected_time":348000000000,"state":"active","ping":56},{"user_id":427,"name":"mewtek","steam_id":76561198138599995,"connected_time":120000000000,"state":"active","ping":83},{"user_id":424,"name":"resh","steam_id":76561198239598834,"connected_time":374000000000,"state":"active","ping":100},{"user_id":414,"name":"They/Them Rattussy","steam_id":76561198238186628,"connected_time":1653000000000,"state":"active","ping":46},{"user_id":410,"name":"squeebo","steam_id":76561198061775121,"connected_time":2049000000000,"state":"active","ping":69},{"user_id":400,"name":"creatingmonsters3333333","steam_id":76561198058826136,"connected_time":2380000000000,"state":"active","ping":129},{"user_id":401,"name":"RPS Mann","steam_id":76561199253511650,"connected_time":2368000000000,"state":"active","ping":101},{"user_id":408,"name":"Crowvette","steam_id":76561198000457496,"connected_time":2189000000000,"state":"active","ping":57},{"user_id":422,"name":"Sono","steam_id":76561199077527007,"connected_time":730000000000,"state":"active","ping":112},{"user_id":421,"name":"NFL.com","steam_id":76561198113405376,"connected_time":1144000000000,"state":"active","ping":67},{"user_id":418,"name":"Tam Honks","steam_id":76561198044347961,"connected_time":1383000000000,"state":"active","ping":69},{"user_id":380,"name":"Tankun","steam_id":76561198020365510,"connected_time":3903000000000,"state":"active","ping":86},{"user_id":426,"name":"The Champagne of Mayonnaise","steam_id":76561197961107982,"connected_time":155000000000,"state":"active","ping":119},{"user_id":423,"name":"Baegel","steam_id":76561198027447051,"connected_time":724000000000,"state":"active","ping":56},{"user_id":382,"name":"McSpazatron","steam_id":76561198955942148,"connected_time":3799000000000,"state":"active","ping":135}]},{"server_id":112,"name":"Uncletopia | Los Angeles | 2 | All Maps","name_short":"lax-2","host":"lax-1.us.uncletopia.com","port":27025,"enabled":true,"region":"us-west","cc":"us","latitude":33.94279,"longitude":-118.41004,"reserved":0,"last_update":"0001-01-01T00:00:00Z","name_a2s":"Uncletopia | Los Angeles | 2 | All Maps","protocol":17,"map":"pl_frontier_final","folder":"tf","game":"Team Fortress","app_id":440,"player_count":24,"max_players":24,"Bots":0,"server_type":"Dedicated","server_os":"Linux","password":true,"vac":true,"version":"7757534","steam_id":85568392924469992,"keywords":["nocrits","nodmgspread","payload","uncletopia"],"game_id":440,"stv_port":27026,"stv_name":"Uncletopia | Los Angeles | 2 | All Maps | STV","players":[{"user_id":515,"name":"Fargo","steam_id":76561198044703931,"connected_time":1074000000000,"state":"active","ping":87},{"user_id":517,"name":"Dean Martin","steam_id":76561198419470351,"connected_time":943000000000,"state":"active","ping":44},{"user_id":524,"name":"stboncho","steam_id":76561198172275301,"connected_time":521000000000,"state":"active","ping":69},{"user_id":519,"name":"LogicalFurret","steam_id":76561198350604657,"connected_time":734000000000,"state":"active","ping":52},{"user_id":491,"name":"ApertureB","steam_id":76561198019141379,"connected_time":3086000000000,"state":"active","ping":105},{"user_id":520,"name":"StarGuyVI","steam_id":76561199366304746,"connected_time":657000000000,"state":"active","ping":106},{"user_id":462,"name":"Trash Boat","steam_id":76561198181586946,"connected_time":5478000000000,"state":"active","ping":78},{"user_id":522,"name":"dobe","steam_id":76561198911210828,"connected_time":650000000000,"state":"active","ping":57},{"user_id":523,"name":"takeshi_","steam_id":76561198148797456,"connected_time":635000000000,"state":"active","ping":62},{"user_id":525,"name":"jc71777","steam_id":76561199124210364,"connected_time":512000000000,"state":"active","ping":53},{"user_id":526,"name":"+EsC|Kevinator","steam_id":76561198008475674,"connected_time":467000000000,"state":"active","ping":91},{"user_id":528,"name":"Four Ohm","steam_id":76561197999474971,"connected_time":449000000000,"state":"active","ping":82},{"user_id":527,"name":"Espurr","steam_id":76561198008207777,"connected_time":463000000000,"state":"active","ping":61},{"user_id":537,"name":"Swu","steam_id":76561198046645258,"connected_time":374000000000,"state":"active","ping":84},{"user_id":538,"name":"Goobigan","steam_id":76561198072790366,"connected_time":267000000000,"state":"active","ping":77},{"user_id":506,"name":"Tmiracle","steam_id":76561198052375275,"connected_time":1899000000000,"state":"active","ping":48},{"user_id":454,"name":"Ginger Mountain Man","steam_id":76561198272593857,"connected_time":6033000000000,"state":"active","ping":125},{"user_id":539,"name":"Praxis","steam_id":76561197960794303,"connected_time":219000000000,"state":"active","ping":125},{"user_id":477,"name":"Percoid","steam_id":76561198039229199,"connected_time":4355000000000,"state":"active","ping":73},{"user_id":499,"name":"vioxynteris","steam_id":76561198161428666,"connected_time":2879000000000,"state":"active","ping":42},{"user_id":540,"name":"Mom","steam_id":76561198207936000,"connected_time":195000000000,"state":"active","ping":48},{"user_id":532,"name":"Bomb Squirtle™","steam_id":76561197998931145,"connected_time":433000000000,"state":"active","ping":130},{"user_id":541,"name":"[chef] iron","steam_id":76561197970888616,"connected_time":195000000000,"state":"active","ping":85},{"user_id":536,"name":"LemonPoppyMuffin","steam_id":76561198044813750,"connected_time":401000000000,"state":"active","ping":75}]},{"server_id":324,"name":"Uncletopia | Los Angeles | 3 | All Maps","name_short":"lax-3","host":"lax-1.us.uncletopia.com","port":27035,"enabled":true,"region":"us-west","cc":"us","latitude":33.94279,"longitude":-118.41004,"reserved":0,"last_update":"0001-01-01T00:00:00Z","name_a2s":"Uncletopia | Los Angeles | 3 | All Maps","protocol":17,"map":"cp_powerhouse","folder":"tf","game":"Team Fortress","app_id":440,"player_count":24,"max_players":24,"Bots":0,"server_type":"Dedicated","server_os":"Linux","password":true,"vac":true,"version":"7757534","steam_id":85568392924510198,"keywords":["cp","nocrits","nodmgspread","uncletopia"],"game_id":440,"stv_port":27036,"stv_name":"Uncletopia | Los Angeles | 3 | All Maps | STV","players":[{"user_id":245,"name":"MayoMateo","steam_id":76561198360809933,"connected_time":376000000000,"state":"active","ping":51},{"user_id":217,"name":"TimmyTheTurtle","steam_id":76561198194690486,"connected_time":1677000000000,"state":"active","ping":79},{"user_id":212,"name":"squid","steam_id":76561198070236972,"connected_time":1891000000000,"state":"active","ping":60},{"user_id":214,"name":"Barnie Sandlers","steam_id":76561198153295482,"connected_time":1773000000000,"state":"active","ping":33},{"user_id":215,"name":"A UsedNom","steam_id":76561198402832756,"connected_time":1704000000000,"state":"active","ping":57},{"user_id":218,"name":"OofBoi","steam_id":76561199092558073,"connected_time":1532000000000,"state":"active","ping":68},{"user_id":216,"name":"Veritox","steam_id":76561198075778026,"connected_time":1698000000000,"state":"active","ping":65},{"user_id":239,"name":"dAiLyGrInD","steam_id":76561198163531915,"connected_time":774000000000,"state":"active","ping":90},{"user_id":242,"name":"Frank Accardi","steam_id":76561198017275707,"connected_time":502000000000,"state":"active","ping":70},{"user_id":221,"name":"MyHeadHz","steam_id":76561198090654531,"connected_time":1439000000000,"state":"active","ping":83},{"user_id":222,"name":"IIrelia","steam_id":76561198384007672,"connected_time":1431000000000,"state":"active","ping":116},{"user_id":223,"name":"Screamin' Eagle","steam_id":76561198090475891,"connected_time":1427000000000,"state":"active","ping":79},{"user_id":246,"name":"dash23™","steam_id":76561198314951185,"connected_time":373000000000,"state":"active","ping":83},{"user_id":224,"name":"unlucky","steam_id":76561199204822104,"connected_time":1416000000000,"state":"active","ping":54},{"user_id":244,"name":"Anthoneeee","steam_id":76561199209220671,"connected_time":423000000000,"state":"active","ping":89},{"user_id":227,"name":"Nugakku","steam_id":76561198082346219,"connected_time":1208000000000,"state":"active","ping":57},{"user_id":233,"name":"Seanvich","steam_id":76561198065805500,"connected_time":1071000000000,"state":"active","ping":91},{"user_id":229,"name":"Soozy420","steam_id":76561198809074422,"connected_time":1171000000000,"state":"active","ping":64},{"user_id":234,"name":"O bez","steam_id":76561198841579939,"connected_time":1034000000000,"state":"active","ping":65},{"user_id":232,"name":"tf3aflyingmouse","steam_id":76561198058134934,"connected_time":1137000000000,"state":"active","ping":92},{"user_id":235,"name":"Antwan","steam_id":76561198246200638,"connected_time":1026000000000,"state":"active","ping":73},{"user_id":236,"name":"Cheers! I'll drink to that","steam_id":76561198112705880,"connected_time":1020000000000,"state":"active","ping":58},{"user_id":240,"name":"459d","steam_id":76561198336142389,"connected_time":755000000000,"state":"active","ping":113},{"user_id":238,"name":";-;","steam_id":76561198166889187,"connected_time":978000000000,"state":"active","ping":51}]},{"server_id":25,"name":"Uncletopia | Los Angeles | 4 | Stopwatch Beta","name_short":"lax-4","host":"lax-1.us.uncletopia.com","port":27045,"enabled":true,"region":"us-west","cc":"us","latitude":33.94279,"longitude":-118.41004,"reserved":0,"last_update":"0001-01-01T00:00:00Z","name_a2s":"Uncletopia | Los Angeles | 4 | Stopwatch Beta","protocol":17,"map":"pl_swiftwater_final1","folder":"tf","game":"Team Fortress","app_id":440,"player_count":0,"max_players":24,"Bots":0,"server_type":"Dedicated","server_os":"Linux","password":true,"vac":true,"version":"7757534","steam_id":85568392924510199,"keywords":["nocrits","nodmgspread","payload","uncletopia"],"game_id":440,"stv_port":27046,"stv_name":"Uncletopia | Los Angeles | 4 | Stopwatch Beta | STV","players":null},{"server_id":11,"name":"Uncletopia | London | 1 | All Maps","name_short":"lon-1","host":"lon-1.uk.uncletopia.com","port":27015,"enabled":true,"region":"eu","cc":"gb","latitude":51.509865,"longitude":-0.118092,"reserved":0,"last_update":"0001-01-01T00:00:00Z","name_a2s":"Uncletopia | London | 1 | All Maps","protocol":17,"map":"koth_viaduct","folder":"tf","game":"Team Fortress","app_id":440,"player_count":12,"max_players":24,"Bots":0,"server_type":"Dedicated","server_os":"Linux","password":true,"vac":true,"version":"7757534","steam_id":85568392924367362,"keywords":["cp","nocrits","nodmgspread","uncletopia"],"game_id":440,"stv_port":27016,"stv_name":"Uncletopia | London | 1 | All Maps | STV","players":[{"user_id":1092,"name":"Băsescu","steam_id":76561198017693962,"connected_time":316000000000,"state":"active","ping":75},{"user_id":1085,"name":"Souris Marine","steam_id":76561199143334415,"connected_time":1210000000000,"state":"active","ping":45},{"user_id":1091,"name":"vert2spooky // GRAND WITCH","steam_id":76561198914976373,"connected_time":599000000000,"state":"active","ping":37},{"user_id":1075,"name":"Mat","steam_id":76561198049245672,"connected_time":1923000000000,"state":"active","ping":71},{"user_id":1063,"name":"Chopperson_","steam_id":76561198873728497,"connected_time":3037000000000,"state":"active","ping":116},{"user_id":1094,"name":"Sputnik","steam_id":76561198138660241,"connected_time":13000000000,"state":"active","ping":73},{"user_id":1093,"name":"Lewylow","steam_id":76561198005425686,"connected_time":221000000000,"state":"active","ping":77},{"user_id":1043,"name":"Perpetual Pub Push","steam_id":76561198256714846,"connected_time":4797000000000,"state":"active","ping":30},{"user_id":1080,"name":"Loop_Cat","steam_id":76561199045902145,"connected_time":1472000000000,"state":"active","ping":129},{"user_id":1087,"name":"XDDXD","steam_id":76561198075924169,"connected_time":903000000000,"state":"active","ping":66},{"user_id":1067,"name":"Taste","steam_id":76561197994506978,"connected_time":2742000000000,"state":"active","ping":50},{"user_id":1070,"name":"CumbustiblePunda","steam_id":76561197974274677,"connected_time":2480000000000,"state":"active","ping":56}]},{"server_id":114,"name":"Uncletopia | London | 2 | All Maps","name_short":"lon-2","host":"lon-1.uk.uncletopia.com","port":27025,"enabled":true,"region":"eu","cc":"gb","latitude":51.509865,"longitude":-0.118092,"reserved":0,"last_update":"0001-01-01T00:00:00Z","name_a2s":"Uncletopia | London | 2 | All Maps","protocol":17,"map":"koth_lakeside_final","folder":"tf","game":"Team Fortress","app_id":440,"player_count":0,"max_players":24,"Bots":0,"server_type":"Dedicated","server_os":"Linux","password":true,"vac":true,"version":"7757534","steam_id":85568392924470941,"keywords":["cp","nocrits","nodmgspread","uncletopia"],"game_id":440,"stv_port":27026,"stv_name":"Uncletopia | London | 2 | All Maps | STV","players":null},{"server_id":320,"name":"Uncletopia | London | 3 | All Maps","name_short":"lon-3","host":"lon-1.uk.uncletopia.com","port":27035,"enabled":true,"region":"eu","cc":"gb","latitude":51.509865,"longitude":-0.118092,"reserved":0,"last_update":"0001-01-01T00:00:00Z","name_a2s":"Uncletopia | London | 3 | All Maps","protocol":17,"map":"koth_cascade","folder":"tf","game":"Team Fortress","app_id":440,"player_count":0,"max_players":24,"Bots":0,"server_type":"Dedicated","server_os":"Linux","password":true,"vac":true,"version":"7757534","steam_id":85568392924510192,"keywords":["cp","nocrits","nodmgspread","uncletopia"],"game_id":440,"stv_port":27036,"stv_name":"Uncletopia | London | 3 | All Maps | STV","players":null},{"server_id":321,"name":"Uncletopia | London | 4 | All Maps","name_short":"lon-4","host":"lon-1.uk.uncletopia.com","port":27045,"enabled":true,"region":"eu","cc":"gb","latitude":51.509865,"longitude":-0.118092,"reserved":0,"last_update":"0001-01-01T00:00:00Z","name_a2s":"Uncletopia | London | 4 | All Maps","protocol":17,"map":"koth_viaduct","folder":"tf","game":"Team Fortress","app_id":440,"player_count":0,"max_players":24,"Bots":0,"server_type":"Dedicated","server_os":"Linux","password":true,"vac":true,"version":"7757534","steam_id":85568392924510193,"keywords":["cp","nocrits","nodmgspread","uncletopia"],"game_id":440,"stv_port":27046,"stv_name":"Uncletopia | London | 4 | All Maps | STV","players":null},{"server_id":21,"name":"Uncletopia | London | 5 | All Maps","name_short":"lon-5","host":"lon-1.uk.uncletopia.com","port":27055,"enabled":true,"region":"eu","cc":"gb","latitude":51.509865,"longitude":-0.118092,"reserved":0,"last_update":"0001-01-01T00:00:00Z","name_a2s":"Uncletopia | London | 5 | All Maps","protocol":17,"map":"koth_viaduct","folder":"tf","game":"Team Fortress","app_id":440,"player_count":0,"max_players":24,"Bots":0,"server_type":"Dedicated","server_os":"Linux","password":true,"vac":true,"version":"7757534","steam_id":85568392924742829,"keywords":["cp","nocrits","nodmgspread","uncletopia"],"game_id":440,"stv_port":27056,"stv_name":"Uncletopia | London | 5 | All Maps | STV","players":null},{"server_id":22,"name":"Uncletopia | London | 6 | All Maps","name_short":"lon-6","host":"lon-1.uk.uncletopia.com","port":27065,"enabled":true,"region":"eu","cc":"gb","latitude":51.509865,"longitude":-0.118092,"reserved":0,"last_update":"0001-01-01T00:00:00Z","name_a2s":"Uncletopia | London | 6 | All Maps","protocol":17,"map":"koth_highpass","folder":"tf","game":"Team Fortress","app_id":440,"player_count":0,"max_players":24,"Bots":0,"server_type":"Dedicated","server_os":"Linux","password":true,"vac":true,"version":"7757534","steam_id":85568392924742830,"keywords":["cp","nocrits","nodmgspread","uncletopia"],"game_id":440,"stv_port":27066,"stv_name":"Uncletopia | London | 6 | All Maps | STV","players":null},{"server_id":40,"name":"Uncletopia | London | 7 | No Payload","name_short":"lon-7","host":"lon-1.uk.uncletopia.com","port":27075,"enabled":true,"region":"eu","cc":"gb","latitude":51.509865,"longitude":-0.118092,"reserved":0,"last_update":"0001-01-01T00:00:00Z","name_a2s":"Uncletopia | London | 7 | No Payload","protocol":17,"map":"cp_badlands","folder":"tf","game":"Team Fortress","app_id":440,"player_count":0,"max_players":24,"Bots":0,"server_type":"Dedicated","server_os":"Linux","password":true,"vac":true,"version":"7757534","steam_id":85568392924964314,"keywords":["cp","nocrits","nodmgspread","uncletopia"],"game_id":440,"stv_port":27076,"stv_name":"Uncletopia | London | 7 | No Payload | STV","players":null},{"server_id":41,"name":"Uncletopia | London | 8 | Community","name_short":"lon-8","host":"lon-1.uk.uncletopia.com","port":27085,"enabled":true,"region":"eu","cc":"gb","latitude":51.509865,"longitude":-0.118092,"reserved":0,"last_update":"0001-01-01T00:00:00Z","name_a2s":"Uncletopia | London | 8 | Community","protocol":17,"map":"workshop/cp_glassworks_rc6a.ugc454118349","folder":"tf","game":"Team Fortress","app_id":440,"player_count":0,"max_players":24,"Bots":0,"server_type":"Dedicated","server_os":"Linux","password":true,"vac":true,"version":"7757534","steam_id":85568392924964315,"keywords":["cp","nocrits","nodmgspread","uncletopia"],"game_id":440,"stv_port":27086,"stv_name":"Uncletopia | London | 8 | Community | STV","players":null},{"server_id":300,"name":"Uncletopia | Montréal | 1 | All Maps","name_short":"mtl-1","host":"mtl-1.ca.uncletopia.com","port":27015,"enabled":true,"region":"us-east","cc":"ca","latitude":45.50889,"longitude":-73.56167,"reserved":0,"last_update":"0001-01-01T00:00:00Z","name_a2s":"Uncletopia | Montréal | 1 | All Maps","protocol":17,"map":"cp_dustbowl","folder":"tf","game":"Team Fortress","app_id":440,"player_count":5,"max_players":24,"Bots":0,"server_type":"Dedicated","server_os":"Linux","password":true,"vac":true,"version":"7757534","steam_id":85568392924500087,"keywords":["cp","nocrits","nodmgspread","uncletopia"],"game_id":440,"stv_port":27016,"stv_name":"Uncletopia | Montréal | 1 | All Maps | STV","players":[{"user_id":315,"name":"Servants of Satan get the Brick","steam_id":76561198050196971,"connected_time":2117000000000,"state":"active","ping":57},{"user_id":233,"name":"ribbonborn","steam_id":76561198001195423,"connected_time":9992000000000,"state":"active","ping":98},{"user_id":239,"name":"sex chess world champion","steam_id":76561198045518214,"connected_time":8954000000000,"state":"active","ping":85},{"user_id":319,"name":"Phantasmagoria","steam_id":76561198033388386,"connected_time":1961000000000,"state":"active","ping":130},{"user_id":241,"name":"Fudgie Wudgie","steam_id":76561198032622237,"connected_time":8905000000000,"state":"active","ping":87}]},{"server_id":301,"name":"Uncletopia | Montréal | 2 | All Maps","name_short":"mtl-2","host":"mtl-1.ca.uncletopia.com","port":27025,"enabled":true,"region":"us-east","cc":"ca","latitude":45.50889,"longitude":-73.56167,"reserved":0,"last_update":"0001-01-01T00:00:00Z","name_a2s":"Uncletopia | Montréal | 2 | All Maps","protocol":17,"map":"cp_sunshine","folder":"tf","game":"Team Fortress","app_id":440,"player_count":0,"max_players":24,"Bots":0,"server_type":"Dedicated","server_os":"Linux","password":true,"vac":true,"version":"7757534","steam_id":85568392924500088,"keywords":["cp","nocrits","nodmgspread","uncletopia"],"game_id":440,"stv_port":27026,"stv_name":"Uncletopia | Montréal | 2 | All Maps | STV","players":null},{"server_id":302,"name":"Uncletopia | Montréal | 3 | All Maps","name_short":"mtl-3","host":"mtl-1.ca.uncletopia.com","port":27035,"enabled":true,"region":"us-east","cc":"ca","latitude":45.50889,"longitude":-73.56167,"reserved":0,"last_update":"0001-01-01T00:00:00Z","name_a2s":"Uncletopia | Montréal | 3 | All Maps","protocol":17,"map":"pl_upward","folder":"tf","game":"Team Fortress","app_id":440,"player_count":0,"max_players":24,"Bots":0,"server_type":"Dedicated","server_os":"Linux","password":true,"vac":true,"version":"7757534","steam_id":85568392924500089,"keywords":["nocrits","nodmgspread","payload","uncletopia"],"game_id":440,"stv_port":27036,"stv_name":"Uncletopia | Montréal | 3 | All Maps | STV","players":null},{"server_id":303,"name":"Uncletopia | Montréal | 4 | No Payload","name_short":"mtl-4","host":"mtl-1.ca.uncletopia.com","port":27045,"enabled":true,"region":"us-east","cc":"ca","latitude":45.50889,"longitude":-73.56167,"reserved":0,"last_update":"0001-01-01T00:00:00Z","name_a2s":"Uncletopia | Montréal | 4 | No Payload","protocol":17,"map":"cp_process_final","folder":"tf","game":"Team Fortress","app_id":440,"player_count":0,"max_players":24,"Bots":0,"server_type":"Dedicated","server_os":"Linux","password":true,"vac":true,"version":"7757534","steam_id":85568392924500090,"keywords":["cp","nocrits","nodmgspread","uncletopia"],"game_id":440,"stv_port":27046,"stv_name":"Uncletopia | Montréal | 4 | No Payload | STV","players":null},{"server_id":13,"name":"Uncletopia | New York City | 1 | All Maps","name_short":"nyc-1","host":"nyc-1.us.uncletopia.com","port":27015,"enabled":true,"region":"us-east","cc":"us","latitude":40.73061,"longitude":-73.93524,"reserved":0,"last_update":"0001-01-01T00:00:00Z","name_a2s":"Uncletopia | New York City | 1 | All Maps","protocol":17,"map":"pl_borneo","folder":"tf","game":"Team Fortress","app_id":440,"player_count":24,"max_players":24,"Bots":0,"server_type":"Dedicated","server_os":"Linux","password":true,"vac":true,"version":"7757534","steam_id":85568392924469993,"keywords":["nocrits","nodmgspread","payload","uncletopia"],"game_id":440,"stv_port":27016,"stv_name":"Uncletopia | New York City | 1 | All Maps | STV","players":[{"user_id":620,"name":"TheBarista","steam_id":76561199229933956,"connected_time":4485000000000,"state":"active","ping":179},{"user_id":653,"name":"DirectoryFiber1","steam_id":76561198058790256,"connected_time":2338000000000,"state":"active","ping":47},{"user_id":661,"name":"stbb","steam_id":76561198173047169,"connected_time":1746000000000,"state":"active","ping":43},{"user_id":655,"name":"l800","steam_id":76561198256543606,"connected_time":2250000000000,"state":"active","ping":61},{"user_id":656,"name":"M0T0BREATH  \\TG/","steam_id":76561197961205221,"connected_time":2003000000000,"state":"active","ping":80},{"user_id":638,"name":"Aristotle Voulton","steam_id":76561198100174923,"connected_time":3249000000000,"state":"active","ping":78},{"user_id":681,"name":"0xFUL","steam_id":76561198081684676,"connected_time":184000000000,"state":"active","ping":163},{"user_id":659,"name":"Stupid Monkey =3","steam_id":76561198024580166,"connected_time":1862000000000,"state":"active","ping":113},{"user_id":678,"name":"Phyre112","steam_id":76561198064367510,"connected_time":663000000000,"state":"active","ping":123},{"user_id":662,"name":"Griffin","steam_id":76561198159339442,"connected_time":1727000000000,"state":"active","ping":75},{"user_id":641,"name":"CupcakeWarlock","steam_id":76561198179963697,"connected_time":3138000000000,"state":"active","ping":58},{"user_id":674,"name":"crack crisis","steam_id":76561198332519926,"connected_time":1200000000000,"state":"active","ping":86},{"user_id":679,"name":"rlty","steam_id":76561198009395055,"connected_time":354000000000,"state":"active","ping":59},{"user_id":651,"name":"Slippin' Jimmy","steam_id":76561198812921824,"connected_time":2356000000000,"state":"active","ping":57},{"user_id":665,"name":"Frontier Psychiatrist","steam_id":76561198378587138,"connected_time":1668000000000,"state":"active","ping":111},{"user_id":676,"name":"Laelaps","steam_id":76561198100061416,"connected_time":729000000000,"state":"active","ping":53},{"user_id":591,"name":"Subway Fan","steam_id":76561198336372790,"connected_time":6045000000000,"state":"active","ping":33},{"user_id":667,"name":"Dipyawiq","steam_id":76561197976226578,"connected_time":1568000000000,"state":"active","ping":43},{"user_id":680,"name":"Goober Gaming","steam_id":76561198095550617,"connected_time":231000000000,"state":"active","ping":83},{"user_id":677,"name":"Indigolake","steam_id":76561198202215807,"connected_time":703000000000,"state":"active","ping":74},{"user_id":648,"name":"Vivid Hut 64","steam_id":76561198170050059,"connected_time":2945000000000,"state":"active","ping":56},{"user_id":649,"name":"lolgg.clay","steam_id":76561197994297935,"connected_time":2939000000000,"state":"active","ping":89},{"user_id":673,"name":"AccwithBO3","steam_id":76561198797125967,"connected_time":1522000000000,"state":"active","ping":119},{"user_id":672,"name":"Dead","steam_id":76561197960447161,"connected_time":1541000000000,"state":"active","ping":120}]},{"server_id":14,"name":"Uncletopia | New York City | 2 | All Maps","name_short":"nyc-2","host":"nyc-1.us.uncletopia.com","port":27025,"enabled":true,"region":"us-east","cc":"us","latitude":40.73061,"longitude":-73.93524,"reserved":0,"last_update":"0001-01-01T00:00:00Z","name_a2s":"Uncletopia | New York City | 2 | All Maps","protocol":17,"map":"pl_snowycoast","folder":"tf","game":"Team Fortress","app_id":440,"player_count":22,"max_players":24,"Bots":0,"server_type":"Dedicated","server_os":"Linux","password":true,"vac":true,"version":"7757534","steam_id":85568392924469994,"keywords":["nocrits","nodmgspread","payload","uncletopia"],"game_id":440,"stv_port":27026,"stv_name":"Uncletopia | New York City | 2 | All Maps | STV","players":[{"user_id":942,"name":"JelloMotion","steam_id":76561198045892038,"connected_time":2796000000000,"state":"active","ping":60},{"user_id":977,"name":"Flyfriend28","steam_id":76561198131983415,"connected_time":275000000000,"state":"active","ping":103},{"user_id":948,"name":"Long of Neck","steam_id":76561198038997485,"connected_time":2513000000000,"state":"active","ping":45},{"user_id":943,"name":"epicgameslauncherplaer878","steam_id":76561198360279519,"connected_time":2757000000000,"state":"active","ping":159},{"user_id":971,"name":"AgentEpsilon","steam_id":76561198043705715,"connected_time":680000000000,"state":"active","ping":69},{"user_id":979,"name":"Viokik","steam_id":76561198408846602,"connected_time":50000000000,"state":"active","ping":49},{"user_id":957,"name":"ScaryGuy","steam_id":76561197988941206,"connected_time":2185000000000,"state":"active","ping":85},{"user_id":946,"name":"Nopendium","steam_id":76561198087712908,"connected_time":2686000000000,"state":"active","ping":58},{"user_id":927,"name":"poop tbh","steam_id":76561198056186750,"connected_time":3626000000000,"state":"active","ping":74},{"user_id":928,"name":"CC","steam_id":76561198071226149,"connected_time":3605000000000,"state":"active","ping":87},{"user_id":962,"name":"PeopleLikeStuff","steam_id":76561198053416567,"connected_time":1298000000000,"state":"active","ping":93},{"user_id":947,"name":"Adras","steam_id":76561197961740957,"connected_time":2674000000000,"state":"active","ping":81},{"user_id":964,"name":"Blitzy","steam_id":76561198149472890,"connected_time":1064000000000,"state":"active","ping":90},{"user_id":965,"name":"rinvuuv","steam_id":76561199045484566,"connected_time":1046000000000,"state":"active","ping":127},{"user_id":975,"name":"Bingus Gaming","steam_id":76561198048966822,"connected_time":489000000000,"state":"active","ping":128},{"user_id":934,"name":"Benis Gonzalez","steam_id":76561198799391259,"connected_time":3253000000000,"state":"active","ping":140},{"user_id":980,"name":"bobbymcbobington","steam_id":76561199089411172,"connected_time":42000000000,"state":"active","ping":111},{"user_id":970,"name":"Pretender","steam_id":76561198103354667,"connected_time":695000000000,"state":"active","ping":65},{"user_id":981,"name":"Fredrick","steam_id":76561197981419964,"connected_time":30000000000,"state":"active","ping":41},{"user_id":952,"name":"Demoslow","steam_id":76561198805592656,"connected_time":2392000000000,"state":"active","ping":133},{"user_id":937,"name":"I ate those food","steam_id":76561198084614149,"connected_time":3186000000000,"state":"active","ping":43},{"user_id":982,"name":"TrimSafe","steam_id":76561198888343502,"connected_time":1000000000,"state":"spawning","ping":35}]},{"server_id":15,"name":"Uncletopia | New York City | 3 | Stopwatch Beta","name_short":"nyc-3","host":"nyc-1.us.uncletopia.com","port":27035,"enabled":true,"region":"us-east","cc":"us","latitude":40.73061,"longitude":-73.93524,"reserved":0,"last_update":"0001-01-01T00:00:00Z","name_a2s":"Uncletopia | New York City | 3 | Stopwatch Beta","protocol":17,"map":"workshop/koth_product_final.ugc454272353","folder":"tf","game":"Team Fortress","app_id":440,"player_count":0,"max_players":24,"Bots":0,"server_type":"Dedicated","server_os":"Linux","password":true,"vac":true,"version":"7757534","steam_id":85568392924742820,"keywords":["cp","nocrits","nodmgspread","uncletopia"],"game_id":440,"stv_port":27036,"stv_name":"Uncletopia | New York City | 3 | Stopwatch Beta | STV","players":null},{"server_id":16,"name":"Uncletopia | New York City | 4 | Community","name_short":"nyc-4","host":"nyc-1.us.uncletopia.com","port":27045,"enabled":true,"region":"us-east","cc":"us","latitude":40.73061,"longitude":-73.93524,"reserved":0,"last_update":"0001-01-01T00:00:00Z","name_a2s":"Uncletopia | New York City | 4 | Community","protocol":17,"map":"workshop/cp_glacier_rc6.ugc2905735376","folder":"tf","game":"Team Fortress","app_id":440,"player_count":1,"max_players":24,"Bots":0,"server_type":"Dedicated","server_os":"Linux","password":true,"vac":true,"version":"7757534","steam_id":85568392924742821,"keywords":["cp","nocrits","nodmgspread","uncletopia"],"game_id":440,"stv_port":27046,"stv_name":"Uncletopia | New York City | 4 | Community | STV","players":[{"user_id":38,"name":"Drewey","steam_id":76561199258609863,"connected_time":944000000000,"state":"active","ping":68}]},{"server_id":142,"name":"Uncletopia | São Paulo | 1 | All Maps","name_short":"sao-1","host":"sao-1.br.uncletopia.com","port":27015,"enabled":true,"region":"sa","cc":"br","latitude":-23.533773,"longitude":-46.62529,"reserved":0,"last_update":"0001-01-01T00:00:00Z","name_a2s":"Uncletopia | São Paulo | 1 | All Maps","protocol":17,"map":"koth_viaduct","folder":"tf","game":"Team Fortress","app_id":440,"player_count":0,"max_players":24,"Bots":0,"server_type":"Dedicated","server_os":"Linux","password":true,"vac":true,"version":"7757534","steam_id":85568392924469996,"keywords":["cp","nocrits","nodmgspread","uncletopia"],"game_id":440,"stv_port":27016,"stv_name":"Uncletopia | São Paulo | 1 | All Maps | STV","players":null},{"server_id":143,"name":"Uncletopia | São Paulo | 2 | All Maps","name_short":"sao-2","host":"sao-2.br.uncletopia.com","port":27015,"enabled":true,"region":"sa","cc":"br","latitude":-23.533773,"longitude":-46.62529,"reserved":0,"last_update":"0001-01-01T00:00:00Z","name_a2s":"Uncletopia | São Paulo | 2 | All Maps","protocol":17,"map":"koth_harvest_final","folder":"tf","game":"Team Fortress","app_id":440,"player_count":3,"max_players":24,"Bots":0,"server_type":"Dedicated","server_os":"Linux","password":true,"vac":true,"version":"7757534","steam_id":85568392924485349,"keywords":["cp","nocrits","nodmgspread","uncletopia"],"game_id":440,"stv_port":27016,"stv_name":"Uncletopia | São Paulo | 2 | All Maps | STV","players":[{"user_id":41,"name":"grammerca2","steam_id":76561198993241319,"connected_time":1690000000000,"state":"active","ping":202},{"user_id":42,"name":"ButterNuts","steam_id":76561198796980665,"connected_time":1460000000000,"state":"active","ping":200},{"user_id":43,"name":"LadyVodka","steam_id":76561198934740864,"connected_time":1140000000000,"state":"active","ping":195}]},{"server_id":7,"name":"Uncletopia | Seattle | 1 | All Maps","name_short":"sea-1","host":"sea-1.us.uncletopia.com","port":27015,"enabled":true,"region":"us-west","cc":"us","latitude":47.608013,"longitude":-122.33517,"reserved":0,"last_update":"0001-01-01T00:00:00Z","name_a2s":"Uncletopia | Seattle | 1 | All Maps","protocol":17,"map":"pl_borneo","folder":"tf","game":"Team Fortress","app_id":440,"player_count":24,"max_players":24,"Bots":0,"server_type":"Dedicated","server_os":"Linux","password":true,"vac":true,"version":"7757534","steam_id":85568392924469997,"keywords":["nocrits","nodmgspread","payload","uncletopia"],"game_id":440,"stv_port":27016,"stv_name":"Uncletopia | Seattle | 1 | All Maps | STV","players":[{"user_id":704,"name":"Lord Hater","steam_id":76561199158148782,"connected_time":4416000000000,"state":"active","ping":57},{"user_id":680,"name":"The Winter Medic","steam_id":76561198197112922,"connected_time":6918000000000,"state":"active","ping":138},{"user_id":686,"name":"WACKY JIM","steam_id":76561198961641122,"connected_time":6557000000000,"state":"active","ping":56},{"user_id":731,"name":"Jade","steam_id":76561198151596927,"connected_time":1363000000000,"state":"active","ping":105},{"user_id":713,"name":"Clump","steam_id":76561198049690860,"connected_time":3105000000000,"state":"active","ping":55},{"user_id":717,"name":"Skabbety","steam_id":76561198168044257,"connected_time":2481000000000,"state":"active","ping":36},{"user_id":720,"name":"VixianUwU","steam_id":76561198948815060,"connected_time":2450000000000,"state":"active","ping":87},{"user_id":726,"name":"MEDICINAL CRACK ENJOYER","steam_id":76561198113427343,"connected_time":2085000000000,"state":"active","ping":89},{"user_id":662,"name":"soup","steam_id":76561198043209046,"connected_time":8880000000000,"state":"active","ping":79},{"user_id":733,"name":"PainInTheRuss","steam_id":76561197977960543,"connected_time":1278000000000,"state":"active","ping":64},{"user_id":736,"name":"Gary, 40, soul sucking 9-5","steam_id":76561198073812888,"connected_time":626000000000,"state":"active","ping":60},{"user_id":732,"name":"Shaquille Oatmeal","steam_id":76561198283213819,"connected_time":1360000000000,"state":"active","ping":87},{"user_id":703,"name":"5392vin","steam_id":76561198880493511,"connected_time":4547000000000,"state":"active","ping":67},{"user_id":729,"name":"Plague of locusts","steam_id":76561198217229039,"connected_time":1914000000000,"state":"active","ping":55},{"user_id":727,"name":"XxSquidwardxX","steam_id":76561198294455367,"connected_time":2054000000000,"state":"active","ping":90},{"user_id":714,"name":"Auburn Beard","steam_id":76561198056188802,"connected_time":3082000000000,"state":"active","ping":45},{"user_id":722,"name":"xXx420YoloSwaggins69xXx","steam_id":76561198054889312,"connected_time":2423000000000,"state":"active","ping":112},{"user_id":693,"name":"toes","steam_id":76561198221151676,"connected_time":5427000000000,"state":"active","ping":57},{"user_id":691,"name":"AWRD","steam_id":76561198110350838,"connected_time":5516000000000,"state":"active","ping":70},{"user_id":735,"name":"viciousbeatmaker","steam_id":76561198086876652,"connected_time":657000000000,"state":"active","ping":85},{"user_id":711,"name":"Dirt Mammal","steam_id":76561198040781653,"connected_time":3592000000000,"state":"active","ping":54},{"user_id":643,"name":"Silvercoat's Stargazer","steam_id":76561198399525329,"connected_time":10052000000000,"state":"active","ping":137},{"user_id":694,"name":"Attrition","steam_id":76561197969881916,"connected_time":5298000000000,"state":"active","ping":53},{"user_id":734,"name":"solitaire","steam_id":76561198964025682,"connected_time":1267000000000,"state":"active","ping":72}]},{"server_id":119,"name":"Uncletopia | Seattle | 2 | All Maps","name_short":"sea-2","host":"sea-1.us.uncletopia.com","port":27025,"enabled":true,"region":"us-west","cc":"us","latitude":47.608013,"longitude":-122.33517,"reserved":0,"last_update":"0001-01-01T00:00:00Z","name_a2s":"Uncletopia | Seattle | 2 | All Maps","protocol":17,"map":"pl_badwater","folder":"tf","game":"Team Fortress","app_id":440,"player_count":24,"max_players":24,"Bots":0,"server_type":"Dedicated","server_os":"Linux","password":true,"vac":true,"version":"7757534","steam_id":85568392924469998,"keywords":["nocrits","nodmgspread","payload","uncletopia"],"game_id":440,"stv_port":27026,"stv_name":"Uncletopia | Seattle | 2 | All Maps | STV","players":[{"user_id":660,"name":"Drake from State Farm","steam_id":76561199069029812,"connected_time":309000000000,"state":"active","ping":71},{"user_id":653,"name":"Moth","steam_id":76561199214894158,"connected_time":621000000000,"state":"active","ping":94},{"user_id":662,"name":"ars110","steam_id":76561198030492435,"connected_time":211000000000,"state":"active","ping":60},{"user_id":663,"name":"C U Next Tuesday","steam_id":76561198058493492,"connected_time":70000000000,"state":"active","ping":57},{"user_id":544,"name":"Digitic","steam_id":76561198080295536,"connected_time":9060000000000,"state":"active","ping":120},{"user_id":545,"name":"DoubleX2000","steam_id":76561198164134387,"connected_time":9055000000000,"state":"active","ping":59},{"user_id":655,"name":"NéoGothique🕯","steam_id":76561198003467269,"connected_time":579000000000,"state":"active","ping":106},{"user_id":659,"name":"Yune","steam_id":76561198039324447,"connected_time":424000000000,"state":"active","ping":157},{"user_id":651,"name":"Isopentyl Ethanoate","steam_id":76561198116389072,"connected_time":784000000000,"state":"active","ping":67},{"user_id":616,"name":"ROGUE-PLANET","steam_id":76561198116023052,"connected_time":3636000000000,"state":"active","ping":75},{"user_id":597,"name":"RING DONG DORINGOS","steam_id":76561198043558709,"connected_time":5404000000000,"state":"active","ping":48},{"user_id":650,"name":"Jonatello","steam_id":76561198045699189,"connected_time":954000000000,"state":"active","ping":124},{"user_id":623,"name":"Leidon","steam_id":76561198078386945,"connected_time":3398000000000,"state":"active","ping":79},{"user_id":645,"name":"船尾","steam_id":76561198128764422,"connected_time":1366000000000,"state":"active","ping":35},{"user_id":618,"name":"lukamine","steam_id":76561198166827208,"connected_time":3512000000000,"state":"active","ping":46},{"user_id":661,"name":"Retro Phoenix","steam_id":76561198077176271,"connected_time":260000000000,"state":"active","ping":110},{"user_id":647,"name":"Cpt. Dingle","steam_id":76561198025720199,"connected_time":1177000000000,"state":"active","ping":72},{"user_id":634,"name":"Skaði","steam_id":76561198063949642,"connected_time":2668000000000,"state":"active","ping":37},{"user_id":619,"name":"felinae","steam_id":76561198085308417,"connected_time":3509000000000,"state":"active","ping":46},{"user_id":664,"name":"Cats","steam_id":76561197965022076,"connected_time":48000000000,"state":"active","ping":109},{"user_id":622,"name":"mooney","steam_id":76561199110622484,"connected_time":3410000000000,"state":"active","ping":68},{"user_id":643,"name":"Orange Toaster","steam_id":76561198013397599,"connected_time":1685000000000,"state":"active","ping":80},{"user_id":636,"name":"American Dad Funny Moments #32","steam_id":76561198254874328,"connected_time":2478000000000,"state":"active","ping":64},{"user_id":577,"name":"Yesterday's Grouse's Son","steam_id":76561198259873083,"connected_time":7879000000000,"state":"active","ping":72}]},{"server_id":406,"name":"Uncletopia | Seattle | 3 | Stopwatch Beta","name_short":"sea-3","host":"sea-1.us.uncletopia.com","port":27035,"enabled":true,"region":"us-west","cc":"us","latitude":47.608013,"longitude":-122.33517,"reserved":0,"last_update":"0001-01-01T00:00:00Z","name_a2s":"Uncletopia | Seattle | 3 | Stopwatch Beta","protocol":17,"map":"workshop/koth_ashville_final.ugc2130459942","folder":"tf","game":"Team Fortress","app_id":440,"player_count":0,"max_players":24,"Bots":0,"server_type":"Dedicated","server_os":"Linux","password":true,"vac":true,"version":"7757534","steam_id":85568392924515217,"keywords":["cp","nocrits","nodmgspread","uncletopia"],"game_id":440,"stv_port":27036,"stv_name":"Uncletopia | Seattle | 3 | Stopwatch Beta | STV","players":null},{"server_id":17,"name":"Uncletopia | San Francisco | 1 | All Maps","name_short":"sfo-1","host":"sfo-1.us.uncletopia.com","port":27015,"enabled":true,"region":"us-west","cc":"us","latitude":37.77397,"longitude":-122.4313,"reserved":0,"last_update":"0001-01-01T00:00:00Z","name_a2s":"Uncletopia | San Francisco | 1 | All Maps","protocol":17,"map":"pl_pier","folder":"tf","game":"Team Fortress","app_id":440,"player_count":24,"max_players":24,"Bots":0,"server_type":"Dedicated","server_os":"Linux","password":true,"vac":true,"version":"7757534","steam_id":85568392924469999,"keywords":["nocrits","nodmgspread","payload","uncletopia"],"game_id":440,"stv_port":27016,"stv_name":"Uncletopia | San Francisco | 1 | All Maps | STV","players":[{"user_id":811,"name":"Hifumi Togo","steam_id":76561198074930636,"connected_time":418000000000,"state":"active","ping":89},{"user_id":757,"name":"Axo","steam_id":76561198419357097,"connected_time":3016000000000,"state":"active","ping":58},{"user_id":806,"name":"Kito","steam_id":76561198032401946,"connected_time":471000000000,"state":"active","ping":70},{"user_id":790,"name":"Arcane Flame","steam_id":76561198360024422,"connected_time":1194000000000,"state":"active","ping":69},{"user_id":786,"name":"็็็็็","steam_id":76561198118859752,"connected_time":1428000000000,"state":"active","ping":51},{"user_id":736,"name":"Wizened","steam_id":76561199035458926,"connected_time":4141000000000,"state":"active","ping":48},{"user_id":774,"name":"MusKle Sandwich","steam_id":76561198088118846,"connected_time":2000000000000,"state":"active","ping":122},{"user_id":817,"name":"Natalie","steam_id":76561198048848289,"connected_time":67000000000,"state":"active","ping":68},{"user_id":813,"name":"Drilly22","steam_id":76561198068838338,"connected_time":355000000000,"state":"active","ping":103},{"user_id":788,"name":"starrk","steam_id":76561198246066894,"connected_time":1335000000000,"state":"active","ping":97},{"user_id":799,"name":"harrison.avenue","steam_id":76561198037288988,"connected_time":796000000000,"state":"active","ping":128},{"user_id":787,"name":"obamascout","steam_id":76561199073972797,"connected_time":1424000000000,"state":"active","ping":81},{"user_id":773,"name":"kornelius korn","steam_id":76561199228839582,"connected_time":2064000000000,"state":"active","ping":58},{"user_id":762,"name":"Dr. B Busta","steam_id":76561198206387303,"connected_time":2299000000000,"state":"active","ping":47},{"user_id":798,"name":"exoss","steam_id":76561198380720441,"connected_time":857000000000,"state":"active","ping":84},{"user_id":784,"name":"Talutia","steam_id":76561198096306715,"connected_time":1498000000000,"state":"active","ping":66},{"user_id":792,"name":"Flipari","steam_id":76561198399012971,"connected_time":1163000000000,"state":"active","ping":67},{"user_id":793,"name":"Wishful","steam_id":76561198880608202,"connected_time":1153000000000,"state":"active","ping":77},{"user_id":777,"name":"Summer's Snowman","steam_id":76561198057140854,"connected_time":1829000000000,"state":"active","ping":54},{"user_id":794,"name":"John Wick's puppy","steam_id":76561198064662875,"connected_time":1140000000000,"state":"active","ping":49},{"user_id":795,"name":"Stapler","steam_id":76561198099295077,"connected_time":1077000000000,"state":"active","ping":51},{"user_id":797,"name":"zeplinnn","steam_id":76561198301300987,"connected_time":948000000000,"state":"active","ping":84},{"user_id":815,"name":"NathanSomething","steam_id":76561198927509821,"connected_time":237000000000,"state":"active","ping":86},{"user_id":819,"name":"SenTreats","steam_id":76561198085835841,"connected_time":19000000000,"state":"spawning","ping":56}]},{"server_id":18,"name":"Uncletopia | San Francisco | 2 | All Maps","name_short":"sfo-2","host":"sfo-1.us.uncletopia.com","port":27025,"enabled":true,"region":"us-west","cc":"us","latitude":37.77397,"longitude":-122.4313,"reserved":0,"last_update":"0001-01-01T00:00:00Z","name_a2s":"Uncletopia | San Francisco | 2 | All Maps","protocol":17,"map":"koth_highpass","folder":"tf","game":"Team Fortress","app_id":440,"player_count":0,"max_players":24,"Bots":0,"server_type":"Dedicated","server_os":"Linux","password":true,"vac":true,"version":"7757534","steam_id":85568392924470000,"keywords":["cp","nocrits","nodmgspread","uncletopia"],"game_id":440,"stv_port":27026,"stv_name":"Uncletopia | San Francisco | 2 | All Maps | STV","players":null},{"server_id":19,"name":"Uncletopia | San Francisco | 3 | Stopwatch Beta","name_short":"sfo-3","host":"sfo-1.us.uncletopia.com","port":27035,"enabled":true,"region":"us-west","cc":"us","latitude":37.77397,"longitude":-122.4313,"reserved":0,"last_update":"0001-01-01T00:00:00Z","name_a2s":"Uncletopia | San Francisco | 3 | Stopwatch Beta","protocol":17,"map":"workshop/pl_barnblitz_pro7.ugc582280235","folder":"tf","game":"Team Fortress","app_id":440,"player_count":0,"max_players":24,"Bots":0,"server_type":"Dedicated","server_os":"Linux","password":true,"vac":true,"version":"7757534","steam_id":85568392924742824,"keywords":["nocrits","nodmgspread","payload","uncletopia"],"game_id":440,"stv_port":27036,"stv_name":"Uncletopia | San Francisco | 3 | Stopwatch Beta | STV","players":null},{"server_id":20,"name":"Uncletopia | San Francisco | 4 | Community","name_short":"sfo-4","host":"sfo-1.us.uncletopia.com","port":27045,"enabled":true,"region":"us-west","cc":"us","latitude":37.77397,"longitude":-122.4313,"reserved":0,"last_update":"0001-01-01T00:00:00Z","name_a2s":"Uncletopia | San Francisco | 4 | Community","protocol":17,"map":"workshop/pl_cashworks_final1.ugc2904065412","folder":"tf","game":"Team Fortress","app_id":440,"player_count":24,"max_players":24,"Bots":0,"server_type":"Dedicated","server_os":"Linux","password":true,"vac":true,"version":"7757534","steam_id":85568392924742826,"keywords":["nocrits","nodmgspread","payload","uncletopia"],"game_id":440,"stv_port":27046,"stv_name":"Uncletopia | San Francisco | 4 | Community | STV","players":[{"user_id":247,"name":"Got Oil?","steam_id":76561199238964574,"connected_time":1469000000000,"state":"active","ping":63},{"user_id":258,"name":"Orthworm Jim","steam_id":76561198034475253,"connected_time":962000000000,"state":"active","ping":112},{"user_id":179,"name":"SOLDIER TF2","steam_id":76561198203170652,"connected_time":5729000000000,"state":"active","ping":87},{"user_id":235,"name":"Aeris","steam_id":76561198287271028,"connected_time":1909000000000,"state":"active","ping":103},{"user_id":263,"name":"Two Take Justin","steam_id":76561198012009879,"connected_time":816000000000,"state":"active","ping":92},{"user_id":273,"name":"genuine Anger","steam_id":76561198829069588,"connected_time":279000000000,"state":"active","ping":95},{"user_id":259,"name":"Slowpoke Rodriguez","steam_id":76561198280846330,"connected_time":958000000000,"state":"active","ping":91},{"user_id":274,"name":"chocolat3823","steam_id":76561199249875689,"connected_time":268000000000,"state":"active","ping":51},{"user_id":252,"name":"Auynonymous","steam_id":76561198027509458,"connected_time":1348000000000,"state":"active","ping":94},{"user_id":188,"name":"memes.us.memes","steam_id":76561198194728506,"connected_time":5249000000000,"state":"active","ping":107},{"user_id":271,"name":"Das_","steam_id":76561198055908152,"connected_time":616000000000,"state":"active","ping":121},{"user_id":189,"name":"Happy","steam_id":76561198141742299,"connected_time":5233000000000,"state":"active","ping":100},{"user_id":265,"name":"NooBHatteR","steam_id":76561198077662703,"connected_time":785000000000,"state":"active","ping":71},{"user_id":238,"name":"c67f","steam_id":76561198039596258,"connected_time":1857000000000,"state":"active","ping":58},{"user_id":219,"name":"Boyaredeen","steam_id":76561198880492636,"connected_time":3801000000000,"state":"active","ping":71},{"user_id":250,"name":"Tejo","steam_id":76561198200617911,"connected_time":1414000000000,"state":"active","ping":65},{"user_id":267,"name":"Floob from planet Floob","steam_id":76561198139797454,"connected_time":694000000000,"state":"active","ping":95},{"user_id":272,"name":"yungevilbruh","steam_id":76561198127631900,"connected_time":373000000000,"state":"active","ping":47},{"user_id":275,"name":"InsatiableHigh","steam_id":76561198142702052,"connected_time":81000000000,"state":"active","ping":61},{"user_id":269,"name":"GingerSnapple","steam_id":76561198147249516,"connected_time":687000000000,"state":"active","ping":119},{"user_id":233,"name":"Meth Goblin","steam_id":76561198086355221,"connected_time":2212000000000,"state":"active","ping":101},{"user_id":243,"name":"i 'member","steam_id":76561198263004448,"connected_time":1687000000000,"state":"active","ping":66},{"user_id":270,"name":"Bookmenot","steam_id":76561198153442084,"connected_time":679000000000,"state":"active","ping":112},{"user_id":277,"name":"SpongeBucket","steam_id":76561198393553085,"connected_time":70000000000,"state":"active","ping":66}]},{"server_id":141,"name":"Uncletopia | Sydney | 1 | All Maps","name_short":"syd-1","host":"syd-1.au.uncletopia.com","port":27015,"enabled":true,"region":"au","cc":"au","latitude":-33.865143,"longitude":151.2099,"reserved":0,"last_update":"0001-01-01T00:00:00Z","name_a2s":"Uncletopia | Sydney | 1 | All Maps","protocol":17,"map":"koth_cascade","folder":"tf","game":"Team Fortress","app_id":440,"player_count":24,"max_players":24,"Bots":0,"server_type":"Dedicated","server_os":"Linux","password":true,"vac":true,"version":"7757534","steam_id":85568392924470001,"keywords":["cp","nocrits","nodmgspread","uncletopia"],"game_id":440,"stv_port":27016,"stv_name":"Uncletopia | Sydney | 1 | All Maps | STV","players":[{"user_id":233,"name":"Easel (any/all)","steam_id":76561198049213583,"connected_time":2375000000000,"state":"spawning","ping":124},{"user_id":197,"name":"Fixer","steam_id":76561199349854515,"connected_time":6612000000000,"state":"spawning","ping":195},{"user_id":240,"name":"SamK #AnnexTF2","steam_id":76561198149051619,"connected_time":2189000000000,"state":"spawning","ping":62},{"user_id":237,"name":"beth.cubitt","steam_id":76561198454733447,"connected_time":2216000000000,"state":"spawning","ping":83},{"user_id":263,"name":"BaconUndies","steam_id":76561198281809824,"connected_time":1340000000000,"state":"spawning","ping":158},{"user_id":271,"name":"Snowy","steam_id":76561198255720598,"connected_time":29000000000,"state":"spawning","ping":48},{"user_id":198,"name":"Gwarp","steam_id":76561198061960926,"connected_time":6420000000000,"state":"spawning","ping":88},{"user_id":268,"name":"wody","steam_id":76561198867007873,"connected_time":607000000000,"state":"spawning","ping":95},{"user_id":262,"name":"Tsolis","steam_id":76561198013950614,"connected_time":1428000000000,"state":"spawning","ping":61},{"user_id":239,"name":"Robert_Cheeto","steam_id":76561198151087184,"connected_time":2195000000000,"state":"active","ping":239},{"user_id":118,"name":"itsjustmarvin77","steam_id":76561199375656301,"connected_time":12269000000000,"state":"active","ping":267},{"user_id":243,"name":"Bin","steam_id":76561199117653318,"connected_time":2086000000000,"state":"spawning","ping":33},{"user_id":106,"name":"Emanuel Augustus","steam_id":76561199081848498,"connected_time":12579000000000,"state":"spawning","ping":72},{"user_id":249,"name":"Ganome Chilled","steam_id":76561198064898965,"connected_time":1903000000000,"state":"spawning","ping":201},{"user_id":245,"name":"krandlez` (Any/All)","steam_id":76561198044839726,"connected_time":2015000000000,"state":"active","ping":249},{"user_id":248,"name":"birko bird","steam_id":76561198203407172,"connected_time":1994000000000,"state":"spawning","ping":23},{"user_id":267,"name":"Hippity_Hoppity","steam_id":76561198861050395,"connected_time":767000000000,"state":"spawning","ping":56},{"user_id":269,"name":"alqwnq","steam_id":76561198133867907,"connected_time":473000000000,"state":"spawning","ping":73},{"user_id":272,"name":"KindredGarlic","steam_id":76561198862857120,"connected_time":28000000000,"state":"spawning","ping":21},{"user_id":93,"name":"Piklz","steam_id":76561198043384139,"connected_time":13437000000000,"state":"spawning","ping":38},{"user_id":266,"name":"Livid","steam_id":76561198060024585,"connected_time":1004000000000,"state":"spawning","ping":45},{"user_id":206,"name":"Marzell","steam_id":76561198151276153,"connected_time":5929000000000,"state":"spawning","ping":86},{"user_id":264,"name":"Emirati OBE","steam_id":76561198031293430,"connected_time":1119000000000,"state":"spawning","ping":72},{"user_id":270,"name":"Fleetfoot","steam_id":76561198072845816,"connected_time":34000000000,"state":"spawning","ping":46}]},{"server_id":123,"name":"Uncletopia | Sydney | 2 | All Maps","name_short":"syd-2","host":"syd-1.au.uncletopia.com","port":27025,"enabled":true,"region":"au","cc":"au","latitude":-33.865143,"longitude":151.2099,"reserved":0,"last_update":"0001-01-01T00:00:00Z","name_a2s":"Uncletopia | Sydney | 2 | All Maps","protocol":17,"map":"ctf_well","folder":"tf","game":"Team Fortress","app_id":440,"player_count":24,"max_players":24,"Bots":0,"server_type":"Dedicated","server_os":"Linux","password":true,"vac":true,"version":"7757534","steam_id":85568392924470002,"keywords":["ctf","nocrits","nodmgspread","uncletopia"],"game_id":440,"stv_port":27026,"stv_name":"Uncletopia | Sydney | 2 | All Maps | STV","players":[{"user_id":52,"name":"frostproto","steam_id":76561198911697195,"connected_time":2921000000000,"state":"active","ping":101},{"user_id":62,"name":"The Bisoneer TF2","steam_id":76561199446773766,"connected_time":1493000000000,"state":"active","ping":90},{"user_id":29,"name":"moontyinspace","steam_id":76561199284444492,"connected_time":4743000000000,"state":"active","ping":106},{"user_id":69,"name":"Australian Pyro","steam_id":76561199232551668,"connected_time":1237000000000,"state":"active","ping":91},{"user_id":57,"name":"mase chong(not a snitch)","steam_id":76561199205171109,"connected_time":2084000000000,"state":"active","ping":63},{"user_id":74,"name":"Assasin43","steam_id":76561198067678083,"connected_time":827000000000,"state":"active","ping":103},{"user_id":75,"name":"soup","steam_id":76561198094520079,"connected_time":807000000000,"state":"active","ping":72},{"user_id":70,"name":"Borgooskulleater","steam_id":76561198347646513,"connected_time":1231000000000,"state":"active","ping":49},{"user_id":38,"name":"Del Davis","steam_id":76561198153397177,"connected_time":3528000000000,"state":"active","ping":55},{"user_id":39,"name":"Daniel Chong","steam_id":76561199009189725,"connected_time":3521000000000,"state":"active","ping":70},{"user_id":63,"name":"mushroom","steam_id":76561197992336470,"connected_time":1456000000000,"state":"active","ping":92},{"user_id":64,"name":"kick","steam_id":76561198825176648,"connected_time":1435000000000,"state":"active","ping":66},{"user_id":45,"name":"Precipire","steam_id":76561198076159518,"connected_time":3238000000000,"state":"active","ping":107},{"user_id":68,"name":"bonaparte napoleon","steam_id":76561199021649596,"connected_time":1345000000000,"state":"active","ping":71},{"user_id":88,"name":"ramjamslam","steam_id":76561198084310292,"connected_time":282000000000,"state":"active","ping":59},{"user_id":89,"name":"salad","steam_id":76561198289617717,"connected_time":2000000000,"state":"spawning","ping":51},{"user_id":72,"name":"Squishy","steam_id":76561198985769205,"connected_time":1147000000000,"state":"active","ping":51},{"user_id":73,"name":"tim88435","steam_id":76561198089653987,"connected_time":1129000000000,"state":"active","ping":55},{"user_id":76,"name":"Nevronxxxxxxxxxxxx","steam_id":76561198128049036,"connected_time":739000000000,"state":"active","ping":60},{"user_id":79,"name":"Trins","steam_id":76561198040922808,"connected_time":613000000000,"state":"active","ping":56},{"user_id":78,"name":"DiscardedBiscuit","steam_id":76561197996894720,"connected_time":683000000000,"state":"active","ping":84},{"user_id":81,"name":"Granola Escobar","steam_id":76561198059129270,"connected_time":455000000000,"state":"active","ping":72},{"user_id":83,"name":"perturb","steam_id":76561198085124297,"connected_time":436000000000,"state":"active","ping":56},{"user_id":86,"name":"58","steam_id":76561198045125531,"connected_time":313000000000,"state":"active","ping":55}]},{"server_id":395,"name":"Uncletopia | Sydney | 3 | All Maps","name_short":"syd-3","host":"syd-1.au.uncletopia.com","port":27035,"enabled":true,"region":"au","cc":"au","latitude":-33.865143,"longitude":151.2099,"reserved":0,"last_update":"0001-01-01T00:00:00Z","name_a2s":"Uncletopia | Sydney | 3 | All Maps","protocol":17,"map":"koth_viaduct","folder":"tf","game":"Team Fortress","app_id":440,"player_count":23,"max_players":24,"Bots":0,"server_type":"Dedicated","server_os":"Linux","password":true,"vac":true,"version":"7757534","steam_id":85568392925194467,"keywords":["cp","nocrits","nodmgspread","uncletopia"],"game_id":440,"stv_port":27036,"stv_name":"Uncletopia | Sydney | 3 | All Maps | STV","players":[{"user_id":235,"name":"NeNeThe01","steam_id":76561199243345381,"connected_time":1424000000000,"state":"active","ping":59},{"user_id":225,"name":"FriendlyFortressFighter :)","steam_id":76561199417737666,"connected_time":1684000000000,"state":"active","ping":142},{"user_id":188,"name":"Raypest","steam_id":76561197980678745,"connected_time":4068000000000,"state":"active","ping":38},{"user_id":246,"name":"skinny loser man","steam_id":76561198094041769,"connected_time":214000000000,"state":"active","ping":31},{"user_id":237,"name":"Zenith","steam_id":76561198053059175,"connected_time":1319000000000,"state":"active","ping":63},{"user_id":240,"name":"tetrx","steam_id":76561197996427098,"connected_time":957000000000,"state":"active","ping":89},{"user_id":205,"name":"T0vex","steam_id":76561198127222589,"connected_time":3381000000000,"state":"active","ping":75},{"user_id":239,"name":"BeefPuppy","steam_id":76561197971309642,"connected_time":1113000000000,"state":"active","ping":59},{"user_id":247,"name":"Chett Ryan","steam_id":76561198071870475,"connected_time":184000000000,"state":"active","ping":53},{"user_id":186,"name":"nojnosbod11","steam_id":76561199176012151,"connected_time":4126000000000,"state":"active","ping":67},{"user_id":213,"name":"thrax","steam_id":76561197992385270,"connected_time":3147000000000,"state":"active","ping":53},{"user_id":201,"name":"carrot monster","steam_id":76561199056025092,"connected_time":3537000000000,"state":"active","ping":47},{"user_id":232,"name":"Wigglear","steam_id":76561199242658386,"connected_time":1501000000000,"state":"active","ping":85},{"user_id":228,"name":"hif","steam_id":76561198112141269,"connected_time":1556000000000,"state":"active","ping":51},{"user_id":203,"name":"SassnCheeky","steam_id":76561197993875592,"connected_time":3483000000000,"state":"active","ping":59},{"user_id":230,"name":"Dragonite","steam_id":76561199185507683,"connected_time":1532000000000,"state":"active","ping":40},{"user_id":250,"name":"贝塔贝塔贝塔，骑舒克\ufffd","steam_id":76561198329033463,"connected_time":44000000000,"state":"active","ping":219},{"user_id":244,"name":"Beehive","steam_id":76561199436707447,"connected_time":496000000000,"state":"active","ping":54},{"user_id":139,"name":"MR Martian","steam_id":76561198157854561,"connected_time":8335000000000,"state":"active","ping":91},{"user_id":242,"name":"finianwilliams1","steam_id":76561199084912608,"connected_time":615000000000,"state":"active","ping":61},{"user_id":248,"name":"Stock™","steam_id":76561198089242483,"connected_time":179000000000,"state":"active","ping":59},{"user_id":221,"name":"Zeron","steam_id":76561198125778202,"connected_time":2401000000000,"state":"active","ping":45},{"user_id":141,"name":"Pokelock","steam_id":76561198160389063,"connected_time":8321000000000,"state":"active","ping":103}]},{"server_id":396,"name":"Uncletopia | Sydney | 4 | All Maps","name_short":"syd-4","host":"syd-1.au.uncletopia.com","port":27045,"enabled":true,"region":"au","cc":"au","latitude":-33.865143,"longitude":151.2099,"reserved":0,"last_update":"0001-01-01T00:00:00Z","name_a2s":"Uncletopia | Sydney | 4 | All Maps","protocol":17,"map":"koth_highpass","folder":"tf","game":"Team Fortress","app_id":440,"player_count":0,"max_players":24,"Bots":0,"server_type":"Dedicated","server_os":"Linux","password":true,"vac":true,"version":"7757534","steam_id":85568392925397958,"keywords":["cp","nocrits","nodmgspread","uncletopia"],"game_id":440,"stv_port":27046,"stv_name":"Uncletopia | Sydney | 4 | All Maps | STV","players":null},{"server_id":58,"name":"Uncletopia | Sydney | 5 | Stopwatch Beta","name_short":"syd-5","host":"syd-1.au.uncletopia.com","port":27055,"enabled":true,"region":"au","cc":"au","latitude":-33.865143,"longitude":151.2099,"reserved":0,"last_update":"0001-01-01T00:00:00Z","name_a2s":"Uncletopia | Sydney | 5 | Stopwatch Beta","protocol":17,"map":"pl_upward","folder":"tf","game":"Team Fortress","app_id":440,"player_count":0,"max_players":24,"Bots":0,"server_type":"Dedicated","server_os":"Linux","password":true,"vac":true,"version":"7757534","steam_id":85568392925397959,"keywords":["nocrits","nodmgspread","payload","uncletopia"],"game_id":440,"stv_port":27056,"stv_name":"Uncletopia | Sydney | 5 | Stopwatch Beta | STV","players":null},{"server_id":59,"name":"Uncletopia | Sydney | 6 | Community","name_short":"syd-6","host":"syd-1.au.uncletopia.com","port":27065,"enabled":true,"region":"au","cc":"au","latitude":-33.865143,"longitude":151.2099,"reserved":0,"last_update":"0001-01-01T00:00:00Z","name_a2s":"Uncletopia | Sydney | 6 | Community","protocol":17,"map":"cp_snakewater_final1","folder":"tf","game":"Team Fortress","app_id":440,"player_count":0,"max_players":24,"Bots":0,"server_type":"Dedicated","server_os":"Linux","password":true,"vac":true,"version":"7757534","steam_id":85568392925397960,"keywords":["cp","nocrits","nodmgspread","uncletopia"],"game_id":440,"stv_port":27066,"stv_name":"Uncletopia | Sydney | 6 | Community | STV","players":null},{"server_id":49,"name":"Uncletopia | Warsaw | 1 | All Maps","name_short":"waw-1","host":"waw-1.pl.uncletopia.com","port":27015,"enabled":true,"region":"eu","cc":"pl","latitude":52.2297,"longitude":21.017532,"reserved":0,"last_update":"0001-01-01T00:00:00Z","name_a2s":"","protocol":0,"map":"","folder":"","game":"","app_id":0,"player_count":0,"max_players":0,"Bots":0,"server_type":"","server_os":"","password":false,"vac":false,"version":"","steam_id":0,"keywords":null,"game_id":0,"stv_port":0,"stv_name":"","players":null},{"server_id":50,"name":"Uncletopia | Warsaw | 2 | All Maps","name_short":"waw-2","host":"waw-1.pl.uncletopia.com","port":27025,"enabled":true,"region":"eu","cc":"pl","latitude":52.2297,"longitude":21.017532,"reserved":0,"last_update":"0001-01-01T00:00:00Z","name_a2s":"Uncletopia | Warsaw | 2 | All Maps","protocol":17,"map":"koth_viaduct","folder":"tf","game":"Team Fortress","app_id":440,"player_count":0,"max_players":24,"Bots":0,"server_type":"Dedicated","server_os":"Linux","password":true,"vac":true,"version":"7757534","steam_id":85568392925397851,"keywords":["cp","nocrits","nodmgspread","uncletopia"],"game_id":440,"stv_port":27026,"stv_name":"Uncletopia | Warsaw | 2 | All Maps | STV","players":null},{"server_id":51,"name":"Uncletopia | Warsaw | 3 | All Maps","name_short":"waw-3","host":"waw-1.pl.uncletopia.com","port":27035,"enabled":true,"region":"eu","cc":"pl","latitude":52.2297,"longitude":21.017532,"reserved":0,"last_update":"0001-01-01T00:00:00Z","name_a2s":"Uncletopia | Warsaw | 3 | All Maps","protocol":17,"map":"pl_badwater","folder":"tf","game":"Team Fortress","app_id":440,"player_count":0,"max_players":24,"Bots":0,"server_type":"Dedicated","server_os":"Linux","password":true,"vac":true,"version":"7757534","steam_id":85568392925397852,"keywords":["nocrits","nodmgspread","payload","uncletopia"],"game_id":440,"stv_port":27036,"stv_name":"Uncletopia | Warsaw | 3 | All Maps | STV","players":null},{"server_id":52,"name":"Uncletopia | Warsaw | 4 | All Maps","name_short":"waw-4","host":"waw-1.pl.uncletopia.com","port":27045,"enabled":true,"region":"eu","cc":"pl","latitude":52.2297,"longitude":21.017532,"reserved":0,"last_update":"0001-01-01T00:00:00Z","name_a2s":"Uncletopia | Warsaw | 4 | All Maps","protocol":17,"map":"koth_lakeside_final","folder":"tf","game":"Team Fortress","app_id":440,"player_count":0,"max_players":24,"Bots":0,"server_type":"Dedicated","server_os":"Linux","password":true,"vac":true,"version":"7757534","steam_id":85568392925397853,"keywords":["cp","nocrits","nodmgspread","uncletopia"],"game_id":440,"stv_port":27046,"stv_name":"Uncletopia | Warsaw | 4 | All Maps | STV","players":null},{"server_id":53,"name":"Uncletopia | Warsaw | 5 | Stopwatch Beta","name_short":"waw-5","host":"waw-1.pl.uncletopia.com","port":27055,"enabled":true,"region":"eu","cc":"pl","latitude":52.2297,"longitude":21.017532,"reserved":0,"last_update":"0001-01-01T00:00:00Z","name_a2s":"Uncletopia | Warsaw | 5 | Stopwatch Beta","protocol":17,"map":"pl_borneo","folder":"tf","game":"Team Fortress","app_id":440,"player_count":0,"max_players":24,"Bots":0,"server_type":"Dedicated","server_os":"Linux","password":true,"vac":true,"version":"7757534","steam_id":85568392925397854,"keywords":["nocrits","nodmgspread","payload","uncletopia"],"game_id":440,"stv_port":27056,"stv_name":"Uncletopia | Warsaw | 5 | Stopwatch Beta | STV","players":null},{"server_id":54,"name":"Uncletopia | Warsaw | 6 | Community","name_short":"waw-6","host":"waw-1.pl.uncletopia.com","port":27065,"enabled":true,"region":"eu","cc":"pl","latitude":52.2297,"longitude":21.017532,"reserved":0,"last_update":"0001-01-01T00:00:00Z","name_a2s":"Uncletopia | Warsaw | 6 | Community","protocol":17,"map":"koth_lakeside_final","folder":"tf","game":"Team Fortress","app_id":440,"player_count":0,"max_players":24,"Bots":0,"server_type":"Dedicated","server_os":"Linux","password":true,"vac":true,"version":"7757534","steam_id":85568392925397856,"keywords":["cp","nocrits","nodmgspread","uncletopia"],"game_id":440,"stv_port":27066,"stv_name":"Uncletopia | Warsaw | 6 | Community | STV","players":null}]}