{"status":true,"message":"","result":[{"server_id":9,"name":"Uncletopia | Atlanta | 1 | All Maps","name_short":"atl-1","host":"atl-1.us.uncletopia.com","port":27015,"enabled":true,"region":"us-east","cc":"us","latitude":33.753746,"longitude":-84.38633,"reserved":0,"last_update":"0001-01-01T00:00:00Z","name_a2s":"Uncletopia | Atlanta | 1 | All Maps","protocol":17,"map":"pl_barnblitz","folder":"tf","game":"Team Fortress","app_id":440,"player_count":19,"max_players":24,"Bots":0,"server_type":"Dedicated","server_os":"Linux","password":true,"vac":true,"version":"7757534","steam_id":85568392924469982,"keywords":["nocrits","nodmgspread","payload","uncletopia"],"game_id":440,"stv_port":27016,"stv_name":"Uncletopia | Atlanta | 1 | All Maps | STV","players":[{"user_id":511,"name":"abomination","steam_id":76561198167974713,"connected_time":2837000000000,"state":"connecting","ping":74},{"user_id":527,"name":"trappy (showered)","steam_id":76561198402801140,"connected_time":1734000000000,"state":"connecting","ping":95},{"user_id":537,"name":"CarelessEmilyAlt","steam_id":76561198170952266,"connected_time":1000000000,"state":"connecting","ping":176},{"user_id":453,"name":"Sol","steam_id":76561199008085020,"connected_time":9802000000000,"state":"connecting","ping":69},{"user_id":522,"name":"Lichy","steam_id":76561198310682841,"connected_time":2291000000000,"state":"connecting","ping":75},{"user_id":534,"name":"☙ Corrupt ❧","steam_id":76561197977631915,"connected_time":759000000000,"state":"connecting","ping":75},{"user_id":515,"name":"Bucket Hat Trick","steam_id":76561198381785132,"connected_time":2795000000000,"state":"connecting","ping":95},{"user_id":528,"name":"KOTH_SHE/HERVEST","steam_id":76561198029274581,"connected_time":1730000000000,"state":"connecting","ping":108},{"user_id":516,"name":"Bliztank | RGL.gg","steam_id":76561198019252798,"connected_time":2439000000000,"state":"connecting","ping":73},{"user_id":532,"name":"Prawn","steam_id":76561198010708247,"connected_time":1599000000000,"state":"connecting","ping":91},{"user_id":533,"name":"Shichinitzi","steam_id":76561198003833732,"connected_time":956000000000,"state":"connecting","ping":98},{"user_id":535,"name":"Smol Zuzu","steam_id":76561198042446540,"connected_time":31000000000,"state":"connecting","ping":96},{"user_id":524,"name":"ARegularJohnDoe","steam_id":76561198015020139,"connected_time":2285000000000,"state":"connecting","ping":79},{"user_id":493,"name":"shaderoses","steam_id":76561198070800500,"connected_time":5922000000000,"state":"connecting","ping":77},{"user_id":502,"name":"Vladikr1","steam_id":76561198401495362,"connected_time":4569000000000,"state":"connecting","ping":93},{"user_id":510,"name":"Mickey","steam_id":76561197976868960,"connected_time":2850000000000,"state":"connecting","ping":168}]},{"server_id":400,"name":"Uncletopia | Atlanta | 3 | Community","name_short":"atl-3","host":"atl-1.us.uncletopia.com","port":27035,"enabled":true,"region":"us-east","cc":"us","latitude":33.753746,"longitude":-84.38633,"reserved":0,"last_update":"0001-01-01T00:00:00Z","name_a2s":"Uncletopia | Atlanta | 3 | Community","protocol":17,"map":"workshop/koth_bagel_rc5.ugc2514036946","folder":"tf","game":"Team Fortress","app_id":440,"player_count":0,"max_players":32,"Bots":0,"server_type":"Dedicated","server_os":"Linux","password":true,"vac":true,"version":"7757534","steam_id":85568392924515187,"keywords":["cp","increased_maxplayers","nocrits","nodmgspread","uncletopia"],"game_id":440,"stv_port":27036,"stv_name":"Uncletopia | Atlanta | 3 | Community | STV","players":null},{"server_id":401,"name":"Uncletopia | Atlanta | 4 | No Payload","name_short":"atl-4","host":"atl-1.us.uncletopia.com","port":27045,"enabled":true,"region":"us-east","cc":"us","latitude":33.753746,"longitude":-84.38633,"reserved":0,"last_update":"0001-01-01T00:00:00Z","name_a2s":"","protocol":0,"map":"","folder":"","game":"","app_id":0,"player_count":0,"max_players":0,"Bots":0,"server_type":"","server_os":"","password":false,"vac":false,"version":"","steam_id":0,"keywords":null,"game_id":0,"stv_port":0,"stv_name":"","players":null},{"server_id":2,"name":"Uncletopia | Chicago | 1 | All Maps","name_short":"chi-1","host":"chi-1.us.uncletopia.com","port":27015,"enabled":true,"region":"us-central","cc":"us","latitude":41.881832,"longitude":-87.62318,"reserved":0,"last_update":"0001-01-01T00:00:00Z","name_a2s":"Uncletopia | Chicago | 1 | All Maps","protocol":17,"map":"cp_sunshine","folder":"tf","game":"Team Fortress","app_id":440,"player_count":0,"max_players":24,"Bots":0,"server_type":"Dedicated","server_os":"Linux","password":true,"vac":true,"version":"7757534","steam_id":85568392924469984,"keywords":["cp","nocrits","nodmgspread","uncletopia"],"game_id":440,"stv_port":27016,"stv_name":"Uncletopia | Chicago | 1 | All Maps | STV","players":null},{"server_id":106,"name":"Uncletopia | Chicago | 2 | All Maps","name_short":"chi-2","host":"chi-1.us.uncletopia.com","port":27025,"enabled":true,"region":"us-central","cc":"us","latitude":41.881832,"longitude":-87.62318,"reserved":0,"last_update":"0001-01-01T00:00:00Z","name_a2s":"Uncletopia | Chicago | 2 | All Maps","protocol":17,"map":"pl_borneo","folder":"tf","game":"Team Fortress","app_id":440,"player_count":15,"max_players":24,"Bots":0,"server_type":"Dedicated","server_os":"Linux","password":true,"vac":true,"version":"7757534","steam_id":85568392924469985,"keywords":["nocrits","nodmgspread","payload","uncletopia"],"game_id":440,"stv_port":27026,"stv_name":"Uncletopia | Chicago | 2 | All Maps | STV","players":[{"user_id":397,"name":"Fargo","steam_id":76561198044703931,"connected_time":42000000000,"state":"active","ping":60},{"user_id":328,"name":"boy from the rafters","steam_id":76561198042926224,"connected_time":4129000000000,"state":"active","ping":83},{"user_id":344,"name":"Zho Biden","steam_id":76561198079224101,"connected_time":2913000000000,"state":"active","ping":51},{"user_id":335,"name":"Excalahave","steam_id":76561198072622946,"connected_time":3510000000000,"state":"active","ping":55},{"user_id":379,"name":"TheCheeseWizard","steam_id":76561198058931315,"connected_time":1265000000000,"state":"active","ping":56},{"user_id":347,"name":"Dwaggy","steam_id":76561198027369555,"connected_time":2845000000000,"state":"active","ping":64},{"user_id":380,"name":"faxxy","steam_id":76561198079621240,"connected_time":1258000000000,"state":"active","ping":55},{"user_id":388,"name":"RASTAPEEK","steam_id":76561198098284483,"connected_time":452000000000,"state":"active","ping":59},{"user_id":395,"name":"Deltaflame","steam_id":76561198060339773,"connected_time":352000000000,"state":"active","ping":157},{"user_id":392,"name":"squambo","steam_id":76561199239524176,"connected_time":414000000000,"state":"active","ping":88},{"user_id":355,"name":"GiraffeMan","steam_id":76561198042104084,"connected_time":2477000000000,"state":"active","ping":83},{"user_id":393,"name":"dysfunction.exe","steam_id":76561199034773785,"connected_time":396000000000,"state":"active","ping":119},{"user_id":377,"name":"craxyt","steam_id":76561198050192689,"connected_time":1604000000000,"state":"active","ping":92},{"user_id":394,"name":"Legit_Jaxer","steam_id":76561198172234053,"connected_time":395000000000,"state":"active","ping":107},{"user_id":372,"name":"Thequirka","steam_id":76561198968058652,"connected_time":1997000000000,"state":"active","ping":105}]},{"server_id":402,"name":"Uncletopia | Chicago | 3 | All Maps","name_short":"chi-3","host":"chi-1.us.uncletopia.com","port":27035,"enabled":true,"region":"us-central","cc":"us","latitude":41.881832,"longitude":-87.62318,"reserved":0,"last_update":"0001-01-01T00:00:00Z","name_a2s":"Uncletopia | Chicago | 3 | All Maps","protocol":17,"map":"koth_highpass","folder":"tf","game":"Team Fortress","app_id":440,"player_count":0,"max_players":24,"Bots":0,"server_type":"Dedicated","server_os":"Linux","password":true,"vac":true,"version":"7757534","steam_id":85568392924515191,"keywords":["cp","nocrits","nodmgspread","uncletopia"],"game_id":440,"stv_port":27036,"stv_name":"Uncletopia | Chicago | 3 | All Maps | STV","players":null},{"server_id":403,"name":"Uncletopia | Chicago | 4 | All Maps","name_short":"chi-4","host":"chi-1.us.uncletopia.com","port":27045,"enabled":true,"region":"us-central","cc":"us","latitude":41.881832,"longitude":-87.62318,"reserved":0,"last_update":"0001-01-01T00:00:00Z","name_a2s":"Uncletopia | Chicago | 4 | All Maps","protocol":17,"map":"pl_badwater","folder":"tf","game":"Team Fortress","app_id":440,"player_count":21,"max_players":24,"Bots":0,"server_type":"Dedicated","server_os":"Linux","password":true,"vac":true,"version":"7757534","steam_id":85568392924515193,"keywords":["nocrits","nodmgspread","payload","uncletopia"],"game_id":440,"stv_port":27046,"stv_name":"Uncletopia | Chicago | 4 | All Maps | STV","players":[{"user_id":799,"name":"dicksouls26","steam_id":76561198838196266,"connected_time":5160000000000,"state":"active","ping":70},{"user_id":855,"name":"MoonWolf","steam_id":76561198095735033,"connected_time":140000000000,"state":"active","ping":72},{"user_id":856,"name":"Admiral Angry","steam_id":76561198058199206,"connected_time":137000000000,"state":"active","ping":59},{"user_id":854,"name":"Bing Soy #1 fan (pie row)","steam_id":76561198848372170,"connected_time":165000000000,"state":"active","ping":76},{"user_id":845,"name":"Gigabars","steam_id":76561198119267479,"connected_time":852000000000,"state":"active","ping":66},{"user_id":853,"name":"Tusk","steam_id":76561199066977033,"connected_time":355000000000,"state":"active","ping":63},{"user_id":859,"name":"IggyYT","steam_id":76561198317980567,"connected_time":2000000000,"state":"spawning","ping":55},{"user_id":857,"name":"Iron Argus","steam_id":76561198181088245,"connected_time":46000000000,"state":"active","ping":91},{"user_id":852,"name":"Leonardo Doujinshi","steam_id":76561198073531273,"connected_time":492000000000,"state":"active","ping":105},{"user_id":858,"name":"unfunnytool","steam_id":76561198060560359,"connected_time":27000000000,"state":"spawning","ping":50},{"user_id":837,"name":"Hindmost","steam_id":76561199081837220,"connected_time":1801000000000,"state":"active","ping":81},{"user_id":838,"name":"Zizen","steam_id":76561199011832069,"connected_time":1795000000000,"state":"active","ping":116},{"user_id":844,"name":"morbissey","steam_id":76561198072592880,"connected_time":1422000000000,"state":"active","ping":36},{"user_id":824,"name":"i really like this dog :)","steam_id":76561198882404753,"connected_time":3683000000000,"state":"active","ping":75},{"user_id":850,"name":"Buttons :)","steam_id":76561198139478534,"connected_time":789000000000,"state":"active","ping":103},{"user_id":840,"name":"ZofoJackson","steam_id":76561197998366861,"connected_time":1781000000000,"state":"active","ping":46},{"user_id":851,"name":"Moorice","steam_id":76561198254975426,"connected_time":772000000000,"state":"active","ping":83},{"user_id":841,"name":"rudy","steam_id":76561198088712799,"connected_time":1780000000000,"state":"active","ping":70},{"user_id":842,"name":"Lilac","steam_id":76561198977523626,"connected_time":1774000000000,"state":"active","ping":67},{"user_id":846,"name":"Glad","steam_id":76561199388372220,"connected_time":851000000000,"state":"active","ping":69},{"user_id":847,"name":"SpinetinglingToast","steam_id":76561198099470670,"connected_time":850000000000,"state":"active","ping":71}]},{"server_id":36,"name":"Uncletopia | Chicago | 5 | All Maps","name_short":"chi-5","host":"chi-2.us.uncletopia.com","port":27015,"enabled":true,"region":"us-central","cc":"us","latitude":41.881832,"longitude":-87.62318,"reserved":0,"last_update":"0001-01-01T00:00:00Z","name_a2s":"Uncletopia | Chicago | 5 | All Maps","protocol":17,"map":"pl_pier","folder":"tf","game":"Team Fortress","app_id":440,"player_count":24,"max_players":24,"Bots":0,"server_type":"Dedicated","server_os":"Linux","password":true,"vac":true,"version":"7757534","steam_id":85568392924866362,"keywords":["nocrits","nodmgspread","payload","uncletopia"],"game_id":440,"stv_port":27016,"stv_name":"Uncletopia | Chicago | 5 | All Maps | STV","players":[{"user_id":183,"name":"Monkey","steam_id":76561198031015186,"connected_time":9609000000000,"state":"active","ping":70},{"user_id":302,"name":"MaurbaaTTV","steam_id":76561198396244334,"connected_time":904000000000,"state":"active","ping":84},{"user_id":298,"name":"HASH Yellow Mellow","steam_id":76561198089697360,"connected_time":944000000000,"state":"active","ping":84},{"user_id":301,"name":"BaconBlitz","steam_id":76561198079461770,"connected_time":937000000000,"state":"active","ping":62},{"user_id":278,"name":"atlas","steam_id":76561198398383076,"connected_time":2999000000000,"state":"active","ping":89},{"user_id":303,"name":"Jumpin over your head","steam_id":76561198140517330,"connected_time":891000000000,"state":"active","ping":82},{"user_id":314,"name":"H.","steam_id":76561198074951179,"connected_time":438000000000,"state":"active","ping":61},{"user_id":291,"name":"bloodlust","steam_id":76561198126358045,"connected_time":1904000000000,"state":"active","ping":71},{"user_id":305,"name":"peeto","steam_id":76561198193013228,"connected_time":835000000000,"state":"active","ping":37},{"user_id":306,"name":"Professor Sex","steam_id":76561198396414319,"connected_time":831000000000,"state":"active","ping":103},{"user_id":294,"name":"gancho","steam_id":76561198170706982,"connected_time":1744000000000,"state":"active","ping":59},{"user_id":310,"name":"Thelonius Poon","steam_id":76561198862655853,"connected_time":632000000000,"state":"active","ping":62},{"user_id":214,"name":"X_Sniper7","steam_id":76561198081097640,"connected_time":7745000000000,"state":"active","ping":70},{"user_id":320,"name":"stakehater11","steam_id":76561198079501615,"connected_time":260000000000,"state":"active","ping":69},{"user_id":307,"name":"floom","steam_id":76561198387571809,"connected_time":829000000000,"state":"active","ping":61},{"user_id":313,"name":"a crazy hobo","steam_id":76561198289650060,"connected_time":457000000000,"state":"active","ping":85},{"user_id":308,"name":"Jack from Jack in The Box","steam_id":76561199083594971,"connected_time":746000000000,"state":"active","ping":93},{"user_id":316,"name":"Klip","steam_id":76561198316254429,"connected_time":339000000000,"state":"active","ping":87},{"user_id":321,"name":"Gabinator32","steam_id":76561198872467183,"connected_time":127000000000,"state":"active","ping":39},{"user_id":318,"name":"IntravenusDeMilo","steam_id":76561197970629020,"connected_time":293000000000,"state":"active","ping":92},{"user_id":319,"name":"gettysburg","steam_id":76561198016157051,"connected_time":270000000000,"state":"active","ping":69},{"user_id":285,"name":"supcupman","steam_id":76561198051513866,"connected_time":2621000000000,"state":"active","ping":113},{"user_id":286,"name":"BreadGod","steam_id":76561198050665205,"connected_time":2617000000000,"state":"active","ping":74},{"user_id":287,"name":"RipHunter77","steam_id":76561198272973014,"connected_time":2584000000000,"state":"active","ping":88}]},{"server_id":37,"name":"Uncletopia | Chicago | 6 | All Maps","name_short":"chi-6","host":"chi-2.us.uncletopia.com","port":27025,"enabled":true,"region":"us-central","cc":"us","latitude":41.881832,"longitude":-87.62318,"reserved":0,"last_update":"0001-01-01T00:00:00Z","name_a2s":"Uncletopia | Chicago | 6 | All Maps","protocol":17,"map":"koth_viaduct","folder":"tf","game":"Team Fortress","app_id":440,"player_count":0,"max_players":24,"Bots":0,"server_type":"Dedicated","server_os":"Linux","password":true,"vac":true,"version":"7757534","steam_id":85568392924866363,"keywords":["cp","nocrits","nodmgspread","uncletopia"],"game_id":440,"stv_port":27026,"stv_name":"Uncletopia | Chicago | 6 | All Maps | STV","players":null},{"server_id":38,"name":"Uncletopia | Chicago | 7 | Stopwatch Beta","name_short":"chi-7","host":"chi-2.us.uncletopia.com","port":27035,"enabled":true,"region":"us-central","cc":"us","latitude":41.881832,"longitude":-87.62318,"reserved":0,"last_update":"0001-01-01T00:00:00Z","name_a2s":"Uncletopia | Chicago | 7 | Stopwatch Beta","protocol":17,"map":"workshop/koth_product_final.ugc454272353","folder":"tf","game":"Team Fortress","app_id":440,"player_count":0,"max_players":24,"Bots":0,"server_type":"Dedicated","server_os":"Linux","password":true,"vac":true,"version":"7757534","steam_id":85568392924866364,"keywords":["cp","nocrits","nodmgspread","uncletopia"],"game_id":440,"stv_port":27036,"stv_name":"Uncletopia | Chicago | 7 | Stopwatch Beta | STV","players":null},{"server_id":39,"name":"Uncletopia | Chicago | 8 | Community","name_short":"chi-8","host":"chi-2.us.uncletopia.com","port":27045,"enabled":true,"region":"us-central","cc":"us","latitude":41.881832,"longitude":-87.62318,"reserved":0,"last_update":"0001-01-01T00:00:00Z","name_a2s":"Uncletopia | Chicago | 8 | Community","protocol":17,"map":"workshop/cp_sulfur_rc2.ugc619869471","folder":"tf","game":"Team Fortress","app_id":440,"player_count":0,"max_players":24,"Bots":0,"server_type":"Dedicated","server_os":"Linux","password":true,"vac":true,"version":"7757534","steam_id":85568392924866365,"keywords":["cp","nocrits","nodmgspread","uncletopia"],"game_id":440,"stv_port":27046,"stv_name":"Uncletopia | Chicago | 8 | Community | STV","players":null},{"server_id":8,"name":"Uncletopia | Dallas | 1 | All Maps","name_short":"dal-1","host":"dal-1.us.uncletopia.com","port":27015,"enabled":true,"region":"us-central","cc":"us","latitude":32.779167,"longitude":-96.80889,"reserved":0,"last_update":"0001-01-01T00:00:00Z","name_a2s":"Uncletopia | Dallas | 1 | All Maps","protocol":17,"map":"pl_thundermountain","folder":"tf","game":"Team Fortress","app_id":440,"player_count":14,"max_players":24,"Bots":0,"server_type":"Dedicated","server_os":"Linux","password":true,"vac":true,"version":"7757534","steam_id":85568392924469986,"keywords":["nocrits","nodmgspread","payload","uncletopia"],"game_id":440,"stv_port":27016,"stv_name":"Uncletopia | Dallas | 1 | All Maps | STV","players":[{"user_id":876,"name":"Ghandi","steam_id":76561198046702733,"connected_time":1599000000000,"state":"active","ping":59},{"user_id":897,"name":"i'm a burden","steam_id":76561198093114319,"connected_time":229000000000,"state":"active","ping":75},{"user_id":899,"name":"samcorn","steam_id":76561198144747235,"connected_time":145000000000,"state":"active","ping":93},{"user_id":789,"name":"firestabber","steam_id":76561198057055577,"connected_time":8297000000000,"state":"active","ping":90},{"user_id":892,"name":"OddSlaush","steam_id":76561198043898488,"connected_time":524000000000,"state":"active","ping":74},{"user_id":898,"name":"rilby_","steam_id":76561198132755619,"connected_time":178000000000,"state":"active","ping":66},{"user_id":869,"name":"Etomb","steam_id":76561198210017208,"connected_time":2681000000000,"state":"active","ping":71},{"user_id":885,"name":"Fermenting Kiwi","steam_id":76561198253303497,"connected_time":1285000000000,"state":"active","ping":68},{"user_id":900,"name":"Awesomebaba","steam_id":76561198140019808,"connected_time":138000000000,"state":"active","ping":134},{"user_id":901,"name":"Father Jon","steam_id":76561198324730919,"connected_time":128000000000,"state":"active","ping":69},{"user_id":883,"name":"Knower","steam_id":76561198036213722,"connected_time":1306000000000,"state":"active","ping":84},{"user_id":903,"name":"lobercycle","steam_id":76561198106039862,"connected_time":121000000000,"state":"active","ping":90},{"user_id":904,"name":"Fɘx :3","steam_id":76561199124920728,"connected_time":100000000000,"state":"active","ping":46},{"user_id":893,"name":"Ojen","steam_id":76561197998414482,"connected_time":436000000000,"state":"active","ping":84}]},{"server_id":108,"name":"Uncletopia | Dallas | 2 | All Maps","name_short":"dal-2","host":"dal-1.us.uncletopia.com","port":27025,"enabled":true,"region":"us-central","cc":"us","latitude":32.779167,"longitude":-96.80889,"reserved":0,"last_update":"0001-01-01T00:00:00Z","name_a2s":"Uncletopia | Dallas | 2 | All Maps","protocol":17,"map":"plr_bananabay","folder":"tf","game":"Team Fortress","app_id":440,"player_count":23,"max_players":24,"Bots":0,"server_type":"Dedicated","server_os":"Linux","password":true,"vac":true,"version":"7757534","steam_id":85568392924469988,"keywords":["nocrits","nodmgspread","payload","uncletopia"],"game_id":440,"stv_port":27026,"stv_name":"Uncletopia | Dallas | 2 | All Maps | STV","players":[{"user_id":586,"name":"Matt.jpg","steam_id":76561198132469465,"connected_time":671000000000,"state":"active","ping":46},{"user_id":603,"name":"Blades_87","steam_id":76561198150870338,"connected_time":25000000000,"state":"active","ping":91},{"user_id":583,"name":"Dojoloachfr","steam_id":76561198826298849,"connected_time":913000000000,"state":"active","ping":90},{"user_id":604,"name":"Mr. Worldwide","steam_id":76561198118652806,"connected_time":13000000000,"state":"active","ping":84},{"user_id":595,"name":"Pockets","steam_id":76561198012424490,"connected_time":267000000000,"state":"active","ping":64},{"user_id":584,"name":"_DrunkenGibberish_","steam_id":76561199123070071,"connected_time":910000000000,"state":"active","ping":120},{"user_id":564,"name":"bo scrungulus","steam_id":76561198038036122,"connected_time":1668000000000,"state":"active","ping":73},{"user_id":576,"name":"white ray","steam_id":76561198026664629,"connected_time":1120000000000,"state":"active","ping":75},{"user_id":529,"name":"Whistlepig","steam_id":76561198030622803,"connected_time":3827000000000,"state":"active","ping":105},{"user_id":530,"name":"Cap'n Sallad","steam_id":76561198029964610,"connected_time":3822000000000,"state":"active","ping":59},{"user_id":531,"name":"Nimin626","steam_id":76561198036714484,"connected_time":3799000000000,"state":"active","ping":87},{"user_id":532,"name":"Nano Nova","steam_id":76561198238064992,"connected_time":3777000000000,"state":"active","ping":70},{"user_id":594,"name":"FearTheJynx","steam_id":76561198136487957,"connected_time":305000000000,"state":"active","ping":61},{"user_id":598,"name":"Stupid frogs!","steam_id":76561198069415057,"connected_time":216000000000,"state":"active","ping":76},{"user_id":559,"name":"Dell Conagher (real)","steam_id":76561198220120368,"connected_time":2608000000000,"state":"active","ping":36},{"user_id":578,"name":"ZAZA Enjoyer","steam_id":76561198094426099,"connected_time":1018000000000,"state":"active","ping":104},{"user_id":579,"name":"Crow","steam_id":76561199002672790,"connected_time":989000000000,"state":"active","ping":84},{"user_id":589,"name":"Karma's Camera","steam_id":76561198059385185,"connected_time":439000000000,"state":"active","ping":97},{"user_id":599,"name":"Sniper Player (Derogatory)","steam_id":76561198046526036,"connected_time":213000000000,"state":"active","ping":76},{"user_id":592,"name":"the bone zone","steam_id":76561198013118543,"connected_time":324000000000,"state":"active","ping":72},{"user_id":600,"name":"Wan Shi Tong","steam_id":76561198076441225,"connected_time":213000000000,"state":"active","ping":87},{"user_id":602,"name":"gasparmx","steam_id":76561197998611994,"connected_time":134000000000,"state":"active","ping":80},{"user_id":582,"name":"Ashannabuda","steam_id":76561198129552058,"connected_time":975000000000,"state":"active","ping":45}]},{"server_id":5,"name":"Uncletopia | Frankfurt | 1 | All Maps","name_short":"frk-1","host":"frk-1.de.uncletopia.com","port":27015,"enabled":true,"region":"eu","cc":"de","latitude":50.110924,"longitude":8.682127,"reserved":0,"last_update":"0001-01-01T00:00:00Z","name_a2s":"Uncletopia | Frankfurt | 1 | All Maps","protocol":17,"map":"pl_snowycoast","folder":"tf","game":"Team Fortress","app_id":440,"player_count":0,"max_players":24,"Bots":0,"server_type":"Dedicated","server_os":"Linux","password":true,"vac":true,"version":"7757534","steam_id":85568392924469989,"keywords":["nocrits","nodmgspread","payload","uncletopia"],"game_id":440,"stv_port":27016,"stv_name":"Uncletopia | Frankfurt | 1 | All Maps | STV","players":null},{"server_id":110,"name":"Uncletopia | Frankfurt | 2 | All Maps","name_short":"frk-2","host":"frk-1.de.uncletopia.com","port":27025,"enabled":true,"region":"eu","cc":"de","latitude":50.110924,"longitude":8.682127,"reserved":0,"last_update":"0001-01-01T00:00:00Z","name_a2s":"Uncletopia | Frankfurt | 2 | All Maps","protocol":17,"map":"koth_viaduct","folder":"tf","game":"Team Fortress","app_id":440,"player_count":0,"max_players":24,"Bots":0,"server_type":"Dedicated","server_os":"Linux","password":true,"vac":true,"version":"7757534","steam_id":85568392924469990,"keywords":["cp","nocrits","nodmgspread","uncletopia"],"game_id":440,"stv_port":27026,"stv_name":"Uncletopia | Frankfurt | 2 | All Maps | STV","players":null},{"server_id":308,"name":"Uncletopia | Frankfurt | 3 | All Maps","name_short":"frk-3","host":"frk-1.de.uncletopia.com","port":27035,"enabled":true,"region":"eu","cc":"de","latitude":50.110924,"longitude":8.682127,"reserved":0,"last_update":"0001-01-01T00:00:00Z","name_a2s":"Uncletopia | Frankfurt | 3 | All Maps","protocol":17,"map":"cp_altitude","folder":"tf","game":"Team Fortress","app_id":440,"player_count":0,"max_players":24,"Bots":0,"server_type":"Dedicated","server_os":"Linux","password":true,"vac":true,"version":"7757534","steam_id":85568392924504274,"keywords":["cp","nocrits","nodmgspread","uncletopia"],"game_id":440,"stv_port":27036,"stv_name":"Uncletopia | Frankfurt | 3 | All Maps | STV","players":null},{"server_id":309,"name":"Uncletopia | Frankfurt | 4 | All Maps","name_short":"frk-4","host":"frk-1.de.uncletopia.com","port":27045,"enabled":true,"region":"eu","cc":"de","latitude":50.110924,"longitude":8.682127,"reserved":0,"last_update":"0001-01-01T00:00:00Z","name_a2s":"Uncletopia | Frankfurt | 4 | All Maps","protocol":17,"map":"cp_altitude","folder":"tf","game":"Team Fortress","app_id":440,"player_count":0,"max_players":24,"Bots":0,"server_type":"Dedicated","server_os":"Linux","password":true,"vac":true,"version":"7757534","steam_id":85568392924504275,"keywords":["cp","nocrits","nodmgspread","uncletopia"],"game_id":440,"stv_port":27046,"stv_name":"Uncletopia | Frankfurt | 4 | All Maps | STV","players":null},{"server_id":310,"name":"Uncletopia | Frankfurt | 5 | All Maps","name_short":"frk-5","host":"frk-1.de.uncletopia.com","port":27055,"enabled":true,"region":"eu","cc":"de","latitude":50.110924,"longitude":8.682127,"reserved":0,"last_update":"0001-01-01T00:00:00Z","name_a2s":"Uncletopia | Frankfurt | 5 | All Maps","protocol":17,"map":"cp_altitude","folder":"tf","game":"Team Fortress","app_id":440,"player_count":0,"max_players":24,"Bots":0,"server_type":"Dedicated","server_os":"Linux","password":true,"vac":true,"version":"7757534","steam_id":85568392924504277,"keywords":["cp","nocrits","nodmgspread","uncletopia"],"game_id":440,"stv_port":27056,"stv_name":"Uncletopia | Frankfurt | 5 | All Maps | STV","players":null},{"server_id":311,"name":"Uncletopia | Frankfurt | 6 | All Maps","name_short":"frk-6","host":"frk-1.de.uncletopia.com","port":27065,"enabled":true,"region":"eu","cc":"de","latitude":50.110924,"longitude":8.682127,"reserved":0,"last_update":"0001-01-01T00:00:00Z","name_a2s":"Uncletopia | Frankfurt | 6 | All Maps","protocol":17,"map":"koth_highpass","folder":"tf","game":"Team Fortress","app_id":440,"player_count":0,"max_players":24,"Bots":0,"server_type":"Dedicated","server_os":"Linux","password":true,"vac":true,"version":"7757534","steam_id":85568392924504278,"keywords":["cp","nocrits","nodmgspread","uncletopia"],"game_id":440,"stv_port":27066,"stv_name":"Uncletopia | Frankfurt | 6 | All Maps | STV","players":null},{"server_id":23,"name":"Uncletopia | Frankfurt | 7 | Stopwatch Beta","name_short":"frk-7","host":"frk-1.de.uncletopia.com","port":27075,"enabled":true,"region":"eu","cc":"de","latitude":50.110924,"longitude":8.682127,"reserved":0,"last_update":"0001-01-01T00:00:00Z","name_a2s":"Uncletopia | Frankfurt | 7 | Stopwatch Beta","protocol":17,"map":"pl_frontier_final","folder":"tf","game":"Team Fortress","app_id":440,"player_count":0,"max_players":24,"Bots":0,"server_type":"Dedicated","server_os":"Linux","password":true,"vac":true,"version":"7757534","steam_id":85568392924742827,"keywords":["nocrits","nodmgspread","payload","uncletopia"],"game_id":440,"stv_port":27076,"stv_name":"Uncletopia | Frankfurt | 7 | Stopwatch Beta | STV","players":null},{"server_id":24,"name":"Uncletopia | Frankfurt | 8 | Community","name_short":"frk-8","host":"frk-1.de.uncletopia.com","port":27085,"enabled":true,"region":"eu","cc":"de","latitude":50.110924,"longitude":8.682127,"reserved":0,"last_update":"0001-01-01T00:00:00Z","name_a2s":"Uncletopia | Frankfurt | 8 | Community","protocol":17,"map":"pl_badwater","folder":"tf","game":"Team Fortress","app_id":440,"player_count":0,"max_players":24,"Bots":0,"server_type":"Dedicated","server_os":"Linux","password":true,"vac":true,"version":"7757534","steam_id":85568392924742828,"keywords":["nocrits","nodmgspread","payload","uncletopia"],"game_id":440,"stv_port":27086,"stv_name":"Uncletopia | Frankfurt | 8 | Community | STV","players":null},{"server_id":202,"name":"Uncletopia | Hong Kong | 1 | All Maps","name_short":"hgk-1","host":"hgk-1.hk.uncletopia.com","port":27015,"enabled":true,"region":"asia","cc":"hk","latitude":22.302711,"longitude":114.177216,"reserved":0,"last_update":"0001-01-01T00:00:00Z","name_a2s":"Uncletopia | Hong Kong | 1 | All Maps","protocol":17,"map":"pl_upward","folder":"tf","game":"Team Fortress","app_id":440,"player_count":1,"max_players":24,"Bots":0,"server_type":"Dedicated","server_os":"Linux","password":true,"vac":true,"version":"7757534","steam_id":85568392924494504,"keywords":["nocrits","nodmgspread","payload","uncletopia"],"game_id":440,"stv_port":27016,"stv_name":"Uncletopia | Hong Kong | 1 | All Maps | STV","players":[{"user_id":73,"name":"Pillboi","steam_id":76561198011172886,"connected_time":213000000000,"state":"active","ping":24}]},{"server_id":1,"name":"Uncletopia | Los Angeles | 1 | All Maps","name_short":"lax-1","host":"lax-1.us.uncletopia.com","port":27015,"enabled":true,"region":"us-west","cc":"us","latitude":33.94279,"longitude":-118.41004,"reserved":0,"last_update":"0001-01-01T00:00:00Z","name_a2s":"Uncletopia | Los Angeles | 1 | All Maps","protocol":17,"map":"cp_sunshine","folder":"tf","game":"Team Fortress","app_id":440,"player_count":0,"max_players":24,"Bots":0,"server_type":"Dedicated","server_os":"Linux","password":true,"vac":true,"version":"7757534","steam_id":85568392924469991,"keywords":["cp","nocrits","nodmgspread","uncletopia"],"game_id":440,"stv_port":27016,"stv_name":"Uncletopia | Los Angeles | 1 | All Maps | STV","players":null},{"server_id":112,"name":"Uncletopia | Los Angeles | 2 | All Maps","name_short":"lax-2","host":"lax-1.us.uncletopia.com","port":27025,"enabled":true,"region":"us-west","cc":"us","latitude":33.94279,"longitude":-118.41004,"reserved":0,"last_update":"0001-01-01T00:00:00Z","name_a2s":"Uncletopia | Los Angeles | 2 | All Maps","protocol":17,"map":"koth_cascade","folder":"tf","game":"Team Fortress","app_id":440,"player_count":0,"max_players":24,"Bots":0,"server_type":"Dedicated","server_os":"Linux","password":true,"vac":true,"version":"7757534","steam_id":85568392924469992,"keywords":["cp","nocrits","nodmgspread","uncletopia"],"game_id":440,"stv_port":27026,"stv_name":"Uncletopia | Los Angeles | 2 | All Maps | STV","players":null},{"server_id":324,"name":"Uncletopia | Los Angeles | 3 | All Maps","name_short":"lax-3","host":"lax-1.us.uncletopia.com","port":27035,"enabled":true,"region":"us-west","cc":"us","latitude":33.94279,"longitude":-118.41004,"reserved":0,"last_update":"0001-01-01T00:00:00Z","name_a2s":"Uncletopia | Los Angeles | 3 | All Maps","protocol":17,"map":"pl_swiftwater_final1","folder":"tf","game":"Team Fortress","app_id":440,"player_count":24,"max_players":24,"Bots":0,"server_type":"Dedicated","server_os":"Linux","password":true,"vac":true,"version":"7757534","steam_id":85568392924510198,"keywords":["nocrits","nodmgspread","payload","uncletopia"],"game_id":440,"stv_port":27036,"stv_name":"Uncletopia | Los Angeles | 3 | All Maps | STV","players":[{"user_id":168,"name":"bark","steam_id":76561198345559969,"connected_time":1572000000000,"state":"active","ping":80},{"user_id":192,"name":"Blorgh","steam_id":76561197990534924,"connected_time":266000000000,"state":"active","ping":53},{"user_id":178,"name":"BarelyAnimateObject","steam_id":76561198986264116,"connected_time":1057000000000,"state":"active","ping":36},{"user_id":193,"name":"Dietrich","steam_id":76561198028163840,"connected_time":253000000000,"state":"active","ping":59},{"user_id":179,"name":"Cpt. Dingle","steam_id":76561198025720199,"connected_time":1014000000000,"state":"active","ping":104},{"user_id":176,"name":"Pudsla","steam_id":76561198258974036,"connected_time":1371000000000,"state":"active","ping":59},{"user_id":180,"name":"name420","steam_id":76561198129374525,"connected_time":985000000000,"state":"active","ping":103},{"user_id":194,"name":"Spoofle","steam_id":76561199003655066,"connected_time":206000000000,"state":"active","ping":48},{"user_id":166,"name":"76561198075224361","steam_id":76561198075224361,"connected_time":1620000000000,"state":"active","ping":113},{"user_id":195,"name":"HeroOfTime","steam_id":76561199096218001,"connected_time":200000000000,"state":"active","ping":51},{"user_id":162,"name":"the hottest to ever do it","steam_id":76561198145669711,"connected_time":1912000000000,"state":"active","ping":43},{"user_id":183,"name":"Chillin Turt","steam_id":76561198025796849,"connected_time":871000000000,"state":"active","ping":102},{"user_id":199,"name":"banan team fortes","steam_id":76561199073621650,"connected_time":72000000000,"state":"active","ping":56},{"user_id":186,"name":"Dr DeFriend","steam_id":76561198081356344,"connected_time":823000000000,"state":"active","ping":94},{"user_id":196,"name":"The Drunk Rat Bastard","steam_id":76561198994667208,"connected_time":192000000000,"state":"active","ping":98},{"user_id":188,"name":"The Original Ryan","steam_id":76561197992443496,"connected_time":746000000000,"state":"active","ping":62},{"user_id":132,"name":"bigman2","steam_id":76561198151135298,"connected_time":4533000000000,"state":"active","ping":34},{"user_id":160,"name":"bigman1","steam_id":76561198050225055,"connected_time":1961000000000,"state":"active","ping":45},{"user_id":197,"name":"Volichristo","steam_id":76561198148924612,"connected_time":112000000000,"state":"active","ping":102},{"user_id":189,"name":"Zatrahel","steam_id":76561198262628370,"connected_time":697000000000,"state":"active","ping":88},{"user_id":172,"name":"chmilk","steam_id":76561198068783124,"connected_time":1448000000000,"state":"active","ping":38},{"user_id":175,"name":"MandM635","steam_id":76561198215970108,"connected_time":1384000000000,"state":"active","ping":55},{"user_id":198,"name":"the kid","steam_id":76561198235875882,"connected_time":110000000000,"state":"active","ping":75},{"user_id":191,"name":"Little Shuriken","steam_id":76561199020477560,"connected_time":563000000000,"state":"active","ping":40}]},{"server_id":25,"name":"Uncletopia | Los Angeles | 4 | Stopwatch Beta","name_short":"lax-4","host":"lax-1.us.uncletopia.com","port":27045,"enabled":true,"region":"us-west","cc":"us","latitude":33.94279,"longitude":-118.41004,"reserved":0,"last_update":"0001-01-01T00:00:00Z","name_a2s":"Uncletopia | Los Angeles | 4 | Stopwatch Beta","protocol":17,"map":"pl_frontier_final","folder":"tf","game":"Team Fortress","app_id":440,"player_count":0,"max_players":24,"Bots":0,"server_type":"Dedicated","server_os":"Linux","password":true,"vac":true,"version":"7757534","steam_id":85568392924510199,"keywords":["nocrits","nodmgspread","payload","uncletopia"],"game_id":440,"stv_port":27046,"stv_name":"Uncletopia | Los Angeles | 4 | Stopwatch Beta | STV","players":null},{"server_id":11,"name":"Uncletopia | London | 1 | All Maps","name_short":"lon-1","host":"lon-1.uk.uncletopia.com","port":27015,"enabled":true,"region":"eu","cc":"gb","latitude":51.509865,"longitude":-0.118092,"reserved":0,"last_update":"0001-01-01T00:00:00Z","name_a2s":"Uncletopia | London | 1 | All Maps","protocol":17,"map":"koth_viaduct","folder":"tf","game":"Team Fortress","app_id":440,"player_count":0,"max_players":24,"Bots":0,"server_type":"Dedicated","server_os":"Linux","password":true,"vac":true,"version":"7757534","steam_id":85568392924367362,"keywords":["cp","nocrits","nodmgspread","uncletopia"],"game_id":440,"stv_port":27016,"stv_name":"Uncletopia | London | 1 | All Maps | STV","players":null},{"server_id":114,"name":"Uncletopia | London | 2 | All Maps","name_short":"lon-2","host":"lon-1.uk.uncletopia.com","port":27025,"enabled":true,"region":"eu","cc":"gb","latitude":51.509865,"longitude":-0.118092,"reserved":0,"last_update":"0001-01-01T00:00:00Z","name_a2s":"Uncletopia | London | 2 | All Maps","protocol":17,"map":"cp_dustbowl","folder":"tf","game":"Team Fortress","app_id":440,"player_count":0,"max_players":24,"Bots":0,"server_type":"Dedicated","server_os":"Linux","password":true,"vac":true,"version":"7757534","steam_id":85568392924470941,"keywords":["cp","nocrits","nodmgspread","uncletopia"],"game_id":440,"stv_port":27026,"stv_name":"Uncletopia | London | 2 | All Maps | STV","players":null},{"server_id":320,"name":"Uncletopia | London | 3 | All Maps","name_short":"lon-3","host":"lon-1.uk.uncletopia.com","port":27035,"enabled":true,"region":"eu","cc":"gb","latitude":51.509865,"longitude":-0.118092,"reserved":0,"last_update":"0001-01-01T00:00:00Z","name_a2s":"Uncletopia | London | 3 | All Maps","protocol":17,"map":"pl_badwater","folder":"tf","game":"Team Fortress","app_id":440,"player_count":0,"max_players":24,"Bots":0,"server_type":"Dedicated","server_os":"Linux","password":true,"vac":true,"version":"7757534","steam_id":85568392924510192,"keywords":["nocrits","nodmgspread","payload","uncletopia"],"game_id":440,"stv_port":27036,"stv_name":"Uncletopia | London | 3 | All Maps | STV","players":null},{"server_id":321,"name":"Uncletopia | London | 4 | All Maps","name_short":"lon-4","host":"lon-1.uk.uncletopia.com","port":27045,"enabled":true,"region":"eu","cc":"gb","latitude":51.509865,"longitude":-0.118092,"reserved":0,"last_update":"0001-01-01T00:00:00Z","name_a2s":"Uncletopia | London | 4 | All Maps","protocol":17,"map":"koth_viaduct","folder":"tf","game":"Team Fortress","app_id":440,"player_count":0,"max_players":24,"Bots":0,"server_type":"Dedicated","server_os":"Linux","password":true,"vac":true,"version":"7757534","steam_id":85568392924510193,"keywords":["cp","nocrits","nodmgspread","uncletopia"],"game_id":440,"stv_port":27046,"stv_name":"Uncletopia | London | 4 | All Maps | STV","players":null},{"server_id":21,"name":"Uncletopia | London | 5 | All Maps","name_short":"lon-5","host":"lon-1.uk.uncletopia.com","port":27055,"enabled":true,"region":"eu","cc":"gb","latitude":51.509865,"longitude":-0.118092,"reserved":0,"last_update":"0001-01-01T00:00:00Z","name_a2s":"Uncletopia | London | 5 | All Maps","protocol":17,"map":"cp_snakewater_final1","folder":"tf","game":"Team Fortress","app_id":440,"player_count":0,"max_players":24,"Bots":0,"server_type":"Dedicated","server_os":"Linux","password":true,"vac":true,"version":"7757534","steam_id":85568392924742829,"keywords":["cp","nocrits","nodmgspread","uncletopia"],"game_id":440,"stv_port":27056,"stv_name":"Uncletopia | London | 5 | All Maps | STV","players":null},{"server_id":22,"name":"Uncletopia | London | 6 | All Maps","name_short":"lon-6","host":"lon-1.uk.uncletopia.com","port":27065,"enabled":true,"region":"eu","cc":"gb","latitude":51.509865,"longitude":-0.118092,"reserved":0,"last_update":"0001-01-01T00:00:00Z","name_a2s":"Uncletopia | London | 6 | All Maps","protocol":17,"map":"koth_cascade","folder":"tf","game":"Team Fortress","app_id":440,"player_count":0,"max_players":24,"Bots":0,"server_type":"Dedicated","server_os":"Linux","password":true,"vac":true,"version":"7757534","steam_id":85568392924742830,"keywords":["cp","nocrits","nodmgspread","uncletopia"],"game_id":440,"stv_port":27066,"stv_name":"Uncletopia | London | 6 | All Maps | STV","players":null},{"server_id":40,"name":"Uncletopia | London | 7 | No Payload","name_short":"lon-7","host":"lon-1.uk.uncletopia.com","port":27075,"enabled":true,"region":"eu","cc":"gb","latitude":51.509865,"longitude":-0.118092,"reserved":0,"last_update":"0001-01-01T00:00:00Z","name_a2s":"Uncletopia | London | 7 | No Payload","protocol":17,"map":"cp_process_final","folder":"tf","game":"Team Fortress","app_id":440,"player_count":0,"max_players":24,"Bots":0,"server_type":"Dedicated","server_os":"Linux","password":true,"vac":true,"version":"7757534","steam_id":85568392924964314,"keywords":["cp","nocrits","nodmgspread","uncletopia"],"game_id":440,"stv_port":27076,"stv_name":"Uncletopia | London | 7 | No Payload | STV","players":null},{"server_id":41,"name":"Uncletopia | London | 8 | Community","name_short":"lon-8","host":"lon-1.uk.uncletopia.com","port":27085,"enabled":true,"region":"eu","cc":"gb","latitude":51.509865,"longitude":-0.118092,"reserved":0,"last_update":"0001-01-01T00:00:00Z","name_a2s":"Uncletopia | London | 8 | Community","protocol":17,"map":"pl_upward","folder":"tf","game":"Team Fortress","app_id":440,"player_count":0,"max_players":24,"Bots":0,"server_type":"Dedicated","server_os":"Linux","password":true,"vac":true,"version":"7757534","steam_id":85568392924964315,"keywords":["nocrits","nodmgspread","payload","uncletopia"],"game_id":440,"stv_port":27086,"stv_name":"Uncletopia | London | 8 | Community | STV","players":null},{"server_id":300,"name":"Uncletopia | Montréal | 1 | All Maps","name_short":"mtl-1","host":"mtl-1.ca.uncletopia.com","port":27015,"enabled":true,"region":"us-east","cc":"ca","latitude":45.50889,"longitude":-73.56167,"reserved":0,"last_update":"0001-01-01T00:00:00Z","name_a2s":"Uncletopia | Montréal | 1 | All Maps","protocol":17,"map":"cp_mountainlab","folder":"tf","game":"Team Fortress","app_id":440,"player_count":0,"max_players":24,"Bots":0,"server_type":"Dedicated","server_os":"Linux","password":true,"vac":true,"version":"7757534","steam_id":85568392924500087,"keywords":["cp","nocrits","nodmgspread","uncletopia"],"game_id":440,"stv_port":27016,"stv_name":"Uncletopia | Montréal | 1 | All Maps | STV","players":null},{"server_id":301,"name":"Uncletopia | Montréal | 2 | All Maps","name_short":"mtl-2","host":"mtl-1.ca.uncletopia.com","port":27025,"enabled":true,"region":"us-east","cc":"ca","latitude":45.50889,"longitude":-73.56167,"reserved":0,"last_update":"0001-01-01T00:00:00Z","name_a2s":"Uncletopia | Montréal | 2 | All Maps","protocol":17,"map":"pl_frontier_final","folder":"tf","game":"Team Fortress","app_id":440,"player_count":0,"max_players":24,"Bots":0,"server_type":"Dedicated","server_os":"Linux","password":true,"vac":true,"version":"7757534","steam_id":85568392924500088,"keywords":["nocrits","nodmgspread","payload","uncletopia"],"game_id":440,"stv_port":27026,"stv_name":"Uncletopia | Montréal | 2 | All Maps | STV","players":null},{"server_id":302,"name":"Uncletopia | Montréal | 3 | All Maps","name_short":"mtl-3","host":"mtl-1.ca.uncletopia.com","port":27035,"enabled":true,"region":"us-east","cc":"ca","latitude":45.50889,"longitude":-73.56167,"reserved":0,"last_update":"0001-01-01T00:00:00Z","name_a2s":"Uncletopia | Montréal | 3 | All Maps","protocol":17,"map":"cp_dustbowl","folder":"tf","game":"Team Fortress","app_id":440,"player_count":0,"max_players":24,"Bots":0,"server_type":"Dedicated","server_os":"Linux","password":true,"vac":true,"version":"7757534","steam_id":85568392924500089,"keywords":["cp","nocrits","nodmgspread","uncletopia"],"game_id":440,"stv_port":27036,"stv_name":"Uncletopia | Montréal | 3 | All Maps | STV","players":null},{"server_id":303,"name":"Uncletopia | Montréal | 4 | No Payload","name_short":"mtl-4","host":"mtl-1.ca.uncletopia.com","port":27045,"enabled":true,"region":"us-east","cc":"ca","latitude":45.50889,"longitude":-73.56167,"reserved":0,"last_update":"0001-01-01T00:00:00Z","name_a2s":"Uncletopia | Montréal | 4 | No Payload","protocol":17,"map":"pl_borneo","folder":"tf","game":"Team Fortress","app_id":440,"player_count":0,"max_players":24,"Bots":0,"server_type":"Dedicated","server_os":"Linux","password":true,"vac":true,"version":"7757534","steam_id":85568392924500090,"keywords":["nocrits","nodmgspread","payload","uncletopia"],"game_id":440,"stv_port":27046,"stv_name":"Uncletopia | Montréal | 4 | No Payload | STV","players":null},{"server_id":13,"name":"Uncletopia | New York City | 1 | All Maps","name_short":"nyc-1","host":"nyc-1.us.uncletopia.com","port":27015,"enabled":true,"region":"us-east","cc":"us","latitude":40.73061,"longitude":-73.93524,"reserved":0,"last_update":"0001-01-01T00:00:00Z","name_a2s":"Uncletopia | New York City | 1 | All Maps","protocol":17,"map":"pl_badwater","folder":"tf","game":"Team Fortress","app_id":440,"player_count":24,"max_players":24,"Bots":0,"server_type":"Dedicated","server_os":"Linux","password":true,"vac":true,"version":"7757534","steam_id":85568392924469993,"keywords":["nocrits","nodmgspread","payload","uncletopia"],"game_id":440,"stv_port":27016,"stv_name":"Uncletopia | New York City | 1 | All Maps | STV","players":[{"user_id":691,"name":"Mischievous44","steam_id":76561198106532712,"connected_time":1977000000000,"state":"active","ping":67},{"user_id":692,"name":"zach stop","steam_id":76561198105640030,"connected_time":1961000000000,"state":"active","ping":59},{"user_id":714,"name":"cass","steam_id":76561198074502046,"connected_time":880000000000,"state":"active","ping":72},{"user_id":721,"name":"warewarewa","steam_id":76561197965022076,"connected_time":343000000000,"state":"active","ping":45},{"user_id":693,"name":"TyvianRed","steam_id":76561198135047833,"connected_time":1960000000000,"state":"active","ping":56},{"user_id":704,"name":"John the Rebel","steam_id":76561198107084871,"connected_time":1211000000000,"state":"active","ping":106},{"user_id":716,"name":"Mitsurugii","steam_id":76561198258543709,"connected_time":821000000000,"state":"active","ping":71},{"user_id":705,"name":"Impulse","steam_id":76561198296123434,"connected_time":1203000000000,"state":"active","ping":65},{"user_id":700,"name":"yeyoi","steam_id":76561198069821885,"connected_time":1508000000000,"state":"active","ping":65},{"user_id":690,"name":"girlpeen supreme","steam_id":76561198031242903,"connected_time":2145000000000,"state":"active","ping":90},{"user_id":722,"name":"Large Tom Raggins","steam_id":76561198040743777,"connected_time":239000000000,"state":"active","ping":83},{"user_id":698,"name":"Tort boi","steam_id":76561198125327110,"connected_time":1629000000000,"state":"active","ping":129},{"user_id":724,"name":"fvnfhjf","steam_id":76561198349896000,"connected_time":201000000000,"state":"active","ping":83},{"user_id":701,"name":"Otto","steam_id":76561198139834597,"connected_time":1486000000000,"state":"active","ping":101},{"user_id":715,"name":"Auburn","steam_id":76561198199541493,"connected_time":838000000000,"state":"active","ping":117},{"user_id":723,"name":"G.Flewit","steam_id":76561199214365392,"connected_time":236000000000,"state":"active","ping":86},{"user_id":706,"name":"CheddarBowl","steam_id":76561198840224195,"connected_time":1175000000000,"state":"active","ping":82},{"user_id":707,"name":"Zyrbaiakor","steam_id":76561198141521671,"connected_time":1170000000000,"state":"active","ping":59},{"user_id":717,"name":"Billi -MY NUTS!- McNight","steam_id":76561197993924771,"connected_time":697000000000,"state":"active","ping":121},{"user_id":382,"name":"Elixir","steam_id":76561198166786809,"connected_time":25180000000000,"state":"active","ping":63},{"user_id":718,"name":"old slimey ichabod","steam_id":76561198043900518,"connected_time":695000000000,"state":"active","ping":67},{"user_id":710,"name":"for the king","steam_id":76561197973488858,"connected_time":1127000000000,"state":"active","ping":44},{"user_id":719,"name":"Socialist Warrior","steam_id":76561198085664421,"connected_time":612000000000,"state":"active","ping":75},{"user_id":720,"name":"gene","steam_id":76561198116908911,"connected_time":593000000000,"state":"active","ping":44}]},{"server_id":14,"name":"Uncletopia | New York City | 2 | All Maps","name_short":"nyc-2","host":"nyc-1.us.uncletopia.com","port":27025,"enabled":true,"region":"us-east","cc":"us","latitude":40.73061,"longitude":-73.93524,"reserved":0,"last_update":"0001-01-01T00:00:00Z","name_a2s":"Uncletopia | New York City | 2 | All Maps","protocol":17,"map":"pl_borneo","folder":"tf","game":"Team Fortress","app_id":440,"player_count":23,"max_players":24,"Bots":0,"server_type":"Dedicated","server_os":"Linux","password":true,"vac":true,"version":"7757534","steam_id":85568392924469994,"keywords":["nocrits","nodmgspread","payload","uncletopia"],"game_id":440,"stv_port":27026,"stv_name":"Uncletopia | New York City | 2 | All Maps | STV","players":[{"user_id":280,"name":"Monke Engineering","steam_id":76561199142094871,"connected_time":520000000000,"state":"active","ping":158},{"user_id":276,"name":"Dr.BendyBones","steam_id":76561198048846641,"connected_time":1166000000000,"state":"active","ping":64},{"user_id":255,"name":"raggy","steam_id":76561198121767390,"connected_time":1813000000000,"state":"active","ping":40},{"user_id":263,"name":"Onion Dent","steam_id":76561198303976037,"connected_time":1461000000000,"state":"active","ping":45},{"user_id":256,"name":"iceman","steam_id":76561198135397441,"connected_time":1783000000000,"state":"active","ping":78},{"user_id":281,"name":"the real babytron","steam_id":76561197989627918,"connected_time":500000000000,"state":"active","ping":72},{"user_id":261,"name":"[SLAG]redgunnit","steam_id":76561198058053644,"connected_time":1575000000000,"state":"active","ping":85},{"user_id":241,"name":"Brisk","steam_id":76561198129769783,"connected_time":3013000000000,"state":"active","ping":75},{"user_id":282,"name":"sand","steam_id":76561198086193212,"connected_time":442000000000,"state":"active","ping":45},{"user_id":264,"name":"Very Small Giant","steam_id":76561199187337967,"connected_time":1418000000000,"state":"active","ping":77},{"user_id":288,"name":"esper","steam_id":76561198121260981,"connected_time":27000000000,"state":"active","ping":105},{"user_id":221,"name":"Dot.","steam_id":76561198149463984,"connected_time":5355000000000,"state":"active","ping":45},{"user_id":265,"name":"JimboSlice","steam_id":76561199225336634,"connected_time":1416000000000,"state":"active","ping":55},{"user_id":289,"name":"Ferrin","steam_id":76561198071757444,"connected_time":17000000000,"state":"spawning","ping":88},{"user_id":222,"name":"xFactr","steam_id":76561198129007422,"connected_time":5348000000000,"state":"active","ping":42},{"user_id":165,"name":"A Puppy","steam_id":76561198828184456,"connected_time":9668000000000,"state":"active","ping":47},{"user_id":284,"name":"Quaker Oats","steam_id":76561197992800293,"connected_time":379000000000,"state":"active","ping":102},{"user_id":279,"name":"Scarlet Oni","steam_id":76561198059586304,"connected_time":574000000000,"state":"active","ping":63},{"user_id":277,"name":"Brendan","steam_id":76561198041079914,"connected_time":997000000000,"state":"active","ping":53},{"user_id":269,"name":"ඞ","steam_id":76561198275101482,"connected_time":1357000000000,"state":"active","ping":128},{"user_id":271,"name":"Varia Maius","steam_id":76561198249997376,"connected_time":1302000000000,"state":"active","ping":59},{"user_id":285,"name":"{ball having grill","steam_id":76561198150982973,"connected_time":370000000000,"state":"active","ping":69},{"user_id":287,"name":"HeavenHearst","steam_id":76561198066083947,"connected_time":359000000000,"state":"active","ping":57}]},{"server_id":15,"name":"Uncletopia | New York City | 3 | Stopwatch Beta","name_short":"nyc-3","host":"nyc-1.us.uncletopia.com","port":27035,"enabled":true,"region":"us-east","cc":"us","latitude":40.73061,"longitude":-73.93524,"reserved":0,"last_update":"0001-01-01T00:00:00Z","name_a2s":"Uncletopia | New York City | 3 | Stopwatch Beta","protocol":17,"map":"workshop/cp_reckoner_rc6.ugc674719999","folder":"tf","game":"Team Fortress","app_id":440,"player_count":0,"max_players":24,"Bots":0,"server_type":"Dedicated","server_os":"Linux","password":true,"vac":true,"version":"7757534","steam_id":85568392924742820,"keywords":["cp","nocrits","nodmgspread","uncletopia"],"game_id":440,"stv_port":27036,"stv_name":"Uncletopia | New York City | 3 | Stopwatch Beta | STV","players":null},{"server_id":16,"name":"Uncletopia | New York City | 4 | Community","name_short":"nyc-4","host":"nyc-1.us.uncletopia.com","port":27045,"enabled":true,"region":"us-east","cc":"us","latitude":40.73061,"longitude":-73.93524,"reserved":0,"last_update":"0001-01-01T00:00:00Z","name_a2s":"Uncletopia | New York City | 4 | Community","protocol":17,"map":"workshop/koth_product_final.ugc454272353","folder":"tf","game":"Team Fortress","app_id":440,"player_count":7,"max_players":24,"Bots":0,"server_type":"Dedicated","server_os":"Linux","password":true,"vac":true,"version":"7757534","steam_id":85568392924742821,"keywords":["cp","nocrits","nodmgspread","uncletopia"],"game_id":440,"stv_port":27046,"stv_name":"Uncletopia | New York City | 4 | Community | STV","players":[{"user_id":27,"name":"Lavender","steam_id":76561198142770666,"connected_time":1031000000000,"state":"active","ping":66},{"user_id":28,"name":"flasky","steam_id":76561198079119793,"connected_time":1019000000000,"state":"active","ping":74},{"user_id":29,"name":"Rykah","steam_id":76561198095040360,"connected_time":867000000000,"state":"active","ping":61},{"user_id":31,"name":"Quote","steam_id":76561198049685145,"connected_time":690000000000,"state":"active","ping":54},{"user_id":32,"name":"we're back","steam_id":76561198044290348,"connected_time":610000000000,"state":"active","ping":61},{"user_id":34,"name":"We Truly Cannot Get Any Higher","steam_id":76561198044505893,"connected_time":560000000000,"state":"active","ping":79},{"user_id":35,"name":"phyonic","steam_id":76561198059183301,"connected_time":94000000000,"state":"active","ping":59}]},{"server_id":142,"name":"Uncletopia | São Paulo | 1 | All Maps","name_short":"sao-1","host":"sao-1.br.uncletopia.com","port":27015,"enabled":true,"region":"sa","cc":"br","latitude":-23.533773,"longitude":-46.62529,"reserved":0,"last_update":"0001-01-01T00:00:00Z","name_a2s":"Uncletopia | São Paulo | 1 | All Maps","protocol":17,"map":"cp_altitude","folder":"tf","game":"Team Fortress","app_id":440,"player_count":0,"max_players":24,"Bots":0,"server_type":"Dedicated","server_os":"Linux","password":true,"vac":true,"version":"7757534","steam_id":85568392924469996,"keywords":["cp","nocrits","nodmgspread","uncletopia"],"game_id":440,"stv_port":27016,"stv_name":"Uncletopia | São Paulo | 1 | All Maps | STV","players":null},{"server_id":143,"name":"Uncletopia | São Paulo | 2 | All Maps","name_short":"sao-2","host":"sao-2.br.uncletopia.com","port":27015,"enabled":true,"region":"sa","cc":"br","latitude":-23.533773,"longitude":-46.62529,"reserved":0,"last_update":"0001-01-01T00:00:00Z","name_a2s":"Uncletopia | São Paulo | 2 | All Maps","protocol":17,"map":"koth_viaduct","folder":"tf","game":"Team Fortress","app_id":440,"player_count":0,"max_players":24,"Bots":0,"server_type":"Dedicated","server_os":"Linux","password":true,"vac":true,"version":"7757534","steam_id":85568392924485349,"keywords":["cp","nocrits","nodmgspread","uncletopia"],"game_id":440,"stv_port":27016,"stv_name":"Uncletopia | São Paulo | 2 | All Maps | STV","players":null},{"server_id":7,"name":"Uncletopia | Seattle | 1 | All Maps","name_short":"sea-1","host":"sea-1.us.uncletopia.com","port":27015,"enabled":true,"region":"us-west","cc":"us","latitude":47.608013,"longitude":-122.33517,"reserved":0,"last_update":"0001-01-01T00:00:00Z","name_a2s":"Uncletopia | Seattle | 1 | All Maps","protocol":17,"map":"pl_badwater","folder":"tf","game":"Team Fortress","app_id":440,"player_count":24,"max_players":24,"Bots":0,"server_type":"Dedicated","server_os":"Linux","password":true,"vac":true,"version":"7757534","steam_id":85568392924469997,"keywords":["nocrits","nodmgspread","payload","uncletopia"],"game_id":440,"stv_port":27016,"stv_name":"Uncletopia | Seattle | 1 | All Maps | STV","players":[{"user_id":408,"name":"GalacticQuasaur","steam_id":76561199066172937,"connected_time":90000000000,"state":"active","ping":89},{"user_id":383,"name":"Thexx ❤","steam_id":76561198113823050,"connected_time":2042000000000,"state":"active","ping":47},{"user_id":384,"name":"rock gaming","steam_id":76561199402868311,"connected_time":2003000000000,"state":"active","ping":89},{"user_id":272,"name":"goldhed","steam_id":76561198051751133,"connected_time":10893000000000,"state":"active","ping":60},{"user_id":410,"name":"gorlab","steam_id":76561198025089694,"connected_time":83000000000,"state":"active","ping":64},{"user_id":348,"name":"rat gets the cheese","steam_id":76561198031234032,"connected_time":4803000000000,"state":"active","ping":94},{"user_id":397,"name":"One Horned Bitch Destroyer","steam_id":76561198045810191,"connected_time":1063000000000,"state":"active","ping":43},{"user_id":400,"name":"blamo","steam_id":76561198044769147,"connected_time":979000000000,"state":"active","ping":62},{"user_id":377,"name":"lyraaaaaaaaaaa","steam_id":76561198259331758,"connected_time":2517000000000,"state":"active","ping":64},{"user_id":407,"name":"Bone","steam_id":76561198186359906,"connected_time":105000000000,"state":"active","ping":51},{"user_id":359,"name":"cheeto dorito","steam_id":76561198107941274,"connected_time":3696000000000,"state":"active","ping":82},{"user_id":401,"name":"Frongus","steam_id":76561197979056451,"connected_time":951000000000,"state":"active","ping":52},{"user_id":331,"name":"eye see you","steam_id":76561198115242460,"connected_time":5739000000000,"state":"active","ping":47},{"user_id":318,"name":"Cheezbeargur","steam_id":76561198164702899,"connected_time":6485000000000,"state":"active","ping":66},{"user_id":402,"name":"Zippy","steam_id":76561198279229422,"connected_time":931000000000,"state":"active","ping":103},{"user_id":404,"name":"Magix","steam_id":76561198193020834,"connected_time":920000000000,"state":"active","ping":69},{"user_id":409,"name":"Google","steam_id":76561198857237473,"connected_time":89000000000,"state":"active","ping":47},{"user_id":382,"name":"Rosemary🌙 幽霊 [ 1 9 9 8 ","steam_id":76561198807726226,"connected_time":2053000000000,"state":"active","ping":143},{"user_id":411,"name":"[TrC] Nosy","steam_id":76561197978859310,"connected_time":59000000000,"state":"active","ping":59},{"user_id":392,"name":"Snow_Squid","steam_id":76561198180840049,"connected_time":1670000000000,"state":"active","ping":94},{"user_id":394,"name":"Villchip","steam_id":76561198198599982,"connected_time":1190000000000,"state":"active","ping":54},{"user_id":280,"name":"Arsonist Goose (Luckiest Goose)","steam_id":76561198147441830,"connected_time":9950000000000,"state":"active","ping":77},{"user_id":389,"name":"Cam(era)","steam_id":76561198285054047,"connected_time":1876000000000,"state":"active","ping":76},{"user_id":375,"name":"Robogineer","steam_id":76561198026994739,"connected_time":2536000000000,"state":"active","ping":82}]},{"server_id":119,"name":"Uncletopia | Seattle | 2 | All Maps","name_short":"sea-2","host":"sea-1.us.uncletopia.com","port":27025,"enabled":true,"region":"us-west","cc":"us","latitude":47.608013,"longitude":-122.33517,"reserved":0,"last_update":"0001-01-01T00:00:00Z","name_a2s":"Uncletopia | Seattle | 2 | All Maps","protocol":17,"map":"koth_suijin","folder":"tf","game":"Team Fortress","app_id":440,"player_count":24,"max_players":24,"Bots":0,"server_type":"Dedicated","server_os":"Linux","password":true,"vac":true,"version":"7757534","steam_id":85568392924469998,"keywords":["cp","nocrits","nodmgspread","uncletopia"],"game_id":440,"stv_port":27026,"stv_name":"Uncletopia | Seattle | 2 | All Maps | STV","players":[{"user_id":619,"name":"Angry_p3nguin","steam_id":76561198086275722,"connected_time":1107000000000,"state":"active","ping":50},{"user_id":624,"name":"i a m t h e w i z u r d","steam_id":76561197992727789,"connected_time":883000000000,"state":"active","ping":53},{"user_id":628,"name":"Tcmano","steam_id":76561198057233847,"connected_time":619000000000,"state":"active","ping":75},{"user_id":596,"name":"Dylancyclone","steam_id":76561198000959790,"connected_time":2463000000000,"state":"active","ping":81},{"user_id":603,"name":"lol","steam_id":76561198026491738,"connected_time":2246000000000,"state":"active","ping":84},{"user_id":631,"name":"LunarMallow","steam_id":76561198211930151,"connected_time":447000000000,"state":"active","ping":130},{"user_id":623,"name":"Tomoscones","steam_id":76561198813586588,"connected_time":950000000000,"state":"active","ping":76},{"user_id":634,"name":"god's drunkest driver","steam_id":76561198212115640,"connected_time":49000000000,"state":"active","ping":80},{"user_id":635,"name":"PirateJet","steam_id":76561198050858744,"connected_time":8000000000,"state":"spawning","ping":101},{"user_id":630,"name":"Lazy","steam_id":76561198802747832,"connected_time":532000000000,"state":"active","ping":49},{"user_id":604,"name":"Shaquille Oatmeal","steam_id":76561198283213819,"connected_time":2239000000000,"state":"active","ping":91},{"user_id":615,"name":"loco503","steam_id":76561198827495121,"connected_time":1149000000000,"state":"active","ping":81},{"user_id":585,"name":"Algibruh","steam_id":76561199221599415,"connected_time":4175000000000,"state":"active","ping":54},{"user_id":626,"name":"Biggest Dude In Town 4U","steam_id":76561198070281464,"connected_time":848000000000,"state":"active","ping":105},{"user_id":598,"name":"GeekyFox3","steam_id":76561198267733290,"connected_time":2382000000000,"state":"active","ping":104},{"user_id":622,"name":"saltyJeff","steam_id":76561198058563645,"connected_time":1029000000000,"state":"active","ping":85},{"user_id":570,"name":"Trogdor","steam_id":76561198121353181,"connected_time":6835000000000,"state":"active","ping":74},{"user_id":599,"name":"Kaos","steam_id":76561198059816476,"connected_time":2377000000000,"state":"active","ping":100},{"user_id":616,"name":"Hutch","steam_id":76561198023360583,"connected_time":1149000000000,"state":"active","ping":60},{"user_id":627,"name":"mub","steam_id":76561197961943948,"connected_time":717000000000,"state":"active","ping":46},{"user_id":600,"name":"dongledog","steam_id":76561198050924003,"connected_time":2337000000000,"state":"active","ping":57},{"user_id":601,"name":"SchrekTheThird","steam_id":76561198113427343,"connected_time":2333000000000,"state":"active","ping":90},{"user_id":582,"name":"shiftshock01","steam_id":76561199049488870,"connected_time":4926000000000,"state":"active","ping":55},{"user_id":633,"name":"Doylin","steam_id":76561198113413927,"connected_time":214000000000,"state":"active","ping":57}]},{"server_id":406,"name":"Uncletopia | Seattle | 3 | Stopwatch Beta","name_short":"sea-3","host":"sea-1.us.uncletopia.com","port":27035,"enabled":true,"region":"us-west","cc":"us","latitude":47.608013,"longitude":-122.33517,"reserved":0,"last_update":"0001-01-01T00:00:00Z","name_a2s":"Uncletopia | Seattle | 3 | Stopwatch Beta","protocol":17,"map":"workshop/pl_barnblitz_pro7.ugc582280235","folder":"tf","game":"Team Fortress","app_id":440,"player_count":0,"max_players":24,"Bots":0,"server_type":"Dedicated","server_os":"Linux","password":true,"vac":true,"version":"7757534","steam_id":85568392924515217,"keywords":["nocrits","nodmgspread","payload","uncletopia"],"game_id":440,"stv_port":27036,"stv_name":"Uncletopia | Seattle | 3 | Stopwatch Beta | STV","players":null},{"server_id":17,"name":"Uncletopia | San Francisco | 1 | All Maps","name_short":"sfo-1","host":"sfo-1.us.uncletopia.com","port":27015,"enabled":true,"region":"us-west","cc":"us","latitude":37.77397,"longitude":-122.4313,"reserved":0,"last_update":"0001-01-01T00:00:00Z","name_a2s":"Uncletopia | San Francisco | 1 | All Maps","protocol":17,"map":"pl_snowycoast","folder":"tf","game":"Team Fortress","app_id":440,"player_count":16,"max_players":24,"Bots":0,"server_type":"Dedicated","server_os":"Linux","password":true,"vac":true,"version":"7757534","steam_id":85568392924469999,"keywords":["nocrits","nodmgspread","payload","uncletopia"],"game_id":440,"stv_port":27016,"stv_name":"Uncletopia | San Francisco | 1 | All Maps | STV","players":[{"user_id":103,"name":"oil","steam_id":76561198099980149,"connected_time":1518000000000,"state":"active","ping":60},{"user_id":123,"name":"gameflyer","steam_id":76561198106128166,"connected_time":188000000000,"state":"active","ping":70},{"user_id":124,"name":"30 Curry","steam_id":76561197970747655,"connected_time":183000000000,"state":"active","ping":45},{"user_id":126,"name":"greens beans","steam_id":76561198153611491,"connected_time":67000000000,"state":"active","ping":52},{"user_id":125,"name":"BoomieMcBoomPants","steam_id":76561198144516828,"connected_time":94000000000,"state":"active","ping":59},{"user_id":127,"name":"EatSomeBEES","steam_id":76561198047334307,"connected_time":5000000000,"state":"spawning","ping":89},{"user_id":77,"name":"TransWomanGaming","steam_id":76561198809645656,"connected_time":3164000000000,"state":"active","ping":98},{"user_id":78,"name":"Arachna.cadabra","steam_id":76561198039437427,"connected_time":3135000000000,"state":"active","ping":73},{"user_id":97,"name":"big car","steam_id":76561198067082350,"connected_time":2156000000000,"state":"active","ping":45},{"user_id":116,"name":"DennethThaThinather","steam_id":76561198098121768,"connected_time":454000000000,"state":"active","ping":73},{"user_id":79,"name":"gamer_hater","steam_id":76561198973306314,"connected_time":3111000000000,"state":"active","ping":51},{"user_id":99,"name":"Robloxdude4443","steam_id":76561198399370940,"connected_time":2106000000000,"state":"active","ping":64},{"user_id":60,"name":"goongremlin","steam_id":76561198278196215,"connected_time":5052000000000,"state":"active","ping":42},{"user_id":111,"name":"Flyingcat9000","steam_id":76561198179561797,"connected_time":757000000000,"state":"active","ping":43},{"user_id":110,"name":"Redd Guy","steam_id":76561198041034155,"connected_time":787000000000,"state":"active","ping":110},{"user_id":112,"name":"Amogous Supreme","steam_id":76561198025476774,"connected_time":573000000000,"state":"active","ping":56}]},{"server_id":18,"name":"Uncletopia | San Francisco | 2 | All Maps","name_short":"sfo-2","host":"sfo-1.us.uncletopia.com","port":27025,"enabled":true,"region":"us-west","cc":"us","latitude":37.77397,"longitude":-122.4313,"reserved":0,"last_update":"0001-01-01T00:00:00Z","name_a2s":"Uncletopia | San Francisco | 2 | All Maps","protocol":17,"map":"pl_swiftwater_final1","folder":"tf","game":"Team Fortress","app_id":440,"player_count":24,"max_players":24,"Bots":0,"server_type":"Dedicated","server_os":"Linux","password":true,"vac":true,"version":"7757534","steam_id":85568392924470000,"keywords":["nocrits","nodmgspread","payload","uncletopia"],"game_id":440,"stv_port":27026,"stv_name":"Uncletopia | San Francisco | 2 | All Maps | STV","players":[{"user_id":230,"name":"ุ","steam_id":76561198395510549,"connected_time":875000000000,"state":"active","ping":44},{"user_id":231,"name":"Protoshake","steam_id":76561198840276176,"connected_time":849000000000,"state":"active","ping":75},{"user_id":234,"name":"早上好CHINA#1WARRIOR冰淇\ufffd\ufffd","steam_id":76561198964722163,"connected_time":445000000000,"state":"active","ping":78},{"user_id":218,"name":"Smiling","steam_id":76561198293407075,"connected_time":1254000000000,"state":"active","ping":109},{"user_id":209,"name":"Dwayne \"The Crack Rock\" Johnson","steam_id":76561198073699764,"connected_time":2128000000000,"state":"active","ping":78},{"user_id":219,"name":"ellie","steam_id":76561198388123421,"connected_time":1241000000000,"state":"active","ping":50},{"user_id":220,"name":"TeriyakiDynamite","steam_id":76561198050049346,"connected_time":1232000000000,"state":"active","ping":68},{"user_id":193,"name":"blatgotyahat","steam_id":76561198186630357,"connected_time":3117000000000,"state":"active","ping":62},{"user_id":241,"name":"Nuggies","steam_id":76561198272432592,"connected_time":164000000000,"state":"active","ping":57},{"user_id":235,"name":"SyntheticCereal","steam_id":76561198208048093,"connected_time":429000000000,"state":"active","ping":129},{"user_id":233,"name":"Von","steam_id":76561198279848751,"connected_time":476000000000,"state":"active","ping":98},{"user_id":229,"name":"HammerHead","steam_id":76561197975668646,"connected_time":1014000000000,"state":"active","ping":80},{"user_id":239,"name":"Can You Feel It Mr.Krabs","steam_id":76561198128302414,"connected_time":195000000000,"state":"active","ping":62},{"user_id":152,"name":"Ślimak","steam_id":76561198296476784,"connected_time":6707000000000,"state":"active","ping":78},{"user_id":242,"name":"Quon Grene for Vice Prez","steam_id":76561198127545817,"connected_time":113000000000,"state":"active","ping":62},{"user_id":213,"name":"SAP","steam_id":76561198005186905,"connected_time":2026000000000,"state":"active","ping":78},{"user_id":236,"name":"rmbl","steam_id":76561198150137369,"connected_time":409000000000,"state":"active","ping":65},{"user_id":179,"name":"JON","steam_id":76561198057971005,"connected_time":4253000000000,"state":"active","ping":56},{"user_id":180,"name":"Evanb","steam_id":76561198042057792,"connected_time":4237000000000,"state":"active","ping":68},{"user_id":237,"name":"spruce tree leaf","steam_id":76561199004948394,"connected_time":404000000000,"state":"active","ping":131},{"user_id":238,"name":"Camfour","steam_id":76561198083090140,"connected_time":404000000000,"state":"active","ping":72},{"user_id":243,"name":"Pheasant President","steam_id":76561198315295873,"connected_time":79000000000,"state":"active","ping":52},{"user_id":228,"name":"SvicidalBug","steam_id":76561198221390504,"connected_time":1141000000000,"state":"active","ping":89},{"user_id":215,"name":"Lily Thorn","steam_id":76561198305488625,"connected_time":1975000000000,"state":"active","ping":83}]},{"server_id":19,"name":"Uncletopia | San Francisco | 3 | Stopwatch Beta","name_short":"sfo-3","host":"sfo-1.us.uncletopia.com","port":27035,"enabled":true,"region":"us-west","cc":"us","latitude":37.77397,"longitude":-122.4313,"reserved":0,"last_update":"0001-01-01T00:00:00Z","name_a2s":"Uncletopia | San Francisco | 3 | Stopwatch Beta","protocol":17,"map":"pl_borneo","folder":"tf","game":"Team Fortress","app_id":440,"player_count":0,"max_players":24,"Bots":0,"server_type":"Dedicated","server_os":"Linux","password":true,"vac":true,"version":"7757534","steam_id":85568392924742824,"keywords":["nocrits","nodmgspread","payload","uncletopia"],"game_id":440,"stv_port":27036,"stv_name":"Uncletopia | San Francisco | 3 | Stopwatch Beta | STV","players":null},{"server_id":20,"name":"Uncletopia | San Francisco | 4 | Community","name_short":"sfo-4","host":"sfo-1.us.uncletopia.com","port":27045,"enabled":true,"region":"us-west","cc":"us","latitude":37.77397,"longitude":-122.4313,"reserved":0,"last_update":"0001-01-01T00:00:00Z","name_a2s":"Uncletopia | San Francisco | 4 | Community","protocol":17,"map":"koth_highpass","folder":"tf","game":"Team Fortress","app_id":440,"player_count":0,"max_players":24,"Bots":0,"server_type":"Dedicated","server_os":"Linux","password":true,"vac":true,"version":"7757534","steam_id":85568392924742826,"keywords":["cp","nocrits","nodmgspread","uncletopia"],"game_id":440,"stv_port":27046,"stv_name":"Uncletopia | San Francisco | 4 | Community | STV","players":null},{"server_id":141,"name":"Uncletopia | Sydney | 1 | All Maps","name_short":"syd-1","host":"syd-1.au.uncletopia.com","port":27015,"enabled":true,"region":"au","cc":"au","latitude":-33.865143,"longitude":151.2099,"reserved":0,"last_update":"0001-01-01T00:00:00Z","name_a2s":"Uncletopia | Sydney | 1 | All Maps","protocol":17,"map":"koth_cascade","folder":"tf","game":"Team Fortress","app_id":440,"player_count":0,"max_players":24,"Bots":0,"server_type":"Dedicated","server_os":"Linux","password":true,"vac":true,"version":"7757534","steam_id":85568392924470001,"keywords":["cp","nocrits","nodmgspread","uncletopia"],"game_id":440,"stv_port":27016,"stv_name":"Uncletopia | Sydney | 1 | All Maps | STV","players":null},{"server_id":123,"name":"Uncletopia | Sydney | 2 | All Maps","name_short":"syd-2","host":"syd-1.au.uncletopia.com","port":27025,"enabled":true,"region":"au","cc":"au","latitude":-33.865143,"longitude":151.2099,"reserved":0,"last_update":"0001-01-01T00:00:00Z","name_a2s":"Uncletopia | Sydney | 2 | All Maps","protocol":17,"map":"pl_badwater","folder":"tf","game":"Team Fortress","app_id":440,"player_count":24,"max_players":24,"Bots":0,"server_type":"Dedicated","server_os":"Linux","password":true,"vac":true,"version":"7757534","steam_id":85568392924470002,"keywords":["nocrits","nodmgspread","payload","uncletopia"],"game_id":440,"stv_port":27026,"stv_name":"Uncletopia | Sydney | 2 | All Maps | STV","players":[{"user_id":216,"name":"UpsideDown","steam_id":76561199099672129,"connected_time":2447000000000,"state":"active","ping":61},{"user_id":197,"name":"Hona","steam_id":76561198221809496,"connected_time":4245000000000,"state":"active","ping":55},{"user_id":224,"name":"Rykers","steam_id":76561198177952507,"connected_time":1898000000000,"state":"active","ping":42},{"user_id":248,"name":"(1)Del Davis","steam_id":76561199365669004,"connected_time":44000000000,"state":"active","ping":59},{"user_id":245,"name":"Doctor Zarlo","steam_id":76561198040635388,"connected_time":235000000000,"state":"active","ping":32},{"user_id":247,"name":"sadgasm","steam_id":76561198008230563,"connected_time":190000000000,"state":"active","ping":46},{"user_id":249,"name":"Team Fartress Poo","steam_id":76561198139598106,"connected_time":33000000000,"state":"active","ping":49},{"user_id":228,"name":"Warren","steam_id":76561198120350917,"connected_time":1552000000000,"state":"active","ping":45},{"user_id":164,"name":"Oysenberry","steam_id":76561198125443335,"connected_time":6919000000000,"state":"active","ping":43},{"user_id":229,"name":"they call me john","steam_id":76561198876867034,"connected_time":1529000000000,"state":"active","ping":81},{"user_id":227,"name":"MrMuffin16","steam_id":76561198257303774,"connected_time":1710000000000,"state":"active","ping":59},{"user_id":142,"name":"Doctor Estonia","steam_id":76561198057365089,"connected_time":7576000000000,"state":"active","ping":95},{"user_id":214,"name":"An Exquisite Idiot","steam_id":76561199257116847,"connected_time":2629000000000,"state":"active","ping":56},{"user_id":230,"name":"maximind123","steam_id":76561199237473824,"connected_time":1527000000000,"state":"active","ping":54},{"user_id":231,"name":"sarah.nintendogs","steam_id":76561198035811678,"connected_time":1518000000000,"state":"active","ping":45},{"user_id":223,"name":"bowser","steam_id":76561198271462646,"connected_time":1971000000000,"state":"active","ping":43},{"user_id":232,"name":"dafuq","steam_id":76561197965566926,"connected_time":1497000000000,"state":"active","ping":33},{"user_id":182,"name":"TW_light2022","steam_id":76561199393566784,"connected_time":5598000000000,"state":"active","ping":65},{"user_id":240,"name":"Del Davis","steam_id":76561198061201028,"connected_time":703000000000,"state":"active","ping":49},{"user_id":233,"name":"Jimbo Limbo The Scout Main","steam_id":76561199174449723,"connected_time":1270000000000,"state":"active","ping":169},{"user_id":242,"name":"SUSHIMAN","steam_id":76561199089989428,"connected_time":480000000000,"state":"active","ping":89},{"user_id":236,"name":"TheDoctor30","steam_id":76561198433686866,"connected_time":1043000000000,"state":"active","ping":102},{"user_id":237,"name":"Haste","steam_id":76561198173155142,"connected_time":1043000000000,"state":"active","ping":60},{"user_id":209,"name":"vaportime","steam_id":76561198133490050,"connected_time":3128000000000,"state":"active","ping":92}]},{"server_id":395,"name":"Uncletopia | Sydney | 3 | All Maps","name_short":"syd-3","host":"syd-1.au.uncletopia.com","port":27035,"enabled":true,"region":"au","cc":"au","latitude":-33.865143,"longitude":151.2099,"reserved":0,"last_update":"0001-01-01T00:00:00Z","name_a2s":"Uncletopia | Sydney | 3 | All Maps","protocol":17,"map":"cp_mountainlab","folder":"tf","game":"Team Fortress","app_id":440,"player_count":0,"max_players":24,"Bots":0,"server_type":"Dedicated","server_os":"Linux","password":true,"vac":true,"version":"7757534","steam_id":85568392925194467,"keywords":["cp","nocrits","nodmgspread","uncletopia"],"game_id":440,"stv_port":27036,"stv_name":"Uncletopia | Sydney | 3 | All Maps | STV","players":null},{"server_id":396,"name":"Uncletopia | Sydney | 4 | All Maps","name_short":"syd-4","host":"syd-1.au.uncletopia.com","port":27045,"enabled":true,"region":"au","cc":"au","latitude":-33.865143,"longitude":151.2099,"reserved":0,"last_update":"0001-01-01T00:00:00Z","name_a2s":"Uncletopia | Sydney | 4 | All Maps","protocol":17,"map":"cp_sunshine","folder":"tf","game":"Team Fortress","app_id":440,"player_count":0,"max_players":24,"Bots":0,"server_type":"Dedicated","server_os":"Linux","password":true,"vac":true,"version":"7757534","steam_id":85568392925397958,"keywords":["cp","nocrits","nodmgspread","uncletopia"],"game_id":440,"stv_port":27046,"stv_name":"Uncletopia | Sydney | 4 | All Maps | STV","players":null},{"server_id":58,"name":"Uncletopia | Sydney | 5 | Stopwatch Beta","name_short":"syd-5","host":"syd-1.au.uncletopia.com","port":27055,"enabled":true,"region":"au","cc":"au","latitude":-33.865143,"longitude":151.2099,"reserved":0,"last_update":"0001-01-01T00:00:00Z","name_a2s":"Uncletopia | Sydney | 5 | Stopwatch Beta","protocol":17,"map":"koth_highpass","folder":"tf","game":"Team Fortress","app_id":440,"player_count":0,"max_players":24,"Bots":0,"server_type":"Dedicated","server_os":"Linux","password":true,"vac":true,"version":"7757534","steam_id":85568392925397959,"keywords":["cp","nocrits","nodmgspread","uncletopia"],"game_id":440,"stv_port":27056,"stv_name":"Uncletopia | Sydney | 5 | Stopwatch Beta | STV","players":null},{"server_id":59,"name":"Uncletopia | Sydney | 6 | Community","name_short":"syd-6","host":"syd-1.au.uncletopia.com","port":27065,"enabled":true,"region":"au","cc":"au","latitude":-33.865143,"longitude":151.2099,"reserved":0,"last_update":"0001-01-01T00:00:00Z","name_a2s":"Uncletopia | Sydney | 6 | Community","protocol":17,"map":"workshop/pl_cashworks_final1.ugc2904065412","folder":"tf","game":"Team Fortress","app_id":440,"player_count":0,"max_players":24,"Bots":0,"server_type":"Dedicated","server_os":"Linux","password":true,"vac":true,"version":"7757534","steam_id":85568392925397960,"keywords":["nocrits","nodmgspread","payload","uncletopia"],"game_id":440,"stv_port":27066,"stv_name":"Uncletopia | Sydney | 6 | Community | STV","players":null},{"server_id":49,"name":"Uncletopia | Warsaw | 1 | All Maps","name_short":"waw-1","host":"waw-1.pl.uncletopia.com","port":27015,"enabled":true,"region":"eu","cc":"pl","latitude":52.2297,"longitude":21.017532,"reserved":0,"last_update":"0001-01-01T00:00:00Z","name_a2s":"","protocol":0,"map":"","folder":"","game":"","app_id":0,"player_count":0,"max_players":0,"Bots":0,"server_type":"","server_os":"","password":false,"vac":false,"version":"","steam_id":0,"keywords":null,"game_id":0,"stv_port":0,"stv_name":"","players":null},{"server_id":50,"name":"Uncletopia | Warsaw | 2 | All Maps","name_short":"waw-2","host":"waw-1.pl.uncletopia.com","port":27025,"enabled":true,"region":"eu","cc":"pl","latitude":52.2297,"longitude":21.017532,"reserved":0,"last_update":"0001-01-01T00:00:00Z","name_a2s":"Uncletopia | Warsaw | 2 | All Maps","protocol":17,"map":"cp_process_final","folder":"tf","game":"Team Fortress","app_id":440,"player_count":0,"max_players":24,"Bots":0,"server_type":"Dedicated","server_os":"Linux","password":true,"vac":true,"version":"7757534","steam_id":85568392925397851,"keywords":["cp","nocrits","nodmgspread","uncletopia"],"game_id":440,"stv_port":27026,"stv_name":"Uncletopia | Warsaw | 2 | All Maps | STV","players":null},{"server_id":51,"name":"Uncletopia | Warsaw | 3 | All Maps","name_short":"waw-3","host":"waw-1.pl.uncletopia.com","port":27035,"enabled":true,"region":"eu","cc":"pl","latitude":52.2297,"longitude":21.017532,"reserved":0,"last_update":"0001-01-01T00:00:00Z","name_a2s":"Uncletopia | Warsaw | 3 | All Maps","protocol":17,"map":"pl_barnblitz","folder":"tf","game":"Team Fortress","app_id":440,"player_count":0,"max_players":24,"Bots":0,"server_type":"Dedicated","server_os":"Linux","password":true,"vac":true,"version":"7757534","steam_id":85568392925397852,"keywords":["nocrits","nodmgspread","payload","uncletopia"],"game_id":440,"stv_port":27036,"stv_name":"Uncletopia | Warsaw | 3 | All Maps | STV","players":null},{"server_id":52,"name":"Uncletopia | Warsaw | 4 | All Maps","name_short":"waw-4","host":"waw-1.pl.uncletopia.com","port":27045,"enabled":true,"region":"eu","cc":"pl","latitude":52.2297,"longitude":21.017532,"reserved":0,"last_update":"0001-01-01T00:00:00Z","name_a2s":"Uncletopia | Warsaw | 4 | All Maps","protocol":17,"map":"pl_snowycoast","folder":"tf","game":"Team Fortress","app_id":440,"player_count":0,"max_players":24,"Bots":0,"server_type":"Dedicated","server_os":"Linux","password":true,"vac":true,"version":"7757534","steam_id":85568392925397853,"keywords":["nocrits","nodmgspread","payload","uncletopia"],"game_id":440,"stv_port":27046,"stv_name":"Uncletopia | Warsaw | 4 | All Maps | STV","players":null},{"server_id":53,"name":"Uncletopia | Warsaw | 5 | Stopwatch Beta","name_short":"waw-5","host":"waw-1.pl.uncletopia.com","port":27055,"enabled":true,"region":"eu","cc":"pl","latitude":52.2297,"longitude":21.017532,"reserved":0,"last_update":"0001-01-01T00:00:00Z","name_a2s":"Uncletopia | Warsaw | 5 | Stopwatch Beta","protocol":17,"map":"pl_barnblitz","folder":"tf","game":"Team Fortress","app_id":440,"player_count":0,"max_players":24,"Bots":0,"server_type":"Dedicated","server_os":"Linux","password":true,"vac":true,"version":"7757534","steam_id":85568392925397854,"keywords":["nocrits","nodmgspread","payload","uncletopia"],"game_id":440,"stv_port":27056,"stv_name":"Uncletopia | Warsaw | 5 | Stopwatch Beta | STV","players":null},{"server_id":54,"name":"Uncletopia | Warsaw | 6 | Community","name_short":"waw-6","host":"waw-1.pl.uncletopia.com","port":27065,"enabled":true,"region":"eu","cc":"pl","latitude":52.2297,"longitude":21.017532,"reserved":0,"last_update":"0001-01-01T00:00:00Z","name_a2s":"Uncletopia | Warsaw | 6 | Community","protocol":17,"map":"pl_swiftwater_final1","folder":"tf","game":"Team Fortress","app_id":440,"player_count":0,"max_players":24,"Bots":0,"server_type":"Dedicated","server_os":"Linux","password":true,"vac":true,"version":"7757534","steam_id":85568392925397856,"keywords":["nocrits","nodmgspread","payload","uncletopia"],"game_id":440,"stv_port":27066,"stv_name":"Uncletopia | Warsaw | 6 | Community | STV","players":null}]}