{"status":true,"message":"","result":[{"server_id":9,"name":"Uncletopia | Atlanta | 1 | All Maps","name_short":"atl-1","host":"atl-1.us.uncletopia.com","port":27015,"enabled":true,"region":"us-east","cc":"us","latitude":33.753746,"longitude":-84.38633,"reserved":0,"last_update":"0001-01-01T00:00:00Z","name_a2s":"Uncletopia | Atlanta | 1 | All Maps","protocol":17,"map":"koth_highpass","folder":"tf","game":"Team Fortress","app_id":440,"player_count":24,"max_players":24,"Bots":0,"server_type":"Dedicated","server_os":"Linux","password":true,"vac":true,"version":"7742253","steam_id":85568392924469982,"keywords":["cp","nocrits","nodmgspread","uncletopia"],"game_id":440,"stv_port":27016,"stv_name":"Uncletopia | Atlanta | 1 | All Maps | STV","players":[{"user_id":461,"name":"Open Mailbox","steam_id":76561198051933580,"connected_time":2157000000000,"state":"active","ping":75},{"user_id":428,"name":"The Real Jetpack Jackson","steam_id":76561199009471455,"connected_time":4540000000000,"state":"active","ping":87},{"user_id":475,"name":"Stampdawg","steam_id":76561198050500060,"connected_time":498000000000,"state":"active","ping":89},{"user_id":454,"name":"Abomination","steam_id":76561198167974713,"connected_time":2652000000000,"state":"active","ping":59},{"user_id":421,"name":"Eins","steam_id":76561199030343810,"connected_time":5356000000000,"state":"active","ping":47},{"user_id":406,"name":"PerpetuaForever","steam_id":76561198347444353,"connected_time":6409000000000,"state":"active","ping":62},{"user_id":483,"name":"Nodspine","steam_id":76561198253579994,"connected_time":199000000000,"state":"active","ping":114},{"user_id":389,"name":"quality_ch3ck","steam_id":76561198361132101,"connected_time":8452000000000,"state":"active","ping":89},{"user_id":482,"name":"Lord Arbon Wolf","steam_id":76561198028191603,"connected_time":228000000000,"state":"active","ping":65},{"user_id":469,"name":"HARRY","steam_id":76561198842067238,"connected_time":1261000000000,"state":"active","ping":63},{"user_id":473,"name":"DIYspaceship17","steam_id":76561199042640810,"connected_time":716000000000,"state":"active","ping":146},{"user_id":398,"name":"--_Cook_--","steam_id":76561198080855748,"connected_time":7598000000000,"state":"active","ping":60},{"user_id":445,"name":"Hobocop","steam_id":76561198076321907,"connected_time":3579000000000,"state":"active","ping":108},{"user_id":456,"name":"Vladikr1","steam_id":76561198401495362,"connected_time":2447000000000,"state":"active","ping":75},{"user_id":392,"name":"turt","steam_id":76561198058890821,"connected_time":8407000000000,"state":"active","ping":77},{"user_id":481,"name":"Bottom Trans Cowgirl","steam_id":76561198304239680,"connected_time":259000000000,"state":"active","ping":59},{"user_id":484,"name":"leg so hot u fry an egg","steam_id":76561198048730519,"connected_time":138000000000,"state":"active","ping":75},{"user_id":460,"name":"pluto965","steam_id":76561198122743085,"connected_time":2184000000000,"state":"active","ping":70},{"user_id":478,"name":"walidov","steam_id":76561198079965605,"connected_time":465000000000,"state":"active","ping":93},{"user_id":479,"name":"fritzzl","steam_id":76561199067153815,"connected_time":421000000000,"state":"active","ping":101},{"user_id":471,"name":"SoyFlavouredPepsi★","steam_id":76561198119505880,"connected_time":1232000000000,"state":"active","ping":67},{"user_id":480,"name":"Havok","steam_id":76561198063455003,"connected_time":343000000000,"state":"active","ping":70},{"user_id":419,"name":"Ronin Grinch","steam_id":76561198041439581,"connected_time":6008000000000,"state":"active","ping":75},{"user_id":467,"name":"ATL1 | Psionic Box","steam_id":76561198151019322,"connected_time":1842000000000,"state":"active","ping":75}]},{"server_id":400,"name":"Uncletopia | Atlanta | 3 | Stopwatch Beta","name_short":"atl-3","host":"atl-1.us.uncletopia.com","port":27035,"enabled":true,"region":"us-east","cc":"us","latitude":33.753746,"longitude":-84.38633,"reserved":0,"last_update":"0001-01-01T00:00:00Z","name_a2s":"Uncletopia | Atlanta | 3 | Stopwatch Beta","protocol":17,"map":"pl_pier","folder":"tf","game":"Team Fortress","app_id":440,"player_count":0,"max_players":24,"Bots":0,"server_type":"Dedicated","server_os":"Linux","password":true,"vac":true,"version":"7742253","steam_id":85568392924515187,"keywords":["nocrits","nodmgspread","payload","uncletopia"],"game_id":440,"stv_port":27036,"stv_name":"Uncletopia | Atlanta | 3 | Stopwatch Beta | STV","players":null},{"server_id":401,"name":"Uncletopia | Atlanta | 4 | No Payload","name_short":"atl-4","host":"atl-1.us.uncletopia.com","port":27045,"enabled":true,"region":"us-east","cc":"us","latitude":33.753746,"longitude":-84.38633,"reserved":0,"last_update":"0001-01-01T00:00:00Z","name_a2s":"Uncletopia | Atlanta | 4 | No Payload","protocol":17,"map":"pl_pier","folder":"tf","game":"Team Fortress","app_id":440,"player_count":0,"max_players":24,"Bots":0,"server_type":"Dedicated","server_os":"Linux","password":true,"vac":true,"version":"7723704","steam_id":85568392924515188,"keywords":["nocrits","nodmgspread","payload","uncletopia"],"game_id":440,"stv_port":27046,"stv_name":"Uncletopia | Atlanta | 4 | No Payload | STV","players":null},{"server_id":2,"name":"Uncletopia | Chicago | 1 | All Maps","name_short":"chi-1","host":"chi-1.us.uncletopia.com","port":27015,"enabled":true,"region":"us-central","cc":"us","latitude":41.881832,"longitude":-87.62318,"reserved":0,"last_update":"0001-01-01T00:00:00Z","name_a2s":"Uncletopia | Chicago | 1 | All Maps","protocol":17,"map":"cp_dustbowl","folder":"tf","game":"Team Fortress","app_id":440,"player_count":24,"max_players":24,"Bots":0,"server_type":"Dedicated","server_os":"Linux","password":true,"vac":true,"version":"7742253","steam_id":85568392924469984,"keywords":["cp","nocrits","nodmgspread","uncletopia"],"game_id":440,"stv_port":27016,"stv_name":"Uncletopia | Chicago | 1 | All Maps | STV","players":[{"user_id":375,"name":"crossed-antiprism enjoyer","steam_id":76561198049480053,"connected_time":3967000000000,"state":"active","ping":60},{"user_id":395,"name":"No Telefrag Plz","steam_id":76561198113931312,"connected_time":1101000000000,"state":"active","ping":87},{"user_id":399,"name":"qwatta","steam_id":76561198064982327,"connected_time":1027000000000,"state":"active","ping":69},{"user_id":381,"name":"lampin","steam_id":76561197964367078,"connected_time":3703000000000,"state":"active","ping":56},{"user_id":379,"name":"jingle.JIFF","steam_id":76561198045181760,"connected_time":3843000000000,"state":"active","ping":59},{"user_id":382,"name":"Ademar","steam_id":76561199391802581,"connected_time":3607000000000,"state":"spawning","ping":86},{"user_id":397,"name":"Snom","steam_id":76561198333827920,"connected_time":1086000000000,"state":"active","ping":99},{"user_id":387,"name":"the deadliest pyroshark","steam_id":76561198374227766,"connected_time":2831000000000,"state":"active","ping":62},{"user_id":400,"name":"kite","steam_id":76561198346516392,"connected_time":1009000000000,"state":"active","ping":73},{"user_id":398,"name":"vyx","steam_id":76561198037205391,"connected_time":1084000000000,"state":"active","ping":52},{"user_id":406,"name":"shalankawanak","steam_id":76561198987719376,"connected_time":566000000000,"state":"active","ping":56},{"user_id":402,"name":"lost in the sauce","steam_id":76561199043827112,"connected_time":980000000000,"state":"spawning","ping":51},{"user_id":355,"name":"Heropon","steam_id":76561198105224481,"connected_time":5225000000000,"state":"active","ping":88},{"user_id":392,"name":"Legion","steam_id":76561199036242643,"connected_time":2309000000000,"state":"active","ping":83},{"user_id":394,"name":"KingCrawful","steam_id":76561198104291657,"connected_time":1336000000000,"state":"active","ping":54},{"user_id":404,"name":"Salt","steam_id":76561199137060333,"connected_time":948000000000,"state":"active","ping":62},{"user_id":407,"name":"I sometimes play pyro","steam_id":76561198421760112,"connected_time":49000000000,"state":"active","ping":51},{"user_id":367,"name":"Steeb","steam_id":76561198008058593,"connected_time":4424000000000,"state":"active","ping":59},{"user_id":353,"name":"Red","steam_id":76561197998285162,"connected_time":5621000000000,"state":"active","ping":112},{"user_id":408,"name":"Tyco","steam_id":76561197978414167,"connected_time":18000000000,"state":"spawning","ping":71},{"user_id":391,"name":"Im Drunk","steam_id":76561199466847488,"connected_time":2530000000000,"state":"active","ping":59},{"user_id":372,"name":"TeeTree","steam_id":76561198862307874,"connected_time":3986000000000,"state":"active","ping":61}]},{"server_id":106,"name":"Uncletopia | Chicago | 2 | All Maps","name_short":"chi-2","host":"chi-1.us.uncletopia.com","port":27025,"enabled":true,"region":"us-central","cc":"us","latitude":41.881832,"longitude":-87.62318,"reserved":0,"last_update":"0001-01-01T00:00:00Z","name_a2s":"Uncletopia | Chicago | 2 | All Maps","protocol":17,"map":"pl_pier","folder":"tf","game":"Team Fortress","app_id":440,"player_count":24,"max_players":24,"Bots":0,"server_type":"Dedicated","server_os":"Linux","password":true,"vac":true,"version":"7742253","steam_id":85568392924469985,"keywords":["nocrits","nodmgspread","payload","uncletopia"],"game_id":440,"stv_port":27026,"stv_name":"Uncletopia | Chicago | 2 | All Maps | STV","players":[{"user_id":734,"name":"Steve Jobs' cousin Hand Jobs","steam_id":76561198282766831,"connected_time":4284000000000,"state":"active","ping":48},{"user_id":775,"name":"Claw","steam_id":76561198309244890,"connected_time":106000000000,"state":"active","ping":61},{"user_id":760,"name":"loco503","steam_id":76561198827495121,"connected_time":1432000000000,"state":"active","ping":99},{"user_id":772,"name":"TaRiK","steam_id":76561198839880487,"connected_time":837000000000,"state":"active","ping":50},{"user_id":754,"name":"GiraffeMan","steam_id":76561198042104084,"connected_time":1681000000000,"state":"active","ping":70},{"user_id":765,"name":"Nosferatu","steam_id":76561198048205270,"connected_time":1012000000000,"state":"active","ping":80},{"user_id":764,"name":"Dontavious Von Pringle Dingle I","steam_id":76561199285074344,"connected_time":1028000000000,"state":"active","ping":49},{"user_id":766,"name":"swan","steam_id":76561198012569200,"connected_time":1006000000000,"state":"active","ping":69},{"user_id":724,"name":"Dug","steam_id":76561198017691029,"connected_time":5163000000000,"state":"active","ping":51},{"user_id":767,"name":"bigboyalmondjoy","steam_id":76561198866942999,"connected_time":1003000000000,"state":"active","ping":56},{"user_id":755,"name":"MrVegasAguitar","steam_id":76561198084466946,"connected_time":1653000000000,"state":"active","ping":85},{"user_id":717,"name":"shplunker","steam_id":76561198169291327,"connected_time":5515000000000,"state":"active","ping":78},{"user_id":761,"name":"potpurrycatcurry","steam_id":76561198349409715,"connected_time":1397000000000,"state":"active","ping":65},{"user_id":773,"name":"cyclops","steam_id":76561197970370198,"connected_time":450000000000,"state":"active","ping":54},{"user_id":774,"name":"walito12","steam_id":76561198244902626,"connected_time":128000000000,"state":"active","ping":106},{"user_id":768,"name":"Pusieeeeeee!!!!!!!!!!!!!!!!!","steam_id":76561198083175190,"connected_time":991000000000,"state":"active","ping":52},{"user_id":746,"name":"randomperson88","steam_id":76561199228822173,"connected_time":2475000000000,"state":"active","ping":45},{"user_id":769,"name":"KhoorS","steam_id":76561199162385945,"connected_time":967000000000,"state":"active","ping":167},{"user_id":759,"name":"Le","steam_id":76561198817754233,"connected_time":1548000000000,"state":"active","ping":58},{"user_id":770,"name":"Sicko Mode (Chris Pratt Cover)","steam_id":76561198315786174,"connected_time":901000000000,"state":"active","ping":77},{"user_id":756,"name":".-.","steam_id":76561198820617005,"connected_time":1649000000000,"state":"active","ping":124},{"user_id":738,"name":"ch","steam_id":76561198012566405,"connected_time":3879000000000,"state":"active","ping":68},{"user_id":776,"name":"Oh, it's Zach","steam_id":76561198103309672,"connected_time":2000000000,"state":"spawning","ping":104},{"user_id":748,"name":"North Central Positronics Rep","steam_id":76561198133718360,"connected_time":2410000000000,"state":"active","ping":64}]},{"server_id":402,"name":"Uncletopia | Chicago | 3 | All Maps","name_short":"chi-3","host":"chi-1.us.uncletopia.com","port":27035,"enabled":true,"region":"us-central","cc":"us","latitude":41.881832,"longitude":-87.62318,"reserved":0,"last_update":"0001-01-01T00:00:00Z","name_a2s":"Uncletopia | Chicago | 3 | All Maps","protocol":17,"map":"pl_frontier_final","folder":"tf","game":"Team Fortress","app_id":440,"player_count":23,"max_players":24,"Bots":0,"server_type":"Dedicated","server_os":"Linux","password":true,"vac":true,"version":"7742253","steam_id":85568392924515191,"keywords":["nocrits","nodmgspread","payload","uncletopia"],"game_id":440,"stv_port":27036,"stv_name":"Uncletopia | Chicago | 3 | All Maps | STV","players":[{"user_id":606,"name":"Marty Byrde IRL","steam_id":76561199427269098,"connected_time":721000000000,"state":"active","ping":59},{"user_id":600,"name":"gossipcord reporter","steam_id":76561198049685207,"connected_time":1287000000000,"state":"active","ping":55},{"user_id":595,"name":"Thumbs","steam_id":76561199065890132,"connected_time":2208000000000,"state":"active","ping":51},{"user_id":624,"name":"Twan","steam_id":76561197991064908,"connected_time":176000000000,"state":"active","ping":59},{"user_id":575,"name":"Mogwr","steam_id":76561198124942972,"connected_time":4084000000000,"state":"active","ping":75},{"user_id":622,"name":"Majestic-A","steam_id":76561198988062101,"connected_time":265000000000,"state":"active","ping":92},{"user_id":561,"name":"Matches_                       ","steam_id":76561198048925904,"connected_time":4355000000000,"state":"active","ping":115},{"user_id":608,"name":"Sink","steam_id":76561198192420249,"connected_time":687000000000,"state":"active","ping":54},{"user_id":616,"name":"Pi Guy","steam_id":76561199071784224,"connected_time":606000000000,"state":"active","ping":60},{"user_id":613,"name":"Disco Fever","steam_id":76561198069532215,"connected_time":628000000000,"state":"active","ping":67},{"user_id":621,"name":"tragic","steam_id":76561198024043469,"connected_time":464000000000,"state":"active","ping":79},{"user_id":611,"name":"Rendoas","steam_id":76561198002105259,"connected_time":650000000000,"state":"active","ping":75},{"user_id":619,"name":"Silverio","steam_id":76561197999425381,"connected_time":541000000000,"state":"active","ping":79},{"user_id":569,"name":"itsyourpardner","steam_id":76561198354062821,"connected_time":4151000000000,"state":"active","ping":74},{"user_id":598,"name":"trobort","steam_id":76561198027150357,"connected_time":1665000000000,"state":"active","ping":80},{"user_id":603,"name":"MR.Badatgames","steam_id":76561198820423721,"connected_time":1020000000000,"state":"active","ping":56},{"user_id":572,"name":"WorkingWater","steam_id":76561198145445403,"connected_time":4122000000000,"state":"active","ping":55},{"user_id":623,"name":"Moosepie","steam_id":76561199241155474,"connected_time":203000000000,"state":"active","ping":103},{"user_id":617,"name":"leeeeeeeeeeeeeeeeeeeeeeeeeee","steam_id":76561199083322731,"connected_time":604000000000,"state":"active","ping":91},{"user_id":620,"name":"ChillyJones","steam_id":76561198017658702,"connected_time":538000000000,"state":"active","ping":80},{"user_id":615,"name":"Jelqing Table","steam_id":76561198051373750,"connected_time":621000000000,"state":"active","ping":71},{"user_id":597,"name":"wild_rumpus","steam_id":76561198053967778,"connected_time":1742000000000,"state":"active","ping":60},{"user_id":618,"name":"Jarryl97","steam_id":76561198055451373,"connected_time":600000000000,"state":"active","ping":78}]},{"server_id":403,"name":"Uncletopia | Chicago | 4 | All Maps","name_short":"chi-4","host":"chi-1.us.uncletopia.com","port":27045,"enabled":true,"region":"us-central","cc":"us","latitude":41.881832,"longitude":-87.62318,"reserved":0,"last_update":"0001-01-01T00:00:00Z","name_a2s":"Uncletopia | Chicago | 4 | All Maps","protocol":17,"map":"pl_goldrush","folder":"tf","game":"Team Fortress","app_id":440,"player_count":23,"max_players":24,"Bots":0,"server_type":"Dedicated","server_os":"Linux","password":true,"vac":true,"version":"7742253","steam_id":85568392924515193,"keywords":["nocrits","nodmgspread","payload","uncletopia"],"game_id":440,"stv_port":27046,"stv_name":"Uncletopia | Chicago | 4 | All Maps | STV","players":[{"user_id":455,"name":"McDonald's Hashbrown at 4am","steam_id":76561198273769337,"connected_time":48000000000,"state":"active","ping":59},{"user_id":407,"name":"Joan The Kisaragi Cat","steam_id":76561199370650064,"connected_time":3610000000000,"state":"active","ping":187},{"user_id":445,"name":"mayBee","steam_id":76561198035351764,"connected_time":750000000000,"state":"active","ping":50},{"user_id":355,"name":"BrotherGrowly","steam_id":76561198086663043,"connected_time":5754000000000,"state":"active","ping":91},{"user_id":423,"name":"SKIN IS WHERE THE FLAVOR IS","steam_id":76561198115842661,"connected_time":2305000000000,"state":"active","ping":69},{"user_id":440,"name":"viscodolante","steam_id":76561198013650292,"connected_time":1383000000000,"state":"active","ping":123},{"user_id":446,"name":"IntravenusDeMilo","steam_id":76561197970629020,"connected_time":691000000000,"state":"active","ping":88},{"user_id":447,"name":"aw fuck","steam_id":76561198205386960,"connected_time":663000000000,"state":"active","ping":79},{"user_id":421,"name":"_hooded_","steam_id":76561198023595873,"connected_time":2398000000000,"state":"active","ping":73},{"user_id":410,"name":"Lane","steam_id":76561197965828506,"connected_time":3295000000000,"state":"active","ping":41},{"user_id":448,"name":"Soda","steam_id":76561198219209367,"connected_time":633000000000,"state":"active","ping":68},{"user_id":419,"name":"Goat","steam_id":76561198068447650,"connected_time":2507000000000,"state":"active","ping":62},{"user_id":425,"name":"GTAD","steam_id":76561198071159505,"connected_time":2300000000000,"state":"active","ping":111},{"user_id":409,"name":"tranquil","steam_id":76561198319990195,"connected_time":3307000000000,"state":"active","ping":84},{"user_id":426,"name":"Yadoking","steam_id":76561198057156436,"connected_time":2298000000000,"state":"active","ping":104},{"user_id":414,"name":"magshot","steam_id":76561198272263514,"connected_time":3207000000000,"state":"active","ping":70},{"user_id":427,"name":"REALLINUSJEWTIP.","steam_id":76561198056647983,"connected_time":2247000000000,"state":"active","ping":63},{"user_id":428,"name":"piesano","steam_id":76561198065575472,"connected_time":2241000000000,"state":"active","ping":62},{"user_id":429,"name":"Lancer47","steam_id":76561198020481475,"connected_time":2241000000000,"state":"active","ping":81},{"user_id":433,"name":"starfungus","steam_id":76561198158312789,"connected_time":2079000000000,"state":"active","ping":69},{"user_id":450,"name":"The Indomitable Human Spirit","steam_id":76561198123199575,"connected_time":618000000000,"state":"active","ping":55},{"user_id":451,"name":"Guapo Escobar","steam_id":76561199067077843,"connected_time":565000000000,"state":"active","ping":69},{"user_id":454,"name":"Zenix","steam_id":76561198261817732,"connected_time":292000000000,"state":"active","ping":92}]},{"server_id":36,"name":"Uncletopia | Chicago | 5 | All Maps","name_short":"chi-5","host":"chi-2.us.uncletopia.com","port":27015,"enabled":true,"region":"us-central","cc":"us","latitude":41.881832,"longitude":-87.62318,"reserved":0,"last_update":"0001-01-01T00:00:00Z","name_a2s":"Uncletopia | Chicago | 5 | All Maps","protocol":17,"map":"koth_harvest_final","folder":"tf","game":"Team Fortress","app_id":440,"player_count":24,"max_players":24,"Bots":0,"server_type":"Dedicated","server_os":"Linux","password":true,"vac":true,"version":"7742253","steam_id":85568392924866362,"keywords":["cp","nocrits","nodmgspread","uncletopia"],"game_id":440,"stv_port":27016,"stv_name":"Uncletopia | Chicago | 5 | All Maps | STV","players":[{"user_id":501,"name":"TOBY!!!","steam_id":76561199380822531,"connected_time":6171000000000,"state":"active","ping":49},{"user_id":562,"name":"Otterguy","steam_id":76561198125819283,"connected_time":2090000000000,"state":"active","ping":76},{"user_id":595,"name":"watchfull","steam_id":76561198433266742,"connected_time":706000000000,"state":"active","ping":104},{"user_id":586,"name":"doubledanage","steam_id":76561198418629356,"connected_time":1022000000000,"state":"active","ping":62},{"user_id":594,"name":"DiscoTraveler","steam_id":76561199240168088,"connected_time":730000000000,"state":"active","ping":61},{"user_id":592,"name":"Post nut clarity","steam_id":76561198060246831,"connected_time":771000000000,"state":"active","ping":86},{"user_id":610,"name":"One Shot and A Miss","steam_id":76561198124269698,"connected_time":350000000000,"state":"active","ping":64},{"user_id":591,"name":"Skyrim killable children mod","steam_id":76561198862836173,"connected_time":790000000000,"state":"active","ping":114},{"user_id":597,"name":"MEGAFARTBLAST","steam_id":76561198166982558,"connected_time":680000000000,"state":"active","ping":86},{"user_id":611,"name":"MilkyFrenchToast","steam_id":76561198099281433,"connected_time":59000000000,"state":"active","ping":62},{"user_id":598,"name":"lildreamer013","steam_id":76561199098341925,"connected_time":626000000000,"state":"active","ping":110},{"user_id":602,"name":"unsubtract","steam_id":76561198865158742,"connected_time":493000000000,"state":"active","ping":67},{"user_id":599,"name":"Mimic","steam_id":76561199058651245,"connected_time":599000000000,"state":"active","ping":66},{"user_id":561,"name":"Scooter","steam_id":76561198306579452,"connected_time":2295000000000,"state":"active","ping":83},{"user_id":600,"name":"Tallboi","steam_id":76561198274286470,"connected_time":594000000000,"state":"active","ping":105},{"user_id":612,"name":"cheddar \u0026 sour cream chips","steam_id":76561199107044061,"connected_time":55000000000,"state":"spawning","ping":68},{"user_id":519,"name":"Sharkos","steam_id":76561198052096644,"connected_time":4617000000000,"state":"active","ping":81},{"user_id":520,"name":"Cookie?","steam_id":76561198035002318,"connected_time":4612000000000,"state":"active","ping":130},{"user_id":603,"name":"elincyt","steam_id":76561198967771724,"connected_time":485000000000,"state":"active","ping":58},{"user_id":605,"name":"Chrome Knight","steam_id":76561198851348871,"connected_time":457000000000,"state":"active","ping":80},{"user_id":606,"name":"Joker Joestar","steam_id":76561198115696839,"connected_time":457000000000,"state":"active","ping":54},{"user_id":613,"name":"cool","steam_id":76561199033484246,"connected_time":52000000000,"state":"active","ping":85},{"user_id":608,"name":"Insurance Frog","steam_id":76561198067556825,"connected_time":421000000000,"state":"active","ping":66},{"user_id":609,"name":"Thom","steam_id":76561198129270079,"connected_time":420000000000,"state":"active","ping":57}]},{"server_id":37,"name":"Uncletopia | Chicago | 6 | All Maps","name_short":"chi-6","host":"chi-2.us.uncletopia.com","port":27025,"enabled":true,"region":"us-central","cc":"us","latitude":41.881832,"longitude":-87.62318,"reserved":0,"last_update":"0001-01-01T00:00:00Z","name_a2s":"Uncletopia | Chicago | 6 | All Maps","protocol":17,"map":"pl_upward","folder":"tf","game":"Team Fortress","app_id":440,"player_count":24,"max_players":24,"Bots":0,"server_type":"Dedicated","server_os":"Linux","password":true,"vac":true,"version":"7742253","steam_id":85568392924866363,"keywords":["nocrits","nodmgspread","payload","uncletopia"],"game_id":440,"stv_port":27026,"stv_name":"Uncletopia | Chicago | 6 | All Maps | STV","players":[{"user_id":612,"name":"Hydroxianchaos","steam_id":76561198043786828,"connected_time":5063000000000,"state":"active","ping":59},{"user_id":670,"name":"scarybroccoli","steam_id":76561198296440084,"connected_time":841000000000,"state":"active","ping":68},{"user_id":656,"name":"Vanguard","steam_id":76561198044844135,"connected_time":1396000000000,"state":"active","ping":50},{"user_id":685,"name":"Wengatang","steam_id":76561198021747059,"connected_time":302000000000,"state":"active","ping":48},{"user_id":672,"name":"Rudy","steam_id":76561198013456828,"connected_time":759000000000,"state":"active","ping":60},{"user_id":681,"name":"Mattron1","steam_id":76561198012270524,"connected_time":571000000000,"state":"active","ping":56},{"user_id":682,"name":"Freewave","steam_id":76561198156282541,"connected_time":434000000000,"state":"active","ping":59},{"user_id":673,"name":"LAzar M0Nke","steam_id":76561199083035892,"connected_time":738000000000,"state":"active","ping":100},{"user_id":663,"name":"Epha","steam_id":76561198079379951,"connected_time":1127000000000,"state":"active","ping":58},{"user_id":679,"name":"Femboy mouth user","steam_id":76561198085813708,"connected_time":663000000000,"state":"active","ping":62},{"user_id":686,"name":"robert","steam_id":76561198001196512,"connected_time":271000000000,"state":"active","ping":59},{"user_id":667,"name":"frid","steam_id":76561198005806915,"connected_time":947000000000,"state":"active","ping":61},{"user_id":676,"name":"best head giver 2013","steam_id":76561198812086921,"connected_time":683000000000,"state":"active","ping":64},{"user_id":647,"name":"Medomai","steam_id":76561198046462828,"connected_time":1656000000000,"state":"active","ping":77},{"user_id":678,"name":"edwinbrood","steam_id":76561198044848769,"connected_time":675000000000,"state":"active","ping":55},{"user_id":655,"name":"freedom staff enjoyer of NASCAR","steam_id":76561199123218315,"connected_time":1408000000000,"state":"active","ping":69},{"user_id":668,"name":"Funee","steam_id":76561198041048289,"connected_time":922000000000,"state":"active","ping":60},{"user_id":683,"name":"cheated on the pregnancy test","steam_id":76561199107068627,"connected_time":431000000000,"state":"active","ping":47},{"user_id":687,"name":"Murshed Poturdurrs","steam_id":76561198043177191,"connected_time":246000000000,"state":"active","ping":83},{"user_id":638,"name":"Semyr","steam_id":76561198125655939,"connected_time":3031000000000,"state":"active","ping":63},{"user_id":688,"name":"Fish","steam_id":76561198986516474,"connected_time":41000000000,"state":"active","ping":104},{"user_id":684,"name":"SuperJagops","steam_id":76561198034689716,"connected_time":425000000000,"state":"active","ping":61},{"user_id":669,"name":"GibWilly","steam_id":76561199072518408,"connected_time":919000000000,"state":"active","ping":50},{"user_id":680,"name":"leumas","steam_id":76561198240408540,"connected_time":657000000000,"state":"active","ping":80}]},{"server_id":38,"name":"Uncletopia | Chicago | 7 | Stopwatch Beta","name_short":"chi-7","host":"chi-2.us.uncletopia.com","port":27035,"enabled":true,"region":"us-central","cc":"us","latitude":41.881832,"longitude":-87.62318,"reserved":0,"last_update":"0001-01-01T00:00:00Z","name_a2s":"Uncletopia | Chicago | 7 | Stopwatch Beta","protocol":17,"map":"workshop/koth_product_final.ugc454272353","folder":"tf","game":"Team Fortress","app_id":440,"player_count":0,"max_players":24,"Bots":0,"server_type":"Dedicated","server_os":"Linux","password":true,"vac":true,"version":"7742253","steam_id":85568392924866364,"keywords":["cp","nocrits","nodmgspread","uncletopia"],"game_id":440,"stv_port":27036,"stv_name":"Uncletopia | Chicago | 7 | Stopwatch Beta | STV","players":null},{"server_id":39,"name":"Uncletopia | Chicago | 8 | Community","name_short":"chi-8","host":"chi-2.us.uncletopia.com","port":27045,"enabled":true,"region":"us-central","cc":"us","latitude":41.881832,"longitude":-87.62318,"reserved":0,"last_update":"0001-01-01T00:00:00Z","name_a2s":"Uncletopia | Chicago | 8 | Community","protocol":17,"map":"workshop/cp_caldera_rc2.ugc2834196889","folder":"tf","game":"Team Fortress","app_id":440,"player_count":22,"max_players":24,"Bots":0,"server_type":"Dedicated","server_os":"Linux","password":true,"vac":true,"version":"7742253","steam_id":85568392924866365,"keywords":["cp","nocrits","nodmgspread","uncletopia"],"game_id":440,"stv_port":27046,"stv_name":"Uncletopia | Chicago | 8 | Community | STV","players":[{"user_id":167,"name":"Gram Tokers Count Doinkula","steam_id":76561198112811565,"connected_time":750000000000,"state":"active","ping":68},{"user_id":81,"name":"Elias","steam_id":76561198031295139,"connected_time":3658000000000,"state":"active","ping":103},{"user_id":148,"name":"defcon","steam_id":76561198100656328,"connected_time":1183000000000,"state":"active","ping":76},{"user_id":17,"name":"Kinbo2487","steam_id":76561198184714198,"connected_time":5904000000000,"state":"active","ping":92},{"user_id":154,"name":"[TF2Apples] Intense Green Apple","steam_id":76561198803561622,"connected_time":1104000000000,"state":"active","ping":81},{"user_id":168,"name":"DecafBuns","steam_id":76561198211863787,"connected_time":740000000000,"state":"active","ping":81},{"user_id":66,"name":"Yayifications","steam_id":76561198066227208,"connected_time":4188000000000,"state":"active","ping":70},{"user_id":69,"name":"Brahan","steam_id":76561198024629210,"connected_time":4155000000000,"state":"active","ping":108},{"user_id":105,"name":"あ-Concept 0f Love-あ","steam_id":76561198048529397,"connected_time":2706000000000,"state":"active","ping":84},{"user_id":150,"name":"Nightfall","steam_id":76561198169718867,"connected_time":1164000000000,"state":"active","ping":110},{"user_id":70,"name":"Fostrel","steam_id":76561198152160601,"connected_time":4114000000000,"state":"active","ping":72},{"user_id":159,"name":"Cam","steam_id":76561198023380573,"connected_time":965000000000,"state":"active","ping":53},{"user_id":160,"name":"TWXN","steam_id":76561198033593852,"connected_time":962000000000,"state":"active","ping":82},{"user_id":108,"name":"Mr. pees on your wife","steam_id":76561198188276082,"connected_time":2693000000000,"state":"active","ping":70},{"user_id":161,"name":"peterpumpkineater69","steam_id":76561199072286124,"connected_time":909000000000,"state":"active","ping":79},{"user_id":156,"name":"bear","steam_id":76561198313696546,"connected_time":1084000000000,"state":"active","ping":79},{"user_id":124,"name":"rude boi","steam_id":76561198006783260,"connected_time":2245000000000,"state":"active","ping":64},{"user_id":152,"name":"hi","steam_id":76561198118498882,"connected_time":1154000000000,"state":"active","ping":66},{"user_id":153,"name":"Platino","steam_id":76561198410957728,"connected_time":1150000000000,"state":"active","ping":45},{"user_id":64,"name":"Kzjytsugn","steam_id":76561198130241974,"connected_time":4257000000000,"state":"active","ping":97},{"user_id":134,"name":"Predicta","steam_id":76561198017630616,"connected_time":1779000000000,"state":"active","ping":46},{"user_id":44,"name":"corygaming","steam_id":76561198035669409,"connected_time":4936000000000,"state":"active","ping":110}]},{"server_id":8,"name":"Uncletopia | Dallas | 1 | All Maps","name_short":"dal-1","host":"dal-1.us.uncletopia.com","port":27015,"enabled":true,"region":"us-central","cc":"us","latitude":32.779167,"longitude":-96.80889,"reserved":0,"last_update":"0001-01-01T00:00:00Z","name_a2s":"Uncletopia | Dallas | 1 | All Maps","protocol":17,"map":"pl_frontier_final","folder":"tf","game":"Team Fortress","app_id":440,"player_count":24,"max_players":24,"Bots":0,"server_type":"Dedicated","server_os":"Linux","password":true,"vac":true,"version":"7742253","steam_id":85568392924469986,"keywords":["nocrits","nodmgspread","payload","uncletopia"],"game_id":440,"stv_port":27016,"stv_name":"Uncletopia | Dallas | 1 | All Maps | STV","players":[{"user_id":478,"name":"coffee bagel","steam_id":76561198141198352,"connected_time":2046000000000,"state":"active","ping":65},{"user_id":500,"name":"Sanic","steam_id":76561198083124962,"connected_time":161000000000,"state":"active","ping":49},{"user_id":469,"name":"Krow","steam_id":76561198010392099,"connected_time":2731000000000,"state":"active","ping":56},{"user_id":490,"name":"TokyoJade","steam_id":76561198136297393,"connected_time":1611000000000,"state":"active","ping":84},{"user_id":447,"name":"Bob the Builder","steam_id":76561199069029812,"connected_time":3923000000000,"state":"active","ping":87},{"user_id":476,"name":"Ballista","steam_id":76561197983182562,"connected_time":2084000000000,"state":"active","ping":50},{"user_id":428,"name":"PHONE","steam_id":76561198029268743,"connected_time":5838000000000,"state":"active","ping":60},{"user_id":491,"name":"CrackedSanity","steam_id":76561198279841251,"connected_time":1567000000000,"state":"active","ping":76},{"user_id":481,"name":"egyptiangodcard","steam_id":76561198855935442,"connected_time":1946000000000,"state":"active","ping":106},{"user_id":493,"name":"G. Howard Dee","steam_id":76561198058382812,"connected_time":862000000000,"state":"active","ping":73},{"user_id":446,"name":"IggyYT","steam_id":76561198317980567,"connected_time":3930000000000,"state":"active","ping":75},{"user_id":480,"name":"little hog","steam_id":76561199230929836,"connected_time":2029000000000,"state":"active","ping":59},{"user_id":486,"name":"MoonWolf","steam_id":76561198095735033,"connected_time":1796000000000,"state":"active","ping":65},{"user_id":482,"name":"SylverStarr","steam_id":76561198171025707,"connected_time":1931000000000,"state":"active","ping":67},{"user_id":484,"name":"hydrochloric acid drinker","steam_id":76561198077272494,"connected_time":1914000000000,"state":"active","ping":72},{"user_id":492,"name":"Wind Fucker","steam_id":76561198275362375,"connected_time":1155000000000,"state":"active","ping":86},{"user_id":472,"name":"Thatguy_1029","steam_id":76561199232419803,"connected_time":2675000000000,"state":"active","ping":91},{"user_id":487,"name":"BIG HOG","steam_id":76561198079923652,"connected_time":1723000000000,"state":"active","ping":59},{"user_id":459,"name":"donkey kong master","steam_id":76561198142732734,"connected_time":3546000000000,"state":"active","ping":70},{"user_id":444,"name":"xd Clover","steam_id":76561198038905361,"connected_time":4136000000000,"state":"active","ping":75},{"user_id":479,"name":"paige novick","steam_id":76561199089284643,"connected_time":2045000000000,"state":"active","ping":71},{"user_id":494,"name":"MasterGeek.MX","steam_id":76561198063355220,"connected_time":858000000000,"state":"active","ping":88},{"user_id":499,"name":"pipibaby","steam_id":76561198067430685,"connected_time":250000000000,"state":"active","ping":71},{"user_id":497,"name":"Mr.Pan","steam_id":76561198069030613,"connected_time":569000000000,"state":"active","ping":67}]},{"server_id":108,"name":"Uncletopia | Dallas | 2 | All Maps","name_short":"dal-2","host":"dal-1.us.uncletopia.com","port":27025,"enabled":true,"region":"us-central","cc":"us","latitude":32.779167,"longitude":-96.80889,"reserved":0,"last_update":"0001-01-01T00:00:00Z","name_a2s":"Uncletopia | Dallas | 2 | All Maps","protocol":17,"map":"pl_upward","folder":"tf","game":"Team Fortress","app_id":440,"player_count":24,"max_players":24,"Bots":0,"server_type":"Dedicated","server_os":"Linux","password":true,"vac":true,"version":"7742253","steam_id":85568392924469988,"keywords":["nocrits","nodmgspread","payload","uncletopia"],"game_id":440,"stv_port":27026,"stv_name":"Uncletopia | Dallas | 2 | All Maps | STV","players":[{"user_id":249,"name":"rusty","steam_id":76561199070869016,"connected_time":2885000000000,"state":"active","ping":104},{"user_id":269,"name":"MR.meeseeks","steam_id":76561198294943420,"connected_time":2126000000000,"state":"active","ping":121},{"user_id":289,"name":"Marcel","steam_id":76561199079200901,"connected_time":780000000000,"state":"active","ping":48},{"user_id":298,"name":"remedu","steam_id":76561198005152587,"connected_time":422000000000,"state":"active","ping":43},{"user_id":288,"name":"Alberto2104","steam_id":76561198094968873,"connected_time":869000000000,"state":"active","ping":88},{"user_id":263,"name":"danny_dorito","steam_id":76561198288202783,"connected_time":2363000000000,"state":"active","ping":75},{"user_id":248,"name":"PanCAKEEE","steam_id":76561198237489544,"connected_time":3000000000000,"state":"active","ping":102},{"user_id":290,"name":"[LINUX] F2P=S*(M/B)+H || Spy!","steam_id":76561198093538786,"connected_time":669000000000,"state":"active","ping":52},{"user_id":231,"name":"mikey | I'm Burning Bright!","steam_id":76561198985847893,"connected_time":3426000000000,"state":"active","ping":53},{"user_id":299,"name":"Clanker","steam_id":76561198164315915,"connected_time":401000000000,"state":"active","ping":89},{"user_id":300,"name":"self sufficient kitten","steam_id":76561197960592612,"connected_time":366000000000,"state":"active","ping":104},{"user_id":277,"name":"Goob","steam_id":76561198326469586,"connected_time":1275000000000,"state":"active","ping":63},{"user_id":284,"name":"❤ Ashley ❤","steam_id":76561198056428303,"connected_time":1059000000000,"state":"active","ping":77},{"user_id":275,"name":"scruffer","steam_id":76561198044095460,"connected_time":1857000000000,"state":"active","ping":97},{"user_id":291,"name":"Super Luigi Muscles","steam_id":76561198199160537,"connected_time":611000000000,"state":"active","ping":77},{"user_id":236,"name":"Carnamate","steam_id":76561198138077990,"connected_time":3336000000000,"state":"active","ping":61},{"user_id":287,"name":"trolololgaming3","steam_id":76561199187441897,"connected_time":1012000000000,"state":"active","ping":76},{"user_id":281,"name":"Hernandez$","steam_id":76561198019324588,"connected_time":1220000000000,"state":"active","ping":70},{"user_id":285,"name":"The mook","steam_id":76561198963551905,"connected_time":1052000000000,"state":"active","ping":86},{"user_id":268,"name":"catboy festive edition","steam_id":76561198067881981,"connected_time":2201000000000,"state":"active","ping":78},{"user_id":293,"name":"Former US President Barack Obam","steam_id":76561198014215937,"connected_time":599000000000,"state":"active","ping":83},{"user_id":243,"name":"Octobella Enthusiast","steam_id":76561198199266047,"connected_time":3241000000000,"state":"active","ping":78},{"user_id":259,"name":"Cereal","steam_id":76561198045889032,"connected_time":2682000000000,"state":"active","ping":133}]},{"server_id":5,"name":"Uncletopia | Frankfurt | 1 | All Maps","name_short":"frk-1","host":"frk-1.de.uncletopia.com","port":27015,"enabled":true,"region":"eu","cc":"de","latitude":50.110924,"longitude":8.682127,"reserved":0,"last_update":"0001-01-01T00:00:00Z","name_a2s":"Uncletopia | Frankfurt | 1 | All Maps","protocol":17,"map":"cp_mountainlab","folder":"tf","game":"Team Fortress","app_id":440,"player_count":0,"max_players":24,"Bots":0,"server_type":"Dedicated","server_os":"Linux","password":true,"vac":true,"version":"7742253","steam_id":85568392924469989,"keywords":["cp","nocrits","nodmgspread","uncletopia"],"game_id":440,"stv_port":27016,"stv_name":"Uncletopia | Frankfurt | 1 | All Maps | STV","players":null},{"server_id":110,"name":"Uncletopia | Frankfurt | 2 | All Maps","name_short":"frk-2","host":"frk-1.de.uncletopia.com","port":27025,"enabled":true,"region":"eu","cc":"de","latitude":50.110924,"longitude":8.682127,"reserved":0,"last_update":"0001-01-01T00:00:00Z","name_a2s":"Uncletopia | Frankfurt | 2 | All Maps","protocol":17,"map":"pl_badwater","folder":"tf","game":"Team Fortress","app_id":440,"player_count":24,"max_players":24,"Bots":0,"server_type":"Dedicated","server_os":"Linux","password":true,"vac":true,"version":"7742253","steam_id":85568392924469990,"keywords":["nocrits","nodmgspread","payload","uncletopia"],"game_id":440,"stv_port":27026,"stv_name":"Uncletopia | Frankfurt | 2 | All Maps | STV","players":[{"user_id":755,"name":"Helix","steam_id":76561198050540726,"connected_time":2532000000000,"state":"active","ping":79},{"user_id":813,"name":"silves","steam_id":76561198106407598,"connected_time":580000000000,"state":"active","ping":75},{"user_id":759,"name":"Economic crisis","steam_id":76561198063562843,"connected_time":2411000000000,"state":"active","ping":48},{"user_id":767,"name":"AnnaZzz","steam_id":76561198130477214,"connected_time":2252000000000,"state":"active","ping":59},{"user_id":749,"name":"fredu","steam_id":76561198107605938,"connected_time":2849000000000,"state":"active","ping":77},{"user_id":821,"name":"Zeppy but legal","steam_id":76561199068188042,"connected_time":155000000000,"state":"active","ping":155},{"user_id":812,"name":"Tsuruko","steam_id":76561198063618114,"connected_time":660000000000,"state":"active","ping":61},{"user_id":762,"name":"Shynii","steam_id":76561198194682105,"connected_time":2363000000000,"state":"active","ping":68},{"user_id":814,"name":"Enzo","steam_id":76561198074041378,"connected_time":566000000000,"state":"active","ping":62},{"user_id":766,"name":"GoodGorilla","steam_id":76561198034356064,"connected_time":2285000000000,"state":"active","ping":74},{"user_id":718,"name":"jormavainen","steam_id":76561198126115435,"connected_time":4533000000000,"state":"active","ping":103},{"user_id":804,"name":"Hannü","steam_id":76561197969886128,"connected_time":1320000000000,"state":"active","ping":61},{"user_id":816,"name":"heinrich salian","steam_id":76561199062586342,"connected_time":555000000000,"state":"active","ping":74},{"user_id":764,"name":"AsuX","steam_id":76561197990333289,"connected_time":2332000000000,"state":"active","ping":61},{"user_id":811,"name":"JugoTopia","steam_id":76561197996067209,"connected_time":916000000000,"state":"active","ping":119},{"user_id":817,"name":"dreskar","steam_id":76561198190877153,"connected_time":466000000000,"state":"active","ping":42},{"user_id":823,"name":"she strogan me off til i beef","steam_id":76561198166555207,"connected_time":127000000000,"state":"active","ping":69},{"user_id":769,"name":"Buff Anteater","steam_id":76561198040182692,"connected_time":2119000000000,"state":"active","ping":51},{"user_id":818,"name":"jorbert","steam_id":76561197975606100,"connected_time":456000000000,"state":"active","ping":146},{"user_id":732,"name":"Unexpected","steam_id":76561198944781914,"connected_time":4036000000000,"state":"active","ping":84},{"user_id":819,"name":"Aras","steam_id":76561198160394046,"connected_time":429000000000,"state":"active","ping":103},{"user_id":822,"name":"ϟStormiiϟ","steam_id":76561199441703051,"connected_time":143000000000,"state":"active","ping":111},{"user_id":771,"name":"tenmataa","steam_id":76561198222247368,"connected_time":2063000000000,"state":"active","ping":87},{"user_id":791,"name":"dinger","steam_id":76561198038748489,"connected_time":1793000000000,"state":"active","ping":68}]},{"server_id":308,"name":"Uncletopia | Frankfurt | 3 | All Maps","name_short":"frk-3","host":"frk-1.de.uncletopia.com","port":27035,"enabled":true,"region":"eu","cc":"de","latitude":50.110924,"longitude":8.682127,"reserved":0,"last_update":"0001-01-01T00:00:00Z","name_a2s":"Uncletopia | Frankfurt | 3 | All Maps","protocol":17,"map":"cp_altitude","folder":"tf","game":"Team Fortress","app_id":440,"player_count":0,"max_players":24,"Bots":0,"server_type":"Dedicated","server_os":"Linux","password":true,"vac":true,"version":"7742253","steam_id":85568392924504274,"keywords":["cp","nocrits","nodmgspread","uncletopia"],"game_id":440,"stv_port":27036,"stv_name":"Uncletopia | Frankfurt | 3 | All Maps | STV","players":null},{"server_id":309,"name":"Uncletopia | Frankfurt | 4 | All Maps","name_short":"frk-4","host":"frk-1.de.uncletopia.com","port":27045,"enabled":true,"region":"eu","cc":"de","latitude":50.110924,"longitude":8.682127,"reserved":0,"last_update":"0001-01-01T00:00:00Z","name_a2s":"Uncletopia | Frankfurt | 4 | All Maps","protocol":17,"map":"koth_viaduct","folder":"tf","game":"Team Fortress","app_id":440,"player_count":0,"max_players":24,"Bots":0,"server_type":"Dedicated","server_os":"Linux","password":true,"vac":true,"version":"7742253","steam_id":85568392924504275,"keywords":["cp","nocrits","nodmgspread","uncletopia"],"game_id":440,"stv_port":27046,"stv_name":"Uncletopia | Frankfurt | 4 | All Maps | STV","players":null},{"server_id":310,"name":"Uncletopia | Frankfurt | 5 | All Maps","name_short":"frk-5","host":"frk-1.de.uncletopia.com","port":27055,"enabled":true,"region":"eu","cc":"de","latitude":50.110924,"longitude":8.682127,"reserved":0,"last_update":"0001-01-01T00:00:00Z","name_a2s":"Uncletopia | Frankfurt | 5 | All Maps","protocol":17,"map":"cp_process_final","folder":"tf","game":"Team Fortress","app_id":440,"player_count":8,"max_players":24,"Bots":0,"server_type":"Dedicated","server_os":"Linux","password":true,"vac":true,"version":"7742253","steam_id":85568392924504277,"keywords":["cp","nocrits","nodmgspread","uncletopia"],"game_id":440,"stv_port":27056,"stv_name":"Uncletopia | Frankfurt | 5 | All Maps | STV","players":[{"user_id":794,"name":"gobbie gamer","steam_id":76561198120737107,"connected_time":2574000000000,"state":"active","ping":58},{"user_id":795,"name":"Katla","steam_id":76561198036742174,"connected_time":2562000000000,"state":"active","ping":45},{"user_id":803,"name":"SoupER","steam_id":76561198063056668,"connected_time":777000000000,"state":"active","ping":40},{"user_id":808,"name":"Stragnov☆","steam_id":76561198074702465,"connected_time":92000000000,"state":"active","ping":55},{"user_id":802,"name":"woolfy","steam_id":76561198954235784,"connected_time":855000000000,"state":"active","ping":67},{"user_id":804,"name":"hatac","steam_id":76561198204281927,"connected_time":575000000000,"state":"active","ping":45},{"user_id":807,"name":"Theo","steam_id":76561198144205951,"connected_time":292000000000,"state":"active","ping":99},{"user_id":809,"name":"viktor610126","steam_id":76561198386462300,"connected_time":84000000000,"state":"active","ping":90}]},{"server_id":311,"name":"Uncletopia | Frankfurt | 6 | All Maps","name_short":"frk-6","host":"frk-1.de.uncletopia.com","port":27065,"enabled":true,"region":"eu","cc":"de","latitude":50.110924,"longitude":8.682127,"reserved":0,"last_update":"0001-01-01T00:00:00Z","name_a2s":"Uncletopia | Frankfurt | 6 | All Maps","protocol":17,"map":"pl_badwater","folder":"tf","game":"Team Fortress","app_id":440,"player_count":0,"max_players":24,"Bots":0,"server_type":"Dedicated","server_os":"Linux","password":true,"vac":true,"version":"7742253","steam_id":85568392924504278,"keywords":["nocrits","nodmgspread","payload","uncletopia"],"game_id":440,"stv_port":27066,"stv_name":"Uncletopia | Frankfurt | 6 | All Maps | STV","players":null},{"server_id":23,"name":"Uncletopia | Frankfurt | 7 | Stopwatch Beta","name_short":"frk-7","host":"frk-1.de.uncletopia.com","port":27075,"enabled":true,"region":"eu","cc":"de","latitude":50.110924,"longitude":8.682127,"reserved":0,"last_update":"0001-01-01T00:00:00Z","name_a2s":"Uncletopia | Frankfurt | 7 | Stopwatch Beta","protocol":17,"map":"koth_highpass","folder":"tf","game":"Team Fortress","app_id":440,"player_count":0,"max_players":24,"Bots":0,"server_type":"Dedicated","server_os":"Linux","password":true,"vac":true,"version":"7742253","steam_id":85568392924742827,"keywords":["cp","nocrits","nodmgspread","uncletopia"],"game_id":440,"stv_port":27076,"stv_name":"Uncletopia | Frankfurt | 7 | Stopwatch Beta | STV","players":null},{"server_id":24,"name":"Uncletopia | Frankfurt | 8 | Community","name_short":"frk-8","host":"frk-1.de.uncletopia.com","port":27085,"enabled":true,"region":"eu","cc":"de","latitude":50.110924,"longitude":8.682127,"reserved":0,"last_update":"0001-01-01T00:00:00Z","name_a2s":"Uncletopia | Frankfurt | 8 | Community","protocol":17,"map":"workshop/koth_bagel_rc5.ugc2514036946","folder":"tf","game":"Team Fortress","app_id":440,"player_count":0,"max_players":24,"Bots":0,"server_type":"Dedicated","server_os":"Linux","password":true,"vac":true,"version":"7742253","steam_id":85568392924742828,"keywords":["cp","nocrits","nodmgspread","uncletopia"],"game_id":440,"stv_port":27086,"stv_name":"Uncletopia | Frankfurt | 8 | Community | STV","players":null},{"server_id":202,"name":"Uncletopia | Hong Kong | 1 | All Maps","name_short":"hgk-1","host":"hgk-1.hk.uncletopia.com","port":27015,"enabled":true,"region":"asia","cc":"hk","latitude":22.302711,"longitude":114.177216,"reserved":0,"last_update":"0001-01-01T00:00:00Z","name_a2s":"Uncletopia | Hong Kong | 1 | All Maps","protocol":17,"map":"koth_harvest_final","folder":"tf","game":"Team Fortress","app_id":440,"player_count":1,"max_players":24,"Bots":0,"server_type":"Dedicated","server_os":"Linux","password":true,"vac":true,"version":"7742253","steam_id":85568392924494504,"keywords":["cp","nocrits","nodmgspread","uncletopia"],"game_id":440,"stv_port":27016,"stv_name":"Uncletopia | Hong Kong | 1 | All Maps | STV","players":[{"user_id":13,"name":"tf2 gaymer","steam_id":76561198080108480,"connected_time":162000000000,"state":"active","ping":45}]},{"server_id":1,"name":"Uncletopia | Los Angeles | 1 | All Maps","name_short":"lax-1","host":"lax-1.us.uncletopia.com","port":27015,"enabled":true,"region":"us-west","cc":"us","latitude":33.94279,"longitude":-118.41004,"reserved":0,"last_update":"0001-01-01T00:00:00Z","name_a2s":"Uncletopia | Los Angeles | 1 | All Maps","protocol":17,"map":"pl_wutville_event","folder":"tf","game":"Team Fortress","app_id":440,"player_count":19,"max_players":24,"Bots":0,"server_type":"Dedicated","server_os":"Linux","password":true,"vac":true,"version":"7742253","steam_id":85568392924469991,"keywords":["nocrits","nodmgspread","payload","uncletopia"],"game_id":440,"stv_port":27016,"stv_name":"Uncletopia | Los Angeles | 1 | All Maps | STV","players":[{"user_id":309,"name":"Stargazer A.","steam_id":76561198035479925,"connected_time":458000000000,"state":"active","ping":36},{"user_id":313,"name":"jon","steam_id":76561198065314212,"connected_time":35000000000,"state":"active","ping":70},{"user_id":259,"name":"QueeQuee","steam_id":76561198070804012,"connected_time":3564000000000,"state":"active","ping":52},{"user_id":314,"name":"Saxking69","steam_id":76561198141183620,"connected_time":24000000000,"state":"active","ping":121},{"user_id":260,"name":"sly1","steam_id":76561198049014977,"connected_time":3562000000000,"state":"active","ping":50},{"user_id":312,"name":"Ceatharlach","steam_id":76561198318126190,"connected_time":96000000000,"state":"active","ping":147},{"user_id":262,"name":"mrhotnessbomb80","steam_id":76561199137551187,"connected_time":3539000000000,"state":"active","ping":141},{"user_id":315,"name":"pollo asado","steam_id":76561198079438639,"connected_time":22000000000,"state":"active","ping":119},{"user_id":253,"name":"Snoopy","steam_id":76561198273735974,"connected_time":4198000000000,"state":"active","ping":92},{"user_id":255,"name":"icechiller","steam_id":76561198070895266,"connected_time":3849000000000,"state":"active","ping":52},{"user_id":316,"name":"faxking69","steam_id":76561198027747917,"connected_time":18000000000,"state":"active","ping":85},{"user_id":267,"name":"DUBMonkey","steam_id":76561198046257506,"connected_time":3309000000000,"state":"active","ping":60},{"user_id":281,"name":"Did you know","steam_id":76561198090057040,"connected_time":2815000000000,"state":"active","ping":53},{"user_id":243,"name":"Feel the bern","steam_id":76561198078824519,"connected_time":4900000000000,"state":"active","ping":73},{"user_id":305,"name":"uosıʞkison","steam_id":76561198161464667,"connected_time":941000000000,"state":"active","ping":82},{"user_id":283,"name":"tweaker","steam_id":76561198115269587,"connected_time":2615000000000,"state":"active","ping":92},{"user_id":308,"name":"DAS SCHNITZELSTIEN","steam_id":76561198051137159,"connected_time":746000000000,"state":"active","ping":51},{"user_id":284,"name":"SheepWithPants","steam_id":76561198169158454,"connected_time":2548000000000,"state":"active","ping":68},{"user_id":265,"name":"DEWDE PERFECTED","steam_id":76561198109321346,"connected_time":3488000000000,"state":"active","ping":70}]},{"server_id":112,"name":"Uncletopia | Los Angeles | 2 | All Maps","name_short":"lax-2","host":"lax-1.us.uncletopia.com","port":27025,"enabled":true,"region":"us-west","cc":"us","latitude":33.94279,"longitude":-118.41004,"reserved":0,"last_update":"0001-01-01T00:00:00Z","name_a2s":"Uncletopia | Los Angeles | 2 | All Maps","protocol":17,"map":"koth_cascade","folder":"tf","game":"Team Fortress","app_id":440,"player_count":0,"max_players":24,"Bots":0,"server_type":"Dedicated","server_os":"Linux","password":true,"vac":true,"version":"7742253","steam_id":85568392924469992,"keywords":["cp","nocrits","nodmgspread","uncletopia"],"game_id":440,"stv_port":27026,"stv_name":"Uncletopia | Los Angeles | 2 | All Maps | STV","players":null},{"server_id":324,"name":"Uncletopia | Los Angeles | 3 | All Maps","name_short":"lax-3","host":"lax-1.us.uncletopia.com","port":27035,"enabled":true,"region":"us-west","cc":"us","latitude":33.94279,"longitude":-118.41004,"reserved":0,"last_update":"0001-01-01T00:00:00Z","name_a2s":"Uncletopia | Los Angeles | 3 | All Maps","protocol":17,"map":"koth_highpass","folder":"tf","game":"Team Fortress","app_id":440,"player_count":0,"max_players":24,"Bots":0,"server_type":"Dedicated","server_os":"Linux","password":true,"vac":true,"version":"7742253","steam_id":85568392924510198,"keywords":["cp","nocrits","nodmgspread","uncletopia"],"game_id":440,"stv_port":27036,"stv_name":"Uncletopia | Los Angeles | 3 | All Maps | STV","players":null},{"server_id":25,"name":"Uncletopia | Los Angeles | 4 | Stopwatch Beta","name_short":"lax-4","host":"lax-1.us.uncletopia.com","port":27045,"enabled":true,"region":"us-west","cc":"us","latitude":33.94279,"longitude":-118.41004,"reserved":0,"last_update":"0001-01-01T00:00:00Z","name_a2s":"Uncletopia | Los Angeles | 4 | Stopwatch Beta","protocol":17,"map":"pl_borneo","folder":"tf","game":"Team Fortress","app_id":440,"player_count":0,"max_players":24,"Bots":0,"server_type":"Dedicated","server_os":"Linux","password":true,"vac":true,"version":"7742253","steam_id":85568392924510199,"keywords":["nocrits","nodmgspread","payload","uncletopia"],"game_id":440,"stv_port":27046,"stv_name":"Uncletopia | Los Angeles | 4 | Stopwatch Beta | STV","players":null},{"server_id":11,"name":"Uncletopia | London | 1 | All Maps","name_short":"lon-1","host":"lon-1.uk.uncletopia.com","port":27015,"enabled":true,"region":"eu","cc":"gb","latitude":51.509865,"longitude":-0.118092,"reserved":0,"last_update":"0001-01-01T00:00:00Z","name_a2s":"Uncletopia | London | 1 | All Maps","protocol":17,"map":"pl_snowycoast","folder":"tf","game":"Team Fortress","app_id":440,"player_count":21,"max_players":24,"Bots":0,"server_type":"Dedicated","server_os":"Linux","password":true,"vac":true,"version":"7742253","steam_id":85568392924367362,"keywords":["nocrits","nodmgspread","payload","uncletopia"],"game_id":440,"stv_port":27016,"stv_name":"Uncletopia | London | 1 | All Maps | STV","players":[{"user_id":799,"name":"Zombi3","steam_id":76561198326290621,"connected_time":41000000000,"state":"active","ping":56},{"user_id":796,"name":"flora","steam_id":76561197994492154,"connected_time":182000000000,"state":"active","ping":69},{"user_id":800,"name":"Outlaw","steam_id":76561198389862837,"connected_time":12000000000,"state":"active","ping":89},{"user_id":772,"name":"GogsCrunchyNuts","steam_id":76561198150599213,"connected_time":1174000000000,"state":"active","ping":83},{"user_id":733,"name":"Exxon","steam_id":76561198997885594,"connected_time":3508000000000,"state":"active","ping":49},{"user_id":703,"name":"★ sat1ra","steam_id":76561198011382701,"connected_time":6128000000000,"state":"active","ping":83},{"user_id":792,"name":"SuperBob103","steam_id":76561199175360012,"connected_time":523000000000,"state":"active","ping":48},{"user_id":760,"name":"Wubbles","steam_id":76561197970314906,"connected_time":1715000000000,"state":"active","ping":73},{"user_id":761,"name":"Infantile Pillock","steam_id":76561198283851362,"connected_time":1708000000000,"state":"active","ping":62},{"user_id":747,"name":"Bloop","steam_id":76561198152645636,"connected_time":2782000000000,"state":"active","ping":45},{"user_id":757,"name":"uhmazn","steam_id":76561198014204225,"connected_time":1739000000000,"state":"active","ping":79},{"user_id":734,"name":"2017 :(","steam_id":76561198158468203,"connected_time":3433000000000,"state":"active","ping":59},{"user_id":755,"name":"Dirty Joe","steam_id":76561198142418870,"connected_time":1993000000000,"state":"active","ping":45},{"user_id":795,"name":"demon","steam_id":76561198192080711,"connected_time":321000000000,"state":"active","ping":56},{"user_id":794,"name":"I Got Chased By FBI For Tax Eva","steam_id":76561198357894803,"connected_time":392000000000,"state":"active","ping":106},{"user_id":790,"name":"Sarip","steam_id":76561198113330438,"connected_time":545000000000,"state":"active","ping":56},{"user_id":768,"name":"Mega Saturn","steam_id":76561198024750500,"connected_time":1456000000000,"state":"active","ping":75},{"user_id":770,"name":"You mad bruv?.mp4","steam_id":76561198169440516,"connected_time":1285000000000,"state":"active","ping":71},{"user_id":671,"name":"✪ J","steam_id":76561198094911581,"connected_time":8929000000000,"state":"active","ping":53},{"user_id":776,"name":"Violet Hunii","steam_id":76561198207752648,"connected_time":1030000000000,"state":"spawning","ping":118},{"user_id":789,"name":"I SMOKE PCP","steam_id":76561198129866997,"connected_time":580000000000,"state":"active","ping":70}]},{"server_id":114,"name":"Uncletopia | London | 2 | All Maps","name_short":"lon-2","host":"lon-1.uk.uncletopia.com","port":27025,"enabled":true,"region":"eu","cc":"gb","latitude":51.509865,"longitude":-0.118092,"reserved":0,"last_update":"0001-01-01T00:00:00Z","name_a2s":"Uncletopia | London | 2 | All Maps","protocol":17,"map":"pl_upward","folder":"tf","game":"Team Fortress","app_id":440,"player_count":24,"max_players":24,"Bots":0,"server_type":"Dedicated","server_os":"Linux","password":true,"vac":true,"version":"7742253","steam_id":85568392924470941,"keywords":["nocrits","nodmgspread","payload","uncletopia"],"game_id":440,"stv_port":27026,"stv_name":"Uncletopia | London | 2 | All Maps | STV","players":[{"user_id":670,"name":"lelop15","steam_id":76561198277363229,"connected_time":1089000000000,"state":"active","ping":55},{"user_id":667,"name":"Ran33","steam_id":76561197991474499,"connected_time":1503000000000,"state":"active","ping":82},{"user_id":535,"name":"Penis Contortionist","steam_id":76561198073663784,"connected_time":10719000000000,"state":"active","ping":36},{"user_id":647,"name":"Delta Energydrink","steam_id":76561198028468433,"connected_time":2584000000000,"state":"active","ping":137},{"user_id":648,"name":"Dolly Sharton","steam_id":76561197990285940,"connected_time":2578000000000,"state":"active","ping":62},{"user_id":612,"name":"Kid Named UNO","steam_id":76561198846784757,"connected_time":4516000000000,"state":"active","ping":52},{"user_id":615,"name":"Lazulura","steam_id":76561198103569919,"connected_time":4431000000000,"state":"active","ping":75},{"user_id":663,"name":"balls","steam_id":76561198136821661,"connected_time":2123000000000,"state":"active","ping":53},{"user_id":626,"name":"simn","steam_id":76561198159182269,"connected_time":3471000000000,"state":"active","ping":60},{"user_id":672,"name":"Sivik","steam_id":76561198370329466,"connected_time":1061000000000,"state":"active","ping":45},{"user_id":674,"name":"heff","steam_id":76561198121744206,"connected_time":653000000000,"state":"active","ping":36},{"user_id":662,"name":"Grand Wizard","steam_id":76561199414716848,"connected_time":2247000000000,"state":"active","ping":75},{"user_id":676,"name":"Electro_Creeper","steam_id":76561199196836893,"connected_time":521000000000,"state":"active","ping":68},{"user_id":675,"name":"homeinvasion$","steam_id":76561199111905021,"connected_time":554000000000,"state":"active","ping":110},{"user_id":633,"name":"Carl's Marx","steam_id":76561198059700045,"connected_time":3153000000000,"state":"active","ping":55},{"user_id":673,"name":"Hildreth","steam_id":76561197995254867,"connected_time":968000000000,"state":"active","ping":53},{"user_id":651,"name":"Haku ( •ᴗ•)","steam_id":76561198013292193,"connected_time":2557000000000,"state":"active","ping":87},{"user_id":668,"name":"Поля (хеппи нью е\ufffd","steam_id":76561199277727142,"connected_time":1340000000000,"state":"active","ping":113},{"user_id":677,"name":"fhelp","steam_id":76561198332712960,"connected_time":511000000000,"state":"active","ping":51},{"user_id":665,"name":"SuntanPikachu","steam_id":76561198121242476,"connected_time":1792000000000,"state":"active","ping":49},{"user_id":680,"name":"Markus","steam_id":76561198036085459,"connected_time":125000000000,"state":"active","ping":66},{"user_id":653,"name":"Jainpeur","steam_id":76561198037938833,"connected_time":2545000000000,"state":"active","ping":55},{"user_id":642,"name":"b","steam_id":76561198074160877,"connected_time":2909000000000,"state":"active","ping":55},{"user_id":678,"name":"saus","steam_id":76561198114729364,"connected_time":510000000000,"state":"active","ping":59}]},{"server_id":320,"name":"Uncletopia | London | 3 | All Maps","name_short":"lon-3","host":"lon-1.uk.uncletopia.com","port":27035,"enabled":true,"region":"eu","cc":"gb","latitude":51.509865,"longitude":-0.118092,"reserved":0,"last_update":"0001-01-01T00:00:00Z","name_a2s":"Uncletopia | London | 3 | All Maps","protocol":17,"map":"koth_cascade","folder":"tf","game":"Team Fortress","app_id":440,"player_count":0,"max_players":24,"Bots":0,"server_type":"Dedicated","server_os":"Linux","password":true,"vac":true,"version":"7742253","steam_id":85568392924510192,"keywords":["cp","nocrits","nodmgspread","uncletopia"],"game_id":440,"stv_port":27036,"stv_name":"Uncletopia | London | 3 | All Maps | STV","players":null},{"server_id":321,"name":"Uncletopia | London | 4 | All Maps","name_short":"lon-4","host":"lon-1.uk.uncletopia.com","port":27045,"enabled":true,"region":"eu","cc":"gb","latitude":51.509865,"longitude":-0.118092,"reserved":0,"last_update":"0001-01-01T00:00:00Z","name_a2s":"Uncletopia | London | 4 | All Maps","protocol":17,"map":"cp_mountainlab","folder":"tf","game":"Team Fortress","app_id":440,"player_count":0,"max_players":24,"Bots":0,"server_type":"Dedicated","server_os":"Linux","password":true,"vac":true,"version":"7742253","steam_id":85568392924510193,"keywords":["cp","nocrits","nodmgspread","uncletopia"],"game_id":440,"stv_port":27046,"stv_name":"Uncletopia | London | 4 | All Maps | STV","players":null},{"server_id":21,"name":"Uncletopia | London | 5 | All Maps","name_short":"lon-5","host":"lon-1.uk.uncletopia.com","port":27055,"enabled":true,"region":"eu","cc":"gb","latitude":51.509865,"longitude":-0.118092,"reserved":0,"last_update":"0001-01-01T00:00:00Z","name_a2s":"Uncletopia | London | 5 | All Maps","protocol":17,"map":"pl_barnblitz","folder":"tf","game":"Team Fortress","app_id":440,"player_count":0,"max_players":24,"Bots":0,"server_type":"Dedicated","server_os":"Linux","password":true,"vac":true,"version":"7742253","steam_id":85568392924742829,"keywords":["nocrits","nodmgspread","payload","uncletopia"],"game_id":440,"stv_port":27056,"stv_name":"Uncletopia | London | 5 | All Maps | STV","players":null},{"server_id":22,"name":"Uncletopia | London | 6 | All Maps","name_short":"lon-6","host":"lon-1.uk.uncletopia.com","port":27065,"enabled":true,"region":"eu","cc":"gb","latitude":51.509865,"longitude":-0.118092,"reserved":0,"last_update":"0001-01-01T00:00:00Z","name_a2s":"Uncletopia | London | 6 | All Maps","protocol":17,"map":"cp_dustbowl","folder":"tf","game":"Team Fortress","app_id":440,"player_count":4,"max_players":24,"Bots":0,"server_type":"Dedicated","server_os":"Linux","password":true,"vac":true,"version":"7742253","steam_id":85568392924742830,"keywords":["cp","nocrits","nodmgspread","uncletopia"],"game_id":440,"stv_port":27066,"stv_name":"Uncletopia | London | 6 | All Maps | STV","players":[{"user_id":455,"name":"DragonSaverNero","steam_id":76561199175007075,"connected_time":927000000000,"state":"active","ping":197},{"user_id":459,"name":"AlistairNova","steam_id":76561199175469668,"connected_time":87000000000,"state":"active","ping":206},{"user_id":457,"name":"SIR KNIGHT OF DOGE","steam_id":76561198175682134,"connected_time":801000000000,"state":"active","ping":52},{"user_id":458,"name":"Fulfu (OᴥO)","steam_id":76561198211867499,"connected_time":767000000000,"state":"active","ping":47}]},{"server_id":40,"name":"Uncletopia | London | 7 | No Payload","name_short":"lon-7","host":"lon-1.uk.uncletopia.com","port":27075,"enabled":true,"region":"eu","cc":"gb","latitude":51.509865,"longitude":-0.118092,"reserved":0,"last_update":"0001-01-01T00:00:00Z","name_a2s":"Uncletopia | London | 7 | No Payload","protocol":17,"map":"cp_fastlane","folder":"tf","game":"Team Fortress","app_id":440,"player_count":0,"max_players":24,"Bots":0,"server_type":"Dedicated","server_os":"Linux","password":true,"vac":true,"version":"7742253","steam_id":85568392924964314,"keywords":["cp","nocrits","nodmgspread","uncletopia"],"game_id":440,"stv_port":27076,"stv_name":"Uncletopia | London | 7 | No Payload | STV","players":null},{"server_id":41,"name":"Uncletopia | London | 8 | Community","name_short":"lon-8","host":"lon-1.uk.uncletopia.com","port":27085,"enabled":true,"region":"eu","cc":"gb","latitude":51.509865,"longitude":-0.118092,"reserved":0,"last_update":"0001-01-01T00:00:00Z","name_a2s":"Uncletopia | London | 8 | Community","protocol":17,"map":"workshop/pl_eruption_b9a.ugc2807898013","folder":"tf","game":"Team Fortress","app_id":440,"player_count":0,"max_players":24,"Bots":0,"server_type":"Dedicated","server_os":"Linux","password":true,"vac":true,"version":"7742253","steam_id":85568392924964315,"keywords":["nocrits","nodmgspread","payload","uncletopia"],"game_id":440,"stv_port":27086,"stv_name":"Uncletopia | London | 8 | Community | STV","players":null},{"server_id":300,"name":"Uncletopia | Montréal | 1 | All Maps","name_short":"mtl-1","host":"mtl-1.ca.uncletopia.com","port":27015,"enabled":true,"region":"us-east","cc":"ca","latitude":45.50889,"longitude":-73.56167,"reserved":0,"last_update":"0001-01-01T00:00:00Z","name_a2s":"Uncletopia | Montréal | 1 | All Maps","protocol":17,"map":"pl_snowycoast","folder":"tf","game":"Team Fortress","app_id":440,"player_count":0,"max_players":24,"Bots":0,"server_type":"Dedicated","server_os":"Linux","password":true,"vac":true,"version":"7742253","steam_id":85568392924500087,"keywords":["nocrits","nodmgspread","payload","uncletopia"],"game_id":440,"stv_port":27016,"stv_name":"Uncletopia | Montréal | 1 | All Maps | STV","players":null},{"server_id":301,"name":"Uncletopia | Montréal | 2 | All Maps","name_short":"mtl-2","host":"mtl-1.ca.uncletopia.com","port":27025,"enabled":true,"region":"us-east","cc":"ca","latitude":45.50889,"longitude":-73.56167,"reserved":0,"last_update":"0001-01-01T00:00:00Z","name_a2s":"Uncletopia | Montréal | 2 | All Maps","protocol":17,"map":"koth_highpass","folder":"tf","game":"Team Fortress","app_id":440,"player_count":0,"max_players":24,"Bots":0,"server_type":"Dedicated","server_os":"Linux","password":true,"vac":true,"version":"7742253","steam_id":85568392924500088,"keywords":["cp","nocrits","nodmgspread","uncletopia"],"game_id":440,"stv_port":27026,"stv_name":"Uncletopia | Montréal | 2 | All Maps | STV","players":null},{"server_id":302,"name":"Uncletopia | Montréal | 3 | All Maps","name_short":"mtl-3","host":"mtl-1.ca.uncletopia.com","port":27035,"enabled":true,"region":"us-east","cc":"ca","latitude":45.50889,"longitude":-73.56167,"reserved":0,"last_update":"0001-01-01T00:00:00Z","name_a2s":"Uncletopia | Montréal | 3 | All Maps","protocol":17,"map":"koth_viaduct","folder":"tf","game":"Team Fortress","app_id":440,"player_count":0,"max_players":24,"Bots":0,"server_type":"Dedicated","server_os":"Linux","password":true,"vac":true,"version":"7742253","steam_id":85568392924500089,"keywords":["cp","nocrits","nodmgspread","uncletopia"],"game_id":440,"stv_port":27036,"stv_name":"Uncletopia | Montréal | 3 | All Maps | STV","players":null},{"server_id":303,"name":"Uncletopia | Montréal | 4 | No Payload","name_short":"mtl-4","host":"mtl-1.ca.uncletopia.com","port":27045,"enabled":true,"region":"us-east","cc":"ca","latitude":45.50889,"longitude":-73.56167,"reserved":0,"last_update":"0001-01-01T00:00:00Z","name_a2s":"Uncletopia | Montréal | 4 | No Payload","protocol":17,"map":"plr_pipeline","folder":"tf","game":"Team Fortress","app_id":440,"player_count":0,"max_players":24,"Bots":0,"server_type":"Dedicated","server_os":"Linux","password":true,"vac":true,"version":"7742253","steam_id":85568392924500090,"keywords":["nocrits","nodmgspread","payload","uncletopia"],"game_id":440,"stv_port":27046,"stv_name":"Uncletopia | Montréal | 4 | No Payload | STV","players":null},{"server_id":13,"name":"Uncletopia | New York City | 1 | All Maps","name_short":"nyc-1","host":"nyc-1.us.uncletopia.com","port":27015,"enabled":true,"region":"us-east","cc":"us","latitude":40.73061,"longitude":-73.93524,"reserved":0,"last_update":"0001-01-01T00:00:00Z","name_a2s":"Uncletopia | New York City | 1 | All Maps","protocol":17,"map":"pl_upward","folder":"tf","game":"Team Fortress","app_id":440,"player_count":24,"max_players":24,"Bots":0,"server_type":"Dedicated","server_os":"Linux","password":true,"vac":true,"version":"7742253","steam_id":85568392924469993,"keywords":["nocrits","nodmgspread","payload","uncletopia"],"game_id":440,"stv_port":27016,"stv_name":"Uncletopia | New York City | 1 | All Maps | STV","players":[{"user_id":472,"name":"McAspie","steam_id":76561198079700167,"connected_time":580000000000,"state":"active","ping":81},{"user_id":461,"name":"yougotsauled","steam_id":76561198880754695,"connected_time":1804000000000,"state":"active","ping":44},{"user_id":443,"name":"Yuzu","steam_id":76561198417913035,"connected_time":2993000000000,"state":"active","ping":68},{"user_id":473,"name":"supamajikunicorn","steam_id":76561198152596322,"connected_time":578000000000,"state":"active","ping":62},{"user_id":448,"name":"Facet","steam_id":76561197999782628,"connected_time":2924000000000,"state":"active","ping":79},{"user_id":442,"name":"layabout","steam_id":76561198130892117,"connected_time":3188000000000,"state":"active","ping":55},{"user_id":474,"name":"C0RV3L","steam_id":76561199205094837,"connected_time":565000000000,"state":"active","ping":64},{"user_id":475,"name":"Yolo","steam_id":76561198156406777,"connected_time":545000000000,"state":"active","ping":169},{"user_id":462,"name":"Effie","steam_id":76561198261842068,"connected_time":1788000000000,"state":"active","ping":78},{"user_id":478,"name":"AJfighter222","steam_id":76561198154572170,"connected_time":518000000000,"state":"active","ping":51},{"user_id":493,"name":"e","steam_id":76561198131245396,"connected_time":147000000000,"state":"active","ping":65},{"user_id":494,"name":"Smig","steam_id":76561198408846602,"connected_time":140000000000,"state":"active","ping":55},{"user_id":470,"name":"Wiggee","steam_id":76561197972792989,"connected_time":1099000000000,"state":"active","ping":79},{"user_id":431,"name":"Chowdie","steam_id":76561198039605762,"connected_time":4007000000000,"state":"active","ping":45},{"user_id":391,"name":"FrumpyGoldsmith","steam_id":76561199036534127,"connected_time":7301000000000,"state":"active","ping":75},{"user_id":468,"name":"Bio Dome With Pauly Shore","steam_id":76561197987482919,"connected_time":1228000000000,"state":"active","ping":47},{"user_id":492,"name":"Ceiling Man","steam_id":76561198003959902,"connected_time":163000000000,"state":"active","ping":42},{"user_id":464,"name":"crackingcorn","steam_id":76561198281690779,"connected_time":1769000000000,"state":"active","ping":60},{"user_id":490,"name":"erwebomio","steam_id":76561198071152924,"connected_time":177000000000,"state":"active","ping":149},{"user_id":485,"name":"SoggySausage","steam_id":76561198159806437,"connected_time":450000000000,"state":"active","ping":69},{"user_id":380,"name":"xXBigWingmanFanXx","steam_id":76561198067904392,"connected_time":8175000000000,"state":"active","ping":52},{"user_id":417,"name":"ArcanianArcher","steam_id":76561198088445076,"connected_time":5422000000000,"state":"active","ping":51},{"user_id":481,"name":"hazel","steam_id":76561198447244031,"connected_time":502000000000,"state":"active","ping":112},{"user_id":491,"name":"Notorious_Pat","steam_id":76561198092348214,"connected_time":177000000000,"state":"active","ping":81}]},{"server_id":14,"name":"Uncletopia | New York City | 2 | All Maps","name_short":"nyc-2","host":"nyc-1.us.uncletopia.com","port":27025,"enabled":true,"region":"us-east","cc":"us","latitude":40.73061,"longitude":-73.93524,"reserved":0,"last_update":"0001-01-01T00:00:00Z","name_a2s":"Uncletopia | New York City | 2 | All Maps","protocol":17,"map":"pl_frontier_final","folder":"tf","game":"Team Fortress","app_id":440,"player_count":24,"max_players":24,"Bots":0,"server_type":"Dedicated","server_os":"Linux","password":true,"vac":true,"version":"7742253","steam_id":85568392924469994,"keywords":["nocrits","nodmgspread","payload","uncletopia"],"game_id":440,"stv_port":27026,"stv_name":"Uncletopia | New York City | 2 | All Maps | STV","players":[{"user_id":778,"name":"faxxy","steam_id":76561198079621240,"connected_time":2777000000000,"state":"active","ping":64},{"user_id":768,"name":"Geloman","steam_id":76561198005501322,"connected_time":3309000000000,"state":"active","ping":58},{"user_id":771,"name":"gertchy","steam_id":76561199111932529,"connected_time":3020000000000,"state":"active","ping":42},{"user_id":788,"name":"Not Guztaf","steam_id":76561198334924763,"connected_time":2084000000000,"state":"active","ping":77},{"user_id":785,"name":"Takumi Fujiwara","steam_id":76561198146281101,"connected_time":2525000000000,"state":"active","ping":58},{"user_id":807,"name":"Inadequate","steam_id":76561198108263810,"connected_time":708000000000,"state":"active","ping":145},{"user_id":750,"name":"Big ol' Willy Gaming","steam_id":76561198048545731,"connected_time":4654000000000,"state":"active","ping":103},{"user_id":805,"name":"Lightning","steam_id":76561198196357798,"connected_time":805000000000,"state":"active","ping":92},{"user_id":780,"name":"qjkxkcd","steam_id":76561198035922283,"connected_time":2763000000000,"state":"active","ping":55},{"user_id":810,"name":"Lylak","steam_id":76561198032620176,"connected_time":361000000000,"state":"active","ping":65},{"user_id":790,"name":"SE X","steam_id":76561198094525829,"connected_time":2001000000000,"state":"active","ping":53},{"user_id":804,"name":"Ewah","steam_id":76561198057912166,"connected_time":920000000000,"state":"active","ping":62},{"user_id":811,"name":"KoЯnOnACob","steam_id":76561198417907764,"connected_time":173000000000,"state":"active","ping":101},{"user_id":796,"name":"dr cock","steam_id":76561198124810219,"connected_time":1349000000000,"state":"active","ping":52},{"user_id":791,"name":"dr peppah chug!","steam_id":76561198068835693,"connected_time":1985000000000,"state":"active","ping":86},{"user_id":800,"name":"BooceMaster","steam_id":76561198148520318,"connected_time":1241000000000,"state":"active","ping":44},{"user_id":787,"name":"begolds8","steam_id":76561198841069098,"connected_time":2249000000000,"state":"active","ping":110},{"user_id":806,"name":"PointlessPear","steam_id":76561198408656467,"connected_time":798000000000,"state":"active","ping":69},{"user_id":808,"name":"dudu","steam_id":76561198188673074,"connected_time":698000000000,"state":"active","ping":124},{"user_id":799,"name":"abibiliophobe","steam_id":76561197993251638,"connected_time":1266000000000,"state":"active","ping":94},{"user_id":769,"name":"Lemur","steam_id":76561198065300466,"connected_time":3225000000000,"state":"active","ping":60},{"user_id":793,"name":"[ £Ÿ,Đ ] Not AirmanBlueJay","steam_id":76561198030901346,"connected_time":1761000000000,"state":"active","ping":62},{"user_id":770,"name":"tooth","steam_id":76561197986437643,"connected_time":3206000000000,"state":"active","ping":49},{"user_id":802,"name":"cold","steam_id":76561199017901552,"connected_time":1226000000000,"state":"active","ping":84}]},{"server_id":15,"name":"Uncletopia | New York City | 3 | Stopwatch Beta","name_short":"nyc-3","host":"nyc-1.us.uncletopia.com","port":27035,"enabled":true,"region":"us-east","cc":"us","latitude":40.73061,"longitude":-73.93524,"reserved":0,"last_update":"0001-01-01T00:00:00Z","name_a2s":"Uncletopia | New York City | 3 | Stopwatch Beta","protocol":17,"map":"cp_metalworks","folder":"tf","game":"Team Fortress","app_id":440,"player_count":12,"max_players":24,"Bots":0,"server_type":"Dedicated","server_os":"Linux","password":true,"vac":true,"version":"7742253","steam_id":85568392924742820,"keywords":["cp","nocrits","nodmgspread","uncletopia"],"game_id":440,"stv_port":27036,"stv_name":"Uncletopia | New York City | 3 | Stopwatch Beta | STV","players":[{"user_id":282,"name":"Laelaps","steam_id":76561198100061416,"connected_time":4946000000000,"state":"active","ping":61},{"user_id":320,"name":"Pyro gaming","steam_id":76561199465302653,"connected_time":2306000000000,"state":"active","ping":62},{"user_id":355,"name":"theTheSuzan","steam_id":76561198044181453,"connected_time":79000000000,"state":"active","ping":139},{"user_id":347,"name":"A Terrible Shot","steam_id":76561198045523833,"connected_time":1004000000000,"state":"active","ping":66},{"user_id":341,"name":"CreeperCatBengal","steam_id":76561198213193221,"connected_time":1554000000000,"state":"active","ping":53},{"user_id":332,"name":"NovaStar","steam_id":76561198421340963,"connected_time":1826000000000,"state":"active","ping":84},{"user_id":315,"name":"DeathToCats","steam_id":76561198092238353,"connected_time":2528000000000,"state":"active","ping":90},{"user_id":317,"name":"The Muffin Man","steam_id":76561199088286427,"connected_time":2453000000000,"state":"active","ping":112},{"user_id":343,"name":"Chewbacca","steam_id":76561198041927925,"connected_time":1240000000000,"state":"active","ping":59},{"user_id":348,"name":"Lennu","steam_id":76561198060730154,"connected_time":925000000000,"state":"active","ping":67},{"user_id":345,"name":"ExoTheFlyingFish","steam_id":76561198034388243,"connected_time":1055000000000,"state":"active","ping":35},{"user_id":327,"name":"Leviathan","steam_id":76561197997528907,"connected_time":2147000000000,"state":"active","ping":40}]},{"server_id":16,"name":"Uncletopia | New York City | 4 | Community","name_short":"nyc-4","host":"nyc-1.us.uncletopia.com","port":27045,"enabled":true,"region":"us-east","cc":"us","latitude":40.73061,"longitude":-73.93524,"reserved":0,"last_update":"0001-01-01T00:00:00Z","name_a2s":"Uncletopia | New York City | 4 | Community","protocol":17,"map":"workshop/koth_bagel_rc5.ugc2514036946","folder":"tf","game":"Team Fortress","app_id":440,"player_count":0,"max_players":24,"Bots":0,"server_type":"Dedicated","server_os":"Linux","password":true,"vac":true,"version":"7742253","steam_id":85568392924742821,"keywords":["cp","nocrits","nodmgspread","uncletopia"],"game_id":440,"stv_port":27046,"stv_name":"Uncletopia | New York City | 4 | Community | STV","players":null},{"server_id":142,"name":"Uncletopia | São Paulo | 1 | All Maps","name_short":"sao-1","host":"sao-1.br.uncletopia.com","port":27015,"enabled":true,"region":"sa","cc":"br","latitude":-23.533773,"longitude":-46.62529,"reserved":0,"last_update":"0001-01-01T00:00:00Z","name_a2s":"Uncletopia | São Paulo | 1 | All Maps","protocol":17,"map":"pl_snowycoast","folder":"tf","game":"Team Fortress","app_id":440,"player_count":0,"max_players":24,"Bots":0,"server_type":"Dedicated","server_os":"Linux","password":true,"vac":true,"version":"7742253","steam_id":85568392924469996,"keywords":["nocrits","nodmgspread","payload","uncletopia"],"game_id":440,"stv_port":27016,"stv_name":"Uncletopia | São Paulo | 1 | All Maps | STV","players":null},{"server_id":143,"name":"Uncletopia | São Paulo | 2 | All Maps","name_short":"sao-2","host":"sao-2.br.uncletopia.com","port":27015,"enabled":true,"region":"sa","cc":"br","latitude":-23.533773,"longitude":-46.62529,"reserved":0,"last_update":"0001-01-01T00:00:00Z","name_a2s":"Uncletopia | São Paulo | 2 | All Maps","protocol":17,"map":"koth_viaduct","folder":"tf","game":"Team Fortress","app_id":440,"player_count":0,"max_players":24,"Bots":0,"server_type":"Dedicated","server_os":"Linux","password":true,"vac":true,"version":"7742253","steam_id":85568392924485349,"keywords":["cp","nocrits","nodmgspread","uncletopia"],"game_id":440,"stv_port":27016,"stv_name":"Uncletopia | São Paulo | 2 | All Maps | STV","players":null},{"server_id":7,"name":"Uncletopia | Seattle | 1 | All Maps","name_short":"sea-1","host":"sea-1.us.uncletopia.com","port":27015,"enabled":true,"region":"us-west","cc":"us","latitude":47.608013,"longitude":-122.33517,"reserved":0,"last_update":"0001-01-01T00:00:00Z","name_a2s":"Uncletopia | Seattle | 1 | All Maps","protocol":17,"map":"pl_pier","folder":"tf","game":"Team Fortress","app_id":440,"player_count":24,"max_players":24,"Bots":0,"server_type":"Dedicated","server_os":"Linux","password":true,"vac":true,"version":"7742253","steam_id":85568392924469997,"keywords":["nocrits","nodmgspread","payload","uncletopia"],"game_id":440,"stv_port":27016,"stv_name":"Uncletopia | Seattle | 1 | All Maps | STV","players":[{"user_id":407,"name":"Robert E.T.","steam_id":76561197986439371,"connected_time":131000000000,"state":"active","ping":45},{"user_id":371,"name":"zzrat","steam_id":76561198014925415,"connected_time":1380000000000,"state":"active","ping":58},{"user_id":320,"name":"Koolaid","steam_id":76561199200296010,"connected_time":4113000000000,"state":"active","ping":129},{"user_id":376,"name":"Honeybunch","steam_id":76561198014850580,"connected_time":1344000000000,"state":"active","ping":37},{"user_id":401,"name":"Sweets","steam_id":76561198998446307,"connected_time":624000000000,"state":"active","ping":66},{"user_id":389,"name":"b31345fnhu923!","steam_id":76561198864353110,"connected_time":795000000000,"state":"active","ping":113},{"user_id":384,"name":"Crake","steam_id":76561198001959071,"connected_time":1036000000000,"state":"active","ping":51},{"user_id":395,"name":"Merach","steam_id":76561197994544587,"connected_time":685000000000,"state":"active","ping":45},{"user_id":385,"name":"Lightworker","steam_id":76561198063949642,"connected_time":950000000000,"state":"active","ping":41},{"user_id":377,"name":"Piper Knightley","steam_id":76561198040865392,"connected_time":1343000000000,"state":"active","ping":83},{"user_id":403,"name":"1superphantom","steam_id":76561199466613212,"connected_time":367000000000,"state":"active","ping":80},{"user_id":404,"name":"amagicowl","steam_id":76561199060487814,"connected_time":292000000000,"state":"active","ping":63},{"user_id":387,"name":"The Senate","steam_id":76561198990292702,"connected_time":841000000000,"state":"active","ping":100},{"user_id":363,"name":"dodecadron","steam_id":76561198027397222,"connected_time":1800000000000,"state":"active","ping":68},{"user_id":369,"name":"Uncle","steam_id":76561197988647705,"connected_time":1393000000000,"state":"active","ping":119},{"user_id":381,"name":"i ate atomic bomb","steam_id":76561198150406851,"connected_time":1226000000000,"state":"active","ping":68},{"user_id":405,"name":"Atomic Waffles","steam_id":76561197970935570,"connected_time":290000000000,"state":"active","ping":119},{"user_id":400,"name":"Gerbz","steam_id":76561198296032677,"connected_time":638000000000,"state":"active","ping":69},{"user_id":364,"name":"coffee","steam_id":76561198141061142,"connected_time":1797000000000,"state":"active","ping":77},{"user_id":368,"name":"sourleman","steam_id":76561199079954306,"connected_time":1521000000000,"state":"active","ping":69},{"user_id":406,"name":"Captain Red","steam_id":76561198191587983,"connected_time":289000000000,"state":"active","ping":90},{"user_id":380,"name":"Cpt. Dingle","steam_id":76561198025720199,"connected_time":1254000000000,"state":"active","ping":76},{"user_id":333,"name":"bulk//Dinkolaw","steam_id":76561198154072948,"connected_time":3932000000000,"state":"active","ping":119},{"user_id":370,"name":"Wormy wants to RTV","steam_id":76561198054539200,"connected_time":1391000000000,"state":"active","ping":58}]},{"server_id":119,"name":"Uncletopia | Seattle | 2 | All Maps","name_short":"sea-2","host":"sea-1.us.uncletopia.com","port":27025,"enabled":true,"region":"us-west","cc":"us","latitude":47.608013,"longitude":-122.33517,"reserved":0,"last_update":"0001-01-01T00:00:00Z","name_a2s":"Uncletopia | Seattle | 2 | All Maps","protocol":17,"map":"pl_upward","folder":"tf","game":"Team Fortress","app_id":440,"player_count":24,"max_players":24,"Bots":0,"server_type":"Dedicated","server_os":"Linux","password":true,"vac":true,"version":"7742253","steam_id":85568392924469998,"keywords":["nocrits","nodmgspread","payload","uncletopia"],"game_id":440,"stv_port":27026,"stv_name":"Uncletopia | Seattle | 2 | All Maps | STV","players":[{"user_id":223,"name":"R5-D4","steam_id":76561198025196439,"connected_time":1533000000000,"state":"active","ping":56},{"user_id":154,"name":"kermitcreeper(ZAZA)","steam_id":76561199222829972,"connected_time":5827000000000,"state":"active","ping":104},{"user_id":236,"name":"I-die-often","steam_id":76561197996780327,"connected_time":255000000000,"state":"active","ping":106},{"user_id":225,"name":"mudunit","steam_id":76561198811544015,"connected_time":1366000000000,"state":"active","ping":56},{"user_id":169,"name":"mumbles","steam_id":76561197994528974,"connected_time":4964000000000,"state":"active","ping":78},{"user_id":148,"name":"BYS ShadowFenix","steam_id":76561198186807115,"connected_time":6519000000000,"state":"active","ping":60},{"user_id":191,"name":"soclosetocreeps","steam_id":76561198442865621,"connected_time":3736000000000,"state":"active","ping":52},{"user_id":228,"name":"ScoutMoment420","steam_id":76561199316368867,"connected_time":1296000000000,"state":"active","ping":118},{"user_id":226,"name":"Flyingcat9000","steam_id":76561198179561797,"connected_time":1362000000000,"state":"active","ping":54},{"user_id":224,"name":"dzcreeper","steam_id":76561198072250723,"connected_time":1389000000000,"state":"active","ping":86},{"user_id":200,"name":"a spider monkey trying his best","steam_id":76561198165473340,"connected_time":3181000000000,"state":"active","ping":98},{"user_id":234,"name":"Voxeltile","steam_id":76561198043724134,"connected_time":703000000000,"state":"active","ping":64},{"user_id":222,"name":"chunkysquare","steam_id":76561199076468383,"connected_time":1952000000000,"state":"active","ping":71},{"user_id":230,"name":"Rakk","steam_id":76561198855176174,"connected_time":1275000000000,"state":"active","ping":81},{"user_id":232,"name":"galunga","steam_id":76561198027184320,"connected_time":1203000000000,"state":"active","ping":78},{"user_id":158,"name":"ejschild745","steam_id":76561199013388867,"connected_time":5716000000000,"state":"active","ping":64},{"user_id":238,"name":"Rx Auntie","steam_id":76561198051618393,"connected_time":60000000000,"state":"active","ping":63},{"user_id":235,"name":"KingTinkerer","steam_id":76561198226856548,"connected_time":483000000000,"state":"active","ping":76},{"user_id":212,"name":"GamerGuy88","steam_id":76561199059733640,"connected_time":2683000000000,"state":"active","ping":90},{"user_id":227,"name":"lag","steam_id":76561197963872739,"connected_time":1349000000000,"state":"active","ping":46},{"user_id":210,"name":"Peepster","steam_id":76561198297854733,"connected_time":2766000000000,"state":"active","ping":119},{"user_id":233,"name":"♥ President Shitfart ♥","steam_id":76561198141819053,"connected_time":777000000000,"state":"active","ping":64},{"user_id":218,"name":"ึ","steam_id":76561198012357518,"connected_time":2357000000000,"state":"active","ping":88},{"user_id":237,"name":"ThatEmoEmu","steam_id":76561198272304706,"connected_time":205000000000,"state":"active","ping":50}]},{"server_id":406,"name":"Uncletopia | Seattle | 3 | Stopwatch Beta","name_short":"sea-3","host":"sea-1.us.uncletopia.com","port":27035,"enabled":true,"region":"us-west","cc":"us","latitude":47.608013,"longitude":-122.33517,"reserved":0,"last_update":"0001-01-01T00:00:00Z","name_a2s":"Uncletopia | Seattle | 3 | Stopwatch Beta","protocol":17,"map":"workshop/koth_ramjam_rc1.ugc459778887","folder":"tf","game":"Team Fortress","app_id":440,"player_count":0,"max_players":24,"Bots":0,"server_type":"Dedicated","server_os":"Linux","password":true,"vac":true,"version":"7742253","steam_id":85568392924515217,"keywords":["cp","nocrits","nodmgspread","uncletopia"],"game_id":440,"stv_port":27036,"stv_name":"Uncletopia | Seattle | 3 | Stopwatch Beta | STV","players":null},{"server_id":17,"name":"Uncletopia | San Francisco | 1 | All Maps","name_short":"sfo-1","host":"sfo-1.us.uncletopia.com","port":27015,"enabled":true,"region":"us-west","cc":"us","latitude":37.77397,"longitude":-122.4313,"reserved":0,"last_update":"0001-01-01T00:00:00Z","name_a2s":"Uncletopia | San Francisco | 1 | All Maps","protocol":17,"map":"pl_badwater","folder":"tf","game":"Team Fortress","app_id":440,"player_count":22,"max_players":24,"Bots":0,"server_type":"Dedicated","server_os":"Linux","password":true,"vac":true,"version":"7742253","steam_id":85568392924469999,"keywords":["nocrits","nodmgspread","payload","uncletopia"],"game_id":440,"stv_port":27016,"stv_name":"Uncletopia | San Francisco | 1 | All Maps | STV","players":[{"user_id":8,"name":"DarthJiggles","steam_id":76561198088383875,"connected_time":2829000000000,"state":"active","ping":40},{"user_id":51,"name":"Yachter","steam_id":76561198129749194,"connected_time":609000000000,"state":"active","ping":70},{"user_id":58,"name":"thegreatsawyer","steam_id":76561198393604826,"connected_time":405000000000,"state":"active","ping":75},{"user_id":11,"name":"Battery_Included","steam_id":76561198067164431,"connected_time":2715000000000,"state":"active","ping":45},{"user_id":12,"name":"Delta","steam_id":76561198021957971,"connected_time":2711000000000,"state":"active","ping":44},{"user_id":27,"name":"Zomen","steam_id":76561198134901918,"connected_time":2297000000000,"state":"active","ping":37},{"user_id":63,"name":"Volkan, Pervert Extraordinaire","steam_id":76561198004569575,"connected_time":288000000000,"state":"active","ping":120},{"user_id":15,"name":"Perfume Department","steam_id":76561198128299594,"connected_time":2592000000000,"state":"active","ping":45},{"user_id":16,"name":"tacofever","steam_id":76561198010966507,"connected_time":2580000000000,"state":"active","ping":58},{"user_id":65,"name":"TheMagicMrWaffle","steam_id":76561198104357256,"connected_time":227000000000,"state":"active","ping":49},{"user_id":62,"name":"RushIn","steam_id":76561199013261240,"connected_time":304000000000,"state":"active","ping":63},{"user_id":53,"name":"lil Froag","steam_id":76561198072722879,"connected_time":586000000000,"state":"active","ping":107},{"user_id":30,"name":"Hi I'm Dom","steam_id":76561197977920457,"connected_time":2200000000000,"state":"active","ping":114},{"user_id":68,"name":"Grammer","steam_id":76561197977007845,"connected_time":20000000000,"state":"active","ping":44},{"user_id":59,"name":"Spiffle","steam_id":76561199089811047,"connected_time":385000000000,"state":"active","ping":53},{"user_id":56,"name":"SapphireSundew [Lotus]","steam_id":76561198040904890,"connected_time":553000000000,"state":"active","ping":115},{"user_id":33,"name":"BluBear","steam_id":76561198068768319,"connected_time":2160000000000,"state":"active","ping":118},{"user_id":60,"name":"ZeeerZowowowBwow","steam_id":76561198018404265,"connected_time":344000000000,"state":"active","ping":52},{"user_id":67,"name":"fortzei","steam_id":76561198210920541,"connected_time":130000000000,"state":"spawning","ping":182},{"user_id":66,"name":"machomelon","steam_id":76561198043683564,"connected_time":145000000000,"state":"active","ping":45},{"user_id":49,"name":"rosie_bunnies","steam_id":76561198206688311,"connected_time":853000000000,"state":"active","ping":120},{"user_id":61,"name":"Todouw","steam_id":76561199197628378,"connected_time":344000000000,"state":"active","ping":181}]},{"server_id":18,"name":"Uncletopia | San Francisco | 2 | All Maps","name_short":"sfo-2","host":"sfo-1.us.uncletopia.com","port":27025,"enabled":true,"region":"us-west","cc":"us","latitude":37.77397,"longitude":-122.4313,"reserved":0,"last_update":"0001-01-01T00:00:00Z","name_a2s":"Uncletopia | San Francisco | 2 | All Maps","protocol":17,"map":"koth_viaduct","folder":"tf","game":"Team Fortress","app_id":440,"player_count":0,"max_players":24,"Bots":0,"server_type":"Dedicated","server_os":"Linux","password":true,"vac":true,"version":"7742253","steam_id":85568392924470000,"keywords":["cp","nocrits","nodmgspread","uncletopia"],"game_id":440,"stv_port":27026,"stv_name":"Uncletopia | San Francisco | 2 | All Maps | STV","players":null},{"server_id":19,"name":"Uncletopia | San Francisco | 3 | Stopwatch Beta","name_short":"sfo-3","host":"sfo-1.us.uncletopia.com","port":27035,"enabled":true,"region":"us-west","cc":"us","latitude":37.77397,"longitude":-122.4313,"reserved":0,"last_update":"0001-01-01T00:00:00Z","name_a2s":"Uncletopia | San Francisco | 3 | Stopwatch Beta","protocol":17,"map":"pl_swiftwater_final1","folder":"tf","game":"Team Fortress","app_id":440,"player_count":0,"max_players":24,"Bots":0,"server_type":"Dedicated","server_os":"Linux","password":true,"vac":true,"version":"7742253","steam_id":85568392924742824,"keywords":["nocrits","nodmgspread","payload","uncletopia"],"game_id":440,"stv_port":27036,"stv_name":"Uncletopia | San Francisco | 3 | Stopwatch Beta | STV","players":null},{"server_id":20,"name":"Uncletopia | San Francisco | 4 | Community","name_short":"sfo-4","host":"sfo-1.us.uncletopia.com","port":27045,"enabled":true,"region":"us-west","cc":"us","latitude":37.77397,"longitude":-122.4313,"reserved":0,"last_update":"0001-01-01T00:00:00Z","name_a2s":"Uncletopia | San Francisco | 4 | Community","protocol":17,"map":"workshop/koth_slaughter_rc1.ugc1712845210","folder":"tf","game":"Team Fortress","app_id":440,"player_count":0,"max_players":24,"Bots":0,"server_type":"Dedicated","server_os":"Linux","password":true,"vac":true,"version":"7742253","steam_id":85568392924742826,"keywords":["cp","nocrits","nodmgspread","uncletopia"],"game_id":440,"stv_port":27046,"stv_name":"Uncletopia | San Francisco | 4 | Community | STV","players":null},{"server_id":141,"name":"Uncletopia | Sydney | 1 | All Maps","name_short":"syd-1","host":"syd-1.au.uncletopia.com","port":27015,"enabled":true,"region":"au","cc":"au","latitude":-33.865143,"longitude":151.2099,"reserved":0,"last_update":"0001-01-01T00:00:00Z","name_a2s":"Uncletopia | Sydney | 1 | All Maps","protocol":17,"map":"cp_steel","folder":"tf","game":"Team Fortress","app_id":440,"player_count":24,"max_players":24,"Bots":0,"server_type":"Dedicated","server_os":"Linux","password":true,"vac":true,"version":"7742253","steam_id":85568392924470001,"keywords":["cp","nocrits","nodmgspread","uncletopia"],"game_id":440,"stv_port":27016,"stv_name":"Uncletopia | Sydney | 1 | All Maps | STV","players":[{"user_id":219,"name":"michael","steam_id":76561198052848358,"connected_time":1086000000000,"state":"active","ping":62},{"user_id":228,"name":"LeoJoeD","steam_id":76561198161848749,"connected_time":161000000000,"state":"active","ping":41},{"user_id":221,"name":"Dangerous DPad","steam_id":76561198452829128,"connected_time":939000000000,"state":"active","ping":65},{"user_id":173,"name":"sSubtl🔱","steam_id":76561198102080207,"connected_time":3681000000000,"state":"active","ping":51},{"user_id":201,"name":"Lapislotl","steam_id":76561198886296304,"connected_time":2143000000000,"state":"active","ping":52},{"user_id":225,"name":"Dingo","steam_id":76561198315774295,"connected_time":506000000000,"state":"active","ping":59},{"user_id":217,"name":"contemporary fart","steam_id":76561198049945781,"connected_time":1395000000000,"state":"active","ping":45},{"user_id":227,"name":"SassnCheeky","steam_id":76561197993875592,"connected_time":356000000000,"state":"active","ping":55},{"user_id":224,"name":"Zacy","steam_id":76561198114841670,"connected_time":683000000000,"state":"active","ping":121},{"user_id":226,"name":"Raypest","steam_id":76561197980678745,"connected_time":431000000000,"state":"active","ping":38},{"user_id":204,"name":"CheeseFlag126","steam_id":76561199262769917,"connected_time":1950000000000,"state":"active","ping":62},{"user_id":200,"name":"normans on sabbatical honey","steam_id":76561198082423230,"connected_time":2265000000000,"state":"active","ping":72},{"user_id":211,"name":"Livid","steam_id":76561198060024585,"connected_time":1669000000000,"state":"active","ping":37},{"user_id":230,"name":"Macca","steam_id":76561198010207998,"connected_time":99000000000,"state":"active","ping":45},{"user_id":212,"name":"bill","steam_id":76561198066726621,"connected_time":1627000000000,"state":"active","ping":52},{"user_id":130,"name":"PinkFluffyKnuckles","steam_id":76561198877114539,"connected_time":6621000000000,"state":"active","ping":63},{"user_id":180,"name":"The joker does the griddy","steam_id":76561199057568663,"connected_time":3305000000000,"state":"active","ping":59},{"user_id":229,"name":"4:3 moment","steam_id":76561198170693338,"connected_time":105000000000,"state":"active","ping":76},{"user_id":220,"name":"bluehat","steam_id":76561198355125370,"connected_time":983000000000,"state":"active","ping":44},{"user_id":213,"name":"seizure salad","steam_id":76561198310285437,"connected_time":1607000000000,"state":"active","ping":81},{"user_id":192,"name":"seiran","steam_id":76561198880907232,"connected_time":2530000000000,"state":"active","ping":101},{"user_id":194,"name":"zebulon","steam_id":76561198063481761,"connected_time":2493000000000,"state":"active","ping":44},{"user_id":142,"name":"blaze","steam_id":76561198241303512,"connected_time":5702000000000,"state":"active","ping":53},{"user_id":209,"name":"ratbag","steam_id":76561198048064049,"connected_time":1868000000000,"state":"active","ping":117}]},{"server_id":123,"name":"Uncletopia | Sydney | 2 | All Maps","name_short":"syd-2","host":"syd-1.au.uncletopia.com","port":27025,"enabled":true,"region":"au","cc":"au","latitude":-33.865143,"longitude":151.2099,"reserved":0,"last_update":"0001-01-01T00:00:00Z","name_a2s":"Uncletopia | Sydney | 2 | All Maps","protocol":17,"map":"cp_altitude","folder":"tf","game":"Team Fortress","app_id":440,"player_count":3,"max_players":24,"Bots":0,"server_type":"Dedicated","server_os":"Linux","password":true,"vac":true,"version":"7742253","steam_id":85568392924470002,"keywords":["cp","nocrits","nodmgspread","uncletopia"],"game_id":440,"stv_port":27026,"stv_name":"Uncletopia | Sydney | 2 | All Maps | STV","players":[{"user_id":19,"name":"taunter","steam_id":76561199166098585,"connected_time":175000000000,"state":"active","ping":94},{"user_id":17,"name":"Qucumber","steam_id":76561199232727317,"connected_time":548000000000,"state":"active","ping":73},{"user_id":15,"name":"111111adama","steam_id":76561199149781531,"connected_time":947000000000,"state":"active","ping":84}]},{"server_id":395,"name":"Uncletopia | Sydney | 3 | All Maps","name_short":"syd-3","host":"syd-1.au.uncletopia.com","port":27035,"enabled":true,"region":"au","cc":"au","latitude":-33.865143,"longitude":151.2099,"reserved":0,"last_update":"0001-01-01T00:00:00Z","name_a2s":"Uncletopia | Sydney | 3 | All Maps","protocol":17,"map":"koth_viaduct","folder":"tf","game":"Team Fortress","app_id":440,"player_count":2,"max_players":24,"Bots":0,"server_type":"Dedicated","server_os":"Linux","password":true,"vac":true,"version":"7742253","steam_id":85568392925194467,"keywords":["cp","nocrits","nodmgspread","uncletopia"],"game_id":440,"stv_port":27036,"stv_name":"Uncletopia | Sydney | 3 | All Maps | STV","players":[{"user_id":5,"name":"LegEaterHK","steam_id":76561199357838817,"connected_time":42000000000,"state":"active","ping":72},{"user_id":6,"name":"rylan.chen","steam_id":76561199152151734,"connected_time":34000000000,"state":"active","ping":79}]},{"server_id":396,"name":"Uncletopia | Sydney | 4 | All Maps","name_short":"syd-4","host":"syd-1.au.uncletopia.com","port":27045,"enabled":true,"region":"au","cc":"au","latitude":-33.865143,"longitude":151.2099,"reserved":0,"last_update":"0001-01-01T00:00:00Z","name_a2s":"Uncletopia | Sydney | 4 | All Maps","protocol":17,"map":"pl_frontier_final","folder":"tf","game":"Team Fortress","app_id":440,"player_count":0,"max_players":24,"Bots":0,"server_type":"Dedicated","server_os":"Linux","password":true,"vac":true,"version":"7742253","steam_id":85568392925397958,"keywords":["nocrits","nodmgspread","payload","uncletopia"],"game_id":440,"stv_port":27046,"stv_name":"Uncletopia | Sydney | 4 | All Maps | STV","players":null},{"server_id":58,"name":"Uncletopia | Sydney | 5 | Stopwatch Beta","name_short":"syd-5","host":"syd-1.au.uncletopia.com","port":27055,"enabled":true,"region":"au","cc":"au","latitude":-33.865143,"longitude":151.2099,"reserved":0,"last_update":"0001-01-01T00:00:00Z","name_a2s":"Uncletopia | Sydney | 5 | Stopwatch Beta","protocol":17,"map":"cp_sunshine","folder":"tf","game":"Team Fortress","app_id":440,"player_count":0,"max_players":24,"Bots":0,"server_type":"Dedicated","server_os":"Linux","password":true,"vac":true,"version":"7742253","steam_id":85568392925397959,"keywords":["cp","nocrits","nodmgspread","uncletopia"],"game_id":440,"stv_port":27056,"stv_name":"Uncletopia | Sydney | 5 | Stopwatch Beta | STV","players":null},{"server_id":59,"name":"Uncletopia | Sydney | 6 | Community","name_short":"syd-6","host":"syd-1.au.uncletopia.com","port":27065,"enabled":true,"region":"au","cc":"au","latitude":-33.865143,"longitude":151.2099,"reserved":0,"last_update":"0001-01-01T00:00:00Z","name_a2s":"Uncletopia | Sydney | 6 | Community","protocol":17,"map":"workshop/pl_fifthcurve_rc1.ugc648227046","folder":"tf","game":"Team Fortress","app_id":440,"player_count":0,"max_players":24,"Bots":0,"server_type":"Dedicated","server_os":"Linux","password":true,"vac":true,"version":"7742253","steam_id":85568392925397960,"keywords":["nocrits","nodmgspread","payload","uncletopia"],"game_id":440,"stv_port":27066,"stv_name":"Uncletopia | Sydney | 6 | Community | STV","players":null},{"server_id":49,"name":"Uncletopia | Warsaw | 1 | All Maps","name_short":"waw-1","host":"waw-1.pl.uncletopia.com","port":27015,"enabled":true,"region":"eu","cc":"pl","latitude":52.2297,"longitude":21.017532,"reserved":0,"last_update":"0001-01-01T00:00:00Z","name_a2s":"","protocol":0,"map":"","folder":"","game":"","app_id":0,"player_count":0,"max_players":0,"Bots":0,"server_type":"","server_os":"","password":false,"vac":false,"version":"","steam_id":0,"keywords":null,"game_id":0,"stv_port":0,"stv_name":"","players":null},{"server_id":50,"name":"Uncletopia | Warsaw | 2 | All Maps","name_short":"waw-2","host":"waw-1.pl.uncletopia.com","port":27025,"enabled":true,"region":"eu","cc":"pl","latitude":52.2297,"longitude":21.017532,"reserved":0,"last_update":"0001-01-01T00:00:00Z","name_a2s":"Uncletopia | Warsaw | 2 | All Maps","protocol":17,"map":"pl_snowycoast","folder":"tf","game":"Team Fortress","app_id":440,"player_count":0,"max_players":24,"Bots":0,"server_type":"Dedicated","server_os":"Linux","password":true,"vac":true,"version":"7742253","steam_id":85568392925397851,"keywords":["nocrits","nodmgspread","payload","uncletopia"],"game_id":440,"stv_port":27026,"stv_name":"Uncletopia | Warsaw | 2 | All Maps | STV","players":null},{"server_id":51,"name":"Uncletopia | Warsaw | 3 | All Maps","name_short":"waw-3","host":"waw-1.pl.uncletopia.com","port":27035,"enabled":true,"region":"eu","cc":"pl","latitude":52.2297,"longitude":21.017532,"reserved":0,"last_update":"0001-01-01T00:00:00Z","name_a2s":"Uncletopia | Warsaw | 3 | All Maps","protocol":17,"map":"cp_process_final","folder":"tf","game":"Team Fortress","app_id":440,"player_count":0,"max_players":24,"Bots":0,"server_type":"Dedicated","server_os":"Linux","password":true,"vac":true,"version":"7742253","steam_id":85568392925397852,"keywords":["cp","nocrits","nodmgspread","uncletopia"],"game_id":440,"stv_port":27036,"stv_name":"Uncletopia | Warsaw | 3 | All Maps | STV","players":null},{"server_id":52,"name":"Uncletopia | Warsaw | 4 | All Maps","name_short":"waw-4","host":"waw-1.pl.uncletopia.com","port":27045,"enabled":true,"region":"eu","cc":"pl","latitude":52.2297,"longitude":21.017532,"reserved":0,"last_update":"0001-01-01T00:00:00Z","name_a2s":"Uncletopia | Warsaw | 4 | All Maps","protocol":17,"map":"koth_highpass","folder":"tf","game":"Team Fortress","app_id":440,"player_count":0,"max_players":24,"Bots":0,"server_type":"Dedicated","server_os":"Linux","password":true,"vac":true,"version":"7742253","steam_id":85568392925397853,"keywords":["cp","nocrits","nodmgspread","uncletopia"],"game_id":440,"stv_port":27046,"stv_name":"Uncletopia | Warsaw | 4 | All Maps | STV","players":null},{"server_id":53,"name":"Uncletopia | Warsaw | 5 | Stopwatch Beta","name_short":"waw-5","host":"waw-1.pl.uncletopia.com","port":27055,"enabled":true,"region":"eu","cc":"pl","latitude":52.2297,"longitude":21.017532,"reserved":0,"last_update":"0001-01-01T00:00:00Z","name_a2s":"Uncletopia | Warsaw | 5 | Stopwatch Beta","protocol":17,"map":"koth_lakeside_final","folder":"tf","game":"Team Fortress","app_id":440,"player_count":0,"max_players":24,"Bots":0,"server_type":"Dedicated","server_os":"Linux","password":true,"vac":true,"version":"7742253","steam_id":85568392925397854,"keywords":["cp","nocrits","nodmgspread","uncletopia"],"game_id":440,"stv_port":27056,"stv_name":"Uncletopia | Warsaw | 5 | Stopwatch Beta | STV","players":null},{"server_id":54,"name":"Uncletopia | Warsaw | 6 | Community","name_short":"waw-6","host":"waw-1.pl.uncletopia.com","port":27065,"enabled":true,"region":"eu","cc":"pl","latitude":52.2297,"longitude":21.017532,"reserved":0,"last_update":"0001-01-01T00:00:00Z","name_a2s":"Uncletopia | Warsaw | 6 | Community","protocol":17,"map":"koth_highpass","folder":"tf","game":"Team Fortress","app_id":440,"player_count":0,"max_players":24,"Bots":0,"server_type":"Dedicated","server_os":"Linux","password":true,"vac":true,"version":"7742253","steam_id":85568392925397856,"keywords":["cp","nocrits","nodmgspread","uncletopia"],"game_id":440,"stv_port":27066,"stv_name":"Uncletopia | Warsaw | 6 | Community | STV","players":null}]}