{"status":true,"message":"","result":[{"server_id":2,"name":"Uncletopia | Chicago | 1 | All Maps","name_short":"chi-1","host":"chi-1.us.uncletopia.com","port":27015,"enabled":true,"region":"us-central","cc":"us","latitude":41.881832,"longitude":-87.62318,"reserved":0,"last_update":"0001-01-01T00:00:00Z","name_a2s":"Uncletopia | Chicago | 1 | All Maps","protocol":17,"map":"koth_lakeside_final","folder":"tf","game":"Team Fortress","app_id":440,"player_count":1,"max_players":24,"Bots":0,"server_type":"Dedicated","server_os":"Linux","password":true,"vac":true,"version":"7932396","steam_id":85568392924469984,"keywords":["cp","nocrits","nodmgspread","uncletopia"],"game_id":440,"stv_port":27016,"stv_name":"Uncletopia | Chicago | 1 | All Maps | STV","players":[{"user_id":6,"name":"proud_asian","steam_id":76561198977973083,"connected_time":10000000000,"state":"active","ping":77}]},{"server_id":106,"name":"Uncletopia | Chicago | 2 | All Maps","name_short":"chi-2","host":"chi-1.us.uncletopia.com","port":27025,"enabled":true,"region":"us-central","cc":"us","latitude":41.881832,"longitude":-87.62318,"reserved":0,"last_update":"0001-01-01T00:00:00Z","name_a2s":"Uncletopia | Chicago | 2 | All Maps","protocol":17,"map":"pl_borneo","folder":"tf","game":"Team Fortress","app_id":440,"player_count":24,"max_players":24,"Bots":0,"server_type":"Dedicated","server_os":"Linux","password":true,"vac":true,"version":"7932396","steam_id":85568392924469985,"keywords":["nocrits","nodmgspread","payload","uncletopia"],"game_id":440,"stv_port":27026,"stv_name":"Uncletopia | Chicago | 2 | All Maps | STV","players":[{"user_id":165,"name":"Scoter1009","steam_id":76561198315464837,"connected_time":3125000000000,"state":"active","ping":73},{"user_id":208,"name":"capeeKo","steam_id":76561197970346623,"connected_time":421000000000,"state":"active","ping":78},{"user_id":190,"name":"ᓀ‸ᓂ","steam_id":76561198046055673,"connected_time":1674000000000,"state":"active","ping":68},{"user_id":211,"name":"Mr. Durian","steam_id":76561198093813212,"connected_time":74000000000,"state":"active","ping":76},{"user_id":177,"name":"gale","steam_id":76561198250068972,"connected_time":1953000000000,"state":"active","ping":90},{"user_id":192,"name":"Skele","steam_id":76561198154574280,"connected_time":1659000000000,"state":"active","ping":55},{"user_id":199,"name":"Mank","steam_id":76561198189421005,"connected_time":1211000000000,"state":"active","ping":46},{"user_id":203,"name":"Yam Jazzy Jim","steam_id":76561198000788950,"connected_time":696000000000,"state":"active","ping":65},{"user_id":184,"name":"Crack Miser","steam_id":76561197992239645,"connected_time":1829000000000,"state":"active","ping":60},{"user_id":188,"name":"pinky","steam_id":76561199109784776,"connected_time":1735000000000,"state":"active","ping":53},{"user_id":194,"name":"Copus","steam_id":76561199011708421,"connected_time":1495000000000,"state":"active","ping":65},{"user_id":124,"name":"poob","steam_id":76561198321877882,"connected_time":5306000000000,"state":"active","ping":62},{"user_id":205,"name":"ashely miami","steam_id":76561197993236478,"connected_time":678000000000,"state":"active","ping":85},{"user_id":155,"name":"forklift certified goblin","steam_id":76561199084520533,"connected_time":3506000000000,"state":"active","ping":71},{"user_id":196,"name":"6t26j","steam_id":76561198278282836,"connected_time":1427000000000,"state":"active","ping":56},{"user_id":176,"name":"MouxeWare","steam_id":76561199339512223,"connected_time":1956000000000,"state":"active","ping":138},{"user_id":201,"name":"eat Pant","steam_id":76561197974965536,"connected_time":955000000000,"state":"active","ping":54},{"user_id":197,"name":"lazyhead","steam_id":76561198044358804,"connected_time":1340000000000,"state":"active","ping":46},{"user_id":204,"name":"asbestos","steam_id":76561198079178866,"connected_time":682000000000,"state":"active","ping":67},{"user_id":185,"name":"lili rouxxx","steam_id":76561198000522179,"connected_time":1807000000000,"state":"active","ping":73},{"user_id":191,"name":"metal fingers","steam_id":76561198823526581,"connected_time":1670000000000,"state":"active","ping":74},{"user_id":209,"name":"Tom","steam_id":76561198139202942,"connected_time":142000000000,"state":"active","ping":80},{"user_id":187,"name":"Furry on main","steam_id":76561198371577822,"connected_time":1746000000000,"state":"active","ping":70},{"user_id":189,"name":"Video Game Andy Reid","steam_id":76561198202195792,"connected_time":1703000000000,"state":"active","ping":53}]},{"server_id":402,"name":"Uncletopia | Chicago | 3 | All Maps","name_short":"chi-3","host":"chi-1.us.uncletopia.com","port":27035,"enabled":true,"region":"us-central","cc":"us","latitude":41.881832,"longitude":-87.62318,"reserved":0,"last_update":"0001-01-01T00:00:00Z","name_a2s":"Uncletopia | Chicago | 3 | All Maps","protocol":17,"map":"pl_badwater","folder":"tf","game":"Team Fortress","app_id":440,"player_count":0,"max_players":24,"Bots":0,"server_type":"Dedicated","server_os":"Linux","password":true,"vac":true,"version":"7932396","steam_id":85568392924515191,"keywords":["nocrits","nodmgspread","payload","uncletopia"],"game_id":440,"stv_port":27036,"stv_name":"Uncletopia | Chicago | 3 | All Maps | STV","players":null},{"server_id":403,"name":"Uncletopia | Chicago | 4 | All Maps","name_short":"chi-4","host":"chi-1.us.uncletopia.com","port":27045,"enabled":true,"region":"us-central","cc":"us","latitude":41.881832,"longitude":-87.62318,"reserved":0,"last_update":"0001-01-01T00:00:00Z","name_a2s":"Uncletopia | Chicago | 4 | All Maps","protocol":17,"map":"cp_process_final","folder":"tf","game":"Team Fortress","app_id":440,"player_count":0,"max_players":24,"Bots":0,"server_type":"Dedicated","server_os":"Linux","password":true,"vac":true,"version":"7932396","steam_id":85568392924515193,"keywords":["cp","nocrits","nodmgspread","uncletopia"],"game_id":440,"stv_port":27046,"stv_name":"Uncletopia | Chicago | 4 | All Maps | STV","players":null},{"server_id":36,"name":"Uncletopia | Chicago | 5 | All Maps","name_short":"chi-5","host":"chi-2.us.uncletopia.com","port":27015,"enabled":true,"region":"us-central","cc":"us","latitude":41.881832,"longitude":-87.62318,"reserved":0,"last_update":"0001-01-01T00:00:00Z","name_a2s":"Uncletopia | Chicago | 5 | All Maps","protocol":17,"map":"pl_barnblitz","folder":"tf","game":"Team Fortress","app_id":440,"player_count":24,"max_players":24,"Bots":0,"server_type":"Dedicated","server_os":"Linux","password":true,"vac":true,"version":"7932396","steam_id":85568392924866362,"keywords":["nocrits","nodmgspread","payload","uncletopia"],"game_id":440,"stv_port":27016,"stv_name":"Uncletopia | Chicago | 5 | All Maps | STV","players":[{"user_id":212,"name":"nullptr","steam_id":76561198111790388,"connected_time":2206000000000,"state":"active","ping":80},{"user_id":213,"name":"Unlock The Shock (She/They)","steam_id":76561198823616667,"connected_time":2147000000000,"state":"active","ping":76},{"user_id":173,"name":"Cheesi","steam_id":76561199417190840,"connected_time":5287000000000,"state":"active","ping":67},{"user_id":247,"name":"bikerkid207","steam_id":76561198390782783,"connected_time":67000000000,"state":"active","ping":61},{"user_id":233,"name":"krill issue","steam_id":76561199013461400,"connected_time":898000000000,"state":"active","ping":70},{"user_id":239,"name":"--_Cook_--","steam_id":76561198080855748,"connected_time":537000000000,"state":"active","ping":48},{"user_id":236,"name":"Whorse","steam_id":76561198114141445,"connected_time":683000000000,"state":"active","ping":65},{"user_id":237,"name":"The Mothafuckin Man","steam_id":76561199127423378,"connected_time":670000000000,"state":"active","ping":105},{"user_id":208,"name":"viego","steam_id":76561198273568117,"connected_time":2493000000000,"state":"active","ping":70},{"user_id":229,"name":"need a dispenser here","steam_id":76561198060912995,"connected_time":1372000000000,"state":"active","ping":48},{"user_id":203,"name":"daemon","steam_id":76561198001541433,"connected_time":3326000000000,"state":"active","ping":48},{"user_id":244,"name":"MondoDong","steam_id":76561197991400109,"connected_time":147000000000,"state":"active","ping":69},{"user_id":234,"name":"gritty 2024","steam_id":76561198165567310,"connected_time":838000000000,"state":"active","ping":59},{"user_id":217,"name":"22moo","steam_id":76561199075331630,"connected_time":1923000000000,"state":"active","ping":74},{"user_id":235,"name":"RoFrogle","steam_id":76561199078941377,"connected_time":719000000000,"state":"active","ping":57},{"user_id":231,"name":"Big Bill Hells","steam_id":76561198109323006,"connected_time":1066000000000,"state":"active","ping":73},{"user_id":245,"name":"garbo","steam_id":76561198149280150,"connected_time":139000000000,"state":"active","ping":89},{"user_id":226,"name":"Bush.exe","steam_id":76561198124385307,"connected_time":1683000000000,"state":"active","ping":62},{"user_id":151,"name":"HAT-WEARING™ Maggot Gamer Cat","steam_id":76561197973992705,"connected_time":7660000000000,"state":"active","ping":106},{"user_id":246,"name":"gamerlegend47","steam_id":76561198122776598,"connected_time":95000000000,"state":"active","ping":70},{"user_id":230,"name":"Villain_7","steam_id":76561198985858094,"connected_time":1319000000000,"state":"active","ping":70},{"user_id":209,"name":"RuinLucky","steam_id":76561199481172481,"connected_time":2464000000000,"state":"active","ping":90},{"user_id":192,"name":"juanjoesc","steam_id":76561198186368430,"connected_time":4310000000000,"state":"active","ping":132},{"user_id":238,"name":"LVL 4 Dispenser Gaming","steam_id":76561198044244547,"connected_time":557000000000,"state":"active","ping":82}]},{"server_id":37,"name":"Uncletopia | Chicago | 6 | All Maps","name_short":"chi-6","host":"chi-2.us.uncletopia.com","port":27025,"enabled":true,"region":"us-central","cc":"us","latitude":41.881832,"longitude":-87.62318,"reserved":0,"last_update":"0001-01-01T00:00:00Z","name_a2s":"Uncletopia | Chicago | 6 | All Maps","protocol":17,"map":"koth_viaduct","folder":"tf","game":"Team Fortress","app_id":440,"player_count":0,"max_players":24,"Bots":0,"server_type":"Dedicated","server_os":"Linux","password":true,"vac":true,"version":"7932396","steam_id":85568392924866363,"keywords":["cp","nocrits","nodmgspread","uncletopia"],"game_id":440,"stv_port":27026,"stv_name":"Uncletopia | Chicago | 6 | All Maps | STV","players":null},{"server_id":38,"name":"Uncletopia | Chicago | 7 | Stopwatch Beta","name_short":"chi-7","host":"chi-2.us.uncletopia.com","port":27035,"enabled":true,"region":"us-central","cc":"us","latitude":41.881832,"longitude":-87.62318,"reserved":0,"last_update":"0001-01-01T00:00:00Z","name_a2s":"Uncletopia | Chicago | 7 | Stopwatch Beta","protocol":17,"map":"pl_borneo","folder":"tf","game":"Team Fortress","app_id":440,"player_count":0,"max_players":24,"Bots":0,"server_type":"Dedicated","server_os":"Linux","password":true,"vac":true,"version":"7932396","steam_id":85568392924866364,"keywords":["nocrits","nodmgspread","payload","uncletopia"],"game_id":440,"stv_port":27036,"stv_name":"Uncletopia | Chicago | 7 | Stopwatch Beta | STV","players":null},{"server_id":39,"name":"Uncletopia | Chicago | 8 | Community","name_short":"chi-8","host":"chi-2.us.uncletopia.com","port":27045,"enabled":true,"region":"us-central","cc":"us","latitude":41.881832,"longitude":-87.62318,"reserved":0,"last_update":"0001-01-01T00:00:00Z","name_a2s":"Uncletopia | Chicago | 8 | Community","protocol":17,"map":"koth_viaduct","folder":"tf","game":"Team Fortress","app_id":440,"player_count":0,"max_players":24,"Bots":0,"server_type":"Dedicated","server_os":"Linux","password":true,"vac":true,"version":"7932396","steam_id":85568392924866365,"keywords":["cp","nocrits","nodmgspread","uncletopia"],"game_id":440,"stv_port":27046,"stv_name":"Uncletopia | Chicago | 8 | Community | STV","players":null},{"server_id":8,"name":"Uncletopia | Dallas | 1 | All Maps","name_short":"dal-1","host":"dal-1.us.uncletopia.com","port":27015,"enabled":true,"region":"us-central","cc":"us","latitude":32.779167,"longitude":-96.80889,"reserved":0,"last_update":"0001-01-01T00:00:00Z","name_a2s":"Uncletopia | Dallas | 1 | All Maps","protocol":17,"map":"pl_barnblitz","folder":"tf","game":"Team Fortress","app_id":440,"player_count":22,"max_players":24,"Bots":0,"server_type":"Dedicated","server_os":"Linux","password":true,"vac":true,"version":"7932396","steam_id":85568392924469986,"keywords":["nocrits","nodmgspread","payload","uncletopia"],"game_id":440,"stv_port":27016,"stv_name":"Uncletopia | Dallas | 1 | All Maps | STV","players":[{"user_id":4,"name":"Sahbi","steam_id":76561199196292242,"connected_time":3693000000000,"state":"active","ping":60},{"user_id":5,"name":"Mal","steam_id":76561198066074151,"connected_time":3621000000000,"state":"active","ping":71},{"user_id":31,"name":"Fox","steam_id":76561198210081927,"connected_time":1683000000000,"state":"active","ping":101},{"user_id":40,"name":"zzzPoison❤","steam_id":76561198302928116,"connected_time":1560000000000,"state":"active","ping":107},{"user_id":17,"name":"Freedy","steam_id":76561199115274103,"connected_time":2376000000000,"state":"spawning","ping":79},{"user_id":16,"name":"Shadoe","steam_id":76561198218577281,"connected_time":2707000000000,"state":"active","ping":172},{"user_id":47,"name":"Engideer","steam_id":76561198145733164,"connected_time":1113000000000,"state":"active","ping":101},{"user_id":41,"name":"smelvin ruffalo","steam_id":76561198048537760,"connected_time":1314000000000,"state":"active","ping":79},{"user_id":55,"name":"Neo Noire","steam_id":76561198222930860,"connected_time":43000000000,"state":"active","ping":87},{"user_id":52,"name":"d0nut","steam_id":76561198072646165,"connected_time":413000000000,"state":"active","ping":77},{"user_id":22,"name":"Prof. Eggnog","steam_id":76561198193389166,"connected_time":2060000000000,"state":"spawning","ping":100},{"user_id":27,"name":"endo","steam_id":76561197995204381,"connected_time":1792000000000,"state":"active","ping":71},{"user_id":48,"name":"little buddy","steam_id":76561198066619792,"connected_time":1107000000000,"state":"active","ping":68},{"user_id":51,"name":"MeatShield 2000","steam_id":76561199375192850,"connected_time":416000000000,"state":"spawning","ping":338},{"user_id":54,"name":"DMM","steam_id":76561198065426171,"connected_time":164000000000,"state":"active","ping":90},{"user_id":30,"name":"whats an egg","steam_id":76561198991039398,"connected_time":1712000000000,"state":"active","ping":89},{"user_id":44,"name":"BenBen07","steam_id":76561198129584634,"connected_time":1237000000000,"state":"active","ping":164},{"user_id":35,"name":"Null | Crack Clan","steam_id":76561198895762836,"connected_time":1656000000000,"state":"active","ping":73},{"user_id":45,"name":"cwaggs76","steam_id":76561199013048778,"connected_time":1237000000000,"state":"active","ping":119},{"user_id":37,"name":"Don't","steam_id":76561198032529704,"connected_time":1627000000000,"state":"active","ping":55},{"user_id":38,"name":"Smug Pug","steam_id":76561198059423334,"connected_time":1622000000000,"state":"active","ping":73},{"user_id":46,"name":"SadVeggie","steam_id":76561198163430099,"connected_time":1214000000000,"state":"spawning","ping":97}]},{"server_id":108,"name":"Uncletopia | Dallas | 2 | All Maps","name_short":"dal-2","host":"dal-1.us.uncletopia.com","port":27025,"enabled":true,"region":"us-central","cc":"us","latitude":32.779167,"longitude":-96.80889,"reserved":0,"last_update":"0001-01-01T00:00:00Z","name_a2s":"Uncletopia | Dallas | 2 | All Maps","protocol":17,"map":"cp_snakewater_final1","folder":"tf","game":"Team Fortress","app_id":440,"player_count":0,"max_players":24,"Bots":0,"server_type":"Dedicated","server_os":"Linux","password":true,"vac":true,"version":"7932396","steam_id":85568392924469988,"keywords":["cp","nocrits","nodmgspread","uncletopia"],"game_id":440,"stv_port":27026,"stv_name":"Uncletopia | Dallas | 2 | All Maps | STV","players":null},{"server_id":5,"name":"Uncletopia | Frankfurt | 1 | All Maps","name_short":"frk-1","host":"frk-1.de.uncletopia.com","port":27015,"enabled":true,"region":"eu","cc":"de","latitude":50.110924,"longitude":8.682127,"reserved":0,"last_update":"0001-01-01T00:00:00Z","name_a2s":"Uncletopia | Frankfurt | 1 | All Maps","protocol":17,"map":"koth_nucleus","folder":"tf","game":"Team Fortress","app_id":440,"player_count":23,"max_players":24,"Bots":0,"server_type":"Dedicated","server_os":"Linux","password":true,"vac":true,"version":"7932396","steam_id":85568392924469989,"keywords":["cp","nocrits","nodmgspread","uncletopia"],"game_id":440,"stv_port":27016,"stv_name":"Uncletopia | Frankfurt | 1 | All Maps | STV","players":[{"user_id":117,"name":"Risinger","steam_id":76561198079789688,"connected_time":3334000000000,"state":"active","ping":66},{"user_id":98,"name":"Lartsa","steam_id":76561198275690230,"connected_time":4511000000000,"state":"active","ping":101},{"user_id":154,"name":"Cosmetic brain","steam_id":76561198055936410,"connected_time":1871000000000,"state":"active","ping":86},{"user_id":162,"name":"i will the cat","steam_id":76561198095560087,"connected_time":1070000000000,"state":"active","ping":65},{"user_id":164,"name":"shankz","steam_id":76561198128803260,"connected_time":1006000000000,"state":"active","ping":60},{"user_id":100,"name":"Sensei","steam_id":76561198383582429,"connected_time":4423000000000,"state":"active","ping":89},{"user_id":106,"name":"justajem101","steam_id":76561199228510573,"connected_time":3825000000000,"state":"active","ping":81},{"user_id":127,"name":"nitroglycerin","steam_id":76561199158447878,"connected_time":3174000000000,"state":"active","ping":70},{"user_id":157,"name":"็McTK","steam_id":76561199384193338,"connected_time":1440000000000,"state":"active","ping":59},{"user_id":171,"name":"SoupER","steam_id":76561198063056668,"connected_time":415000000000,"state":"active","ping":57},{"user_id":108,"name":"Quadraticrat","steam_id":76561199032586760,"connected_time":3680000000000,"state":"active","ping":64},{"user_id":173,"name":"Lorenzo Lovers","steam_id":76561198073973581,"connected_time":104000000000,"state":"active","ping":80},{"user_id":156,"name":"zinzyk","steam_id":76561198128011822,"connected_time":1476000000000,"state":"active","ping":47},{"user_id":143,"name":"Megapuncher","steam_id":76561198023536780,"connected_time":2156000000000,"state":"active","ping":49},{"user_id":161,"name":"FUKAYU","steam_id":76561198380484033,"connected_time":1349000000000,"state":"active","ping":65},{"user_id":169,"name":"Dr.Sees [F2P]","steam_id":76561199219233587,"connected_time":605000000000,"state":"active","ping":80},{"user_id":149,"name":"☭TheDevilsEye☭","steam_id":76561198017379398,"connected_time":2094000000000,"state":"active","ping":73},{"user_id":133,"name":"Der Herr Doktor","steam_id":76561198119476089,"connected_time":2889000000000,"state":"active","ping":53},{"user_id":170,"name":"Chopperson_","steam_id":76561198873728497,"connected_time":470000000000,"state":"active","ping":106},{"user_id":172,"name":"Mr.killer","steam_id":76561198290584189,"connected_time":357000000000,"state":"active","ping":90},{"user_id":166,"name":"peee pee man","steam_id":76561198044979205,"connected_time":985000000000,"state":"active","ping":146},{"user_id":160,"name":"Hejko","steam_id":76561198963293449,"connected_time":1408000000000,"state":"active","ping":70},{"user_id":167,"name":"Princess Fuzz","steam_id":76561198025783000,"connected_time":922000000000,"state":"active","ping":52}]},{"server_id":110,"name":"Uncletopia | Frankfurt | 2 | All Maps","name_short":"frk-2","host":"frk-1.de.uncletopia.com","port":27025,"enabled":true,"region":"eu","cc":"de","latitude":50.110924,"longitude":8.682127,"reserved":0,"last_update":"0001-01-01T00:00:00Z","name_a2s":"Uncletopia | Frankfurt | 2 | All Maps","protocol":17,"map":"koth_cascade","folder":"tf","game":"Team Fortress","app_id":440,"player_count":24,"max_players":24,"Bots":0,"server_type":"Dedicated","server_os":"Linux","password":true,"vac":true,"version":"7932396","steam_id":85568392924469990,"keywords":["cp","nocrits","nodmgspread","uncletopia"],"game_id":440,"stv_port":27026,"stv_name":"Uncletopia | Frankfurt | 2 | All Maps | STV","players":[{"user_id":72,"name":"Cagnus Marlsen","steam_id":76561198077859721,"connected_time":1798000000000,"state":"active","ping":52},{"user_id":45,"name":"joachym","steam_id":76561198428579761,"connected_time":2991000000000,"state":"active","ping":64},{"user_id":69,"name":"Envy","steam_id":76561198132723219,"connected_time":1836000000000,"state":"active","ping":104},{"user_id":27,"name":"Bayoyo","steam_id":76561199069591774,"connected_time":3418000000000,"state":"active","ping":70},{"user_id":85,"name":"why you have to be mad","steam_id":76561198283213421,"connected_time":273000000000,"state":"active","ping":118},{"user_id":86,"name":"Ehrmantraut","steam_id":76561199042470246,"connected_time":241000000000,"state":"active","ping":54},{"user_id":87,"name":"Daan77","steam_id":76561198129940468,"connected_time":202000000000,"state":"active","ping":72},{"user_id":88,"name":"AdrianMc","steam_id":76561198271830248,"connected_time":198000000000,"state":"active","ping":70},{"user_id":90,"name":"stoneflower","steam_id":76561198046250873,"connected_time":41000000000,"state":"active","ping":73},{"user_id":77,"name":"dmEngineer_tf2 #SaveTF2","steam_id":76561199388956338,"connected_time":1444000000000,"state":"active","ping":79},{"user_id":78,"name":"the boogly","steam_id":76561198354604708,"connected_time":1393000000000,"state":"active","ping":55},{"user_id":57,"name":"vadr","steam_id":76561198334528186,"connected_time":2534000000000,"state":"active","ping":58},{"user_id":26,"name":"Iphy","steam_id":76561198137519489,"connected_time":3442000000000,"state":"active","ping":68},{"user_id":29,"name":"MasterNaglis","steam_id":76561198348834177,"connected_time":3406000000000,"state":"active","ping":81},{"user_id":91,"name":"vadim_kotler","steam_id":76561199016634369,"connected_time":3000000000,"state":"spawning","ping":103},{"user_id":89,"name":"strigoi2","steam_id":76561198351880994,"connected_time":169000000000,"state":"active","ping":99},{"user_id":48,"name":"gneeda","steam_id":76561198147249160,"connected_time":2878000000000,"state":"active","ping":104},{"user_id":81,"name":"I-I","steam_id":76561198267969436,"connected_time":768000000000,"state":"active","ping":67},{"user_id":74,"name":"poopoocum","steam_id":76561198180641206,"connected_time":1793000000000,"state":"active","ping":63},{"user_id":75,"name":"Jefe de Los Mariachis","steam_id":76561198047304470,"connected_time":1781000000000,"state":"active","ping":46},{"user_id":83,"name":"Pumpkin Pie","steam_id":76561198115230959,"connected_time":664000000000,"state":"active","ping":80},{"user_id":51,"name":"lidl","steam_id":76561198895235231,"connected_time":2775000000000,"state":"active","ping":70},{"user_id":41,"name":"soda","steam_id":76561198202990635,"connected_time":3146000000000,"state":"active","ping":62},{"user_id":82,"name":"Rai","steam_id":76561199408923294,"connected_time":761000000000,"state":"active","ping":127}]},{"server_id":308,"name":"Uncletopia | Frankfurt | 3 | All Maps","name_short":"frk-3","host":"frk-1.de.uncletopia.com","port":27035,"enabled":true,"region":"eu","cc":"de","latitude":50.110924,"longitude":8.682127,"reserved":0,"last_update":"0001-01-01T00:00:00Z","name_a2s":"Uncletopia | Frankfurt | 3 | All Maps","protocol":17,"map":"cp_dustbowl","folder":"tf","game":"Team Fortress","app_id":440,"player_count":24,"max_players":24,"Bots":0,"server_type":"Dedicated","server_os":"Linux","password":true,"vac":true,"version":"7932396","steam_id":85568392924504274,"keywords":["cp","nocrits","nodmgspread","uncletopia"],"game_id":440,"stv_port":27036,"stv_name":"Uncletopia | Frankfurt | 3 | All Maps | STV","players":[{"user_id":159,"name":"pos","steam_id":76561198026132442,"connected_time":3792000000000,"state":"active","ping":91},{"user_id":213,"name":"engineer drip","steam_id":76561198991032570,"connected_time":316000000000,"state":"active","ping":93},{"user_id":202,"name":"Femboy Gaming","steam_id":76561198174108515,"connected_time":1125000000000,"state":"active","ping":55},{"user_id":201,"name":"Torben","steam_id":76561198377574408,"connected_time":1217000000000,"state":"active","ping":71},{"user_id":212,"name":"Chivler","steam_id":76561198097655395,"connected_time":389000000000,"state":"active","ping":44},{"user_id":216,"name":"conquistadorgt","steam_id":76561198848812449,"connected_time":143000000000,"state":"active","ping":76},{"user_id":209,"name":"Dinofoti","steam_id":76561197994250606,"connected_time":597000000000,"state":"active","ping":93},{"user_id":204,"name":"A place beyond belief","steam_id":76561198069098478,"connected_time":825000000000,"state":"active","ping":77},{"user_id":207,"name":"Mlanky","steam_id":76561198047796778,"connected_time":695000000000,"state":"active","ping":58},{"user_id":205,"name":"cat","steam_id":76561198832231975,"connected_time":788000000000,"state":"active","ping":86},{"user_id":178,"name":"howabe","steam_id":76561197996486818,"connected_time":2417000000000,"state":"active","ping":56},{"user_id":179,"name":"the village idiot","steam_id":76561199060384919,"connected_time":2293000000000,"state":"active","ping":50},{"user_id":199,"name":"Alice","steam_id":76561198039030709,"connected_time":1554000000000,"state":"active","ping":62},{"user_id":186,"name":"7-Zip","steam_id":76561198099726966,"connected_time":2214000000000,"state":"active","ping":101},{"user_id":153,"name":"gothmoth","steam_id":76561198386910896,"connected_time":4070000000000,"state":"active","ping":55},{"user_id":155,"name":"the tube","steam_id":76561198307739245,"connected_time":4061000000000,"state":"active","ping":70},{"user_id":182,"name":"MisterLegitimate","steam_id":76561199198559715,"connected_time":2273000000000,"state":"active","ping":75},{"user_id":210,"name":"antonio.jurjevic@brazzers.hr","steam_id":76561198179392402,"connected_time":578000000000,"state":"active","ping":45},{"user_id":215,"name":"Peskyplumber64","steam_id":76561198044458330,"connected_time":181000000000,"state":"active","ping":71},{"user_id":192,"name":"silicon based life form","steam_id":76561199127121346,"connected_time":2123000000000,"state":"active","ping":70},{"user_id":217,"name":"philipibba1","steam_id":76561199470534991,"connected_time":129000000000,"state":"active","ping":84},{"user_id":219,"name":"YOU ARE SHITTING YOUR SELF","steam_id":76561198371719058,"connected_time":32000000000,"state":"spawning","ping":64},{"user_id":208,"name":"Ruke 1","steam_id":76561198409908008,"connected_time":643000000000,"state":"active","ping":148},{"user_id":211,"name":"Hoff","steam_id":76561198138540938,"connected_time":561000000000,"state":"active","ping":83}]},{"server_id":309,"name":"Uncletopia | Frankfurt | 4 | All Maps","name_short":"frk-4","host":"frk-1.de.uncletopia.com","port":27045,"enabled":true,"region":"eu","cc":"de","latitude":50.110924,"longitude":8.682127,"reserved":0,"last_update":"0001-01-01T00:00:00Z","name_a2s":"Uncletopia | Frankfurt | 4 | All Maps","protocol":17,"map":"cp_snakewater_final1","folder":"tf","game":"Team Fortress","app_id":440,"player_count":24,"max_players":24,"Bots":0,"server_type":"Dedicated","server_os":"Linux","password":true,"vac":true,"version":"7932396","steam_id":85568392924504275,"keywords":["cp","nocrits","nodmgspread","uncletopia"],"game_id":440,"stv_port":27046,"stv_name":"Uncletopia | Frankfurt | 4 | All Maps | STV","players":[{"user_id":401,"name":"flr","steam_id":76561198249327786,"connected_time":1070000000000,"state":"active","ping":75},{"user_id":377,"name":"papaja","steam_id":76561199216208960,"connected_time":2927000000000,"state":"active","ping":88},{"user_id":399,"name":"Plastic","steam_id":76561198026307715,"connected_time":1102000000000,"state":"active","ping":64},{"user_id":414,"name":"zorze supreme.exe","steam_id":76561198996333022,"connected_time":104000000000,"state":"active","ping":73},{"user_id":408,"name":"Niko","steam_id":76561199006295285,"connected_time":818000000000,"state":"active","ping":83},{"user_id":388,"name":"Yachooo","steam_id":76561198085972300,"connected_time":2516000000000,"state":"active","ping":53},{"user_id":366,"name":"Eme","steam_id":76561198171619442,"connected_time":3210000000000,"state":"active","ping":79},{"user_id":394,"name":"Kekster","steam_id":76561198302448192,"connected_time":1506000000000,"state":"active","ping":40},{"user_id":410,"name":"drearyplane8","steam_id":76561198216074509,"connected_time":742000000000,"state":"active","ping":68},{"user_id":411,"name":"Andrea","steam_id":76561199487380678,"connected_time":303000000000,"state":"active","ping":86},{"user_id":413,"name":"manKe","steam_id":76561198008564860,"connected_time":133000000000,"state":"active","ping":50},{"user_id":373,"name":"TECHnoMITE","steam_id":76561198066443315,"connected_time":3051000000000,"state":"active","ping":61},{"user_id":403,"name":"Remenos","steam_id":76561198029337778,"connected_time":1036000000000,"state":"active","ping":102},{"user_id":406,"name":"Charles Darwin","steam_id":76561197973496139,"connected_time":870000000000,"state":"active","ping":61},{"user_id":415,"name":"not so fish scout","steam_id":76561199274025847,"connected_time":49000000000,"state":"active","ping":100},{"user_id":379,"name":"mothra","steam_id":76561198028444359,"connected_time":2814000000000,"state":"active","ping":60},{"user_id":416,"name":"Random Weeb [YUE]","steam_id":76561198839212897,"connected_time":46000000000,"state":"active","ping":113},{"user_id":407,"name":"ducks","steam_id":76561198166148685,"connected_time":839000000000,"state":"active","ping":47},{"user_id":409,"name":"Mr. Sandman","steam_id":76561198281209867,"connected_time":812000000000,"state":"active","ping":59},{"user_id":361,"name":"AnanasGerste","steam_id":76561198133825211,"connected_time":3773000000000,"state":"active","ping":45},{"user_id":383,"name":"Nornia","steam_id":76561198040509712,"connected_time":2768000000000,"state":"active","ping":60},{"user_id":397,"name":"Hexagon","steam_id":76561198151205758,"connected_time":1455000000000,"state":"active","ping":54},{"user_id":391,"name":"Linoleum","steam_id":76561198531978435,"connected_time":2463000000000,"state":"active","ping":76},{"user_id":393,"name":"Zerfesh","steam_id":76561198117534358,"connected_time":2055000000000,"state":"active","ping":89}]},{"server_id":310,"name":"Uncletopia | Frankfurt | 5 | All Maps","name_short":"frk-5","host":"frk-1.de.uncletopia.com","port":27055,"enabled":true,"region":"eu","cc":"de","latitude":50.110924,"longitude":8.682127,"reserved":0,"last_update":"0001-01-01T00:00:00Z","name_a2s":"Uncletopia | Frankfurt | 5 | All Maps","protocol":17,"map":"pl_borneo","folder":"tf","game":"Team Fortress","app_id":440,"player_count":24,"max_players":24,"Bots":0,"server_type":"Dedicated","server_os":"Linux","password":true,"vac":true,"version":"7932396","steam_id":85568392924504277,"keywords":["nocrits","nodmgspread","payload","uncletopia"],"game_id":440,"stv_port":27056,"stv_name":"Uncletopia | Frankfurt | 5 | All Maps | STV","players":[{"user_id":125,"name":"Pleb™","steam_id":76561197995177488,"connected_time":3161000000000,"state":"active","ping":59},{"user_id":106,"name":"♂ Dungeon Master ♂","steam_id":76561198106441033,"connected_time":4595000000000,"state":"active","ping":86},{"user_id":163,"name":"Marky","steam_id":76561199474556920,"connected_time":813000000000,"state":"active","ping":122},{"user_id":107,"name":"King Of The Chill","steam_id":76561197971394640,"connected_time":4582000000000,"state":"active","ping":191},{"user_id":162,"name":"Gorzel","steam_id":76561198828273330,"connected_time":842000000000,"state":"active","ping":72},{"user_id":160,"name":"Anime coomer","steam_id":76561197993362052,"connected_time":876000000000,"state":"active","ping":67},{"user_id":164,"name":"brun hårig sjuk sköterska","steam_id":76561198089991130,"connected_time":26000000000,"state":"active","ping":52},{"user_id":157,"name":"mixxxa_french","steam_id":76561198085098243,"connected_time":1100000000000,"state":"active","ping":108},{"user_id":152,"name":"night.s","steam_id":76561198326287823,"connected_time":1474000000000,"state":"active","ping":73},{"user_id":141,"name":"KiT","steam_id":76561198043770371,"connected_time":2338000000000,"state":"active","ping":69},{"user_id":132,"name":"yush","steam_id":76561198121688934,"connected_time":2522000000000,"state":"active","ping":75},{"user_id":159,"name":"Yossef⭐","steam_id":76561198009985558,"connected_time":1025000000000,"state":"active","ping":113},{"user_id":146,"name":"margaret thatcher's girl power","steam_id":76561199401283123,"connected_time":2062000000000,"state":"active","ping":62},{"user_id":134,"name":"Jughead","steam_id":76561198000355410,"connected_time":2512000000000,"state":"active","ping":54},{"user_id":113,"name":"ness player","steam_id":76561198088624259,"connected_time":4264000000000,"state":"active","ping":62},{"user_id":63,"name":"q`","steam_id":76561197985597838,"connected_time":7043000000000,"state":"active","ping":64},{"user_id":123,"name":"xp","steam_id":76561198059782462,"connected_time":3415000000000,"state":"active","ping":57},{"user_id":155,"name":"Hootis","steam_id":76561198047506882,"connected_time":1116000000000,"state":"active","ping":57},{"user_id":126,"name":"THE SASQUATCH","steam_id":76561198197606282,"connected_time":3011000000000,"state":"active","ping":52},{"user_id":158,"name":"Suvis","steam_id":76561198153048602,"connected_time":1055000000000,"state":"active","ping":85},{"user_id":161,"name":"KaasKrans","steam_id":76561198240451972,"connected_time":859000000000,"state":"active","ping":60},{"user_id":68,"name":"Zeta","steam_id":76561198101917105,"connected_time":6954000000000,"state":"active","ping":165},{"user_id":137,"name":"le'pablo","steam_id":76561199009805208,"connected_time":2491000000000,"state":"active","ping":102},{"user_id":138,"name":"Vivon","steam_id":76561198830042245,"connected_time":2464000000000,"state":"active","ping":146}]},{"server_id":311,"name":"Uncletopia | Frankfurt | 6 | All Maps","name_short":"frk-6","host":"frk-1.de.uncletopia.com","port":27065,"enabled":true,"region":"eu","cc":"de","latitude":50.110924,"longitude":8.682127,"reserved":0,"last_update":"0001-01-01T00:00:00Z","name_a2s":"Uncletopia | Frankfurt | 6 | All Maps","protocol":17,"map":"koth_viaduct","folder":"tf","game":"Team Fortress","app_id":440,"player_count":0,"max_players":24,"Bots":0,"server_type":"Dedicated","server_os":"Linux","password":true,"vac":true,"version":"7932396","steam_id":85568392924504278,"keywords":["cp","nocrits","nodmgspread","uncletopia"],"game_id":440,"stv_port":27066,"stv_name":"Uncletopia | Frankfurt | 6 | All Maps | STV","players":null},{"server_id":23,"name":"Uncletopia | Frankfurt | 7 | Stopwatch Beta","name_short":"frk-7","host":"frk-1.de.uncletopia.com","port":27075,"enabled":true,"region":"eu","cc":"de","latitude":50.110924,"longitude":8.682127,"reserved":0,"last_update":"0001-01-01T00:00:00Z","name_a2s":"Uncletopia | Frankfurt | 7 | Stopwatch Beta","protocol":17,"map":"pl_snowycoast","folder":"tf","game":"Team Fortress","app_id":440,"player_count":0,"max_players":24,"Bots":0,"server_type":"Dedicated","server_os":"Linux","password":true,"vac":true,"version":"7932396","steam_id":85568392924742827,"keywords":["nocrits","nodmgspread","payload","uncletopia"],"game_id":440,"stv_port":27076,"stv_name":"Uncletopia | Frankfurt | 7 | Stopwatch Beta | STV","players":null},{"server_id":24,"name":"Uncletopia | Frankfurt | 8 | Community","name_short":"frk-8","host":"frk-1.de.uncletopia.com","port":27085,"enabled":true,"region":"eu","cc":"de","latitude":50.110924,"longitude":8.682127,"reserved":0,"last_update":"0001-01-01T00:00:00Z","name_a2s":"Uncletopia | Frankfurt | 8 | Community","protocol":17,"map":"pl_barnblitz","folder":"tf","game":"Team Fortress","app_id":440,"player_count":0,"max_players":24,"Bots":0,"server_type":"Dedicated","server_os":"Linux","password":true,"vac":true,"version":"7932396","steam_id":85568392924742828,"keywords":["nocrits","nodmgspread","payload","uncletopia"],"game_id":440,"stv_port":27086,"stv_name":"Uncletopia | Frankfurt | 8 | Community | STV","players":null},{"server_id":202,"name":"Uncletopia | Hong Kong | 1 | All Maps","name_short":"hgk-1","host":"hgk-1.hk.uncletopia.com","port":27015,"enabled":true,"region":"asia","cc":"hk","latitude":22.302711,"longitude":114.177216,"reserved":0,"last_update":"0001-01-01T00:00:00Z","name_a2s":"Uncletopia | Hong Kong | 1 | All Maps","protocol":17,"map":"cp_mountainlab","folder":"tf","game":"Team Fortress","app_id":440,"player_count":0,"max_players":24,"Bots":0,"server_type":"Dedicated","server_os":"Linux","password":true,"vac":true,"version":"7932396","steam_id":85568392924494504,"keywords":["cp","nocrits","nodmgspread","uncletopia"],"game_id":440,"stv_port":27016,"stv_name":"Uncletopia | Hong Kong | 1 | All Maps | STV","players":null},{"server_id":1,"name":"Uncletopia | Los Angeles | 1 | All Maps","name_short":"lax-1","host":"lax-1.us.uncletopia.com","port":27015,"enabled":true,"region":"us-west","cc":"us","latitude":33.94279,"longitude":-118.41004,"reserved":0,"last_update":"0001-01-01T00:00:00Z","name_a2s":"Uncletopia | Los Angeles | 1 | All Maps","protocol":17,"map":"pl_barnblitz","folder":"tf","game":"Team Fortress","app_id":440,"player_count":0,"max_players":24,"Bots":0,"server_type":"Dedicated","server_os":"Linux","password":true,"vac":true,"version":"7932396","steam_id":85568392924469991,"keywords":["nocrits","nodmgspread","payload","uncletopia"],"game_id":440,"stv_port":27016,"stv_name":"Uncletopia | Los Angeles | 1 | All Maps | STV","players":null},{"server_id":112,"name":"Uncletopia | Los Angeles | 2 | All Maps","name_short":"lax-2","host":"lax-1.us.uncletopia.com","port":27025,"enabled":true,"region":"us-west","cc":"us","latitude":33.94279,"longitude":-118.41004,"reserved":0,"last_update":"0001-01-01T00:00:00Z","name_a2s":"Uncletopia | Los Angeles | 2 | All Maps","protocol":17,"map":"pl_borneo","folder":"tf","game":"Team Fortress","app_id":440,"player_count":0,"max_players":24,"Bots":0,"server_type":"Dedicated","server_os":"Linux","password":true,"vac":true,"version":"7932396","steam_id":85568392924469992,"keywords":["nocrits","nodmgspread","payload","uncletopia"],"game_id":440,"stv_port":27026,"stv_name":"Uncletopia | Los Angeles | 2 | All Maps | STV","players":null},{"server_id":324,"name":"Uncletopia | Los Angeles | 3 | All Maps","name_short":"lax-3","host":"lax-1.us.uncletopia.com","port":27035,"enabled":true,"region":"us-west","cc":"us","latitude":33.94279,"longitude":-118.41004,"reserved":0,"last_update":"0001-01-01T00:00:00Z","name_a2s":"Uncletopia | Los Angeles | 3 | All Maps","protocol":17,"map":"pl_borneo","folder":"tf","game":"Team Fortress","app_id":440,"player_count":0,"max_players":24,"Bots":0,"server_type":"Dedicated","server_os":"Linux","password":true,"vac":true,"version":"7932396","steam_id":85568392924510198,"keywords":["nocrits","nodmgspread","payload","uncletopia"],"game_id":440,"stv_port":27036,"stv_name":"Uncletopia | Los Angeles | 3 | All Maps | STV","players":null},{"server_id":25,"name":"Uncletopia | Los Angeles | 4 | Stopwatch Beta","name_short":"lax-4","host":"lax-1.us.uncletopia.com","port":27045,"enabled":true,"region":"us-west","cc":"us","latitude":33.94279,"longitude":-118.41004,"reserved":0,"last_update":"0001-01-01T00:00:00Z","name_a2s":"Uncletopia | Los Angeles | 4 | Stopwatch Beta","protocol":17,"map":"cp_altitude","folder":"tf","game":"Team Fortress","app_id":440,"player_count":0,"max_players":24,"Bots":0,"server_type":"Dedicated","server_os":"Linux","password":true,"vac":true,"version":"7932396","steam_id":85568392924510199,"keywords":["cp","nocrits","nodmgspread","uncletopia"],"game_id":440,"stv_port":27046,"stv_name":"Uncletopia | Los Angeles | 4 | Stopwatch Beta | STV","players":null},{"server_id":11,"name":"Uncletopia | London | 1 | All Maps","name_short":"lon-1","host":"lon-1.uk.uncletopia.com","port":27015,"enabled":true,"region":"eu","cc":"gb","latitude":51.509865,"longitude":-0.118092,"reserved":0,"last_update":"0001-01-01T00:00:00Z","name_a2s":"Uncletopia | London | 1 | All Maps","protocol":17,"map":"pl_borneo","folder":"tf","game":"Team Fortress","app_id":440,"player_count":23,"max_players":24,"Bots":0,"server_type":"Dedicated","server_os":"Linux","password":true,"vac":true,"version":"7932396","steam_id":85568392924367362,"keywords":["nocrits","nodmgspread","payload","uncletopia"],"game_id":440,"stv_port":27016,"stv_name":"Uncletopia | London | 1 | All Maps | STV","players":[{"user_id":399,"name":"Mr.Azeroy1337","steam_id":76561198079277466,"connected_time":2862000000000,"state":"active","ping":71},{"user_id":393,"name":"Mr. Heavy Div3W=LFT Premiership","steam_id":76561198080912087,"connected_time":3277000000000,"state":"active","ping":66},{"user_id":421,"name":"peruna","steam_id":76561198000721196,"connected_time":340000000000,"state":"active","ping":75},{"user_id":381,"name":"bon plush","steam_id":76561198369523458,"connected_time":3990000000000,"state":"active","ping":39},{"user_id":405,"name":"a hedgehog or something","steam_id":76561198063093802,"connected_time":2517000000000,"state":"active","ping":48},{"user_id":407,"name":"jimmy bob","steam_id":76561198319583692,"connected_time":1922000000000,"state":"active","ping":56},{"user_id":422,"name":"MargoulGetron","steam_id":76561198020551698,"connected_time":251000000000,"state":"active","ping":53},{"user_id":406,"name":"5743542463452","steam_id":76561198043601838,"connected_time":2069000000000,"state":"active","ping":60},{"user_id":383,"name":"pandillero gato","steam_id":76561198314381191,"connected_time":3934000000000,"state":"active","ping":93},{"user_id":398,"name":"hot guy","steam_id":76561198083063005,"connected_time":2878000000000,"state":"active","ping":34},{"user_id":415,"name":"Dog ?","steam_id":76561198347020945,"connected_time":940000000000,"state":"active","ping":93},{"user_id":394,"name":"poika^_^","steam_id":76561199057953617,"connected_time":2934000000000,"state":"active","ping":74},{"user_id":420,"name":"Remi","steam_id":76561198860304357,"connected_time":349000000000,"state":"active","ping":114},{"user_id":357,"name":"bartwk","steam_id":76561198452299840,"connected_time":5281000000000,"state":"active","ping":71},{"user_id":412,"name":"Lubrsi","steam_id":76561198040208195,"connected_time":1351000000000,"state":"active","ping":45},{"user_id":380,"name":"breakfast burrito","steam_id":76561198148606969,"connected_time":4189000000000,"state":"active","ping":74},{"user_id":390,"name":"nudjura","steam_id":76561198281986139,"connected_time":3392000000000,"state":"active","ping":37},{"user_id":416,"name":"PASTAMAN!!!","steam_id":76561198995641765,"connected_time":939000000000,"state":"active","ping":61},{"user_id":325,"name":"I HEAL CUTE BOYS","steam_id":76561198970587989,"connected_time":7985000000000,"state":"active","ping":83},{"user_id":418,"name":"fshfkr","steam_id":76561198095979282,"connected_time":702000000000,"state":"active","ping":44},{"user_id":360,"name":"Healix","steam_id":76561198130270161,"connected_time":5250000000000,"state":"active","ping":59},{"user_id":382,"name":"After8","steam_id":76561198090750865,"connected_time":3979000000000,"state":"active","ping":71},{"user_id":419,"name":"Minimi","steam_id":76561198873850443,"connected_time":371000000000,"state":"active","ping":43}]},{"server_id":114,"name":"Uncletopia | London | 2 | All Maps","name_short":"lon-2","host":"lon-1.uk.uncletopia.com","port":27025,"enabled":true,"region":"eu","cc":"gb","latitude":51.509865,"longitude":-0.118092,"reserved":0,"last_update":"0001-01-01T00:00:00Z","name_a2s":"Uncletopia | London | 2 | All Maps","protocol":17,"map":"pl_upward","folder":"tf","game":"Team Fortress","app_id":440,"player_count":24,"max_players":24,"Bots":0,"server_type":"Dedicated","server_os":"Linux","password":true,"vac":true,"version":"7932396","steam_id":85568392924470941,"keywords":["nocrits","nodmgspread","payload","uncletopia"],"game_id":440,"stv_port":27026,"stv_name":"Uncletopia | London | 2 | All Maps | STV","players":[{"user_id":289,"name":"geralde","steam_id":76561198454317908,"connected_time":1056000000000,"state":"active","ping":86},{"user_id":295,"name":"ulterior plank meals","steam_id":76561198013502376,"connected_time":690000000000,"state":"active","ping":50},{"user_id":290,"name":"Dan the Penguin","steam_id":76561198410846341,"connected_time":1051000000000,"state":"active","ping":102},{"user_id":163,"name":"s a i","steam_id":76561197970379754,"connected_time":10063000000000,"state":"active","ping":61},{"user_id":291,"name":"Dangerousbros","steam_id":76561198088952519,"connected_time":1037000000000,"state":"active","ping":35},{"user_id":300,"name":"Lix","steam_id":76561198130779816,"connected_time":115000000000,"state":"active","ping":57},{"user_id":297,"name":"elijah","steam_id":76561198093936708,"connected_time":425000000000,"state":"active","ping":56},{"user_id":279,"name":"H2n9","steam_id":76561198055811259,"connected_time":1902000000000,"state":"active","ping":56},{"user_id":286,"name":"[zzubo] joonstoons","steam_id":76561198328082426,"connected_time":1158000000000,"state":"active","ping":43},{"user_id":223,"name":"Wattoz","steam_id":76561198127779511,"connected_time":5095000000000,"state":"active","ping":53},{"user_id":261,"name":"Sarahtonin","steam_id":76561197992144115,"connected_time":2392000000000,"state":"active","ping":71},{"user_id":208,"name":"john fortress","steam_id":76561198013237629,"connected_time":5939000000000,"state":"active","ping":93},{"user_id":299,"name":"Mega Saturn","steam_id":76561198024750500,"connected_time":339000000000,"state":"active","ping":83},{"user_id":168,"name":"Ark-e","steam_id":76561198261870909,"connected_time":9548000000000,"state":"active","ping":37},{"user_id":284,"name":"[zzubo] Hugo Stiglitz","steam_id":76561198168485956,"connected_time":1455000000000,"state":"active","ping":55},{"user_id":293,"name":"Warpzel65","steam_id":76561198799303596,"connected_time":1024000000000,"state":"active","ping":119},{"user_id":301,"name":"i am bread","steam_id":76561199180277321,"connected_time":44000000000,"state":"active","ping":61},{"user_id":287,"name":"fifrok","steam_id":76561198799267621,"connected_time":1152000000000,"state":"active","ping":75},{"user_id":294,"name":"cazador","steam_id":76561198123096922,"connected_time":1021000000000,"state":"active","ping":104},{"user_id":298,"name":"Seratonin deficient gamer","steam_id":76561198051685232,"connected_time":376000000000,"state":"active","ping":34},{"user_id":257,"name":"Jeppe","steam_id":76561198036055494,"connected_time":2942000000000,"state":"active","ping":58},{"user_id":273,"name":"B1urred","steam_id":76561198263657694,"connected_time":2207000000000,"state":"active","ping":54},{"user_id":275,"name":"Dreyfus","steam_id":76561198366687805,"connected_time":2159000000000,"state":"active","ping":74},{"user_id":296,"name":"sushii","steam_id":76561198297987372,"connected_time":459000000000,"state":"active","ping":54}]},{"server_id":320,"name":"Uncletopia | London | 3 | All Maps","name_short":"lon-3","host":"lon-1.uk.uncletopia.com","port":27035,"enabled":true,"region":"eu","cc":"gb","latitude":51.509865,"longitude":-0.118092,"reserved":0,"last_update":"0001-01-01T00:00:00Z","name_a2s":"Uncletopia | London | 3 | All Maps","protocol":17,"map":"cp_sunshine","folder":"tf","game":"Team Fortress","app_id":440,"player_count":0,"max_players":24,"Bots":0,"server_type":"Dedicated","server_os":"Linux","password":true,"vac":true,"version":"7932396","steam_id":85568392924510192,"keywords":["cp","nocrits","nodmgspread","uncletopia"],"game_id":440,"stv_port":27036,"stv_name":"Uncletopia | London | 3 | All Maps | STV","players":null},{"server_id":321,"name":"Uncletopia | London | 4 | All Maps","name_short":"lon-4","host":"lon-1.uk.uncletopia.com","port":27045,"enabled":true,"region":"eu","cc":"gb","latitude":51.509865,"longitude":-0.118092,"reserved":0,"last_update":"0001-01-01T00:00:00Z","name_a2s":"Uncletopia | London | 4 | All Maps","protocol":17,"map":"cp_mountainlab","folder":"tf","game":"Team Fortress","app_id":440,"player_count":0,"max_players":24,"Bots":0,"server_type":"Dedicated","server_os":"Linux","password":true,"vac":true,"version":"7932396","steam_id":85568392924510193,"keywords":["cp","nocrits","nodmgspread","uncletopia"],"game_id":440,"stv_port":27046,"stv_name":"Uncletopia | London | 4 | All Maps | STV","players":null},{"server_id":21,"name":"Uncletopia | London | 5 | All Maps","name_short":"lon-5","host":"lon-1.uk.uncletopia.com","port":27055,"enabled":true,"region":"eu","cc":"gb","latitude":51.509865,"longitude":-0.118092,"reserved":0,"last_update":"0001-01-01T00:00:00Z","name_a2s":"Uncletopia | London | 5 | All Maps","protocol":17,"map":"pl_snowycoast","folder":"tf","game":"Team Fortress","app_id":440,"player_count":0,"max_players":24,"Bots":0,"server_type":"Dedicated","server_os":"Linux","password":true,"vac":true,"version":"7932396","steam_id":85568392924742829,"keywords":["nocrits","nodmgspread","payload","uncletopia"],"game_id":440,"stv_port":27056,"stv_name":"Uncletopia | London | 5 | All Maps | STV","players":null},{"server_id":22,"name":"Uncletopia | London | 6 | All Maps","name_short":"lon-6","host":"lon-1.uk.uncletopia.com","port":27065,"enabled":true,"region":"eu","cc":"gb","latitude":51.509865,"longitude":-0.118092,"reserved":0,"last_update":"0001-01-01T00:00:00Z","name_a2s":"Uncletopia | London | 6 | All Maps","protocol":17,"map":"koth_viaduct","folder":"tf","game":"Team Fortress","app_id":440,"player_count":0,"max_players":24,"Bots":0,"server_type":"Dedicated","server_os":"Linux","password":true,"vac":true,"version":"7932396","steam_id":85568392924742830,"keywords":["cp","nocrits","nodmgspread","uncletopia"],"game_id":440,"stv_port":27066,"stv_name":"Uncletopia | London | 6 | All Maps | STV","players":null},{"server_id":40,"name":"Uncletopia | London | 7 | No Payload","name_short":"lon-7","host":"lon-1.uk.uncletopia.com","port":27075,"enabled":true,"region":"eu","cc":"gb","latitude":51.509865,"longitude":-0.118092,"reserved":0,"last_update":"0001-01-01T00:00:00Z","name_a2s":"Uncletopia | London | 7 | No Payload","protocol":17,"map":"pl_snowycoast","folder":"tf","game":"Team Fortress","app_id":440,"player_count":0,"max_players":24,"Bots":0,"server_type":"Dedicated","server_os":"Linux","password":true,"vac":true,"version":"7932396","steam_id":85568392924964314,"keywords":["nocrits","nodmgspread","payload","uncletopia"],"game_id":440,"stv_port":27076,"stv_name":"Uncletopia | London | 7 | No Payload | STV","players":null},{"server_id":41,"name":"Uncletopia | London | 8 | Community","name_short":"lon-8","host":"lon-1.uk.uncletopia.com","port":27085,"enabled":true,"region":"eu","cc":"gb","latitude":51.509865,"longitude":-0.118092,"reserved":0,"last_update":"0001-01-01T00:00:00Z","name_a2s":"Uncletopia | London | 8 | Community","protocol":17,"map":"workshop/pl_highwood_b13.ugc1769496557","folder":"tf","game":"Team Fortress","app_id":440,"player_count":0,"max_players":24,"Bots":0,"server_type":"Dedicated","server_os":"Linux","password":true,"vac":true,"version":"7932396","steam_id":85568392924964315,"keywords":["nocrits","nodmgspread","payload","uncletopia"],"game_id":440,"stv_port":27086,"stv_name":"Uncletopia | London | 8 | Community | STV","players":null},{"server_id":300,"name":"Uncletopia | Montréal | 1 | All Maps","name_short":"mtl-1","host":"mtl-1.ca.uncletopia.com","port":27015,"enabled":true,"region":"us-east","cc":"ca","latitude":45.50889,"longitude":-73.56167,"reserved":0,"last_update":"0001-01-01T00:00:00Z","name_a2s":"Uncletopia | Montréal | 1 | All Maps","protocol":17,"map":"cp_altitude","folder":"tf","game":"Team Fortress","app_id":440,"player_count":0,"max_players":24,"Bots":0,"server_type":"Dedicated","server_os":"Linux","password":true,"vac":true,"version":"7932396","steam_id":85568392924500087,"keywords":["cp","nocrits","nodmgspread","uncletopia"],"game_id":440,"stv_port":27016,"stv_name":"Uncletopia | Montréal | 1 | All Maps | STV","players":null},{"server_id":301,"name":"Uncletopia | Montréal | 2 | All Maps","name_short":"mtl-2","host":"mtl-1.ca.uncletopia.com","port":27025,"enabled":true,"region":"us-east","cc":"ca","latitude":45.50889,"longitude":-73.56167,"reserved":0,"last_update":"0001-01-01T00:00:00Z","name_a2s":"Uncletopia | Montréal | 2 | All Maps","protocol":17,"map":"koth_lakeside_final","folder":"tf","game":"Team Fortress","app_id":440,"player_count":0,"max_players":24,"Bots":0,"server_type":"Dedicated","server_os":"Linux","password":true,"vac":true,"version":"7932396","steam_id":85568392924500088,"keywords":["cp","nocrits","nodmgspread","uncletopia"],"game_id":440,"stv_port":27026,"stv_name":"Uncletopia | Montréal | 2 | All Maps | STV","players":null},{"server_id":302,"name":"Uncletopia | Montréal | 3 | All Maps","name_short":"mtl-3","host":"mtl-1.ca.uncletopia.com","port":27035,"enabled":true,"region":"us-east","cc":"ca","latitude":45.50889,"longitude":-73.56167,"reserved":0,"last_update":"0001-01-01T00:00:00Z","name_a2s":"Uncletopia | Montréal | 3 | All Maps","protocol":17,"map":"cp_process_final","folder":"tf","game":"Team Fortress","app_id":440,"player_count":0,"max_players":24,"Bots":0,"server_type":"Dedicated","server_os":"Linux","password":true,"vac":true,"version":"7932396","steam_id":85568392924500089,"keywords":["cp","nocrits","nodmgspread","uncletopia"],"game_id":440,"stv_port":27036,"stv_name":"Uncletopia | Montréal | 3 | All Maps | STV","players":null},{"server_id":303,"name":"Uncletopia | Montréal | 4 | No Payload","name_short":"mtl-4","host":"mtl-1.ca.uncletopia.com","port":27045,"enabled":true,"region":"us-east","cc":"ca","latitude":45.50889,"longitude":-73.56167,"reserved":0,"last_update":"0001-01-01T00:00:00Z","name_a2s":"Uncletopia | Montréal | 4 | No Payload","protocol":17,"map":"cp_snakewater_final1","folder":"tf","game":"Team Fortress","app_id":440,"player_count":0,"max_players":24,"Bots":0,"server_type":"Dedicated","server_os":"Linux","password":true,"vac":true,"version":"7932396","steam_id":85568392924500090,"keywords":["cp","nocrits","nodmgspread","uncletopia"],"game_id":440,"stv_port":27046,"stv_name":"Uncletopia | Montréal | 4 | No Payload | STV","players":null},{"server_id":13,"name":"Uncletopia | New York City | 1 | All Maps","name_short":"nyc-1","host":"nyc-1.us.uncletopia.com","port":27015,"enabled":true,"region":"us-east","cc":"us","latitude":40.73061,"longitude":-73.93524,"reserved":0,"last_update":"0001-01-01T00:00:00Z","name_a2s":"Uncletopia | New York City | 1 | All Maps","protocol":17,"map":"pl_pier","folder":"tf","game":"Team Fortress","app_id":440,"player_count":2,"max_players":24,"Bots":0,"server_type":"Dedicated","server_os":"Linux","password":true,"vac":true,"version":"7932396","steam_id":85568392924469993,"keywords":["nocrits","nodmgspread","payload","uncletopia"],"game_id":440,"stv_port":27016,"stv_name":"Uncletopia | New York City | 1 | All Maps | STV","players":[{"user_id":10,"name":"pigfarmer.gov","steam_id":76561199071167548,"connected_time":126000000000,"state":"active","ping":70},{"user_id":11,"name":"Blaz3rr","steam_id":76561198316228836,"connected_time":91000000000,"state":"active","ping":84}]},{"server_id":14,"name":"Uncletopia | New York City | 2 | All Maps","name_short":"nyc-2","host":"nyc-1.us.uncletopia.com","port":27025,"enabled":true,"region":"us-east","cc":"us","latitude":40.73061,"longitude":-73.93524,"reserved":0,"last_update":"0001-01-01T00:00:00Z","name_a2s":"Uncletopia | New York City | 2 | All Maps","protocol":17,"map":"koth_lakeside_final","folder":"tf","game":"Team Fortress","app_id":440,"player_count":0,"max_players":24,"Bots":0,"server_type":"Dedicated","server_os":"Linux","password":true,"vac":true,"version":"7932396","steam_id":85568392924469994,"keywords":["cp","nocrits","nodmgspread","uncletopia"],"game_id":440,"stv_port":27026,"stv_name":"Uncletopia | New York City | 2 | All Maps | STV","players":null},{"server_id":15,"name":"Uncletopia | New York City | 3 | Stopwatch Beta","name_short":"nyc-3","host":"nyc-1.us.uncletopia.com","port":27035,"enabled":true,"region":"us-east","cc":"us","latitude":40.73061,"longitude":-73.93524,"reserved":0,"last_update":"0001-01-01T00:00:00Z","name_a2s":"Uncletopia | New York City | 3 | Stopwatch Beta","protocol":17,"map":"koth_lakeside_final","folder":"tf","game":"Team Fortress","app_id":440,"player_count":0,"max_players":24,"Bots":0,"server_type":"Dedicated","server_os":"Linux","password":true,"vac":true,"version":"7932396","steam_id":85568392924742820,"keywords":["cp","nocrits","nodmgspread","uncletopia"],"game_id":440,"stv_port":27036,"stv_name":"Uncletopia | New York City | 3 | Stopwatch Beta | STV","players":null},{"server_id":16,"name":"Uncletopia | New York City | 4 | Community","name_short":"nyc-4","host":"nyc-1.us.uncletopia.com","port":27045,"enabled":true,"region":"us-east","cc":"us","latitude":40.73061,"longitude":-73.93524,"reserved":0,"last_update":"0001-01-01T00:00:00Z","name_a2s":"Uncletopia | New York City | 4 | Community","protocol":17,"map":"workshop/pl_badwater_pro_v12.ugc2142942074","folder":"tf","game":"Team Fortress","app_id":440,"player_count":24,"max_players":24,"Bots":0,"server_type":"Dedicated","server_os":"Linux","password":true,"vac":true,"version":"7932396","steam_id":85568392924742821,"keywords":["nocrits","nodmgspread","payload","uncletopia"],"game_id":440,"stv_port":27046,"stv_name":"Uncletopia | New York City | 4 | Community | STV","players":[{"user_id":71,"name":"Mora","steam_id":76561198060542307,"connected_time":2378000000000,"state":"active","ping":95},{"user_id":59,"name":"Noa","steam_id":76561198105241026,"connected_time":3007000000000,"state":"active","ping":73},{"user_id":48,"name":"I really enjoy MEN","steam_id":76561198164119602,"connected_time":3567000000000,"state":"active","ping":160},{"user_id":84,"name":";^)","steam_id":76561198269497358,"connected_time":1568000000000,"state":"active","ping":82},{"user_id":9,"name":"Casual Goober","steam_id":76561199000599111,"connected_time":6661000000000,"state":"active","ping":69},{"user_id":86,"name":"absolute zero","steam_id":76561198074606709,"connected_time":1503000000000,"state":"active","ping":59},{"user_id":87,"name":"SLiPpeRyJoe.nosound","steam_id":76561197977206359,"connected_time":1476000000000,"state":"active","ping":88},{"user_id":88,"name":"Sümo","steam_id":76561199206502443,"connected_time":1456000000000,"state":"active","ping":181},{"user_id":93,"name":"The Nikocado Enjoyer","steam_id":76561198263154374,"connected_time":928000000000,"state":"active","ping":58},{"user_id":98,"name":"ChozoChorizo","steam_id":76561198272609196,"connected_time":749000000000,"state":"active","ping":69},{"user_id":95,"name":"Purple Carp (real)","steam_id":76561198011231099,"connected_time":903000000000,"state":"active","ping":130},{"user_id":61,"name":"Voltaire!","steam_id":76561198047528141,"connected_time":2942000000000,"state":"active","ping":85},{"user_id":94,"name":"neet","steam_id":76561197968115168,"connected_time":909000000000,"state":"active","ping":47},{"user_id":40,"name":"Mecha","steam_id":76561198014927379,"connected_time":4181000000000,"state":"active","ping":71},{"user_id":63,"name":"firstlastmcgee","steam_id":76561198170187989,"connected_time":2841000000000,"state":"active","ping":81},{"user_id":89,"name":"SasukeGOD","steam_id":76561199077255310,"connected_time":1355000000000,"state":"active","ping":79},{"user_id":65,"name":"basilthenasa","steam_id":76561199388111764,"connected_time":2658000000000,"state":"active","ping":119},{"user_id":99,"name":"wahooka","steam_id":76561197981211922,"connected_time":308000000000,"state":"active","ping":54},{"user_id":92,"name":"Idiot Princess","steam_id":76561198048205270,"connected_time":1209000000000,"state":"active","ping":70},{"user_id":100,"name":"Lifial","steam_id":76561198271885819,"connected_time":112000000000,"state":"active","ping":59},{"user_id":96,"name":"El_Jackso","steam_id":76561198126121555,"connected_time":809000000000,"state":"active","ping":69},{"user_id":91,"name":"Banned Worthless Specimen","steam_id":76561198117206414,"connected_time":1230000000000,"state":"active","ping":95},{"user_id":76,"name":"Root","steam_id":76561198051749255,"connected_time":2129000000000,"state":"active","ping":75},{"user_id":80,"name":"GGass","steam_id":76561198173172369,"connected_time":1875000000000,"state":"active","ping":150}]},{"server_id":142,"name":"Uncletopia | São Paulo | 1 | All Maps","name_short":"sao-1","host":"sao-1.br.uncletopia.com","port":27015,"enabled":true,"region":"sa","cc":"br","latitude":-23.533773,"longitude":-46.62529,"reserved":0,"last_update":"0001-01-01T00:00:00Z","name_a2s":"Uncletopia | São Paulo | 1 | All Maps","protocol":17,"map":"cp_sunshine","folder":"tf","game":"Team Fortress","app_id":440,"player_count":0,"max_players":24,"Bots":0,"server_type":"Dedicated","server_os":"Linux","password":true,"vac":true,"version":"7932396","steam_id":85568392924469996,"keywords":["cp","nocrits","nodmgspread","uncletopia"],"game_id":440,"stv_port":27016,"stv_name":"Uncletopia | São Paulo | 1 | All Maps | STV","players":null},{"server_id":143,"name":"Uncletopia | São Paulo | 2 | All Maps","name_short":"sao-2","host":"sao-2.br.uncletopia.com","port":27015,"enabled":true,"region":"sa","cc":"br","latitude":-23.533773,"longitude":-46.62529,"reserved":0,"last_update":"0001-01-01T00:00:00Z","name_a2s":"Uncletopia | São Paulo | 2 | All Maps","protocol":17,"map":"pl_swiftwater_final1","folder":"tf","game":"Team Fortress","app_id":440,"player_count":0,"max_players":24,"Bots":0,"server_type":"Dedicated","server_os":"Linux","password":true,"vac":true,"version":"7932396","steam_id":85568392924485349,"keywords":["nocrits","nodmgspread","payload","uncletopia"],"game_id":440,"stv_port":27016,"stv_name":"Uncletopia | São Paulo | 2 | All Maps | STV","players":null},{"server_id":7,"name":"Uncletopia | Seattle | 1 | All Maps","name_short":"sea-1","host":"sea-1.us.uncletopia.com","port":27015,"enabled":true,"region":"us-west","cc":"us","latitude":47.608013,"longitude":-122.33517,"reserved":0,"last_update":"0001-01-01T00:00:00Z","name_a2s":"Uncletopia | Seattle | 1 | All Maps","protocol":17,"map":"pl_pier","folder":"tf","game":"Team Fortress","app_id":440,"player_count":0,"max_players":24,"Bots":0,"server_type":"Dedicated","server_os":"Linux","password":true,"vac":true,"version":"7932396","steam_id":85568392924469997,"keywords":["nocrits","nodmgspread","payload","uncletopia"],"game_id":440,"stv_port":27016,"stv_name":"Uncletopia | Seattle | 1 | All Maps | STV","players":null},{"server_id":119,"name":"Uncletopia | Seattle | 2 | All Maps","name_short":"sea-2","host":"sea-1.us.uncletopia.com","port":27025,"enabled":true,"region":"us-west","cc":"us","latitude":47.608013,"longitude":-122.33517,"reserved":0,"last_update":"0001-01-01T00:00:00Z","name_a2s":"Uncletopia | Seattle | 2 | All Maps","protocol":17,"map":"cp_dustbowl","folder":"tf","game":"Team Fortress","app_id":440,"player_count":24,"max_players":24,"Bots":0,"server_type":"Dedicated","server_os":"Linux","password":true,"vac":true,"version":"7932396","steam_id":85568392924469998,"keywords":["cp","nocrits","nodmgspread","uncletopia"],"game_id":440,"stv_port":27026,"stv_name":"Uncletopia | Seattle | 2 | All Maps | STV","players":[{"user_id":171,"name":"Ulrich Stern","steam_id":76561198101739682,"connected_time":995000000000,"state":"active","ping":116},{"user_id":146,"name":"Anonimax (Loli \u0026 Milf Hunter)","steam_id":76561198219485024,"connected_time":2049000000000,"state":"active","ping":152},{"user_id":124,"name":"Tom","steam_id":76561198070630154,"connected_time":4149000000000,"state":"active","ping":76},{"user_id":184,"name":"Take the L","steam_id":76561198379223875,"connected_time":686000000000,"state":"active","ping":126},{"user_id":137,"name":"volta","steam_id":76561199214283884,"connected_time":2411000000000,"state":"active","ping":138},{"user_id":176,"name":"Vincent Van Bro","steam_id":76561197966919802,"connected_time":898000000000,"state":"active","ping":57},{"user_id":169,"name":"pep","steam_id":76561198009276239,"connected_time":1039000000000,"state":"active","ping":60},{"user_id":131,"name":"KindaFemboy","steam_id":76561198781220345,"connected_time":3213000000000,"state":"active","ping":116},{"user_id":182,"name":"HawkBlaze","steam_id":76561199000152914,"connected_time":700000000000,"state":"active","ping":82},{"user_id":139,"name":"Zag Fcghy Hcha Hcha","steam_id":76561198812405908,"connected_time":2360000000000,"state":"active","ping":77},{"user_id":135,"name":"saggysage","steam_id":76561198249808678,"connected_time":2624000000000,"state":"active","ping":130},{"user_id":179,"name":"kab789","steam_id":76561198069842202,"connected_time":802000000000,"state":"active","ping":110},{"user_id":133,"name":"Shark Sandwich","steam_id":76561198025007938,"connected_time":3076000000000,"state":"active","ping":54},{"user_id":121,"name":"Starkiller","steam_id":76561198101643120,"connected_time":4211000000000,"state":"active","ping":103},{"user_id":161,"name":"Xeno","steam_id":76561199248963771,"connected_time":1188000000000,"state":"active","ping":84},{"user_id":114,"name":"flairz","steam_id":76561199212732114,"connected_time":4723000000000,"state":"active","ping":62},{"user_id":172,"name":"Craziє","steam_id":76561199003517461,"connected_time":982000000000,"state":"active","ping":89},{"user_id":166,"name":"⎝⧹MythicalTwinkie⧸⎠","steam_id":76561198167969738,"connected_time":1119000000000,"state":"active","ping":58},{"user_id":178,"name":"nuclear bomb plans (used)","steam_id":76561198849316769,"connected_time":817000000000,"state":"active","ping":97},{"user_id":174,"name":"poofysters","steam_id":76561198800118537,"connected_time":959000000000,"state":"active","ping":78},{"user_id":183,"name":"BoxMan","steam_id":76561198316541559,"connected_time":697000000000,"state":"active","ping":136},{"user_id":181,"name":"Kaiza Slumby","steam_id":76561199109063823,"connected_time":741000000000,"state":"active","ping":71},{"user_id":128,"name":"❤To Lazy❤","steam_id":76561198164211904,"connected_time":3964000000000,"state":"active","ping":89},{"user_id":152,"name":"Aquiles Baeza","steam_id":76561198081053203,"connected_time":1738000000000,"state":"active","ping":100}]},{"server_id":406,"name":"Uncletopia | Seattle | 3 | Stopwatch Beta","name_short":"sea-3","host":"sea-1.us.uncletopia.com","port":27035,"enabled":true,"region":"us-west","cc":"us","latitude":47.608013,"longitude":-122.33517,"reserved":0,"last_update":"0001-01-01T00:00:00Z","name_a2s":"Uncletopia | Seattle | 3 | Stopwatch Beta","protocol":17,"map":"workshop/koth_clearcut_b15.ugc2107050255","folder":"tf","game":"Team Fortress","app_id":440,"player_count":0,"max_players":24,"Bots":0,"server_type":"Dedicated","server_os":"Linux","password":true,"vac":true,"version":"7932396","steam_id":85568392924515217,"keywords":["cp","nocrits","nodmgspread","uncletopia"],"game_id":440,"stv_port":27036,"stv_name":"Uncletopia | Seattle | 3 | Stopwatch Beta | STV","players":null},{"server_id":17,"name":"Uncletopia | San Francisco | 1 | All Maps","name_short":"sfo-1","host":"sfo-1.us.uncletopia.com","port":27015,"enabled":true,"region":"us-west","cc":"us","latitude":37.77397,"longitude":-122.4313,"reserved":0,"last_update":"0001-01-01T00:00:00Z","name_a2s":"Uncletopia | San Francisco | 1 | All Maps","protocol":17,"map":"pl_frontier_final","folder":"tf","game":"Team Fortress","app_id":440,"player_count":0,"max_players":24,"Bots":0,"server_type":"Dedicated","server_os":"Linux","password":true,"vac":true,"version":"7932396","steam_id":85568392924469999,"keywords":["nocrits","nodmgspread","payload","uncletopia"],"game_id":440,"stv_port":27016,"stv_name":"Uncletopia | San Francisco | 1 | All Maps | STV","players":null},{"server_id":18,"name":"Uncletopia | San Francisco | 2 | All Maps","name_short":"sfo-2","host":"sfo-1.us.uncletopia.com","port":27025,"enabled":true,"region":"us-west","cc":"us","latitude":37.77397,"longitude":-122.4313,"reserved":0,"last_update":"0001-01-01T00:00:00Z","name_a2s":"Uncletopia | San Francisco | 2 | All Maps","protocol":17,"map":"cp_snakewater_final1","folder":"tf","game":"Team Fortress","app_id":440,"player_count":0,"max_players":24,"Bots":0,"server_type":"Dedicated","server_os":"Linux","password":true,"vac":true,"version":"7932396","steam_id":85568392924470000,"keywords":["cp","nocrits","nodmgspread","uncletopia"],"game_id":440,"stv_port":27026,"stv_name":"Uncletopia | San Francisco | 2 | All Maps | STV","players":null},{"server_id":19,"name":"Uncletopia | San Francisco | 3 | Stopwatch Beta","name_short":"sfo-3","host":"sfo-1.us.uncletopia.com","port":27035,"enabled":true,"region":"us-west","cc":"us","latitude":37.77397,"longitude":-122.4313,"reserved":0,"last_update":"0001-01-01T00:00:00Z","name_a2s":"Uncletopia | San Francisco | 3 | Stopwatch Beta","protocol":17,"map":"koth_lakeside_final","folder":"tf","game":"Team Fortress","app_id":440,"player_count":0,"max_players":24,"Bots":0,"server_type":"Dedicated","server_os":"Linux","password":true,"vac":true,"version":"7932396","steam_id":85568392924742824,"keywords":["cp","nocrits","nodmgspread","uncletopia"],"game_id":440,"stv_port":27036,"stv_name":"Uncletopia | San Francisco | 3 | Stopwatch Beta | STV","players":null},{"server_id":20,"name":"Uncletopia | San Francisco | 4 | Community","name_short":"sfo-4","host":"sfo-1.us.uncletopia.com","port":27045,"enabled":true,"region":"us-west","cc":"us","latitude":37.77397,"longitude":-122.4313,"reserved":0,"last_update":"0001-01-01T00:00:00Z","name_a2s":"Uncletopia | San Francisco | 4 | Community","protocol":17,"map":"pl_borneo","folder":"tf","game":"Team Fortress","app_id":440,"player_count":0,"max_players":24,"Bots":0,"server_type":"Dedicated","server_os":"Linux","password":true,"vac":true,"version":"7932396","steam_id":85568392924742826,"keywords":["nocrits","nodmgspread","payload","uncletopia"],"game_id":440,"stv_port":27046,"stv_name":"Uncletopia | San Francisco | 4 | Community | STV","players":null},{"server_id":141,"name":"Uncletopia | Sydney | 1 | All Maps","name_short":"syd-1","host":"syd-1.au.uncletopia.com","port":27015,"enabled":true,"region":"au","cc":"au","latitude":-33.865143,"longitude":151.2099,"reserved":0,"last_update":"0001-01-01T00:00:00Z","name_a2s":"Uncletopia | Sydney | 1 | All Maps","protocol":17,"map":"koth_lakeside_final","folder":"tf","game":"Team Fortress","app_id":440,"player_count":2,"max_players":24,"Bots":0,"server_type":"Dedicated","server_os":"Linux","password":true,"vac":true,"version":"7932396","steam_id":85568392924470001,"keywords":["cp","nocrits","nodmgspread","uncletopia"],"game_id":440,"stv_port":27016,"stv_name":"Uncletopia | Sydney | 1 | All Maps | STV","players":[{"user_id":17,"name":"Toil Mill","steam_id":76561198192226758,"connected_time":35000000000,"state":"active","ping":36},{"user_id":18,"name":"PelicanBrainz","steam_id":76561199228042180,"connected_time":28000000000,"state":"active","ping":78}]},{"server_id":123,"name":"Uncletopia | Sydney | 2 | All Maps","name_short":"syd-2","host":"syd-1.au.uncletopia.com","port":27025,"enabled":true,"region":"au","cc":"au","latitude":-33.865143,"longitude":151.2099,"reserved":0,"last_update":"0001-01-01T00:00:00Z","name_a2s":"Uncletopia | Sydney | 2 | All Maps","protocol":17,"map":"koth_lakeside_final","folder":"tf","game":"Team Fortress","app_id":440,"player_count":0,"max_players":24,"Bots":0,"server_type":"Dedicated","server_os":"Linux","password":true,"vac":true,"version":"7932396","steam_id":85568392924470002,"keywords":["cp","nocrits","nodmgspread","uncletopia"],"game_id":440,"stv_port":27026,"stv_name":"Uncletopia | Sydney | 2 | All Maps | STV","players":null},{"server_id":395,"name":"Uncletopia | Sydney | 3 | All Maps","name_short":"syd-3","host":"syd-1.au.uncletopia.com","port":27035,"enabled":true,"region":"au","cc":"au","latitude":-33.865143,"longitude":151.2099,"reserved":0,"last_update":"0001-01-01T00:00:00Z","name_a2s":"Uncletopia | Sydney | 3 | All Maps","protocol":17,"map":"pl_barnblitz","folder":"tf","game":"Team Fortress","app_id":440,"player_count":0,"max_players":24,"Bots":0,"server_type":"Dedicated","server_os":"Linux","password":true,"vac":true,"version":"7932396","steam_id":85568392925194467,"keywords":["nocrits","nodmgspread","payload","uncletopia"],"game_id":440,"stv_port":27036,"stv_name":"Uncletopia | Sydney | 3 | All Maps | STV","players":null},{"server_id":396,"name":"Uncletopia | Sydney | 4 | All Maps","name_short":"syd-4","host":"syd-1.au.uncletopia.com","port":27045,"enabled":true,"region":"au","cc":"au","latitude":-33.865143,"longitude":151.2099,"reserved":0,"last_update":"0001-01-01T00:00:00Z","name_a2s":"Uncletopia | Sydney | 4 | All Maps","protocol":17,"map":"pl_frontier_final","folder":"tf","game":"Team Fortress","app_id":440,"player_count":0,"max_players":24,"Bots":0,"server_type":"Dedicated","server_os":"Linux","password":true,"vac":true,"version":"7932396","steam_id":85568392925397958,"keywords":["nocrits","nodmgspread","payload","uncletopia"],"game_id":440,"stv_port":27046,"stv_name":"Uncletopia | Sydney | 4 | All Maps | STV","players":null},{"server_id":58,"name":"Uncletopia | Sydney | 5 | Stopwatch Beta","name_short":"syd-5","host":"syd-1.au.uncletopia.com","port":27055,"enabled":true,"region":"au","cc":"au","latitude":-33.865143,"longitude":151.2099,"reserved":0,"last_update":"0001-01-01T00:00:00Z","name_a2s":"Uncletopia | Sydney | 5 | Stopwatch Beta","protocol":17,"map":"pl_borneo","folder":"tf","game":"Team Fortress","app_id":440,"player_count":0,"max_players":24,"Bots":0,"server_type":"Dedicated","server_os":"Linux","password":true,"vac":true,"version":"7932396","steam_id":85568392925397959,"keywords":["nocrits","nodmgspread","payload","uncletopia"],"game_id":440,"stv_port":27056,"stv_name":"Uncletopia | Sydney | 5 | Stopwatch Beta | STV","players":null},{"server_id":59,"name":"Uncletopia | Sydney | 6 | Community","name_short":"syd-6","host":"syd-1.au.uncletopia.com","port":27065,"enabled":true,"region":"au","cc":"au","latitude":-33.865143,"longitude":151.2099,"reserved":0,"last_update":"0001-01-01T00:00:00Z","name_a2s":"Uncletopia | Sydney | 6 | Community","protocol":17,"map":"pl_badwater","folder":"tf","game":"Team Fortress","app_id":440,"player_count":0,"max_players":24,"Bots":0,"server_type":"Dedicated","server_os":"Linux","password":true,"vac":true,"version":"7932396","steam_id":85568392925397960,"keywords":["nocrits","nodmgspread","payload","uncletopia"],"game_id":440,"stv_port":27066,"stv_name":"Uncletopia | Sydney | 6 | Community | STV","players":null},{"server_id":49,"name":"Uncletopia | Warsaw | 1 | All Maps","name_short":"waw-1","host":"waw-1.pl.uncletopia.com","port":27015,"enabled":true,"region":"eu","cc":"pl","latitude":52.2297,"longitude":21.017532,"reserved":0,"last_update":"0001-01-01T00:00:00Z","name_a2s":"","protocol":0,"map":"","folder":"","game":"","app_id":0,"player_count":0,"max_players":0,"Bots":0,"server_type":"","server_os":"","password":false,"vac":false,"version":"","steam_id":0,"keywords":null,"game_id":0,"stv_port":0,"stv_name":"","players":null},{"server_id":50,"name":"Uncletopia | Warsaw | 2 | All Maps","name_short":"waw-2","host":"waw-1.pl.uncletopia.com","port":27025,"enabled":true,"region":"eu","cc":"pl","latitude":52.2297,"longitude":21.017532,"reserved":0,"last_update":"0001-01-01T00:00:00Z","name_a2s":"Uncletopia | Warsaw | 2 | All Maps","protocol":17,"map":"pl_upward","folder":"tf","game":"Team Fortress","app_id":440,"player_count":0,"max_players":24,"Bots":0,"server_type":"Dedicated","server_os":"Linux","password":true,"vac":true,"version":"7932396","steam_id":85568392925397851,"keywords":["nocrits","nodmgspread","payload","uncletopia"],"game_id":440,"stv_port":27026,"stv_name":"Uncletopia | Warsaw | 2 | All Maps | STV","players":null},{"server_id":51,"name":"Uncletopia | Warsaw | 3 | All Maps","name_short":"waw-3","host":"waw-1.pl.uncletopia.com","port":27035,"enabled":true,"region":"eu","cc":"pl","latitude":52.2297,"longitude":21.017532,"reserved":0,"last_update":"0001-01-01T00:00:00Z","name_a2s":"Uncletopia | Warsaw | 3 | All Maps","protocol":17,"map":"koth_lakeside_final","folder":"tf","game":"Team Fortress","app_id":440,"player_count":0,"max_players":24,"Bots":0,"server_type":"Dedicated","server_os":"Linux","password":true,"vac":true,"version":"7932396","steam_id":85568392925397852,"keywords":["cp","nocrits","nodmgspread","uncletopia"],"game_id":440,"stv_port":27036,"stv_name":"Uncletopia | Warsaw | 3 | All Maps | STV","players":null},{"server_id":52,"name":"Uncletopia | Warsaw | 4 | All Maps","name_short":"waw-4","host":"waw-1.pl.uncletopia.com","port":27045,"enabled":true,"region":"eu","cc":"pl","latitude":52.2297,"longitude":21.017532,"reserved":0,"last_update":"0001-01-01T00:00:00Z","name_a2s":"Uncletopia | Warsaw | 4 | All Maps","protocol":17,"map":"pl_snowycoast","folder":"tf","game":"Team Fortress","app_id":440,"player_count":1,"max_players":24,"Bots":0,"server_type":"Dedicated","server_os":"Linux","password":true,"vac":true,"version":"7932396","steam_id":85568392925397853,"keywords":["nocrits","nodmgspread","payload","uncletopia"],"game_id":440,"stv_port":27046,"stv_name":"Uncletopia | Warsaw | 4 | All Maps | STV","players":[{"user_id":11,"name":"Đesmond","steam_id":76561198097676225,"connected_time":300000000000,"state":"active","ping":61}]},{"server_id":53,"name":"Uncletopia | Warsaw | 5 | Stopwatch Beta","name_short":"waw-5","host":"waw-1.pl.uncletopia.com","port":27055,"enabled":true,"region":"eu","cc":"pl","latitude":52.2297,"longitude":21.017532,"reserved":0,"last_update":"0001-01-01T00:00:00Z","name_a2s":"Uncletopia | Warsaw | 5 | Stopwatch Beta","protocol":17,"map":"cp_process_final","folder":"tf","game":"Team Fortress","app_id":440,"player_count":0,"max_players":24,"Bots":0,"server_type":"Dedicated","server_os":"Linux","password":true,"vac":true,"version":"7932396","steam_id":85568392925397854,"keywords":["cp","nocrits","nodmgspread","uncletopia"],"game_id":440,"stv_port":27056,"stv_name":"Uncletopia | Warsaw | 5 | Stopwatch Beta | STV","players":null},{"server_id":54,"name":"Uncletopia | Warsaw | 6 | Community","name_short":"waw-6","host":"waw-1.pl.uncletopia.com","port":27065,"enabled":true,"region":"eu","cc":"pl","latitude":52.2297,"longitude":21.017532,"reserved":0,"last_update":"0001-01-01T00:00:00Z","name_a2s":"Uncletopia | Warsaw | 6 | Community","protocol":17,"map":"pl_upward","folder":"tf","game":"Team Fortress","app_id":440,"player_count":0,"max_players":24,"Bots":0,"server_type":"Dedicated","server_os":"Linux","password":true,"vac":true,"version":"7932396","steam_id":85568392925397856,"keywords":["nocrits","nodmgspread","payload","uncletopia"],"game_id":440,"stv_port":27066,"stv_name":"Uncletopia | Warsaw | 6 | Community | STV","players":null}]}