{"status":true,"message":"","result":[{"server_id":9,"name":"Uncletopia | Atlanta | 1 | All Maps","name_short":"atl-1","host":"atl-1.us.uncletopia.com","port":27015,"enabled":true,"region":"us-east","cc":"us","latitude":33.753746,"longitude":-84.38633,"reserved":0,"last_update":"0001-01-01T00:00:00Z","name_a2s":"Uncletopia | Atlanta | 1 | All Maps","protocol":17,"map":"pl_upward","folder":"tf","game":"Team Fortress","app_id":440,"player_count":24,"max_players":24,"Bots":0,"server_type":"Dedicated","server_os":"Linux","password":true,"vac":true,"version":"7961495","steam_id":85568392924469982,"keywords":["nocrits","nodmgspread","payload","uncletopia"],"game_id":440,"stv_port":27016,"stv_name":"Uncletopia | Atlanta | 1 | All Maps | STV","players":null},{"server_id":104,"name":"Uncletopia | Atlanta | 2 | All Maps","name_short":"atl-2","host":"atl-1.us.uncletopia.com","port":27025,"enabled":true,"region":"us-east","cc":"us","latitude":33.753746,"longitude":-84.38633,"reserved":0,"last_update":"0001-01-01T00:00:00Z","name_a2s":"Uncletopia | Atlanta | 2 | All Maps","protocol":17,"map":"pl_badwater","folder":"tf","game":"Team Fortress","app_id":440,"player_count":0,"max_players":24,"Bots":0,"server_type":"Dedicated","server_os":"Linux","password":true,"vac":true,"version":"7961495","steam_id":85568392924469983,"keywords":["nocrits","nodmgspread","payload","uncletopia"],"game_id":440,"stv_port":27026,"stv_name":"Uncletopia | Atlanta | 2 | All Maps | STV","players":null},{"server_id":400,"name":"Uncletopia | Atlanta | 3 | Stopwatch","name_short":"atl-3","host":"atl-1.us.uncletopia.com","port":27035,"enabled":true,"region":"us-east","cc":"us","latitude":33.753746,"longitude":-84.38633,"reserved":0,"last_update":"0001-01-01T00:00:00Z","name_a2s":"Uncletopia | Atlanta | 3 | Stopwatch","protocol":17,"map":"koth_clearcut_b15","folder":"tf","game":"Team Fortress","app_id":440,"player_count":0,"max_players":24,"Bots":0,"server_type":"Dedicated","server_os":"Linux","password":true,"vac":true,"version":"7961495","steam_id":85568392924515187,"keywords":["cp","nocrits","nodmgspread","uncletopia"],"game_id":440,"stv_port":27036,"stv_name":"Uncletopia | Atlanta | 3 | Stopwatch | STV","players":null},{"server_id":401,"name":"Uncletopia | Atlanta | 4 | Community","name_short":"atl-4","host":"atl-1.us.uncletopia.com","port":27045,"enabled":true,"region":"us-east","cc":"us","latitude":33.753746,"longitude":-84.38633,"reserved":0,"last_update":"0001-01-01T00:00:00Z","name_a2s":"Uncletopia | Atlanta | 4 | Community","protocol":17,"map":"cp_logjam_rc12","folder":"tf","game":"Team Fortress","app_id":440,"player_count":0,"max_players":24,"Bots":0,"server_type":"Dedicated","server_os":"Linux","password":true,"vac":true,"version":"7961495","steam_id":85568392924515188,"keywords":["cp","nocrits","nodmgspread","uncletopia"],"game_id":440,"stv_port":27046,"stv_name":"Uncletopia | Atlanta | 4 | Community | STV","players":null},{"server_id":2,"name":"Uncletopia | Chicago | 1 | All Maps","name_short":"chi-1","host":"chi-1.us.uncletopia.com","port":27015,"enabled":true,"region":"us-central","cc":"us","latitude":41.881832,"longitude":-87.62318,"reserved":0,"last_update":"0001-01-01T00:00:00Z","name_a2s":"Uncletopia | Chicago | 1 | All Maps","protocol":17,"map":"pl_pier","folder":"tf","game":"Team Fortress","app_id":440,"player_count":14,"max_players":24,"Bots":0,"server_type":"Dedicated","server_os":"Linux","password":true,"vac":true,"version":"7961495","steam_id":85568392924469984,"keywords":["nocrits","nodmgspread","payload","uncletopia"],"game_id":440,"stv_port":27016,"stv_name":"Uncletopia | Chicago | 1 | All Maps | STV","players":[{"user_id":695,"name":"the intel","steam_id":76561199359670821,"connected_time":251000000000,"state":"active","ping":254},{"user_id":663,"name":"Canadian","steam_id":76561199104281653,"connected_time":3199000000000,"state":"active","ping":66},{"user_id":696,"name":"Noob23546T","steam_id":76561199061939064,"connected_time":66000000000,"state":"active","ping":275},{"user_id":644,"name":"Female Gamer","steam_id":76561199366482682,"connected_time":4203000000000,"state":"active","ping":99},{"user_id":693,"name":"Sparky","steam_id":76561198114574421,"connected_time":388000000000,"state":"active","ping":72},{"user_id":694,"name":"yumyum","steam_id":76561198150567198,"connected_time":370000000000,"state":"active","ping":59},{"user_id":658,"name":"Gaarke","steam_id":76561198023099219,"connected_time":3506000000000,"state":"active","ping":173},{"user_id":697,"name":"alien","steam_id":76561198007464245,"connected_time":34000000000,"state":"active","ping":74},{"user_id":691,"name":"FreeWally","steam_id":76561198317217328,"connected_time":573000000000,"state":"active","ping":64},{"user_id":680,"name":"Smog","steam_id":76561198043705383,"connected_time":2057000000000,"state":"active","ping":73},{"user_id":684,"name":"Dzhoshua","steam_id":76561198071915251,"connected_time":1309000000000,"state":"active","ping":67},{"user_id":649,"name":"LNRPdeadshot","steam_id":76561199160013540,"connected_time":4077000000000,"state":"active","ping":88},{"user_id":657,"name":"TTV Hunter","steam_id":76561198115812405,"connected_time":3556000000000,"state":"active","ping":71},{"user_id":582,"name":"Bodhi (she/they)","steam_id":76561198103230995,"connected_time":10490000000000,"state":"active","ping":75}]},{"server_id":106,"name":"Uncletopia | Chicago | 2 | All Maps","name_short":"chi-2","host":"chi-1.us.uncletopia.com","port":27025,"enabled":true,"region":"us-central","cc":"us","latitude":41.881832,"longitude":-87.62318,"reserved":0,"last_update":"0001-01-01T00:00:00Z","name_a2s":"Uncletopia | Chicago | 2 | All Maps","protocol":17,"map":"ctf_turbine","folder":"tf","game":"Team Fortress","app_id":440,"player_count":6,"max_players":24,"Bots":0,"server_type":"Dedicated","server_os":"Linux","password":true,"vac":true,"version":"7961495","steam_id":85568392924469985,"keywords":["ctf","nocrits","nodmgspread","uncletopia"],"game_id":440,"stv_port":27026,"stv_name":"Uncletopia | Chicago | 2 | All Maps | STV","players":[{"user_id":856,"name":"Captain Emerald The Changeling","steam_id":76561198320651177,"connected_time":7043000000000,"state":"active","ping":62},{"user_id":899,"name":"Relative","steam_id":76561198359479411,"connected_time":1510000000000,"state":"active","ping":79},{"user_id":889,"name":"Questi0nable","steam_id":76561198354219751,"connected_time":3215000000000,"state":"active","ping":70},{"user_id":890,"name":"cofe","steam_id":76561198874515618,"connected_time":3211000000000,"state":"active","ping":136},{"user_id":902,"name":"Pal The Palm","steam_id":76561198191507485,"connected_time":1453000000000,"state":"active","ping":98},{"user_id":881,"name":"That Darned Imp","steam_id":76561198854501307,"connected_time":4549000000000,"state":"active","ping":54}]},{"server_id":402,"name":"Uncletopia | Chicago | 3 | All Maps","name_short":"chi-3","host":"chi-1.us.uncletopia.com","port":27035,"enabled":true,"region":"us-central","cc":"us","latitude":41.881832,"longitude":-87.62318,"reserved":0,"last_update":"0001-01-01T00:00:00Z","name_a2s":"Uncletopia | Chicago | 3 | All Maps","protocol":17,"map":"pl_badwater","folder":"tf","game":"Team Fortress","app_id":440,"player_count":21,"max_players":24,"Bots":0,"server_type":"Dedicated","server_os":"Linux","password":true,"vac":true,"version":"7961495","steam_id":85568392924515191,"keywords":["nocrits","nodmgspread","payload","uncletopia"],"game_id":440,"stv_port":27036,"stv_name":"Uncletopia | Chicago | 3 | All Maps | STV","players":[{"user_id":502,"name":"Sasquatch Foot","steam_id":76561199218979828,"connected_time":89000000000,"state":"active","ping":67},{"user_id":484,"name":"phantom","steam_id":76561197963860777,"connected_time":2907000000000,"state":"active","ping":55},{"user_id":495,"name":"Dwaggy","steam_id":76561198027369555,"connected_time":550000000000,"state":"active","ping":62},{"user_id":488,"name":"Bobirulez","steam_id":76561198009125458,"connected_time":1936000000000,"state":"active","ping":150},{"user_id":479,"name":"Drapph","steam_id":76561199384213314,"connected_time":3092000000000,"state":"active","ping":61},{"user_id":492,"name":"Very Small Giant","steam_id":76561199187337967,"connected_time":927000000000,"state":"active","ping":60},{"user_id":480,"name":"CatLike Pigeon","steam_id":76561198171716030,"connected_time":3050000000000,"state":"active","ping":115},{"user_id":503,"name":"I have no brain \u0026 i must scream","steam_id":76561198141344039,"connected_time":17000000000,"state":"spawning","ping":55},{"user_id":494,"name":"Mister Merica","steam_id":76561198042310916,"connected_time":733000000000,"state":"active","ping":55},{"user_id":481,"name":"Therapy Goth","steam_id":76561198048448497,"connected_time":3030000000000,"state":"active","ping":65},{"user_id":482,"name":"gayforgod","steam_id":76561198364882421,"connected_time":3023000000000,"state":"active","ping":101},{"user_id":459,"name":"playguy carter","steam_id":76561198080679337,"connected_time":4690000000000,"state":"active","ping":53},{"user_id":496,"name":"Salixiola","steam_id":76561198042177809,"connected_time":549000000000,"state":"active","ping":68},{"user_id":501,"name":"misterspud","steam_id":76561198195306218,"connected_time":281000000000,"state":"active","ping":45},{"user_id":497,"name":"Circuit Spark","steam_id":76561198832124473,"connected_time":532000000000,"state":"active","ping":62},{"user_id":498,"name":"Apollo","steam_id":76561197964252106,"connected_time":499000000000,"state":"active","ping":58},{"user_id":425,"name":"gerg","steam_id":76561197997127387,"connected_time":6881000000000,"state":"active","ping":96},{"user_id":428,"name":"social distance warrior","steam_id":76561198128992994,"connected_time":6820000000000,"state":"active","ping":83},{"user_id":500,"name":"rivera","steam_id":76561198051058706,"connected_time":448000000000,"state":"active","ping":60},{"user_id":449,"name":"CynForSin","steam_id":76561198094739849,"connected_time":5423000000000,"state":"active","ping":69},{"user_id":491,"name":"oppenheimer style","steam_id":76561198026664629,"connected_time":1870000000000,"state":"active","ping":48}]},{"server_id":403,"name":"Uncletopia | Chicago | 4 | All Maps","name_short":"chi-4","host":"chi-1.us.uncletopia.com","port":27045,"enabled":true,"region":"us-central","cc":"us","latitude":41.881832,"longitude":-87.62318,"reserved":0,"last_update":"0001-01-01T00:00:00Z","name_a2s":"Uncletopia | Chicago | 4 | All Maps","protocol":17,"map":"pl_borneo","folder":"tf","game":"Team Fortress","app_id":440,"player_count":23,"max_players":24,"Bots":0,"server_type":"Dedicated","server_os":"Linux","password":true,"vac":true,"version":"7961495","steam_id":85568392924515193,"keywords":["nocrits","nodmgspread","payload","uncletopia"],"game_id":440,"stv_port":27046,"stv_name":"Uncletopia | Chicago | 4 | All Maps | STV","players":[{"user_id":433,"name":"legalize nuclear bombs","steam_id":76561198418172095,"connected_time":4513000000000,"state":"active","ping":90},{"user_id":513,"name":"AveMoSwag","steam_id":76561198261701911,"connected_time":948000000000,"state":"active","ping":51},{"user_id":512,"name":"C O M F Y","steam_id":76561198072101210,"connected_time":1032000000000,"state":"active","ping":83},{"user_id":514,"name":"SpiceFox","steam_id":76561198049567786,"connected_time":943000000000,"state":"active","ping":62},{"user_id":518,"name":"mike","steam_id":76561198271977336,"connected_time":803000000000,"state":"active","ping":188},{"user_id":516,"name":"nomallife","steam_id":76561198066078134,"connected_time":911000000000,"state":"active","ping":74},{"user_id":437,"name":"Goog","steam_id":76561198160550637,"connected_time":4087000000000,"state":"active","ping":45},{"user_id":447,"name":"☆ShinyMew112","steam_id":76561198042820161,"connected_time":3073000000000,"state":"active","ping":49},{"user_id":520,"name":"Stupid","steam_id":76561198167318640,"connected_time":736000000000,"state":"active","ping":61},{"user_id":458,"name":"crunchy obama","steam_id":76561198044485217,"connected_time":2582000000000,"state":"active","ping":109},{"user_id":505,"name":"Nobody","steam_id":76561198286486517,"connected_time":1204000000000,"state":"active","ping":58},{"user_id":486,"name":"Catzs","steam_id":76561197996013572,"connected_time":1620000000000,"state":"active","ping":89},{"user_id":452,"name":"rudy","steam_id":76561198088712799,"connected_time":2842000000000,"state":"active","ping":83},{"user_id":523,"name":"staks","steam_id":76561198059570070,"connected_time":0,"state":"spawning","ping":25},{"user_id":519,"name":"Ludcmorais","steam_id":76561198359217809,"connected_time":799000000000,"state":"active","ping":181},{"user_id":460,"name":"C∅RVUS","steam_id":76561198100640019,"connected_time":2518000000000,"state":"active","ping":121},{"user_id":463,"name":"Neytir","steam_id":76561198124555175,"connected_time":2390000000000,"state":"active","ping":69},{"user_id":464,"name":"Vorpas Jabwak","steam_id":76561198112186064,"connected_time":2333000000000,"state":"active","ping":77},{"user_id":467,"name":"Season Leaf","steam_id":76561198133121805,"connected_time":2222000000000,"state":"active","ping":61},{"user_id":473,"name":"*command grabs you*","steam_id":76561198128164970,"connected_time":2082000000000,"state":"active","ping":103},{"user_id":522,"name":"Tots","steam_id":76561198027485007,"connected_time":308000000000,"state":"active","ping":60},{"user_id":484,"name":"twitch.tv/kegaman_","steam_id":76561198043632775,"connected_time":1749000000000,"state":"active","ping":105},{"user_id":471,"name":"*techs you*","steam_id":76561198410957728,"connected_time":2110000000000,"state":"active","ping":46}]},{"server_id":36,"name":"Uncletopia | Chicago | 5 | All Maps","name_short":"chi-5","host":"chi-2.us.uncletopia.com","port":27015,"enabled":true,"region":"us-central","cc":"us","latitude":41.881832,"longitude":-87.62318,"reserved":0,"last_update":"0001-01-01T00:00:00Z","name_a2s":"Uncletopia | Chicago | 5 | All Maps","protocol":17,"map":"koth_cascade","folder":"tf","game":"Team Fortress","app_id":440,"player_count":0,"max_players":24,"Bots":0,"server_type":"Dedicated","server_os":"Linux","password":true,"vac":true,"version":"7961495","steam_id":85568392924866362,"keywords":["cp","nocrits","nodmgspread","uncletopia"],"game_id":440,"stv_port":27016,"stv_name":"Uncletopia | Chicago | 5 | All Maps | STV","players":null},{"server_id":37,"name":"Uncletopia | Chicago | 6 | All Maps","name_short":"chi-6","host":"chi-2.us.uncletopia.com","port":27025,"enabled":true,"region":"us-central","cc":"us","latitude":41.881832,"longitude":-87.62318,"reserved":0,"last_update":"0001-01-01T00:00:00Z","name_a2s":"Uncletopia | Chicago | 6 | All Maps","protocol":17,"map":"pl_barnblitz","folder":"tf","game":"Team Fortress","app_id":440,"player_count":0,"max_players":24,"Bots":0,"server_type":"Dedicated","server_os":"Linux","password":true,"vac":true,"version":"7961495","steam_id":85568392924866363,"keywords":["nocrits","nodmgspread","payload","uncletopia"],"game_id":440,"stv_port":27026,"stv_name":"Uncletopia | Chicago | 6 | All Maps | STV","players":null},{"server_id":38,"name":"Uncletopia | Chicago | 7 | Stopwatch","name_short":"chi-7","host":"chi-2.us.uncletopia.com","port":27035,"enabled":true,"region":"us-central","cc":"us","latitude":41.881832,"longitude":-87.62318,"reserved":0,"last_update":"0001-01-01T00:00:00Z","name_a2s":"Uncletopia | Chicago | 7 | Stopwatch","protocol":17,"map":"koth_lakeside_final","folder":"tf","game":"Team Fortress","app_id":440,"player_count":0,"max_players":24,"Bots":0,"server_type":"Dedicated","server_os":"Linux","password":true,"vac":true,"version":"7961495","steam_id":85568392924866364,"keywords":["cp","nocrits","nodmgspread","uncletopia"],"game_id":440,"stv_port":27036,"stv_name":"Uncletopia | Chicago | 7 | Stopwatch | STV","players":null},{"server_id":39,"name":"Uncletopia | Chicago | 8 | Community","name_short":"chi-8","host":"chi-2.us.uncletopia.com","port":27045,"enabled":true,"region":"us-central","cc":"us","latitude":41.881832,"longitude":-87.62318,"reserved":0,"last_update":"0001-01-01T00:00:00Z","name_a2s":"Uncletopia | Chicago | 8 | Community","protocol":17,"map":"workshop/koth_ashville_final.ugc2130459942","folder":"tf","game":"Team Fortress","app_id":440,"player_count":0,"max_players":24,"Bots":0,"server_type":"Dedicated","server_os":"Linux","password":true,"vac":true,"version":"7961495","steam_id":85568392924866365,"keywords":["cp","nocrits","nodmgspread","uncletopia"],"game_id":440,"stv_port":27046,"stv_name":"Uncletopia | Chicago | 8 | Community | STV","players":null},{"server_id":8,"name":"Uncletopia | Dallas | 1 | All Maps","name_short":"dal-1","host":"dal-1.us.uncletopia.com","port":27015,"enabled":true,"region":"us-central","cc":"us","latitude":32.779167,"longitude":-96.80889,"reserved":0,"last_update":"0001-01-01T00:00:00Z","name_a2s":"Uncletopia | Dallas | 1 | All Maps","protocol":17,"map":"koth_viaduct","folder":"tf","game":"Team Fortress","app_id":440,"player_count":0,"max_players":24,"Bots":0,"server_type":"Dedicated","server_os":"Linux","password":true,"vac":true,"version":"7961495","steam_id":85568392924469986,"keywords":["cp","nocrits","nodmgspread","uncletopia"],"game_id":440,"stv_port":27016,"stv_name":"Uncletopia | Dallas | 1 | All Maps | STV","players":null},{"server_id":108,"name":"Uncletopia | Dallas | 2 | All Maps","name_short":"dal-2","host":"dal-1.us.uncletopia.com","port":27025,"enabled":true,"region":"us-central","cc":"us","latitude":32.779167,"longitude":-96.80889,"reserved":0,"last_update":"0001-01-01T00:00:00Z","name_a2s":"Uncletopia | Dallas | 2 | All Maps","protocol":17,"map":"pl_barnblitz","folder":"tf","game":"Team Fortress","app_id":440,"player_count":23,"max_players":24,"Bots":0,"server_type":"Dedicated","server_os":"Linux","password":true,"vac":true,"version":"7961495","steam_id":85568392924469988,"keywords":["nocrits","nodmgspread","payload","uncletopia"],"game_id":440,"stv_port":27026,"stv_name":"Uncletopia | Dallas | 2 | All Maps | STV","players":[{"user_id":1062,"name":"ttv/Everfrost Samoyed","steam_id":76561198072580699,"connected_time":1089000000000,"state":"active","ping":85},{"user_id":1058,"name":"Artemis1545","steam_id":76561198865786390,"connected_time":1434000000000,"state":"active","ping":122},{"user_id":1032,"name":"EvanTheNewbie","steam_id":76561198033899941,"connected_time":2984000000000,"state":"active","ping":57},{"user_id":1064,"name":"Titar Industries","steam_id":76561198143078476,"connected_time":1014000000000,"state":"active","ping":98},{"user_id":1077,"name":"Gettiz","steam_id":76561198160801090,"connected_time":22000000000,"state":"spawning","ping":100},{"user_id":1068,"name":"LZCH","steam_id":76561198085145373,"connected_time":708000000000,"state":"active","ping":126},{"user_id":1023,"name":"hittign dabong","steam_id":76561198097588802,"connected_time":3756000000000,"state":"active","ping":64},{"user_id":1050,"name":"Tibalt Nyahuma","steam_id":76561198034779431,"connected_time":2280000000000,"state":"active","ping":78},{"user_id":1070,"name":"PRETTY D3M0N R0KKSTAR","steam_id":76561198206177593,"connected_time":633000000000,"state":"active","ping":78},{"user_id":1067,"name":"KATSURB","steam_id":76561199172118456,"connected_time":868000000000,"state":"active","ping":60},{"user_id":1069,"name":"vadertot","steam_id":76561198280611473,"connected_time":686000000000,"state":"active","ping":67},{"user_id":1072,"name":"a linux gamer","steam_id":76561198301264312,"connected_time":387000000000,"state":"active","ping":76},{"user_id":1075,"name":"lily","steam_id":76561198420237035,"connected_time":136000000000,"state":"active","ping":94},{"user_id":1047,"name":"meggie","steam_id":76561198038291026,"connected_time":2486000000000,"state":"active","ping":37},{"user_id":1048,"name":"PinguEnjoyer6","steam_id":76561199186723516,"connected_time":2484000000000,"state":"active","ping":75},{"user_id":1076,"name":"BeyondInsanity","steam_id":76561198043856409,"connected_time":113000000000,"state":"active","ping":65},{"user_id":1063,"name":"Koffy","steam_id":76561198184386039,"connected_time":1044000000000,"state":"active","ping":76},{"user_id":1041,"name":"frank n furter","steam_id":76561198308883028,"connected_time":2751000000000,"state":"active","ping":83},{"user_id":1053,"name":"Shahared","steam_id":76561197993426930,"connected_time":2060000000000,"state":"active","ping":83},{"user_id":1054,"name":"Iron Sheik","steam_id":76561198069980923,"connected_time":2021000000000,"state":"active","ping":91},{"user_id":1060,"name":"Weed Dealer","steam_id":76561198418604400,"connected_time":1412000000000,"state":"active","ping":101},{"user_id":1056,"name":"Fred Ott","steam_id":76561198099088693,"connected_time":1777000000000,"state":"active","ping":75},{"user_id":1061,"name":"Creature","steam_id":76561198194585781,"connected_time":1411000000000,"state":"active","ping":80}]},{"server_id":404,"name":"Uncletopia | Dallas | 3 | All Maps","name_short":"dal-3","host":"dal-1.us.uncletopia.com","port":27035,"enabled":true,"region":"us-central","cc":"us","latitude":32.779167,"longitude":-96.80889,"reserved":0,"last_update":"0001-01-01T00:00:00Z","name_a2s":"Uncletopia | Dallas | 3 | All Maps","protocol":17,"map":"pl_frontier_final","folder":"tf","game":"Team Fortress","app_id":440,"player_count":0,"max_players":24,"Bots":0,"server_type":"Dedicated","server_os":"Linux","password":true,"vac":true,"version":"7961495","steam_id":85568392924515219,"keywords":["nocrits","nodmgspread","payload","uncletopia"],"game_id":440,"stv_port":27036,"stv_name":"Uncletopia | Dallas | 3 | All Maps | STV","players":null},{"server_id":405,"name":"Uncletopia | Dallas | 4 | Community","name_short":"dal-4","host":"dal-1.us.uncletopia.com","port":27045,"enabled":true,"region":"us-central","cc":"us","latitude":32.779167,"longitude":-96.80889,"reserved":0,"last_update":"0001-01-01T00:00:00Z","name_a2s":"Uncletopia | Dallas | 4 | Community","protocol":17,"map":"workshop/pl_fifthcurve_rc1.ugc648227046","folder":"tf","game":"Team Fortress","app_id":440,"player_count":0,"max_players":24,"Bots":0,"server_type":"Dedicated","server_os":"Linux","password":true,"vac":true,"version":"7961495","steam_id":85568392924515220,"keywords":["nocrits","nodmgspread","payload","uncletopia"],"game_id":440,"stv_port":27046,"stv_name":"Uncletopia | Dallas | 4 | Community | STV","players":null},{"server_id":5,"name":"Uncletopia | Frankfurt | 1 | All Maps","name_short":"frk-1","host":"frk-1.de.uncletopia.com","port":27015,"enabled":true,"region":"eu","cc":"de","latitude":50.110924,"longitude":8.682127,"reserved":0,"last_update":"0001-01-01T00:00:00Z","name_a2s":"Uncletopia | Frankfurt | 1 | All Maps","protocol":17,"map":"koth_highpass","folder":"tf","game":"Team Fortress","app_id":440,"player_count":0,"max_players":24,"Bots":0,"server_type":"Dedicated","server_os":"Linux","password":true,"vac":true,"version":"7961495","steam_id":85568392924469989,"keywords":["cp","nocrits","nodmgspread","uncletopia"],"game_id":440,"stv_port":27016,"stv_name":"Uncletopia | Frankfurt | 1 | All Maps | STV","players":null},{"server_id":110,"name":"Uncletopia | Frankfurt | 2 | All Maps","name_short":"frk-2","host":"frk-1.de.uncletopia.com","port":27025,"enabled":true,"region":"eu","cc":"de","latitude":50.110924,"longitude":8.682127,"reserved":0,"last_update":"0001-01-01T00:00:00Z","name_a2s":"Uncletopia | Frankfurt | 2 | All Maps","protocol":17,"map":"cp_dustbowl","folder":"tf","game":"Team Fortress","app_id":440,"player_count":0,"max_players":24,"Bots":0,"server_type":"Dedicated","server_os":"Linux","password":true,"vac":true,"version":"7961495","steam_id":85568392924469990,"keywords":["cp","nocrits","nodmgspread","uncletopia"],"game_id":440,"stv_port":27026,"stv_name":"Uncletopia | Frankfurt | 2 | All Maps | STV","players":null},{"server_id":308,"name":"Uncletopia | Frankfurt | 3 | All Maps","name_short":"frk-3","host":"frk-1.de.uncletopia.com","port":27035,"enabled":true,"region":"eu","cc":"de","latitude":50.110924,"longitude":8.682127,"reserved":0,"last_update":"0001-01-01T00:00:00Z","name_a2s":"Uncletopia | Frankfurt | 3 | All Maps","protocol":17,"map":"pl_barnblitz","folder":"tf","game":"Team Fortress","app_id":440,"player_count":3,"max_players":24,"Bots":0,"server_type":"Dedicated","server_os":"Linux","password":true,"vac":true,"version":"7961495","steam_id":85568392924504274,"keywords":["nocrits","nodmgspread","payload","uncletopia"],"game_id":440,"stv_port":27036,"stv_name":"Uncletopia | Frankfurt | 3 | All Maps | STV","players":[{"user_id":3,"name":"WIZARD","steam_id":76561198199570742,"connected_time":594000000000,"state":"active","ping":95},{"user_id":4,"name":"EL ZORRO","steam_id":76561198066879518,"connected_time":118000000000,"state":"active","ping":97},{"user_id":5,"name":"Basinox","steam_id":76561198019628384,"connected_time":25000000000,"state":"active","ping":67}]},{"server_id":309,"name":"Uncletopia | Frankfurt | 4 | All Maps","name_short":"frk-4","host":"frk-1.de.uncletopia.com","port":27045,"enabled":true,"region":"eu","cc":"de","latitude":50.110924,"longitude":8.682127,"reserved":0,"last_update":"0001-01-01T00:00:00Z","name_a2s":"Uncletopia | Frankfurt | 4 | All Maps","protocol":17,"map":"koth_highpass","folder":"tf","game":"Team Fortress","app_id":440,"player_count":0,"max_players":24,"Bots":0,"server_type":"Dedicated","server_os":"Linux","password":true,"vac":true,"version":"7961495","steam_id":85568392924504275,"keywords":["cp","nocrits","nodmgspread","uncletopia"],"game_id":440,"stv_port":27046,"stv_name":"Uncletopia | Frankfurt | 4 | All Maps | STV","players":null},{"server_id":310,"name":"Uncletopia | Frankfurt | 5 | All Maps","name_short":"frk-5","host":"frk-1.de.uncletopia.com","port":27055,"enabled":true,"region":"eu","cc":"de","latitude":50.110924,"longitude":8.682127,"reserved":0,"last_update":"0001-01-01T00:00:00Z","name_a2s":"Uncletopia | Frankfurt | 5 | All Maps","protocol":17,"map":"pl_badwater","folder":"tf","game":"Team Fortress","app_id":440,"player_count":0,"max_players":24,"Bots":0,"server_type":"Dedicated","server_os":"Linux","password":true,"vac":true,"version":"7961495","steam_id":85568392924504277,"keywords":["nocrits","nodmgspread","payload","uncletopia"],"game_id":440,"stv_port":27056,"stv_name":"Uncletopia | Frankfurt | 5 | All Maps | STV","players":null},{"server_id":311,"name":"Uncletopia | Frankfurt | 6 | All Maps","name_short":"frk-6","host":"frk-1.de.uncletopia.com","port":27065,"enabled":true,"region":"eu","cc":"de","latitude":50.110924,"longitude":8.682127,"reserved":0,"last_update":"0001-01-01T00:00:00Z","name_a2s":"Uncletopia | Frankfurt | 6 | All Maps","protocol":17,"map":"cp_altitude","folder":"tf","game":"Team Fortress","app_id":440,"player_count":0,"max_players":24,"Bots":0,"server_type":"Dedicated","server_os":"Linux","password":true,"vac":true,"version":"7961495","steam_id":85568392924504278,"keywords":["cp","nocrits","nodmgspread","uncletopia"],"game_id":440,"stv_port":27066,"stv_name":"Uncletopia | Frankfurt | 6 | All Maps | STV","players":null},{"server_id":23,"name":"Uncletopia | Frankfurt | 7 | Stopwatch","name_short":"frk-7","host":"frk-1.de.uncletopia.com","port":27075,"enabled":true,"region":"eu","cc":"de","latitude":50.110924,"longitude":8.682127,"reserved":0,"last_update":"0001-01-01T00:00:00Z","name_a2s":"Uncletopia | Frankfurt | 7 | Stopwatch","protocol":17,"map":"pl_frontier_final","folder":"tf","game":"Team Fortress","app_id":440,"player_count":0,"max_players":24,"Bots":0,"server_type":"Dedicated","server_os":"Linux","password":true,"vac":true,"version":"7961495","steam_id":85568392924742827,"keywords":["nocrits","nodmgspread","payload","uncletopia"],"game_id":440,"stv_port":27076,"stv_name":"Uncletopia | Frankfurt | 7 | Stopwatch | STV","players":null},{"server_id":24,"name":"Uncletopia | Frankfurt | 8 | Community","name_short":"frk-8","host":"frk-1.de.uncletopia.com","port":27085,"enabled":true,"region":"eu","cc":"de","latitude":50.110924,"longitude":8.682127,"reserved":0,"last_update":"0001-01-01T00:00:00Z","name_a2s":"Uncletopia | Frankfurt | 8 | Community","protocol":17,"map":"cp_mountainlab","folder":"tf","game":"Team Fortress","app_id":440,"player_count":0,"max_players":24,"Bots":0,"server_type":"Dedicated","server_os":"Linux","password":true,"vac":true,"version":"7961495","steam_id":85568392924742828,"keywords":["cp","nocrits","nodmgspread","uncletopia"],"game_id":440,"stv_port":27086,"stv_name":"Uncletopia | Frankfurt | 8 | Community | STV","players":null},{"server_id":202,"name":"Uncletopia | Hong Kong | 1 | All Maps","name_short":"hgk-1","host":"hgk-1.hk.uncletopia.com","port":27015,"enabled":true,"region":"asia","cc":"hk","latitude":22.302711,"longitude":114.177216,"reserved":0,"last_update":"0001-01-01T00:00:00Z","name_a2s":"Uncletopia | Hong Kong | 1 | All Maps","protocol":17,"map":"koth_viaduct","folder":"tf","game":"Team Fortress","app_id":440,"player_count":0,"max_players":24,"Bots":0,"server_type":"Dedicated","server_os":"Linux","password":true,"vac":true,"version":"7961495","steam_id":85568392924494504,"keywords":["cp","nocrits","nodmgspread","uncletopia"],"game_id":440,"stv_port":27016,"stv_name":"Uncletopia | Hong Kong | 1 | All Maps | STV","players":null},{"server_id":1,"name":"Uncletopia | Los Angeles | 1 | All Maps","name_short":"lax-1","host":"lax-1.us.uncletopia.com","port":27015,"enabled":true,"region":"us-west","cc":"us","latitude":33.94279,"longitude":-118.41004,"reserved":0,"last_update":"0001-01-01T00:00:00Z","name_a2s":"Uncletopia | Los Angeles | 1 | All Maps","protocol":17,"map":"pl_upward","folder":"tf","game":"Team Fortress","app_id":440,"player_count":24,"max_players":24,"Bots":0,"server_type":"Dedicated","server_os":"Linux","password":true,"vac":true,"version":"7961495","steam_id":85568392924469991,"keywords":["nocrits","nodmgspread","payload","uncletopia"],"game_id":440,"stv_port":27016,"stv_name":"Uncletopia | Los Angeles | 1 | All Maps | STV","players":[{"user_id":327,"name":"cunt level defcon 5","steam_id":76561198131166135,"connected_time":3863000000000,"state":"active","ping":60},{"user_id":349,"name":"nella","steam_id":76561198079349621,"connected_time":1143000000000,"state":"active","ping":52},{"user_id":343,"name":"rushy :))","steam_id":76561198065825165,"connected_time":1515000000000,"state":"active","ping":103},{"user_id":335,"name":"AzuriousAlex","steam_id":76561198158026405,"connected_time":3078000000000,"state":"active","ping":93},{"user_id":216,"name":"sobaka","steam_id":76561198116008934,"connected_time":13407000000000,"state":"active","ping":58},{"user_id":293,"name":"the pizza","steam_id":76561198221331476,"connected_time":6286000000000,"state":"active","ping":45},{"user_id":279,"name":"GreekYogurt","steam_id":76561198037671890,"connected_time":7776000000000,"state":"active","ping":59},{"user_id":336,"name":"Abu Shoosh","steam_id":76561198094990358,"connected_time":2934000000000,"state":"active","ping":45},{"user_id":310,"name":"profnyan (he/they)","steam_id":76561198062755171,"connected_time":4705000000000,"state":"active","ping":55},{"user_id":351,"name":"Kirby !!","steam_id":76561198834741464,"connected_time":480000000000,"state":"active","ping":95},{"user_id":344,"name":"a chicken","steam_id":76561198313121580,"connected_time":1208000000000,"state":"active","ping":45},{"user_id":345,"name":"Pho","steam_id":76561198306515742,"connected_time":1187000000000,"state":"active","ping":62},{"user_id":346,"name":"19th century nut vid","steam_id":76561198134309750,"connected_time":1185000000000,"state":"active","ping":180},{"user_id":352,"name":"Seshreb","steam_id":76561198846614634,"connected_time":30000000000,"state":"active","ping":60},{"user_id":350,"name":"Nine Inch Иipples","steam_id":76561198149413947,"connected_time":857000000000,"state":"active","ping":68},{"user_id":277,"name":"FI LO","steam_id":76561198976530881,"connected_time":7877000000000,"state":"active","ping":30},{"user_id":330,"name":"Aerospine","steam_id":76561198021438134,"connected_time":3764000000000,"state":"active","ping":47},{"user_id":316,"name":"K-2","steam_id":76561198322606535,"connected_time":4517000000000,"state":"active","ping":76},{"user_id":302,"name":"NEBULA","steam_id":76561198086878595,"connected_time":5598000000000,"state":"active","ping":62},{"user_id":332,"name":"Kadence","steam_id":76561198160115484,"connected_time":3621000000000,"state":"active","ping":108},{"user_id":317,"name":"Croxxans","steam_id":76561198853900757,"connected_time":4513000000000,"state":"active","ping":66},{"user_id":337,"name":"jim awesome","steam_id":76561198337486020,"connected_time":2754000000000,"state":"active","ping":64},{"user_id":333,"name":"Tideflat","steam_id":76561198179850851,"connected_time":3176000000000,"state":"active","ping":98},{"user_id":341,"name":"hyphy fungi","steam_id":76561198169755734,"connected_time":1595000000000,"state":"active","ping":53}]},{"server_id":112,"name":"Uncletopia | Los Angeles | 2 | All Maps","name_short":"lax-2","host":"lax-1.us.uncletopia.com","port":27025,"enabled":true,"region":"us-west","cc":"us","latitude":33.94279,"longitude":-118.41004,"reserved":0,"last_update":"0001-01-01T00:00:00Z","name_a2s":"Uncletopia | Los Angeles | 2 | All Maps","protocol":17,"map":"cp_dustbowl","folder":"tf","game":"Team Fortress","app_id":440,"player_count":24,"max_players":24,"Bots":0,"server_type":"Dedicated","server_os":"Linux","password":true,"vac":true,"version":"7961495","steam_id":85568392924469992,"keywords":["cp","nocrits","nodmgspread","uncletopia"],"game_id":440,"stv_port":27026,"stv_name":"Uncletopia | Los Angeles | 2 | All Maps | STV","players":[{"user_id":529,"name":"lmao","steam_id":76561198151135298,"connected_time":1044000000000,"state":"active","ping":44},{"user_id":539,"name":"fart","steam_id":76561198046073848,"connected_time":626000000000,"state":"active","ping":71},{"user_id":523,"name":"LeTonzy","steam_id":76561198005806699,"connected_time":1504000000000,"state":"active","ping":61},{"user_id":528,"name":"lol","steam_id":76561198026491738,"connected_time":1168000000000,"state":"active","ping":56},{"user_id":554,"name":"Pancakes","steam_id":76561198055409760,"connected_time":236000000000,"state":"active","ping":65},{"user_id":527,"name":"Escapist Robot","steam_id":76561198121501913,"connected_time":1189000000000,"state":"active","ping":59},{"user_id":530,"name":"has not touched grass in 6 year","steam_id":76561198007867721,"connected_time":1039000000000,"state":"active","ping":48},{"user_id":531,"name":"MindCloudy","steam_id":76561198987153747,"connected_time":1004000000000,"state":"active","ping":68},{"user_id":532,"name":"Dapper Rat","steam_id":76561198811753916,"connected_time":986000000000,"state":"active","ping":68},{"user_id":534,"name":"GreySweaterCat","steam_id":76561198351860293,"connected_time":888000000000,"state":"active","ping":85},{"user_id":555,"name":"Super Saiyan Bear","steam_id":76561198063118280,"connected_time":206000000000,"state":"active","ping":63},{"user_id":556,"name":"pro-PAIN","steam_id":76561198104544593,"connected_time":160000000000,"state":"active","ping":55},{"user_id":536,"name":"endwalker simp","steam_id":76561198066177299,"connected_time":849000000000,"state":"active","ping":111},{"user_id":543,"name":"Rockinbacon","steam_id":76561198047159811,"connected_time":470000000000,"state":"active","ping":76},{"user_id":553,"name":"Sleuth","steam_id":76561198418288939,"connected_time":319000000000,"state":"active","ping":68},{"user_id":544,"name":"ketsu","steam_id":76561197966171554,"connected_time":456000000000,"state":"active","ping":167},{"user_id":545,"name":"Kira","steam_id":76561198021582061,"connected_time":449000000000,"state":"active","ping":72},{"user_id":546,"name":"BruhSoundEffect2TTV","steam_id":76561198328207714,"connected_time":440000000000,"state":"active","ping":59},{"user_id":547,"name":"็","steam_id":76561198067666595,"connected_time":438000000000,"state":"active","ping":72},{"user_id":548,"name":"SilverMango","steam_id":76561198091243252,"connected_time":427000000000,"state":"active","ping":57},{"user_id":549,"name":"Lunari","steam_id":76561198272039119,"connected_time":404000000000,"state":"active","ping":84},{"user_id":497,"name":"Max","steam_id":76561197961272955,"connected_time":3904000000000,"state":"active","ping":35},{"user_id":471,"name":"Squidlye","steam_id":76561199015857743,"connected_time":5650000000000,"state":"active","ping":94},{"user_id":558,"name":"pup","steam_id":76561198206523304,"connected_time":77000000000,"state":"active","ping":74}]},{"server_id":324,"name":"Uncletopia | Los Angeles | 3 | All Maps","name_short":"lax-3","host":"lax-1.us.uncletopia.com","port":27035,"enabled":true,"region":"us-west","cc":"us","latitude":33.94279,"longitude":-118.41004,"reserved":0,"last_update":"0001-01-01T00:00:00Z","name_a2s":"Uncletopia | Los Angeles | 3 | All Maps","protocol":17,"map":"pl_upward","folder":"tf","game":"Team Fortress","app_id":440,"player_count":23,"max_players":24,"Bots":0,"server_type":"Dedicated","server_os":"Linux","password":true,"vac":true,"version":"7961495","steam_id":85568392924510198,"keywords":["nocrits","nodmgspread","payload","uncletopia"],"game_id":440,"stv_port":27036,"stv_name":"Uncletopia | Los Angeles | 3 | All Maps | STV","players":[{"user_id":343,"name":"Jasonnator","steam_id":76561198308017082,"connected_time":1018000000000,"state":"active","ping":56},{"user_id":340,"name":"netoc6","steam_id":76561199065312168,"connected_time":1109000000000,"state":"active","ping":115},{"user_id":354,"name":"StrayGuitarist","steam_id":76561198091315714,"connected_time":680000000000,"state":"active","ping":59},{"user_id":303,"name":"SleepyScotoplanesTTV","steam_id":76561198968140914,"connected_time":5332000000000,"state":"active","ping":50},{"user_id":341,"name":"2B's 8000° pussy","steam_id":76561198039746035,"connected_time":1027000000000,"state":"active","ping":55},{"user_id":346,"name":"chief bongo","steam_id":76561198069229523,"connected_time":1003000000000,"state":"active","ping":62},{"user_id":328,"name":"Zebulon","steam_id":76561198025719753,"connected_time":1856000000000,"state":"active","ping":60},{"user_id":359,"name":"Raphael","steam_id":76561198101425586,"connected_time":345000000000,"state":"active","ping":73},{"user_id":296,"name":"chocky","steam_id":76561198057491296,"connected_time":5928000000000,"state":"active","ping":75},{"user_id":331,"name":"smeasly","steam_id":76561198028718812,"connected_time":1721000000000,"state":"active","ping":73},{"user_id":324,"name":"LiXiS","steam_id":76561197994283812,"connected_time":1943000000000,"state":"active","ping":58},{"user_id":347,"name":"SanitysEdge","steam_id":76561198130732813,"connected_time":998000000000,"state":"active","ping":50},{"user_id":348,"name":"CaiGaming","steam_id":76561198313023508,"connected_time":967000000000,"state":"active","ping":67},{"user_id":350,"name":"BurritoCat","steam_id":76561198059822805,"connected_time":948000000000,"state":"active","ping":106},{"user_id":351,"name":"kwetzal","steam_id":76561198845749671,"connected_time":898000000000,"state":"active","ping":71},{"user_id":357,"name":"cope2","steam_id":76561198158952440,"connected_time":568000000000,"state":"active","ping":84},{"user_id":353,"name":"A_Un1t_0","steam_id":76561197966223353,"connected_time":808000000000,"state":"active","ping":45},{"user_id":312,"name":"Scoops M'Gooch","steam_id":76561198048423812,"connected_time":4351000000000,"state":"active","ping":66},{"user_id":332,"name":"altpuppy","steam_id":76561198325643231,"connected_time":1439000000000,"state":"active","ping":44},{"user_id":355,"name":"Randle of John","steam_id":76561198328210524,"connected_time":669000000000,"state":"active","ping":59},{"user_id":356,"name":"HH","steam_id":76561198002302818,"connected_time":658000000000,"state":"active","ping":57},{"user_id":358,"name":"YourPapaStrike","steam_id":76561198078760624,"connected_time":371000000000,"state":"active","ping":83},{"user_id":330,"name":"Defeat","steam_id":76561198065203818,"connected_time":1772000000000,"state":"active","ping":75}]},{"server_id":25,"name":"Uncletopia | Los Angeles | 4 | Stopwatch","name_short":"lax-4","host":"lax-1.us.uncletopia.com","port":27045,"enabled":true,"region":"us-west","cc":"us","latitude":33.94279,"longitude":-118.41004,"reserved":0,"last_update":"0001-01-01T00:00:00Z","name_a2s":"Uncletopia | Los Angeles | 4 | Stopwatch","protocol":17,"map":"workshop/koth_ashville_final.ugc2130459942","folder":"tf","game":"Team Fortress","app_id":440,"player_count":0,"max_players":24,"Bots":0,"server_type":"Dedicated","server_os":"Linux","password":true,"vac":true,"version":"7961495","steam_id":85568392924510199,"keywords":["cp","nocrits","nodmgspread","uncletopia"],"game_id":440,"stv_port":27046,"stv_name":"Uncletopia | Los Angeles | 4 | Stopwatch | STV","players":null},{"server_id":11,"name":"Uncletopia | London | 1 | All Maps","name_short":"lon-1","host":"lon-1.uk.uncletopia.com","port":27015,"enabled":true,"region":"eu","cc":"gb","latitude":51.509865,"longitude":-0.118092,"reserved":0,"last_update":"0001-01-01T00:00:00Z","name_a2s":"Uncletopia | London | 1 | All Maps","protocol":17,"map":"cp_altitude","folder":"tf","game":"Team Fortress","app_id":440,"player_count":0,"max_players":24,"Bots":0,"server_type":"Dedicated","server_os":"Linux","password":true,"vac":true,"version":"7961495","steam_id":85568392924367362,"keywords":["cp","nocrits","nodmgspread","uncletopia"],"game_id":440,"stv_port":27016,"stv_name":"Uncletopia | London | 1 | All Maps | STV","players":null},{"server_id":114,"name":"Uncletopia | London | 2 | All Maps","name_short":"lon-2","host":"lon-1.uk.uncletopia.com","port":27025,"enabled":true,"region":"eu","cc":"gb","latitude":51.509865,"longitude":-0.118092,"reserved":0,"last_update":"0001-01-01T00:00:00Z","name_a2s":"Uncletopia | London | 2 | All Maps","protocol":17,"map":"koth_lakeside_final","folder":"tf","game":"Team Fortress","app_id":440,"player_count":0,"max_players":24,"Bots":0,"server_type":"Dedicated","server_os":"Linux","password":true,"vac":true,"version":"7961495","steam_id":85568392924470941,"keywords":["cp","nocrits","nodmgspread","uncletopia"],"game_id":440,"stv_port":27026,"stv_name":"Uncletopia | London | 2 | All Maps | STV","players":null},{"server_id":320,"name":"Uncletopia | London | 3 | All Maps","name_short":"lon-3","host":"lon-1.uk.uncletopia.com","port":27035,"enabled":true,"region":"eu","cc":"gb","latitude":51.509865,"longitude":-0.118092,"reserved":0,"last_update":"0001-01-01T00:00:00Z","name_a2s":"Uncletopia | London | 3 | All Maps","protocol":17,"map":"cp_process_final","folder":"tf","game":"Team Fortress","app_id":440,"player_count":0,"max_players":24,"Bots":0,"server_type":"Dedicated","server_os":"Linux","password":true,"vac":true,"version":"7961495","steam_id":85568392924510192,"keywords":["cp","nocrits","nodmgspread","uncletopia"],"game_id":440,"stv_port":27036,"stv_name":"Uncletopia | London | 3 | All Maps | STV","players":null},{"server_id":321,"name":"Uncletopia | London | 4 | All Maps","name_short":"lon-4","host":"lon-1.uk.uncletopia.com","port":27045,"enabled":true,"region":"eu","cc":"gb","latitude":51.509865,"longitude":-0.118092,"reserved":0,"last_update":"0001-01-01T00:00:00Z","name_a2s":"Uncletopia | London | 4 | All Maps","protocol":17,"map":"koth_cascade","folder":"tf","game":"Team Fortress","app_id":440,"player_count":0,"max_players":24,"Bots":0,"server_type":"Dedicated","server_os":"Linux","password":true,"vac":true,"version":"7961495","steam_id":85568392924510193,"keywords":["cp","nocrits","nodmgspread","uncletopia"],"game_id":440,"stv_port":27046,"stv_name":"Uncletopia | London | 4 | All Maps | STV","players":null},{"server_id":21,"name":"Uncletopia | London | 5 | All Maps","name_short":"lon-5","host":"lon-1.uk.uncletopia.com","port":27055,"enabled":true,"region":"eu","cc":"gb","latitude":51.509865,"longitude":-0.118092,"reserved":0,"last_update":"0001-01-01T00:00:00Z","name_a2s":"Uncletopia | London | 5 | All Maps","protocol":17,"map":"pl_borneo","folder":"tf","game":"Team Fortress","app_id":440,"player_count":24,"max_players":24,"Bots":0,"server_type":"Dedicated","server_os":"Linux","password":true,"vac":true,"version":"7961495","steam_id":85568392924742829,"keywords":["nocrits","nodmgspread","payload","uncletopia"],"game_id":440,"stv_port":27056,"stv_name":"Uncletopia | London | 5 | All Maps | STV","players":[{"user_id":101,"name":"Balls","steam_id":76561198086400484,"connected_time":24000000000,"state":"spawning","ping":57},{"user_id":47,"name":"Flyer11","steam_id":76561198988202335,"connected_time":4566000000000,"state":"active","ping":164},{"user_id":65,"name":"Roby","steam_id":76561198358015863,"connected_time":2895000000000,"state":"active","ping":74},{"user_id":66,"name":"[T]aKer","steam_id":76561198001778013,"connected_time":2813000000000,"state":"active","ping":45},{"user_id":78,"name":"Evan","steam_id":76561198148414245,"connected_time":2347000000000,"state":"active","ping":91},{"user_id":99,"name":"videogaming","steam_id":76561198818037965,"connected_time":53000000000,"state":"active","ping":99},{"user_id":62,"name":"Доджер #SaveTF2","steam_id":76561198976567322,"connected_time":3150000000000,"state":"active","ping":123},{"user_id":79,"name":"Artemis","steam_id":76561198199091801,"connected_time":2325000000000,"state":"active","ping":45},{"user_id":27,"name":"Nyhde","steam_id":76561198012771416,"connected_time":6181000000000,"state":"active","ping":99},{"user_id":53,"name":"Mourning","steam_id":76561198156343940,"connected_time":3656000000000,"state":"active","ping":45},{"user_id":68,"name":"Amandus","steam_id":76561198036281079,"connected_time":2792000000000,"state":"active","ping":61},{"user_id":95,"name":"JayKey","steam_id":76561198008847925,"connected_time":1025000000000,"state":"active","ping":65},{"user_id":87,"name":"Gilly","steam_id":76561198041995636,"connected_time":1382000000000,"state":"active","ping":38},{"user_id":46,"name":"noseb","steam_id":76561199480942903,"connected_time":4672000000000,"state":"active","ping":75},{"user_id":82,"name":"Weezard","steam_id":76561198031024924,"connected_time":2066000000000,"state":"active","ping":116},{"user_id":94,"name":"Dr. Livesey","steam_id":76561198071049943,"connected_time":1126000000000,"state":"active","ping":64},{"user_id":90,"name":"sasha","steam_id":76561198404802175,"connected_time":1158000000000,"state":"active","ping":139},{"user_id":64,"name":"Yassine","steam_id":76561198140565712,"connected_time":3048000000000,"state":"active","ping":58},{"user_id":83,"name":"m909","steam_id":76561198279621400,"connected_time":1969000000000,"state":"active","ping":97},{"user_id":73,"name":"dmEngineer_tf2 #SaveTF2","steam_id":76561199388956338,"connected_time":2611000000000,"state":"active","ping":90},{"user_id":74,"name":"TuffProphet","steam_id":76561198119138742,"connected_time":2549000000000,"state":"active","ping":55},{"user_id":98,"name":"Lubi Animal","steam_id":76561199041620433,"connected_time":911000000000,"state":"active","ping":63},{"user_id":76,"name":"thekoolest88","steam_id":76561199022415672,"connected_time":2491000000000,"state":"active","ping":135},{"user_id":86,"name":"Vivian","steam_id":76561198077624205,"connected_time":1734000000000,"state":"active","ping":70}]},{"server_id":22,"name":"Uncletopia | London | 6 | All Maps","name_short":"lon-6","host":"lon-1.uk.uncletopia.com","port":27065,"enabled":true,"region":"eu","cc":"gb","latitude":51.509865,"longitude":-0.118092,"reserved":0,"last_update":"0001-01-01T00:00:00Z","name_a2s":"Uncletopia | London | 6 | All Maps","protocol":17,"map":"cp_dustbowl","folder":"tf","game":"Team Fortress","app_id":440,"player_count":0,"max_players":24,"Bots":0,"server_type":"Dedicated","server_os":"Linux","password":true,"vac":true,"version":"7961495","steam_id":85568392924742830,"keywords":["cp","nocrits","nodmgspread","uncletopia"],"game_id":440,"stv_port":27066,"stv_name":"Uncletopia | London | 6 | All Maps | STV","players":null},{"server_id":40,"name":"Uncletopia | London | 7 | Stopwatch","name_short":"lon-7","host":"lon-1.uk.uncletopia.com","port":27075,"enabled":true,"region":"eu","cc":"gb","latitude":51.509865,"longitude":-0.118092,"reserved":0,"last_update":"0001-01-01T00:00:00Z","name_a2s":"Uncletopia | London | 7 | Stopwatch","protocol":17,"map":"koth_lakeside_final","folder":"tf","game":"Team Fortress","app_id":440,"player_count":0,"max_players":24,"Bots":0,"server_type":"Dedicated","server_os":"Linux","password":true,"vac":true,"version":"7961495","steam_id":85568392924964314,"keywords":["cp","nocrits","nodmgspread","uncletopia"],"game_id":440,"stv_port":27076,"stv_name":"Uncletopia | London | 7 | Stopwatch | STV","players":null},{"server_id":41,"name":"Uncletopia | London | 8 | Community","name_short":"lon-8","host":"lon-1.uk.uncletopia.com","port":27085,"enabled":true,"region":"eu","cc":"gb","latitude":51.509865,"longitude":-0.118092,"reserved":0,"last_update":"0001-01-01T00:00:00Z","name_a2s":"Uncletopia | London | 8 | Community","protocol":17,"map":"cp_snakewater_final1","folder":"tf","game":"Team Fortress","app_id":440,"player_count":0,"max_players":24,"Bots":0,"server_type":"Dedicated","server_os":"Linux","password":true,"vac":true,"version":"7961495","steam_id":85568392924964315,"keywords":["cp","nocrits","nodmgspread","uncletopia"],"game_id":440,"stv_port":27086,"stv_name":"Uncletopia | London | 8 | Community | STV","players":null},{"server_id":300,"name":"Uncletopia | Montréal | 1 | One Thousand Uncles","name_short":"mtl-1","host":"mtl-1.ca.uncletopia.com","port":27015,"enabled":true,"region":"us-east","cc":"ca","latitude":45.50889,"longitude":-73.56167,"reserved":0,"last_update":"0001-01-01T00:00:00Z","name_a2s":"","protocol":0,"map":"","folder":"","game":"","app_id":0,"player_count":0,"max_players":0,"Bots":0,"server_type":"","server_os":"","password":false,"vac":false,"version":"","steam_id":0,"keywords":null,"game_id":0,"stv_port":0,"stv_name":"","players":null},{"server_id":301,"name":"Uncletopia | Montréal | 2 | One Thousand Uncles","name_short":"mtl-2","host":"mtl-1.ca.uncletopia.com","port":27025,"enabled":true,"region":"us-east","cc":"ca","latitude":45.50889,"longitude":-73.56167,"reserved":0,"last_update":"0001-01-01T00:00:00Z","name_a2s":"","protocol":0,"map":"","folder":"","game":"","app_id":0,"player_count":0,"max_players":0,"Bots":0,"server_type":"","server_os":"","password":false,"vac":false,"version":"","steam_id":0,"keywords":null,"game_id":0,"stv_port":0,"stv_name":"","players":null},{"server_id":302,"name":"Uncletopia | Montréal | 3 | One Thousand Uncles","name_short":"mtl-3","host":"mtl-1.ca.uncletopia.com","port":27035,"enabled":true,"region":"us-east","cc":"ca","latitude":45.50889,"longitude":-73.56167,"reserved":0,"last_update":"0001-01-01T00:00:00Z","name_a2s":"","protocol":0,"map":"","folder":"","game":"","app_id":0,"player_count":0,"max_players":0,"Bots":0,"server_type":"","server_os":"","password":false,"vac":false,"version":"","steam_id":0,"keywords":null,"game_id":0,"stv_port":0,"stv_name":"","players":null},{"server_id":13,"name":"Uncletopia | New York City | 1 | All Maps","name_short":"nyc-1","host":"nyc-1.us.uncletopia.com","port":27015,"enabled":true,"region":"us-east","cc":"us","latitude":40.73061,"longitude":-73.93524,"reserved":0,"last_update":"0001-01-01T00:00:00Z","name_a2s":"Uncletopia | New York City | 1 | All Maps","protocol":17,"map":"cp_mountainlab","folder":"tf","game":"Team Fortress","app_id":440,"player_count":0,"max_players":24,"Bots":0,"server_type":"Dedicated","server_os":"Linux","password":true,"vac":true,"version":"7961495","steam_id":85568392924469993,"keywords":["cp","nocrits","nodmgspread","uncletopia"],"game_id":440,"stv_port":27016,"stv_name":"Uncletopia | New York City | 1 | All Maps | STV","players":null},{"server_id":14,"name":"Uncletopia | New York City | 2 | All Maps","name_short":"nyc-2","host":"nyc-1.us.uncletopia.com","port":27025,"enabled":true,"region":"us-east","cc":"us","latitude":40.73061,"longitude":-73.93524,"reserved":0,"last_update":"0001-01-01T00:00:00Z","name_a2s":"Uncletopia | New York City | 2 | All Maps","protocol":17,"map":"koth_cascade","folder":"tf","game":"Team Fortress","app_id":440,"player_count":0,"max_players":24,"Bots":0,"server_type":"Dedicated","server_os":"Linux","password":true,"vac":true,"version":"7961495","steam_id":85568392924469994,"keywords":["cp","nocrits","nodmgspread","uncletopia"],"game_id":440,"stv_port":27026,"stv_name":"Uncletopia | New York City | 2 | All Maps | STV","players":null},{"server_id":15,"name":"Uncletopia | New York City | 3 | Stopwatch","name_short":"nyc-3","host":"nyc-1.us.uncletopia.com","port":27035,"enabled":true,"region":"us-east","cc":"us","latitude":40.73061,"longitude":-73.93524,"reserved":0,"last_update":"0001-01-01T00:00:00Z","name_a2s":"Uncletopia | New York City | 3 | Stopwatch","protocol":17,"map":"workshop/cp_reckoner_rc6.ugc674719999","folder":"tf","game":"Team Fortress","app_id":440,"player_count":0,"max_players":24,"Bots":0,"server_type":"Dedicated","server_os":"Linux","password":true,"vac":true,"version":"7961495","steam_id":85568392924742820,"keywords":["cp","nocrits","nodmgspread","uncletopia"],"game_id":440,"stv_port":27036,"stv_name":"Uncletopia | New York City | 3 | Stopwatch | STV","players":null},{"server_id":16,"name":"Uncletopia | New York City | 4 | Community","name_short":"nyc-4","host":"nyc-1.us.uncletopia.com","port":27045,"enabled":true,"region":"us-east","cc":"us","latitude":40.73061,"longitude":-73.93524,"reserved":0,"last_update":"0001-01-01T00:00:00Z","name_a2s":"Uncletopia | New York City | 4 | Community","protocol":17,"map":"workshop/koth_trenchfoot_b1a.ugc731436616","folder":"tf","game":"Team Fortress","app_id":440,"player_count":0,"max_players":24,"Bots":0,"server_type":"Dedicated","server_os":"Linux","password":true,"vac":true,"version":"7961495","steam_id":85568392924742821,"keywords":["cp","nocrits","nodmgspread","uncletopia"],"game_id":440,"stv_port":27046,"stv_name":"Uncletopia | New York City | 4 | Community | STV","players":null},{"server_id":142,"name":"Uncletopia | São Paulo | 1 | All Maps","name_short":"sao-1","host":"sao-1.br.uncletopia.com","port":27015,"enabled":true,"region":"sa","cc":"br","latitude":-23.533773,"longitude":-46.62529,"reserved":0,"last_update":"0001-01-01T00:00:00Z","name_a2s":"Uncletopia | São Paulo | 1 | All Maps","protocol":17,"map":"pl_barnblitz","folder":"tf","game":"Team Fortress","app_id":440,"player_count":0,"max_players":24,"Bots":0,"server_type":"Dedicated","server_os":"Linux","password":true,"vac":true,"version":"7961495","steam_id":85568392924469996,"keywords":["nocrits","nodmgspread","payload","uncletopia"],"game_id":440,"stv_port":27016,"stv_name":"Uncletopia | São Paulo | 1 | All Maps | STV","players":null},{"server_id":143,"name":"Uncletopia | São Paulo | 2 | Community","name_short":"sao-2","host":"sao-2.br.uncletopia.com","port":27015,"enabled":true,"region":"sa","cc":"br","latitude":-23.533773,"longitude":-46.62529,"reserved":0,"last_update":"0001-01-01T00:00:00Z","name_a2s":"Uncletopia | São Paulo | 2 | Community","protocol":17,"map":"workshop/koth_ashville_final.ugc2130459942","folder":"tf","game":"Team Fortress","app_id":440,"player_count":0,"max_players":24,"Bots":0,"server_type":"Dedicated","server_os":"Linux","password":true,"vac":true,"version":"7961495","steam_id":85568392924485349,"keywords":["cp","nocrits","nodmgspread","uncletopia"],"game_id":440,"stv_port":27016,"stv_name":"Uncletopia | São Paulo | 2 | Community | STV","players":null},{"server_id":7,"name":"Uncletopia | Seattle | 1 | All Maps","name_short":"sea-1","host":"sea-1.us.uncletopia.com","port":27015,"enabled":true,"region":"us-west","cc":"us","latitude":47.608013,"longitude":-122.33517,"reserved":0,"last_update":"0001-01-01T00:00:00Z","name_a2s":"Uncletopia | Seattle | 1 | All Maps","protocol":17,"map":"pl_snowycoast","folder":"tf","game":"Team Fortress","app_id":440,"player_count":24,"max_players":24,"Bots":0,"server_type":"Dedicated","server_os":"Linux","password":true,"vac":true,"version":"7961495","steam_id":85568392924469997,"keywords":["nocrits","nodmgspread","payload","uncletopia"],"game_id":440,"stv_port":27016,"stv_name":"Uncletopia | Seattle | 1 | All Maps | STV","players":[{"user_id":589,"name":"SadFapping","steam_id":76561198076651049,"connected_time":6426000000000,"state":"active","ping":54},{"user_id":516,"name":"Karg","steam_id":76561198091387866,"connected_time":14101000000000,"state":"active","ping":60},{"user_id":592,"name":"cheeto dorito","steam_id":76561198107941274,"connected_time":6133000000000,"state":"active","ping":73},{"user_id":595,"name":"rat gets the cheese","steam_id":76561198031234032,"connected_time":6055000000000,"state":"active","ping":97},{"user_id":529,"name":"Toaster (Hamilton Beach)","steam_id":76561198039891934,"connected_time":12428000000000,"state":"active","ping":59},{"user_id":632,"name":"dodecadron","steam_id":76561198027397222,"connected_time":2406000000000,"state":"active","ping":61},{"user_id":645,"name":"toilet master","steam_id":76561198844273999,"connected_time":212000000000,"state":"active","ping":44},{"user_id":626,"name":"Choom","steam_id":76561197972654816,"connected_time":2529000000000,"state":"active","ping":45},{"user_id":597,"name":"mega","steam_id":76561198089520959,"connected_time":5876000000000,"state":"active","ping":98},{"user_id":644,"name":"steezy","steam_id":76561198263134652,"connected_time":913000000000,"state":"active","ping":62},{"user_id":619,"name":"Sniff","steam_id":76561198010270922,"connected_time":3753000000000,"state":"active","ping":60},{"user_id":616,"name":"hazel","steam_id":76561198037292232,"connected_time":4242000000000,"state":"active","ping":121},{"user_id":615,"name":"Kaiga","steam_id":76561198044052046,"connected_time":4392000000000,"state":"active","ping":124},{"user_id":624,"name":"shane","steam_id":76561198060491451,"connected_time":2562000000000,"state":"active","ping":80},{"user_id":617,"name":"Daz","steam_id":76561198041431938,"connected_time":4240000000000,"state":"active","ping":52},{"user_id":639,"name":"Arsonist Goose (Phlog 2 Hales)","steam_id":76561198147441830,"connected_time":1771000000000,"state":"active","ping":71},{"user_id":607,"name":"Rat gets the sweets","steam_id":76561198998446307,"connected_time":5204000000000,"state":"active","ping":70},{"user_id":630,"name":"rat who can kickflip","steam_id":76561198073620027,"connected_time":2486000000000,"state":"active","ping":45},{"user_id":633,"name":"MxProf","steam_id":76561198044519572,"connected_time":2329000000000,"state":"active","ping":63},{"user_id":642,"name":"Meatball Obsessed Demoman","steam_id":76561198253325844,"connected_time":937000000000,"state":"active","ping":55},{"user_id":638,"name":"Attrition","steam_id":76561197969881916,"connected_time":1801000000000,"state":"active","ping":52},{"user_id":640,"name":"digitaldisorder","steam_id":76561198041841128,"connected_time":1264000000000,"state":"active","ping":87},{"user_id":611,"name":"soup","steam_id":76561198043209046,"connected_time":4958000000000,"state":"active","ping":73},{"user_id":629,"name":"Cheezbeargur","steam_id":76561198164702899,"connected_time":2527000000000,"state":"active","ping":70}]},{"server_id":119,"name":"Uncletopia | Seattle | 2 | All Maps","name_short":"sea-2","host":"sea-1.us.uncletopia.com","port":27025,"enabled":true,"region":"us-west","cc":"us","latitude":47.608013,"longitude":-122.33517,"reserved":0,"last_update":"0001-01-01T00:00:00Z","name_a2s":"Uncletopia | Seattle | 2 | All Maps","protocol":17,"map":"cp_steel","folder":"tf","game":"Team Fortress","app_id":440,"player_count":24,"max_players":24,"Bots":0,"server_type":"Dedicated","server_os":"Linux","password":true,"vac":true,"version":"7961495","steam_id":85568392924469998,"keywords":["cp","nocrits","nodmgspread","uncletopia"],"game_id":440,"stv_port":27026,"stv_name":"Uncletopia | Seattle | 2 | All Maps | STV","players":[{"user_id":667,"name":"Violet K.","steam_id":76561198062963842,"connected_time":8710000000000,"state":"active","ping":73},{"user_id":777,"name":"Spam The Alien","steam_id":76561199122290968,"connected_time":1673000000000,"state":"active","ping":79},{"user_id":794,"name":"Vitreus","steam_id":76561198091059218,"connected_time":641000000000,"state":"active","ping":67},{"user_id":773,"name":"hosewater","steam_id":76561198023383126,"connected_time":2100000000000,"state":"active","ping":47},{"user_id":775,"name":"DevourerofGlass","steam_id":76561199443647976,"connected_time":1712000000000,"state":"active","ping":97},{"user_id":772,"name":"Skysteele","steam_id":76561198164536662,"connected_time":2326000000000,"state":"active","ping":46},{"user_id":792,"name":"sadlaxx","steam_id":76561198061354919,"connected_time":961000000000,"state":"active","ping":72},{"user_id":738,"name":"Gary Sinfeld","steam_id":76561198042274074,"connected_time":3150000000000,"state":"active","ping":39},{"user_id":776,"name":"Puskinti","steam_id":76561198032120688,"connected_time":1707000000000,"state":"active","ping":49},{"user_id":796,"name":"pat back","steam_id":76561198347225801,"connected_time":64000000000,"state":"active","ping":48},{"user_id":789,"name":"That wasn't milk","steam_id":76561198155294045,"connected_time":1028000000000,"state":"active","ping":73},{"user_id":779,"name":"Lilith","steam_id":76561198120362654,"connected_time":1655000000000,"state":"active","ping":46},{"user_id":730,"name":"cracky","steam_id":76561197971365444,"connected_time":3680000000000,"state":"active","ping":37},{"user_id":736,"name":"2 Point Tom","steam_id":76561198087617008,"connected_time":3190000000000,"state":"active","ping":66},{"user_id":788,"name":"N7 Kobold","steam_id":76561198308506257,"connected_time":1084000000000,"state":"active","ping":89},{"user_id":770,"name":"wrench","steam_id":76561198137242573,"connected_time":2354000000000,"state":"active","ping":52},{"user_id":797,"name":"the bandit","steam_id":76561199158540950,"connected_time":14000000000,"state":"spawning","ping":63},{"user_id":787,"name":"bombs away!","steam_id":76561198140305247,"connected_time":1375000000000,"state":"active","ping":103},{"user_id":791,"name":"canadian birds","steam_id":76561198059466588,"connected_time":992000000000,"state":"active","ping":117},{"user_id":782,"name":"Mocha Josie","steam_id":76561198066452726,"connected_time":1498000000000,"state":"active","ping":86},{"user_id":783,"name":"fragadelphia","steam_id":76561198066116363,"connected_time":1466000000000,"state":"active","ping":46},{"user_id":655,"name":"Hindmost","steam_id":76561199081837220,"connected_time":9931000000000,"state":"active","ping":98},{"user_id":795,"name":"Trish \u003c3","steam_id":76561198200553470,"connected_time":602000000000,"state":"active","ping":72},{"user_id":761,"name":"Ediot","steam_id":76561199349494096,"connected_time":2530000000000,"state":"active","ping":124}]},{"server_id":406,"name":"Uncletopia | Seattle | 3 | Stopwatch","name_short":"sea-3","host":"sea-1.us.uncletopia.com","port":27035,"enabled":true,"region":"us-west","cc":"us","latitude":47.608013,"longitude":-122.33517,"reserved":0,"last_update":"0001-01-01T00:00:00Z","name_a2s":"Uncletopia | Seattle | 3 | Stopwatch","protocol":17,"map":"workshop/koth_clearcut_b15.ugc2107050255","folder":"tf","game":"Team Fortress","app_id":440,"player_count":0,"max_players":24,"Bots":0,"server_type":"Dedicated","server_os":"Linux","password":true,"vac":true,"version":"7961495","steam_id":85568392924515217,"keywords":["cp","nocrits","nodmgspread","uncletopia"],"game_id":440,"stv_port":27036,"stv_name":"Uncletopia | Seattle | 3 | Stopwatch | STV","players":null},{"server_id":17,"name":"Uncletopia | San Francisco | 1 | All Maps","name_short":"sfo-1","host":"sfo-1.us.uncletopia.com","port":27015,"enabled":true,"region":"us-west","cc":"us","latitude":37.77397,"longitude":-122.4313,"reserved":0,"last_update":"0001-01-01T00:00:00Z","name_a2s":"Uncletopia | San Francisco | 1 | All Maps","protocol":17,"map":"pl_pier","folder":"tf","game":"Team Fortress","app_id":440,"player_count":0,"max_players":24,"Bots":0,"server_type":"Dedicated","server_os":"Linux","password":true,"vac":true,"version":"7961495","steam_id":85568392924469999,"keywords":["nocrits","nodmgspread","payload","uncletopia"],"game_id":440,"stv_port":27016,"stv_name":"Uncletopia | San Francisco | 1 | All Maps | STV","players":null},{"server_id":18,"name":"Uncletopia | San Francisco | 2 | All Maps","name_short":"sfo-2","host":"sfo-1.us.uncletopia.com","port":27025,"enabled":true,"region":"us-west","cc":"us","latitude":37.77397,"longitude":-122.4313,"reserved":0,"last_update":"0001-01-01T00:00:00Z","name_a2s":"Uncletopia | San Francisco | 2 | All Maps","protocol":17,"map":"cp_sunshine","folder":"tf","game":"Team Fortress","app_id":440,"player_count":0,"max_players":24,"Bots":0,"server_type":"Dedicated","server_os":"Linux","password":true,"vac":true,"version":"7961495","steam_id":85568392924470000,"keywords":["cp","nocrits","nodmgspread","uncletopia"],"game_id":440,"stv_port":27026,"stv_name":"Uncletopia | San Francisco | 2 | All Maps | STV","players":null},{"server_id":19,"name":"Uncletopia | San Francisco | 3 | Stopwatch","name_short":"sfo-3","host":"sfo-1.us.uncletopia.com","port":27035,"enabled":true,"region":"us-west","cc":"us","latitude":37.77397,"longitude":-122.4313,"reserved":0,"last_update":"0001-01-01T00:00:00Z","name_a2s":"Uncletopia | San Francisco | 3 | Stopwatch","protocol":17,"map":"workshop/koth_clearcut_b15.ugc2107050255","folder":"tf","game":"Team Fortress","app_id":440,"player_count":0,"max_players":24,"Bots":0,"server_type":"Dedicated","server_os":"Linux","password":true,"vac":true,"version":"7961495","steam_id":85568392924742824,"keywords":["cp","nocrits","nodmgspread","uncletopia"],"game_id":440,"stv_port":27036,"stv_name":"Uncletopia | San Francisco | 3 | Stopwatch | STV","players":null},{"server_id":20,"name":"Uncletopia | San Francisco | 4 | Community","name_short":"sfo-4","host":"sfo-1.us.uncletopia.com","port":27045,"enabled":true,"region":"us-west","cc":"us","latitude":37.77397,"longitude":-122.4313,"reserved":0,"last_update":"0001-01-01T00:00:00Z","name_a2s":"Uncletopia | San Francisco | 4 | Community","protocol":17,"map":"workshop/cp_indulge.ugc528106646","folder":"tf","game":"Team Fortress","app_id":440,"player_count":0,"max_players":24,"Bots":0,"server_type":"Dedicated","server_os":"Linux","password":true,"vac":true,"version":"7961495","steam_id":85568392924742826,"keywords":["cp","nocrits","nodmgspread","uncletopia"],"game_id":440,"stv_port":27046,"stv_name":"Uncletopia | San Francisco | 4 | Community | STV","players":null},{"server_id":141,"name":"Uncletopia | Sydney | 1 | All Maps","name_short":"syd-1","host":"syd-1.au.uncletopia.com","port":27015,"enabled":true,"region":"au","cc":"au","latitude":-33.865143,"longitude":151.2099,"reserved":0,"last_update":"0001-01-01T00:00:00Z","name_a2s":"Uncletopia | Sydney | 1 | All Maps","protocol":17,"map":"cp_steel","folder":"tf","game":"Team Fortress","app_id":440,"player_count":24,"max_players":24,"Bots":0,"server_type":"Dedicated","server_os":"Linux","password":true,"vac":true,"version":"7961495","steam_id":85568392924470001,"keywords":["cp","nocrits","nodmgspread","uncletopia"],"game_id":440,"stv_port":27016,"stv_name":"Uncletopia | Sydney | 1 | All Maps | STV","players":[{"user_id":412,"name":"Really(Del Davis)","steam_id":76561198153397177,"connected_time":1035000000000,"state":"active","ping":58},{"user_id":417,"name":"sav","steam_id":76561198058760041,"connected_time":933000000000,"state":"active","ping":73},{"user_id":396,"name":"Connor","steam_id":76561198088318589,"connected_time":2043000000000,"state":"active","ping":51},{"user_id":410,"name":"Mouse Balls","steam_id":76561199037470627,"connected_time":1382000000000,"state":"active","ping":108},{"user_id":400,"name":"little raw meat boy","steam_id":76561199248254676,"connected_time":2007000000000,"state":"active","ping":59},{"user_id":408,"name":"Frosted","steam_id":76561199022395188,"connected_time":1500000000000,"state":"active","ping":55},{"user_id":379,"name":"tenten","steam_id":76561198402822072,"connected_time":3423000000000,"state":"active","ping":96},{"user_id":389,"name":"Mr Doctor","steam_id":76561198081415999,"connected_time":2763000000000,"state":"active","ping":69},{"user_id":420,"name":"Courier","steam_id":76561198080981482,"connected_time":352000000000,"state":"active","ping":37},{"user_id":415,"name":"♥ BILL!!! ♥","steam_id":76561198066726621,"connected_time":958000000000,"state":"active","ping":54},{"user_id":398,"name":"Selling Anti-Matter for $543","steam_id":76561198070708382,"connected_time":2021000000000,"state":"active","ping":46},{"user_id":413,"name":"SkinColourCrayon","steam_id":76561198412439380,"connected_time":1019000000000,"state":"active","ping":63},{"user_id":394,"name":"bostanc","steam_id":76561199125869659,"connected_time":2058000000000,"state":"active","ping":54},{"user_id":419,"name":"Vaconcovat","steam_id":76561198024284041,"connected_time":808000000000,"state":"active","ping":65},{"user_id":399,"name":"Jonkles","steam_id":76561197988782005,"connected_time":2020000000000,"state":"active","ping":48},{"user_id":409,"name":"AFROMAN 30000  'n' 1","steam_id":76561198051436218,"connected_time":1432000000000,"state":"active","ping":57},{"user_id":422,"name":"Dan","steam_id":76561198005739224,"connected_time":229000000000,"state":"active","ping":69},{"user_id":340,"name":"Chocolate Lightning","steam_id":76561198213958971,"connected_time":7887000000000,"state":"active","ping":93},{"user_id":403,"name":"Tantei Rotana","steam_id":76561198041204323,"connected_time":1643000000000,"state":"active","ping":62},{"user_id":397,"name":"saturation","steam_id":76561199457046392,"connected_time":2043000000000,"state":"active","ping":83},{"user_id":402,"name":"JGuy_850","steam_id":76561199157185906,"connected_time":1918000000000,"state":"active","ping":54},{"user_id":393,"name":"FascismSalad","steam_id":76561198262410973,"connected_time":2069000000000,"state":"active","ping":53},{"user_id":406,"name":"NotABot200","steam_id":76561198376731634,"connected_time":1561000000000,"state":"active","ping":65},{"user_id":418,"name":"dumbvent","steam_id":76561198190062810,"connected_time":933000000000,"state":"active","ping":61}]},{"server_id":123,"name":"Uncletopia | Sydney | 2 | All Maps","name_short":"syd-2","host":"syd-1.au.uncletopia.com","port":27025,"enabled":true,"region":"au","cc":"au","latitude":-33.865143,"longitude":151.2099,"reserved":0,"last_update":"0001-01-01T00:00:00Z","name_a2s":"Uncletopia | Sydney | 2 | All Maps","protocol":17,"map":"koth_cascade","folder":"tf","game":"Team Fortress","app_id":440,"player_count":0,"max_players":24,"Bots":0,"server_type":"Dedicated","server_os":"Linux","password":true,"vac":true,"version":"7961495","steam_id":85568392924470002,"keywords":["cp","nocrits","nodmgspread","uncletopia"],"game_id":440,"stv_port":27026,"stv_name":"Uncletopia | Sydney | 2 | All Maps | STV","players":null},{"server_id":395,"name":"Uncletopia | Sydney | 3 | All Maps","name_short":"syd-3","host":"syd-1.au.uncletopia.com","port":27035,"enabled":true,"region":"au","cc":"au","latitude":-33.865143,"longitude":151.2099,"reserved":0,"last_update":"0001-01-01T00:00:00Z","name_a2s":"Uncletopia | Sydney | 3 | All Maps","protocol":17,"map":"koth_cascade","folder":"tf","game":"Team Fortress","app_id":440,"player_count":0,"max_players":24,"Bots":0,"server_type":"Dedicated","server_os":"Linux","password":true,"vac":true,"version":"7961495","steam_id":85568392925194467,"keywords":["cp","nocrits","nodmgspread","uncletopia"],"game_id":440,"stv_port":27036,"stv_name":"Uncletopia | Sydney | 3 | All Maps | STV","players":null},{"server_id":396,"name":"Uncletopia | Sydney | 4 | All Maps","name_short":"syd-4","host":"syd-1.au.uncletopia.com","port":27045,"enabled":true,"region":"au","cc":"au","latitude":-33.865143,"longitude":151.2099,"reserved":0,"last_update":"0001-01-01T00:00:00Z","name_a2s":"Uncletopia | Sydney | 4 | All Maps","protocol":17,"map":"koth_lakeside_final","folder":"tf","game":"Team Fortress","app_id":440,"player_count":0,"max_players":24,"Bots":0,"server_type":"Dedicated","server_os":"Linux","password":true,"vac":true,"version":"7961495","steam_id":85568392925397958,"keywords":["cp","nocrits","nodmgspread","uncletopia"],"game_id":440,"stv_port":27046,"stv_name":"Uncletopia | Sydney | 4 | All Maps | STV","players":null},{"server_id":58,"name":"Uncletopia | Sydney | 5 | Stopwatch","name_short":"syd-5","host":"syd-1.au.uncletopia.com","port":27055,"enabled":true,"region":"au","cc":"au","latitude":-33.865143,"longitude":151.2099,"reserved":0,"last_update":"0001-01-01T00:00:00Z","name_a2s":"Uncletopia | Sydney | 5 | Stopwatch","protocol":17,"map":"workshop/koth_bagel_rc6.ugc2514036946","folder":"tf","game":"Team Fortress","app_id":440,"player_count":0,"max_players":24,"Bots":0,"server_type":"Dedicated","server_os":"Linux","password":true,"vac":true,"version":"7961495","steam_id":85568392925397959,"keywords":["cp","nocrits","nodmgspread","uncletopia"],"game_id":440,"stv_port":27056,"stv_name":"Uncletopia | Sydney | 5 | Stopwatch | STV","players":null},{"server_id":59,"name":"Uncletopia | Sydney | 6 | Community","name_short":"syd-6","host":"syd-1.au.uncletopia.com","port":27065,"enabled":true,"region":"au","cc":"au","latitude":-33.865143,"longitude":151.2099,"reserved":0,"last_update":"0001-01-01T00:00:00Z","name_a2s":"Uncletopia | Sydney | 6 | Community","protocol":17,"map":"workshop/koth_kemptown_rc1.ugc767410655","folder":"tf","game":"Team Fortress","app_id":440,"player_count":0,"max_players":24,"Bots":0,"server_type":"Dedicated","server_os":"Linux","password":true,"vac":true,"version":"7961495","steam_id":85568392925397960,"keywords":["cp","nocrits","nodmgspread","uncletopia"],"game_id":440,"stv_port":27066,"stv_name":"Uncletopia | Sydney | 6 | Community | STV","players":null},{"server_id":49,"name":"Uncletopia | Warsaw | 1 | One Thousand Uncles","name_short":"waw-1","host":"waw-1.pl.uncletopia.com","port":27015,"enabled":true,"region":"eu","cc":"pl","latitude":52.2297,"longitude":21.017532,"reserved":0,"last_update":"0001-01-01T00:00:00Z","name_a2s":"Uncletopia | Warsaw | 1 | One Thousand Uncles","protocol":17,"map":"koth_highpass","folder":"tf","game":"Team Fortress","app_id":440,"player_count":0,"max_players":32,"Bots":0,"server_type":"Dedicated","server_os":"Linux","password":true,"vac":true,"version":"7961495","steam_id":85568392925397850,"keywords":["alltalk","cp","danepve","increased_maxplayers","nocrits","norespawntime","uncletopia"],"game_id":440,"stv_port":0,"stv_name":"","players":null},{"server_id":50,"name":"Uncletopia | Warsaw | 2 | One Thousand Uncles","name_short":"waw-2","host":"waw-1.pl.uncletopia.com","port":27025,"enabled":true,"region":"eu","cc":"pl","latitude":52.2297,"longitude":21.017532,"reserved":0,"last_update":"0001-01-01T00:00:00Z","name_a2s":"Uncletopia | Warsaw | 2 | One Thousand Uncles","protocol":17,"map":"pl_goldrush","folder":"tf","game":"Team Fortress","app_id":440,"player_count":0,"max_players":32,"Bots":0,"server_type":"Dedicated","server_os":"Linux","password":true,"vac":true,"version":"7961495","steam_id":85568392925397851,"keywords":["alltalk","danepve","increased_maxplayers","nocrits","norespawntime","payload","uncletopia"],"game_id":440,"stv_port":0,"stv_name":"","players":null},{"server_id":51,"name":"Uncletopia | Warsaw | 3 | All Maps","name_short":"waw-3","host":"waw-1.pl.uncletopia.com","port":27035,"enabled":true,"region":"eu","cc":"pl","latitude":52.2297,"longitude":21.017532,"reserved":0,"last_update":"0001-01-01T00:00:00Z","name_a2s":"Uncletopia | Warsaw | 3 | All Maps","protocol":17,"map":"plr_pipeline","folder":"tf","game":"Team Fortress","app_id":440,"player_count":0,"max_players":24,"Bots":0,"server_type":"Dedicated","server_os":"Linux","password":true,"vac":true,"version":"7961495","steam_id":85568392925397852,"keywords":["nocrits","nodmgspread","payload","uncletopia"],"game_id":440,"stv_port":27036,"stv_name":"Uncletopia | Warsaw | 3 | All Maps | STV","players":null},{"server_id":52,"name":"Uncletopia | Warsaw | 4 | All Maps","name_short":"waw-4","host":"waw-1.pl.uncletopia.com","port":27045,"enabled":true,"region":"eu","cc":"pl","latitude":52.2297,"longitude":21.017532,"reserved":0,"last_update":"0001-01-01T00:00:00Z","name_a2s":"Uncletopia | Warsaw | 4 | All Maps","protocol":17,"map":"cp_coldfront","folder":"tf","game":"Team Fortress","app_id":440,"player_count":0,"max_players":24,"Bots":0,"server_type":"Dedicated","server_os":"Linux","password":true,"vac":true,"version":"7961495","steam_id":85568392925397853,"keywords":["cp","nocrits","nodmgspread","uncletopia"],"game_id":440,"stv_port":27046,"stv_name":"Uncletopia | Warsaw | 4 | All Maps | STV","players":null},{"server_id":53,"name":"Uncletopia | Warsaw | 5 | Stopwatch","name_short":"waw-5","host":"waw-1.pl.uncletopia.com","port":27055,"enabled":true,"region":"eu","cc":"pl","latitude":52.2297,"longitude":21.017532,"reserved":0,"last_update":"0001-01-01T00:00:00Z","name_a2s":"Uncletopia | Warsaw | 5 | Stopwatch","protocol":17,"map":"workshop/koth_bagel_rc6.ugc2514036946","folder":"tf","game":"Team Fortress","app_id":440,"player_count":0,"max_players":24,"Bots":0,"server_type":"Dedicated","server_os":"Linux","password":true,"vac":true,"version":"7961495","steam_id":85568392925397854,"keywords":["cp","nocrits","nodmgspread","uncletopia"],"game_id":440,"stv_port":27056,"stv_name":"Uncletopia | Warsaw | 5 | Stopwatch | STV","players":null},{"server_id":54,"name":"Uncletopia | Warsaw | 6 | Community","name_short":"waw-6","host":"waw-1.pl.uncletopia.com","port":27065,"enabled":true,"region":"eu","cc":"pl","latitude":52.2297,"longitude":21.017532,"reserved":0,"last_update":"0001-01-01T00:00:00Z","name_a2s":"Uncletopia | Warsaw | 6 | Community","protocol":17,"map":"workshop/pl_badwater_pro_v12.ugc2142942074","folder":"tf","game":"Team Fortress","app_id":440,"player_count":0,"max_players":24,"Bots":0,"server_type":"Dedicated","server_os":"Linux","password":true,"vac":true,"version":"7961495","steam_id":85568392925397856,"keywords":["nocrits","nodmgspread","payload","uncletopia"],"game_id":440,"stv_port":27066,"stv_name":"Uncletopia | Warsaw | 6 | Community | STV","players":null}]}