{"status":true,"message":"","result":[{"server_id":9,"name":"Uncletopia | Atlanta | 1 | All Maps","name_short":"atl-1","host":"atl-1.us.uncletopia.com","port":27015,"enabled":true,"region":"us-east","cc":"us","latitude":33.753746,"longitude":-84.38633,"reserved":0,"last_update":"0001-01-01T00:00:00Z","name_a2s":"Uncletopia | Atlanta | 1 | All Maps","protocol":17,"map":"pl_borneo","folder":"tf","game":"Team Fortress","app_id":440,"player_count":2,"max_players":24,"Bots":0,"server_type":"Dedicated","server_os":"Linux","password":true,"vac":true,"version":"7757534","steam_id":85568392924469982,"keywords":["nocrits","nodmgspread","payload","uncletopia"],"game_id":440,"stv_port":27016,"stv_name":"Uncletopia | Atlanta | 1 | All Maps | STV","players":[{"user_id":7,"name":"Genetic Komodo","steam_id":76561198174806758,"connected_time":324000000000,"state":"active","ping":46},{"user_id":8,"name":"Alec_76a","steam_id":76561198054305165,"connected_time":52000000000,"state":"active","ping":153}]},{"server_id":400,"name":"Uncletopia | Atlanta | 3 | Stopwatch Beta","name_short":"atl-3","host":"atl-1.us.uncletopia.com","port":27035,"enabled":true,"region":"us-east","cc":"us","latitude":33.753746,"longitude":-84.38633,"reserved":0,"last_update":"0001-01-01T00:00:00Z","name_a2s":"Uncletopia | Atlanta | 3 | Stopwatch Beta","protocol":17,"map":"pl_upward","folder":"tf","game":"Team Fortress","app_id":440,"player_count":0,"max_players":24,"Bots":0,"server_type":"Dedicated","server_os":"Linux","password":true,"vac":true,"version":"7757534","steam_id":85568392924515187,"keywords":["nocrits","nodmgspread","payload","uncletopia"],"game_id":440,"stv_port":27036,"stv_name":"Uncletopia | Atlanta | 3 | Stopwatch Beta | STV","players":null},{"server_id":401,"name":"Uncletopia | Atlanta | 4 | No Payload","name_short":"atl-4","host":"atl-1.us.uncletopia.com","port":27045,"enabled":true,"region":"us-east","cc":"us","latitude":33.753746,"longitude":-84.38633,"reserved":0,"last_update":"0001-01-01T00:00:00Z","name_a2s":"Uncletopia | Atlanta | 4 | No Payload","protocol":17,"map":"pl_pier","folder":"tf","game":"Team Fortress","app_id":440,"player_count":0,"max_players":24,"Bots":0,"server_type":"Dedicated","server_os":"Linux","password":true,"vac":true,"version":"7723704","steam_id":85568392924515188,"keywords":["nocrits","nodmgspread","payload","uncletopia"],"game_id":440,"stv_port":27046,"stv_name":"Uncletopia | Atlanta | 4 | No Payload | STV","players":null},{"server_id":2,"name":"Uncletopia | Chicago | 1 | All Maps","name_short":"chi-1","host":"chi-1.us.uncletopia.com","port":27015,"enabled":true,"region":"us-central","cc":"us","latitude":41.881832,"longitude":-87.62318,"reserved":0,"last_update":"0001-01-01T00:00:00Z","name_a2s":"Uncletopia | Chicago | 1 | All Maps","protocol":17,"map":"pl_pier","folder":"tf","game":"Team Fortress","app_id":440,"player_count":24,"max_players":24,"Bots":0,"server_type":"Dedicated","server_os":"Linux","password":true,"vac":true,"version":"7757534","steam_id":85568392924469984,"keywords":["nocrits","nodmgspread","payload","uncletopia"],"game_id":440,"stv_port":27016,"stv_name":"Uncletopia | Chicago | 1 | All Maps | STV","players":[{"user_id":259,"name":"MLG BOOTMAN","steam_id":76561198234179320,"connected_time":1044000000000,"state":"active","ping":74},{"user_id":193,"name":"kibble","steam_id":76561198077083011,"connected_time":6647000000000,"state":"active","ping":75},{"user_id":213,"name":"Mae","steam_id":76561198085815757,"connected_time":5668000000000,"state":"active","ping":74},{"user_id":191,"name":"177013","steam_id":76561198072303290,"connected_time":7176000000000,"state":"active","ping":61},{"user_id":252,"name":"Daz","steam_id":76561198041431938,"connected_time":1851000000000,"state":"active","ping":72},{"user_id":258,"name":"SCATTER [CTF2 DEV]","steam_id":76561198405168492,"connected_time":1051000000000,"state":"active","ping":82},{"user_id":241,"name":"Bond","steam_id":76561198089262776,"connected_time":2668000000000,"state":"active","ping":69},{"user_id":255,"name":"the spy from team fortress 2","steam_id":76561198047797306,"connected_time":1215000000000,"state":"active","ping":59},{"user_id":264,"name":"creeeeeee","steam_id":76561198392539722,"connected_time":784000000000,"state":"active","ping":84},{"user_id":261,"name":"Mixomin","steam_id":76561198295061570,"connected_time":988000000000,"state":"active","ping":58},{"user_id":267,"name":"capybara","steam_id":76561198798828328,"connected_time":123000000000,"state":"active","ping":44},{"user_id":268,"name":"Iggy Dogg","steam_id":76561198059602545,"connected_time":117000000000,"state":"active","ping":54},{"user_id":208,"name":"mu mu tako time","steam_id":76561198249206656,"connected_time":5868000000000,"state":"active","ping":80},{"user_id":226,"name":"hyuck","steam_id":76561198319990195,"connected_time":4915000000000,"state":"active","ping":85},{"user_id":55,"name":"THE NUT","steam_id":76561198067813626,"connected_time":18998000000000,"state":"active","ping":97},{"user_id":200,"name":"I'm Cloaked","steam_id":76561198039763676,"connected_time":6332000000000,"state":"active","ping":63},{"user_id":174,"name":"[ØWQJØ]chubacaalatake","steam_id":76561198136201697,"connected_time":8935000000000,"state":"active","ping":135},{"user_id":245,"name":"AdorableMew","steam_id":76561198186706405,"connected_time":2110000000000,"state":"active","ping":74},{"user_id":253,"name":"AlaNo","steam_id":76561198133099582,"connected_time":1591000000000,"state":"active","ping":104},{"user_id":260,"name":"mechiimi ★","steam_id":76561198321627268,"connected_time":1039000000000,"state":"active","ping":137},{"user_id":265,"name":"gremlin (real)","steam_id":76561199062414681,"connected_time":131000000000,"state":"active","ping":71},{"user_id":111,"name":"MEDIC!","steam_id":76561198149344029,"connected_time":14145000000000,"state":"active","ping":67},{"user_id":254,"name":"-flagellum","steam_id":76561198006297974,"connected_time":1371000000000,"state":"active","ping":52},{"user_id":269,"name":"MjrMovnTARGET","steam_id":76561199125908849,"connected_time":82000000000,"state":"active","ping":81}]},{"server_id":106,"name":"Uncletopia | Chicago | 2 | All Maps","name_short":"chi-2","host":"chi-1.us.uncletopia.com","port":27025,"enabled":true,"region":"us-central","cc":"us","latitude":41.881832,"longitude":-87.62318,"reserved":0,"last_update":"0001-01-01T00:00:00Z","name_a2s":"Uncletopia | Chicago | 2 | All Maps","protocol":17,"map":"koth_lakeside_final","folder":"tf","game":"Team Fortress","app_id":440,"player_count":0,"max_players":24,"Bots":0,"server_type":"Dedicated","server_os":"Linux","password":true,"vac":true,"version":"7757534","steam_id":85568392924469985,"keywords":["cp","nocrits","nodmgspread","uncletopia"],"game_id":440,"stv_port":27026,"stv_name":"Uncletopia | Chicago | 2 | All Maps | STV","players":null},{"server_id":402,"name":"Uncletopia | Chicago | 3 | All Maps","name_short":"chi-3","host":"chi-1.us.uncletopia.com","port":27035,"enabled":true,"region":"us-central","cc":"us","latitude":41.881832,"longitude":-87.62318,"reserved":0,"last_update":"0001-01-01T00:00:00Z","name_a2s":"Uncletopia | Chicago | 3 | All Maps","protocol":17,"map":"koth_cascade","folder":"tf","game":"Team Fortress","app_id":440,"player_count":0,"max_players":24,"Bots":0,"server_type":"Dedicated","server_os":"Linux","password":true,"vac":true,"version":"7757534","steam_id":85568392924515191,"keywords":["cp","nocrits","nodmgspread","uncletopia"],"game_id":440,"stv_port":27036,"stv_name":"Uncletopia | Chicago | 3 | All Maps | STV","players":null},{"server_id":403,"name":"Uncletopia | Chicago | 4 | All Maps","name_short":"chi-4","host":"chi-1.us.uncletopia.com","port":27045,"enabled":true,"region":"us-central","cc":"us","latitude":41.881832,"longitude":-87.62318,"reserved":0,"last_update":"0001-01-01T00:00:00Z","name_a2s":"Uncletopia | Chicago | 4 | All Maps","protocol":17,"map":"cp_gorge","folder":"tf","game":"Team Fortress","app_id":440,"player_count":24,"max_players":24,"Bots":0,"server_type":"Dedicated","server_os":"Linux","password":true,"vac":true,"version":"7757534","steam_id":85568392924515193,"keywords":["cp","nocrits","nodmgspread","uncletopia"],"game_id":440,"stv_port":27046,"stv_name":"Uncletopia | Chicago | 4 | All Maps | STV","players":[{"user_id":233,"name":"Ragnoratsu","steam_id":76561198189688723,"connected_time":392000000000,"state":"active","ping":43},{"user_id":212,"name":"JustCoffee","steam_id":76561199389473180,"connected_time":2623000000000,"state":"active","ping":63},{"user_id":234,"name":"Doctor Sex","steam_id":76561198119503652,"connected_time":341000000000,"state":"active","ping":75},{"user_id":215,"name":"Styil","steam_id":76561198075555802,"connected_time":2254000000000,"state":"active","ping":98},{"user_id":229,"name":"Pathara44","steam_id":76561198048238620,"connected_time":723000000000,"state":"active","ping":60},{"user_id":214,"name":"Whoa","steam_id":76561197970353496,"connected_time":2309000000000,"state":"active","ping":71},{"user_id":210,"name":"motherfucker 2.0","steam_id":76561198141189209,"connected_time":2709000000000,"state":"active","ping":60},{"user_id":186,"name":"kwout","steam_id":76561197997139225,"connected_time":3913000000000,"state":"active","ping":53},{"user_id":216,"name":"Soph The Dark Elf","steam_id":76561198294426385,"connected_time":2120000000000,"state":"active","ping":70},{"user_id":226,"name":"Mug Moment Gaming","steam_id":76561198233098136,"connected_time":1386000000000,"state":"active","ping":70},{"user_id":217,"name":"trickstabbing juice","steam_id":76561199207179616,"connected_time":2087000000000,"state":"active","ping":61},{"user_id":213,"name":"Nyle","steam_id":76561198045652639,"connected_time":2321000000000,"state":"active","ping":125},{"user_id":228,"name":"gnomasaur","steam_id":76561197987322699,"connected_time":762000000000,"state":"active","ping":110},{"user_id":231,"name":"Quentin","steam_id":76561198032941413,"connected_time":478000000000,"state":"active","ping":74},{"user_id":232,"name":"Kurt Biscuitmaker","steam_id":76561198331701823,"connected_time":433000000000,"state":"active","ping":84},{"user_id":221,"name":"Pennis the Menace","steam_id":76561198254878037,"connected_time":1606000000000,"state":"active","ping":70},{"user_id":220,"name":"PeopleOrderOurPatties","steam_id":76561198323144922,"connected_time":1657000000000,"state":"active","ping":57},{"user_id":219,"name":"BOB","steam_id":76561198354496665,"connected_time":1900000000000,"state":"active","ping":65},{"user_id":235,"name":"brian eats you","steam_id":76561198109901138,"connected_time":282000000000,"state":"active","ping":76},{"user_id":230,"name":"viscodolante","steam_id":76561198013650292,"connected_time":629000000000,"state":"active","ping":111},{"user_id":236,"name":"itsmajestic","steam_id":76561198304790008,"connected_time":265000000000,"state":"active","ping":69},{"user_id":209,"name":"Coffee with a Stranger","steam_id":76561198307422313,"connected_time":2754000000000,"state":"active","ping":69},{"user_id":178,"name":"Overduecat","steam_id":76561198092452824,"connected_time":4381000000000,"state":"active","ping":71},{"user_id":181,"name":"Qui3t_P4nda","steam_id":76561198151333655,"connected_time":4271000000000,"state":"active","ping":83}]},{"server_id":36,"name":"Uncletopia | Chicago | 5 | All Maps","name_short":"chi-5","host":"chi-2.us.uncletopia.com","port":27015,"enabled":true,"region":"us-central","cc":"us","latitude":41.881832,"longitude":-87.62318,"reserved":0,"last_update":"0001-01-01T00:00:00Z","name_a2s":"Uncletopia | Chicago | 5 | All Maps","protocol":17,"map":"koth_cascade","folder":"tf","game":"Team Fortress","app_id":440,"player_count":0,"max_players":24,"Bots":0,"server_type":"Dedicated","server_os":"Linux","password":true,"vac":true,"version":"7757534","steam_id":85568392924866362,"keywords":["cp","nocrits","nodmgspread","uncletopia"],"game_id":440,"stv_port":27016,"stv_name":"Uncletopia | Chicago | 5 | All Maps | STV","players":null},{"server_id":37,"name":"Uncletopia | Chicago | 6 | All Maps","name_short":"chi-6","host":"chi-2.us.uncletopia.com","port":27025,"enabled":true,"region":"us-central","cc":"us","latitude":41.881832,"longitude":-87.62318,"reserved":0,"last_update":"0001-01-01T00:00:00Z","name_a2s":"Uncletopia | Chicago | 6 | All Maps","protocol":17,"map":"cp_mountainlab","folder":"tf","game":"Team Fortress","app_id":440,"player_count":0,"max_players":24,"Bots":0,"server_type":"Dedicated","server_os":"Linux","password":true,"vac":true,"version":"7757534","steam_id":85568392924866363,"keywords":["cp","nocrits","nodmgspread","uncletopia"],"game_id":440,"stv_port":27026,"stv_name":"Uncletopia | Chicago | 6 | All Maps | STV","players":null},{"server_id":38,"name":"Uncletopia | Chicago | 7 | Stopwatch Beta","name_short":"chi-7","host":"chi-2.us.uncletopia.com","port":27035,"enabled":true,"region":"us-central","cc":"us","latitude":41.881832,"longitude":-87.62318,"reserved":0,"last_update":"0001-01-01T00:00:00Z","name_a2s":"Uncletopia | Chicago | 7 | Stopwatch Beta","protocol":17,"map":"pl_upward","folder":"tf","game":"Team Fortress","app_id":440,"player_count":7,"max_players":24,"Bots":0,"server_type":"Dedicated","server_os":"Linux","password":true,"vac":true,"version":"7757534","steam_id":85568392924866364,"keywords":["nocrits","nodmgspread","payload","uncletopia"],"game_id":440,"stv_port":27036,"stv_name":"Uncletopia | Chicago | 7 | Stopwatch Beta | STV","players":[{"user_id":6,"name":"Evil_Elephant","steam_id":76561199055338631,"connected_time":1322000000000,"state":"active","ping":76},{"user_id":7,"name":"Marius","steam_id":76561198804286952,"connected_time":1309000000000,"state":"active","ping":84},{"user_id":17,"name":"Chelsea.FPS","steam_id":76561198405299137,"connected_time":180000000000,"state":"active","ping":60},{"user_id":18,"name":"Puro","steam_id":76561199440523721,"connected_time":50000000000,"state":"active","ping":80},{"user_id":12,"name":"Dad 2","steam_id":76561198138546187,"connected_time":768000000000,"state":"active","ping":81},{"user_id":13,"name":"〣dust〣 -she/her-","steam_id":76561198045218909,"connected_time":674000000000,"state":"active","ping":88},{"user_id":14,"name":"Nut_Column","steam_id":76561197979934895,"connected_time":649000000000,"state":"active","ping":120}]},{"server_id":39,"name":"Uncletopia | Chicago | 8 | Community","name_short":"chi-8","host":"chi-2.us.uncletopia.com","port":27045,"enabled":true,"region":"us-central","cc":"us","latitude":41.881832,"longitude":-87.62318,"reserved":0,"last_update":"0001-01-01T00:00:00Z","name_a2s":"Uncletopia | Chicago | 8 | Community","protocol":17,"map":"pl_pier","folder":"tf","game":"Team Fortress","app_id":440,"player_count":0,"max_players":24,"Bots":0,"server_type":"Dedicated","server_os":"Linux","password":true,"vac":true,"version":"7757534","steam_id":85568392924866365,"keywords":["nocrits","nodmgspread","payload","uncletopia"],"game_id":440,"stv_port":27046,"stv_name":"Uncletopia | Chicago | 8 | Community | STV","players":null},{"server_id":8,"name":"Uncletopia | Dallas | 1 | All Maps","name_short":"dal-1","host":"dal-1.us.uncletopia.com","port":27015,"enabled":true,"region":"us-central","cc":"us","latitude":32.779167,"longitude":-96.80889,"reserved":0,"last_update":"0001-01-01T00:00:00Z","name_a2s":"Uncletopia | Dallas | 1 | All Maps","protocol":17,"map":"pl_borneo","folder":"tf","game":"Team Fortress","app_id":440,"player_count":24,"max_players":24,"Bots":0,"server_type":"Dedicated","server_os":"Linux","password":true,"vac":true,"version":"7757534","steam_id":85568392924469986,"keywords":["nocrits","nodmgspread","payload","uncletopia"],"game_id":440,"stv_port":27016,"stv_name":"Uncletopia | Dallas | 1 | All Maps | STV","players":[{"user_id":9,"name":"dicksnip","steam_id":76561198356515396,"connected_time":7290000000000,"state":"active","ping":71},{"user_id":74,"name":"Birdhorse Of Course","steam_id":76561198038997485,"connected_time":2659000000000,"state":"active","ping":91},{"user_id":77,"name":"Karate","steam_id":76561198352187445,"connected_time":2098000000000,"state":"active","ping":74},{"user_id":79,"name":"A Gamer [F2P]","steam_id":76561198138712892,"connected_time":2080000000000,"state":"active","ping":39},{"user_id":84,"name":"Zeemii","steam_id":76561198809299581,"connected_time":1804000000000,"state":"active","ping":69},{"user_id":59,"name":"barker bill","steam_id":76561198018451994,"connected_time":3943000000000,"state":"active","ping":54},{"user_id":92,"name":"Sentry Beta Test","steam_id":76561198038832034,"connected_time":1290000000000,"state":"active","ping":96},{"user_id":113,"name":"an inebriated newt fancier","steam_id":76561197985428155,"connected_time":855000000000,"state":"active","ping":82},{"user_id":52,"name":"Korra \u003c3","steam_id":76561198044991497,"connected_time":4936000000000,"state":"active","ping":109},{"user_id":57,"name":"minimalpair","steam_id":76561198071788709,"connected_time":4001000000000,"state":"active","ping":82},{"user_id":82,"name":"The man who sold 2Fort","steam_id":76561199100003132,"connected_time":1959000000000,"state":"active","ping":165},{"user_id":81,"name":"Drive-By-Fish-Guy","steam_id":76561198105513652,"connected_time":2037000000000,"state":"active","ping":95},{"user_id":117,"name":"Miramar","steam_id":76561198022057653,"connected_time":387000000000,"state":"active","ping":86},{"user_id":68,"name":"Gr8alex #KILLTF2","steam_id":76561198227675960,"connected_time":3035000000000,"state":"active","ping":85},{"user_id":83,"name":"Scoron","steam_id":76561198062099305,"connected_time":1888000000000,"state":"active","ping":92},{"user_id":118,"name":"MechaShiva","steam_id":76561198067773904,"connected_time":360000000000,"state":"active","ping":56},{"user_id":115,"name":"corbenis","steam_id":76561199012442511,"connected_time":724000000000,"state":"active","ping":86},{"user_id":42,"name":"{[F.H]} Hydroida","steam_id":76561197999797274,"connected_time":5150000000000,"state":"active","ping":75},{"user_id":60,"name":"sebjzy","steam_id":76561198009959034,"connected_time":3935000000000,"state":"active","ping":56},{"user_id":44,"name":"basil","steam_id":76561198075758026,"connected_time":5130000000000,"state":"active","ping":101},{"user_id":67,"name":"Entreezy","steam_id":76561198271093809,"connected_time":3055000000000,"state":"active","ping":101},{"user_id":78,"name":"Ironaka","steam_id":76561198029993183,"connected_time":2091000000000,"state":"active","ping":91},{"user_id":119,"name":"gk.onesoul","steam_id":76561198114603745,"connected_time":345000000000,"state":"active","ping":90},{"user_id":73,"name":"Cookie","steam_id":76561198047736899,"connected_time":2857000000000,"state":"active","ping":72}]},{"server_id":108,"name":"Uncletopia | Dallas | 2 | All Maps","name_short":"dal-2","host":"dal-1.us.uncletopia.com","port":27025,"enabled":true,"region":"us-central","cc":"us","latitude":32.779167,"longitude":-96.80889,"reserved":0,"last_update":"0001-01-01T00:00:00Z","name_a2s":"Uncletopia | Dallas | 2 | All Maps","protocol":17,"map":"koth_highpass","folder":"tf","game":"Team Fortress","app_id":440,"player_count":0,"max_players":24,"Bots":0,"server_type":"Dedicated","server_os":"Linux","password":true,"vac":true,"version":"7757534","steam_id":85568392924469988,"keywords":["cp","nocrits","nodmgspread","uncletopia"],"game_id":440,"stv_port":27026,"stv_name":"Uncletopia | Dallas | 2 | All Maps | STV","players":null},{"server_id":5,"name":"Uncletopia | Frankfurt | 1 | All Maps","name_short":"frk-1","host":"frk-1.de.uncletopia.com","port":27015,"enabled":true,"region":"eu","cc":"de","latitude":50.110924,"longitude":8.682127,"reserved":0,"last_update":"0001-01-01T00:00:00Z","name_a2s":"Uncletopia | Frankfurt | 1 | All Maps","protocol":17,"map":"ctf_2fort","folder":"tf","game":"Team Fortress","app_id":440,"player_count":24,"max_players":24,"Bots":0,"server_type":"Dedicated","server_os":"Linux","password":true,"vac":true,"version":"7757534","steam_id":85568392924469989,"keywords":["ctf","nocrits","nodmgspread","uncletopia"],"game_id":440,"stv_port":27016,"stv_name":"Uncletopia | Frankfurt | 1 | All Maps | STV","players":[{"user_id":350,"name":"miras2007goroceciezarowki","steam_id":76561199052690012,"connected_time":1396000000000,"state":"active","ping":75},{"user_id":359,"name":"FreakMaster","steam_id":76561198045743044,"connected_time":904000000000,"state":"active","ping":68},{"user_id":369,"name":"Mr. Shadow | Folfie","steam_id":76561198037028507,"connected_time":209000000000,"state":"active","ping":55},{"user_id":326,"name":"TheShadowScribe","steam_id":76561199037525945,"connected_time":2763000000000,"state":"active","ping":87},{"user_id":362,"name":"KarvaPerse","steam_id":76561198141907704,"connected_time":537000000000,"state":"active","ping":91},{"user_id":329,"name":"Catboy 9S gaming","steam_id":76561197999024118,"connected_time":2250000000000,"state":"active","ping":77},{"user_id":323,"name":"Mehrtelb","steam_id":76561198054162669,"connected_time":3001000000000,"state":"active","ping":47},{"user_id":332,"name":"Mr.Schnittlauch","steam_id":76561198295868113,"connected_time":2145000000000,"state":"active","ping":58},{"user_id":364,"name":"Edla","steam_id":76561198062815315,"connected_time":512000000000,"state":"active","ping":95},{"user_id":363,"name":"TJ1212","steam_id":76561199013575313,"connected_time":522000000000,"state":"active","ping":70},{"user_id":361,"name":"FlameTheGame","steam_id":76561198841108519,"connected_time":637000000000,"state":"active","ping":90},{"user_id":368,"name":"lobzade","steam_id":76561198195685370,"connected_time":232000000000,"state":"active","ping":54},{"user_id":340,"name":"Hot Beverage Enjoyer","steam_id":76561198060638325,"connected_time":1635000000000,"state":"active","ping":34},{"user_id":358,"name":"Jonskans","steam_id":76561198448680595,"connected_time":999000000000,"state":"active","ping":82},{"user_id":366,"name":"mat","steam_id":76561198824697295,"connected_time":327000000000,"state":"active","ping":74},{"user_id":351,"name":"Fischer","steam_id":76561198301481739,"connected_time":1394000000000,"state":"active","ping":47},{"user_id":346,"name":"Newax","steam_id":76561198020758511,"connected_time":1495000000000,"state":"active","ping":72},{"user_id":356,"name":"manKe","steam_id":76561198008564860,"connected_time":1213000000000,"state":"active","ping":60},{"user_id":347,"name":"nhstefanov","steam_id":76561198811811405,"connected_time":1458000000000,"state":"active","ping":87},{"user_id":367,"name":"noobdog","steam_id":76561198036486671,"connected_time":310000000000,"state":"active","ping":60},{"user_id":352,"name":"cof","steam_id":76561199128417805,"connected_time":1352000000000,"state":"active","ping":70},{"user_id":353,"name":"Walmart Cheese","steam_id":76561198978494743,"connected_time":1326000000000,"state":"active","ping":129},{"user_id":300,"name":"Borloxos","steam_id":76561198123110073,"connected_time":4714000000000,"state":"active","ping":61},{"user_id":354,"name":"justajem101","steam_id":76561199228510573,"connected_time":1295000000000,"state":"active","ping":87}]},{"server_id":110,"name":"Uncletopia | Frankfurt | 2 | All Maps","name_short":"frk-2","host":"frk-1.de.uncletopia.com","port":27025,"enabled":true,"region":"eu","cc":"de","latitude":50.110924,"longitude":8.682127,"reserved":0,"last_update":"0001-01-01T00:00:00Z","name_a2s":"Uncletopia | Frankfurt | 2 | All Maps","protocol":17,"map":"pl_upward","folder":"tf","game":"Team Fortress","app_id":440,"player_count":24,"max_players":24,"Bots":0,"server_type":"Dedicated","server_os":"Linux","password":true,"vac":true,"version":"7757534","steam_id":85568392924469990,"keywords":["nocrits","nodmgspread","payload","uncletopia"],"game_id":440,"stv_port":27026,"stv_name":"Uncletopia | Frankfurt | 2 | All Maps | STV","players":[{"user_id":353,"name":"washed up","steam_id":76561198275742101,"connected_time":1342000000000,"state":"active","ping":57},{"user_id":365,"name":"Xydran","steam_id":76561198042397402,"connected_time":972000000000,"state":"active","ping":76},{"user_id":366,"name":"Vershal Smershal","steam_id":76561198116223995,"connected_time":969000000000,"state":"active","ping":59},{"user_id":370,"name":"Fluffy","steam_id":76561198084447725,"connected_time":917000000000,"state":"active","ping":59},{"user_id":378,"name":"Barbiehunter #SaveTF2","steam_id":76561198071630928,"connected_time":511000000000,"state":"active","ping":60},{"user_id":357,"name":"Wattseyy","steam_id":76561198248567360,"connected_time":1269000000000,"state":"active","ping":53},{"user_id":376,"name":"xXx ostry nakurwiacz 69 xXx","steam_id":76561198068972398,"connected_time":580000000000,"state":"active","ping":69},{"user_id":343,"name":"Faxter","steam_id":76561198011771605,"connected_time":2427000000000,"state":"active","ping":74},{"user_id":340,"name":"Windows Vista Cruiser","steam_id":76561198064102233,"connected_time":2629000000000,"state":"active","ping":74},{"user_id":358,"name":"tralalaOuiOui","steam_id":76561197963471507,"connected_time":1257000000000,"state":"active","ping":58},{"user_id":373,"name":"marsel","steam_id":76561198116168271,"connected_time":839000000000,"state":"active","ping":74},{"user_id":367,"name":"Blobfish","steam_id":76561198260351341,"connected_time":947000000000,"state":"active","ping":150},{"user_id":379,"name":"Dolcelatte","steam_id":76561198038501770,"connected_time":271000000000,"state":"active","ping":60},{"user_id":374,"name":"Jonas Destark","steam_id":76561198030327441,"connected_time":786000000000,"state":"active","ping":69},{"user_id":361,"name":"Manmonster123","steam_id":76561198144690801,"connected_time":1176000000000,"state":"active","ping":69},{"user_id":339,"name":"ducks","steam_id":76561198166148685,"connected_time":2793000000000,"state":"active","ping":45},{"user_id":337,"name":"S.Scary","steam_id":76561198248602386,"connected_time":2827000000000,"state":"active","ping":64},{"user_id":375,"name":"ghenios","steam_id":76561198030011207,"connected_time":605000000000,"state":"active","ping":96},{"user_id":380,"name":"Gearless","steam_id":76561198362367074,"connected_time":52000000000,"state":"active","ping":78},{"user_id":352,"name":"Eternity","steam_id":76561198238099668,"connected_time":1375000000000,"state":"active","ping":99},{"user_id":345,"name":"tosti_tower","steam_id":76561198153445364,"connected_time":2228000000000,"state":"active","ping":73},{"user_id":348,"name":"DrunkHungarian","steam_id":76561198853346540,"connected_time":1984000000000,"state":"active","ping":54},{"user_id":363,"name":"The Mask","steam_id":76561198040009439,"connected_time":1133000000000,"state":"active","ping":74},{"user_id":315,"name":"♥ Purple Blood ♥ | P.U.R.","steam_id":76561198965998351,"connected_time":4629000000000,"state":"active","ping":152}]},{"server_id":308,"name":"Uncletopia | Frankfurt | 3 | All Maps","name_short":"frk-3","host":"frk-1.de.uncletopia.com","port":27035,"enabled":true,"region":"eu","cc":"de","latitude":50.110924,"longitude":8.682127,"reserved":0,"last_update":"0001-01-01T00:00:00Z","name_a2s":"Uncletopia | Frankfurt | 3 | All Maps","protocol":17,"map":"pl_barnblitz","folder":"tf","game":"Team Fortress","app_id":440,"player_count":24,"max_players":24,"Bots":0,"server_type":"Dedicated","server_os":"Linux","password":true,"vac":true,"version":"7757534","steam_id":85568392924504274,"keywords":["nocrits","nodmgspread","payload","uncletopia"],"game_id":440,"stv_port":27036,"stv_name":"Uncletopia | Frankfurt | 3 | All Maps | STV","players":[{"user_id":195,"name":"Patrick Ratrick","steam_id":76561198086190783,"connected_time":50000000000,"state":"active","ping":65},{"user_id":177,"name":"A smell foretold","steam_id":76561198051497921,"connected_time":1460000000000,"state":"active","ping":60},{"user_id":133,"name":"aph","steam_id":76561198057722639,"connected_time":3283000000000,"state":"active","ping":69},{"user_id":178,"name":"Phantom","steam_id":76561198268168199,"connected_time":1085000000000,"state":"active","ping":75},{"user_id":188,"name":"Chromatic","steam_id":76561198355976286,"connected_time":342000000000,"state":"active","ping":70},{"user_id":181,"name":"wolffy","steam_id":76561198083145076,"connected_time":727000000000,"state":"active","ping":64},{"user_id":135,"name":"Doughy","steam_id":76561198044084210,"connected_time":3250000000000,"state":"active","ping":83},{"user_id":182,"name":"Calanim","steam_id":76561198068163854,"connected_time":712000000000,"state":"active","ping":71},{"user_id":189,"name":"Zateske","steam_id":76561198047446276,"connected_time":234000000000,"state":"active","ping":59},{"user_id":159,"name":"QUASO","steam_id":76561198295305088,"connected_time":2341000000000,"state":"active","ping":54},{"user_id":168,"name":"bum","steam_id":76561198067678158,"connected_time":2218000000000,"state":"active","ping":59},{"user_id":173,"name":"KajaStorm","steam_id":76561199215842872,"connected_time":1817000000000,"state":"active","ping":130},{"user_id":174,"name":".quickfast.","steam_id":76561199438900919,"connected_time":1813000000000,"state":"active","ping":56},{"user_id":193,"name":"Gnarville","steam_id":76561198006373329,"connected_time":157000000000,"state":"active","ping":60},{"user_id":142,"name":"Clorox Consumer","steam_id":76561198120949216,"connected_time":3059000000000,"state":"active","ping":61},{"user_id":190,"name":"tenenbaum_2","steam_id":76561198075723636,"connected_time":228000000000,"state":"active","ping":83},{"user_id":170,"name":"Arcader","steam_id":76561198109860110,"connected_time":2109000000000,"state":"active","ping":58},{"user_id":146,"name":"antman","steam_id":76561198017352695,"connected_time":2877000000000,"state":"active","ping":121},{"user_id":194,"name":"PrinzAnalFaust","steam_id":76561198136407626,"connected_time":152000000000,"state":"active","ping":71},{"user_id":166,"name":"drew","steam_id":76561198012304706,"connected_time":2256000000000,"state":"active","ping":92},{"user_id":175,"name":"Puck","steam_id":76561198121260981,"connected_time":1691000000000,"state":"active","ping":59},{"user_id":169,"name":"gojoel","steam_id":76561198251181946,"connected_time":2185000000000,"state":"active","ping":49},{"user_id":187,"name":"bugpov","steam_id":76561198104896547,"connected_time":448000000000,"state":"active","ping":70},{"user_id":185,"name":"Mathias","steam_id":76561198141804844,"connected_time":704000000000,"state":"active","ping":84}]},{"server_id":309,"name":"Uncletopia | Frankfurt | 4 | All Maps","name_short":"frk-4","host":"frk-1.de.uncletopia.com","port":27045,"enabled":true,"region":"eu","cc":"de","latitude":50.110924,"longitude":8.682127,"reserved":0,"last_update":"0001-01-01T00:00:00Z","name_a2s":"Uncletopia | Frankfurt | 4 | All Maps","protocol":17,"map":"pl_borneo","folder":"tf","game":"Team Fortress","app_id":440,"player_count":24,"max_players":24,"Bots":0,"server_type":"Dedicated","server_os":"Linux","password":true,"vac":true,"version":"7757534","steam_id":85568392924504275,"keywords":["nocrits","nodmgspread","payload","uncletopia"],"game_id":440,"stv_port":27046,"stv_name":"Uncletopia | Frankfurt | 4 | All Maps | STV","players":[{"user_id":502,"name":"Sayu","steam_id":76561198395421637,"connected_time":1180000000000,"state":"active","ping":51},{"user_id":509,"name":"hallfelt","steam_id":76561199008716852,"connected_time":821000000000,"state":"active","ping":94},{"user_id":515,"name":"cloud","steam_id":76561198179768931,"connected_time":520000000000,"state":"active","ping":54},{"user_id":507,"name":"Frozen Mongolian","steam_id":76561198074434002,"connected_time":852000000000,"state":"active","ping":74},{"user_id":503,"name":"GuSkand","steam_id":76561198043775605,"connected_time":1120000000000,"state":"active","ping":76},{"user_id":490,"name":"Kolle129","steam_id":76561198070386336,"connected_time":2299000000000,"state":"active","ping":51},{"user_id":458,"name":"j100j","steam_id":76561198338726444,"connected_time":4246000000000,"state":"active","ping":103},{"user_id":518,"name":"LOBZIK","steam_id":76561198114830120,"connected_time":379000000000,"state":"active","ping":93},{"user_id":486,"name":"Solymr ibn Wali Barad","steam_id":76561198044008976,"connected_time":2755000000000,"state":"active","ping":69},{"user_id":508,"name":"spesmarine42","steam_id":76561199404806029,"connected_time":845000000000,"state":"active","ping":89},{"user_id":517,"name":"MyFirstTimeeeeelel","steam_id":76561199235376543,"connected_time":476000000000,"state":"active","ping":65},{"user_id":522,"name":"Welder","steam_id":76561198355300561,"connected_time":44000000000,"state":"active","ping":64},{"user_id":514,"name":"Kodutah","steam_id":76561198203405574,"connected_time":582000000000,"state":"active","ping":61},{"user_id":488,"name":"Dont like the color black","steam_id":76561198418538887,"connected_time":2560000000000,"state":"active","ping":91},{"user_id":519,"name":"Jhin","steam_id":76561198070137469,"connected_time":372000000000,"state":"active","ping":89},{"user_id":520,"name":"Jimmy","steam_id":76561198133680783,"connected_time":372000000000,"state":"active","ping":72},{"user_id":513,"name":"☭ybercat","steam_id":76561198014070417,"connected_time":734000000000,"state":"active","ping":70},{"user_id":431,"name":"Gordon Birdman","steam_id":76561198013382324,"connected_time":5864000000000,"state":"active","ping":77},{"user_id":498,"name":"lyudmilakh","steam_id":76561198362779878,"connected_time":1578000000000,"state":"active","ping":94},{"user_id":482,"name":"Mr.Man","steam_id":76561199175688390,"connected_time":2921000000000,"state":"active","ping":75},{"user_id":464,"name":"ijustsmokeandcry","steam_id":76561198044189114,"connected_time":4045000000000,"state":"active","ping":62},{"user_id":442,"name":"Salad's Warband","steam_id":76561198214089583,"connected_time":5343000000000,"state":"active","ping":72},{"user_id":462,"name":"MtnDew","steam_id":76561199100059743,"connected_time":4177000000000,"state":"active","ping":114},{"user_id":484,"name":"Ergas","steam_id":76561198860861032,"connected_time":2860000000000,"state":"active","ping":72}]},{"server_id":310,"name":"Uncletopia | Frankfurt | 5 | All Maps","name_short":"frk-5","host":"frk-1.de.uncletopia.com","port":27055,"enabled":true,"region":"eu","cc":"de","latitude":50.110924,"longitude":8.682127,"reserved":0,"last_update":"0001-01-01T00:00:00Z","name_a2s":"Uncletopia | Frankfurt | 5 | All Maps","protocol":17,"map":"pl_snowycoast","folder":"tf","game":"Team Fortress","app_id":440,"player_count":23,"max_players":24,"Bots":0,"server_type":"Dedicated","server_os":"Linux","password":true,"vac":true,"version":"7757534","steam_id":85568392924504277,"keywords":["nocrits","nodmgspread","payload","uncletopia"],"game_id":440,"stv_port":27056,"stv_name":"Uncletopia | Frankfurt | 5 | All Maps | STV","players":[{"user_id":17,"name":"posht0 ._.","steam_id":76561198106182078,"connected_time":3881000000000,"state":"active","ping":103},{"user_id":18,"name":"sabaka jebanoia","steam_id":76561198147249160,"connected_time":3849000000000,"state":"active","ping":101},{"user_id":84,"name":"Seven","steam_id":76561197979013064,"connected_time":1081000000000,"state":"active","ping":51},{"user_id":78,"name":":\u003e","steam_id":76561198111134021,"connected_time":1412000000000,"state":"active","ping":83},{"user_id":98,"name":"Hell Striker","steam_id":76561199023875942,"connected_time":53000000000,"state":"active","ping":102},{"user_id":85,"name":"Faust","steam_id":76561198035793065,"connected_time":1076000000000,"state":"active","ping":130},{"user_id":26,"name":"Loop_Cat","steam_id":76561199045902145,"connected_time":3352000000000,"state":"active","ping":115},{"user_id":80,"name":"Nameless_Mann","steam_id":76561198015543601,"connected_time":1258000000000,"state":"active","ping":70},{"user_id":81,"name":"CyberBuddha [RU/EN]","steam_id":76561198075853329,"connected_time":1258000000000,"state":"active","ping":146},{"user_id":86,"name":"salmonander","steam_id":76561198104577052,"connected_time":1024000000000,"state":"active","ping":91},{"user_id":87,"name":"tealoverr.190","steam_id":76561199028497703,"connected_time":982000000000,"state":"active","ping":92},{"user_id":44,"name":"Menty","steam_id":76561198036748212,"connected_time":3162000000000,"state":"active","ping":48},{"user_id":99,"name":"Flex","steam_id":76561197970482191,"connected_time":32000000000,"state":"active","ping":63},{"user_id":74,"name":"Leon The Professional","steam_id":76561198865371617,"connected_time":1839000000000,"state":"active","ping":79},{"user_id":83,"name":"mumbler","steam_id":76561197970641239,"connected_time":1192000000000,"state":"active","ping":45},{"user_id":52,"name":"Rat head","steam_id":76561198184360615,"connected_time":3018000000000,"state":"active","ping":90},{"user_id":96,"name":"Chambersite","steam_id":76561198197022399,"connected_time":109000000000,"state":"active","ping":65},{"user_id":88,"name":"Anti-Spy Corporation CEO","steam_id":76561199082561774,"connected_time":976000000000,"state":"active","ping":127},{"user_id":97,"name":"XPullaHiiri","steam_id":76561198031652375,"connected_time":102000000000,"state":"active","ping":79},{"user_id":90,"name":"Boyarishnik","steam_id":76561198986324207,"connected_time":939000000000,"state":"active","ping":86},{"user_id":95,"name":"luma","steam_id":76561198081649669,"connected_time":241000000000,"state":"active","ping":61},{"user_id":91,"name":"hamude.alsarhan2011","steam_id":76561199259727736,"connected_time":903000000000,"state":"active","ping":66},{"user_id":92,"name":"FTH","steam_id":76561198066287815,"connected_time":884000000000,"state":"active","ping":120}]},{"server_id":311,"name":"Uncletopia | Frankfurt | 6 | All Maps","name_short":"frk-6","host":"frk-1.de.uncletopia.com","port":27065,"enabled":true,"region":"eu","cc":"de","latitude":50.110924,"longitude":8.682127,"reserved":0,"last_update":"0001-01-01T00:00:00Z","name_a2s":"Uncletopia | Frankfurt | 6 | All Maps","protocol":17,"map":"pl_frontier_final","folder":"tf","game":"Team Fortress","app_id":440,"player_count":24,"max_players":24,"Bots":0,"server_type":"Dedicated","server_os":"Linux","password":true,"vac":true,"version":"7757534","steam_id":85568392924504278,"keywords":["nocrits","nodmgspread","payload","uncletopia"],"game_id":440,"stv_port":27066,"stv_name":"Uncletopia | Frankfurt | 6 | All Maps | STV","players":[{"user_id":177,"name":"After8","steam_id":76561198090750865,"connected_time":4623000000000,"state":"active","ping":62},{"user_id":231,"name":"Insain Bolt!","steam_id":76561198025687726,"connected_time":838000000000,"state":"active","ping":58},{"user_id":235,"name":"Rezkey","steam_id":76561198206079048,"connected_time":445000000000,"state":"active","ping":63},{"user_id":238,"name":"Boebly","steam_id":76561198069585723,"connected_time":387000000000,"state":"active","ping":61},{"user_id":192,"name":"Лютый хуебес","steam_id":76561198110470565,"connected_time":3668000000000,"state":"active","ping":95},{"user_id":228,"name":"2Fort Samurai","steam_id":76561198064490192,"connected_time":1319000000000,"state":"active","ping":47},{"user_id":245,"name":"Jesse Fatcoc","steam_id":76561199004942770,"connected_time":276000000000,"state":"active","ping":63},{"user_id":197,"name":"giclure :;","steam_id":76561197986362828,"connected_time":3379000000000,"state":"active","ping":62},{"user_id":198,"name":"Virgil","steam_id":76561198248786778,"connected_time":3368000000000,"state":"active","ping":117},{"user_id":240,"name":"the joy of recycling","steam_id":76561198415564349,"connected_time":347000000000,"state":"active","ping":61},{"user_id":237,"name":"M1rkus","steam_id":76561198171215447,"connected_time":435000000000,"state":"active","ping":62},{"user_id":230,"name":"Preyzen","steam_id":76561199043448824,"connected_time":942000000000,"state":"active","ping":57},{"user_id":204,"name":"Wedgeridoo","steam_id":76561198082813907,"connected_time":3038000000000,"state":"active","ping":134},{"user_id":246,"name":"qooba","steam_id":76561198258010551,"connected_time":26000000000,"state":"active","ping":75},{"user_id":243,"name":"Florua","steam_id":76561198182297846,"connected_time":294000000000,"state":"active","ping":60},{"user_id":160,"name":"rz-/Atomic Punch","steam_id":76561199195508541,"connected_time":6230000000000,"state":"active","ping":79},{"user_id":209,"name":"Rigby","steam_id":76561198021552128,"connected_time":2041000000000,"state":"active","ping":99},{"user_id":233,"name":"Big Trader","steam_id":76561197992364667,"connected_time":517000000000,"state":"active","ping":74},{"user_id":229,"name":"[cgt]engineergaming","steam_id":76561199423207269,"connected_time":1267000000000,"state":"active","ping":73},{"user_id":211,"name":"Owlet","steam_id":76561198065613974,"connected_time":1994000000000,"state":"active","ping":75},{"user_id":218,"name":"You slumber","steam_id":76561198344639692,"connected_time":1832000000000,"state":"active","ping":89},{"user_id":184,"name":"Äärik ♣","steam_id":76561198131871737,"connected_time":4291000000000,"state":"active","ping":57},{"user_id":247,"name":"mr beast (real)","steam_id":76561198365750503,"connected_time":5000000000,"state":"spawning","ping":44},{"user_id":221,"name":"LL66","steam_id":76561198269997109,"connected_time":1700000000000,"state":"active","ping":84}]},{"server_id":23,"name":"Uncletopia | Frankfurt | 7 | Stopwatch Beta","name_short":"frk-7","host":"frk-1.de.uncletopia.com","port":27075,"enabled":true,"region":"eu","cc":"de","latitude":50.110924,"longitude":8.682127,"reserved":0,"last_update":"0001-01-01T00:00:00Z","name_a2s":"Uncletopia | Frankfurt | 7 | Stopwatch Beta","protocol":17,"map":"workshop/koth_bagel_rc5.ugc2514036946","folder":"tf","game":"Team Fortress","app_id":440,"player_count":0,"max_players":24,"Bots":0,"server_type":"Dedicated","server_os":"Linux","password":true,"vac":true,"version":"7757534","steam_id":85568392924742827,"keywords":["cp","nocrits","nodmgspread","uncletopia"],"game_id":440,"stv_port":27076,"stv_name":"Uncletopia | Frankfurt | 7 | Stopwatch Beta | STV","players":null},{"server_id":24,"name":"Uncletopia | Frankfurt | 8 | Community","name_short":"frk-8","host":"frk-1.de.uncletopia.com","port":27085,"enabled":true,"region":"eu","cc":"de","latitude":50.110924,"longitude":8.682127,"reserved":0,"last_update":"0001-01-01T00:00:00Z","name_a2s":"Uncletopia | Frankfurt | 8 | Community","protocol":17,"map":"koth_cascade","folder":"tf","game":"Team Fortress","app_id":440,"player_count":0,"max_players":24,"Bots":0,"server_type":"Dedicated","server_os":"Linux","password":true,"vac":true,"version":"7757534","steam_id":85568392924742828,"keywords":["cp","nocrits","nodmgspread","uncletopia"],"game_id":440,"stv_port":27086,"stv_name":"Uncletopia | Frankfurt | 8 | Community | STV","players":null},{"server_id":202,"name":"Uncletopia | Hong Kong | 1 | All Maps","name_short":"hgk-1","host":"hgk-1.hk.uncletopia.com","port":27015,"enabled":true,"region":"asia","cc":"hk","latitude":22.302711,"longitude":114.177216,"reserved":0,"last_update":"0001-01-01T00:00:00Z","name_a2s":"Uncletopia | Hong Kong | 1 | All Maps","protocol":17,"map":"koth_viaduct","folder":"tf","game":"Team Fortress","app_id":440,"player_count":0,"max_players":24,"Bots":0,"server_type":"Dedicated","server_os":"Linux","password":true,"vac":true,"version":"7757534","steam_id":85568392924494504,"keywords":["cp","nocrits","nodmgspread","uncletopia"],"game_id":440,"stv_port":27016,"stv_name":"Uncletopia | Hong Kong | 1 | All Maps | STV","players":null},{"server_id":1,"name":"Uncletopia | Los Angeles | 1 | All Maps","name_short":"lax-1","host":"lax-1.us.uncletopia.com","port":27015,"enabled":true,"region":"us-west","cc":"us","latitude":33.94279,"longitude":-118.41004,"reserved":0,"last_update":"0001-01-01T00:00:00Z","name_a2s":"Uncletopia | Los Angeles | 1 | All Maps","protocol":17,"map":"cp_mountainlab","folder":"tf","game":"Team Fortress","app_id":440,"player_count":0,"max_players":24,"Bots":0,"server_type":"Dedicated","server_os":"Linux","password":true,"vac":true,"version":"7757534","steam_id":85568392924469991,"keywords":["cp","nocrits","nodmgspread","uncletopia"],"game_id":440,"stv_port":27016,"stv_name":"Uncletopia | Los Angeles | 1 | All Maps | STV","players":null},{"server_id":112,"name":"Uncletopia | Los Angeles | 2 | All Maps","name_short":"lax-2","host":"lax-1.us.uncletopia.com","port":27025,"enabled":true,"region":"us-west","cc":"us","latitude":33.94279,"longitude":-118.41004,"reserved":0,"last_update":"0001-01-01T00:00:00Z","name_a2s":"Uncletopia | Los Angeles | 2 | All Maps","protocol":17,"map":"cp_mountainlab","folder":"tf","game":"Team Fortress","app_id":440,"player_count":0,"max_players":24,"Bots":0,"server_type":"Dedicated","server_os":"Linux","password":true,"vac":true,"version":"7757534","steam_id":85568392924469992,"keywords":["cp","nocrits","nodmgspread","uncletopia"],"game_id":440,"stv_port":27026,"stv_name":"Uncletopia | Los Angeles | 2 | All Maps | STV","players":null},{"server_id":324,"name":"Uncletopia | Los Angeles | 3 | All Maps","name_short":"lax-3","host":"lax-1.us.uncletopia.com","port":27035,"enabled":true,"region":"us-west","cc":"us","latitude":33.94279,"longitude":-118.41004,"reserved":0,"last_update":"0001-01-01T00:00:00Z","name_a2s":"Uncletopia | Los Angeles | 3 | All Maps","protocol":17,"map":"cp_snakewater_final1","folder":"tf","game":"Team Fortress","app_id":440,"player_count":0,"max_players":24,"Bots":0,"server_type":"Dedicated","server_os":"Linux","password":true,"vac":true,"version":"7757534","steam_id":85568392924510198,"keywords":["cp","nocrits","nodmgspread","uncletopia"],"game_id":440,"stv_port":27036,"stv_name":"Uncletopia | Los Angeles | 3 | All Maps | STV","players":null},{"server_id":25,"name":"Uncletopia | Los Angeles | 4 | Stopwatch Beta","name_short":"lax-4","host":"lax-1.us.uncletopia.com","port":27045,"enabled":true,"region":"us-west","cc":"us","latitude":33.94279,"longitude":-118.41004,"reserved":0,"last_update":"0001-01-01T00:00:00Z","name_a2s":"Uncletopia | Los Angeles | 4 | Stopwatch Beta","protocol":17,"map":"koth_viaduct","folder":"tf","game":"Team Fortress","app_id":440,"player_count":0,"max_players":24,"Bots":0,"server_type":"Dedicated","server_os":"Linux","password":true,"vac":true,"version":"7757534","steam_id":85568392924510199,"keywords":["cp","nocrits","nodmgspread","uncletopia"],"game_id":440,"stv_port":27046,"stv_name":"Uncletopia | Los Angeles | 4 | Stopwatch Beta | STV","players":null},{"server_id":11,"name":"Uncletopia | London | 1 | All Maps","name_short":"lon-1","host":"lon-1.uk.uncletopia.com","port":27015,"enabled":true,"region":"eu","cc":"gb","latitude":51.509865,"longitude":-0.118092,"reserved":0,"last_update":"0001-01-01T00:00:00Z","name_a2s":"Uncletopia | London | 1 | All Maps","protocol":17,"map":"cp_mountainlab","folder":"tf","game":"Team Fortress","app_id":440,"player_count":24,"max_players":24,"Bots":0,"server_type":"Dedicated","server_os":"Linux","password":true,"vac":true,"version":"7757534","steam_id":85568392924367362,"keywords":["cp","nocrits","nodmgspread","uncletopia"],"game_id":440,"stv_port":27016,"stv_name":"Uncletopia | London | 1 | All Maps | STV","players":[{"user_id":573,"name":"ciliorkun18","steam_id":76561198228942500,"connected_time":464000000000,"state":"active","ping":90},{"user_id":569,"name":"RiX","steam_id":76561197969053733,"connected_time":578000000000,"state":"active","ping":53},{"user_id":562,"name":"ReVerb","steam_id":76561198024949870,"connected_time":961000000000,"state":"active","ping":44},{"user_id":578,"name":"Mackerel","steam_id":76561197980088396,"connected_time":54000000000,"state":"active","ping":55},{"user_id":533,"name":"Clitorina","steam_id":76561198077570815,"connected_time":2239000000000,"state":"active","ping":44},{"user_id":560,"name":"mr gaming","steam_id":76561198110103308,"connected_time":1404000000000,"state":"active","ping":45},{"user_id":563,"name":"Sandshee","steam_id":76561198088574666,"connected_time":737000000000,"state":"active","ping":31},{"user_id":557,"name":"Aash","steam_id":76561198041530759,"connected_time":1438000000000,"state":"active","ping":51},{"user_id":567,"name":"ow","steam_id":76561198070319813,"connected_time":638000000000,"state":"active","ping":116},{"user_id":568,"name":"not drunk","steam_id":76561199184873889,"connected_time":593000000000,"state":"active","ping":65},{"user_id":570,"name":"Yassine","steam_id":76561198140565712,"connected_time":560000000000,"state":"active","ping":50},{"user_id":543,"name":"Raldow","steam_id":76561198021389301,"connected_time":1909000000000,"state":"active","ping":59},{"user_id":553,"name":"Dingus","steam_id":76561198140514058,"connected_time":1579000000000,"state":"active","ping":39},{"user_id":545,"name":"seen","steam_id":76561198839649795,"connected_time":1872000000000,"state":"active","ping":70},{"user_id":576,"name":"zoinks!","steam_id":76561198068645362,"connected_time":202000000000,"state":"active","ping":71},{"user_id":575,"name":"willo","steam_id":76561198034442999,"connected_time":310000000000,"state":"active","ping":60},{"user_id":558,"name":"Mista LilJimmy","steam_id":76561198130497549,"connected_time":1420000000000,"state":"active","ping":55},{"user_id":548,"name":"Pilorcio","steam_id":76561198036862688,"connected_time":1791000000000,"state":"active","ping":83},{"user_id":561,"name":"Jedi doggo","steam_id":76561198360026202,"connected_time":1255000000000,"state":"active","ping":78},{"user_id":512,"name":"Penis Contortionist","steam_id":76561198073663784,"connected_time":4839000000000,"state":"active","ping":33},{"user_id":574,"name":"Badonkey Kong","steam_id":76561198147943298,"connected_time":422000000000,"state":"active","ping":145},{"user_id":551,"name":"Daud","steam_id":76561199177668753,"connected_time":1733000000000,"state":"active","ping":37},{"user_id":577,"name":"DropShot","steam_id":76561198042476724,"connected_time":202000000000,"state":"active","ping":73},{"user_id":498,"name":"Irbynx","steam_id":76561197980421195,"connected_time":5432000000000,"state":"active","ping":90}]},{"server_id":114,"name":"Uncletopia | London | 2 | All Maps","name_short":"lon-2","host":"lon-1.uk.uncletopia.com","port":27025,"enabled":true,"region":"eu","cc":"gb","latitude":51.509865,"longitude":-0.118092,"reserved":0,"last_update":"0001-01-01T00:00:00Z","name_a2s":"Uncletopia | London | 2 | All Maps","protocol":17,"map":"pl_snowycoast","folder":"tf","game":"Team Fortress","app_id":440,"player_count":24,"max_players":24,"Bots":0,"server_type":"Dedicated","server_os":"Linux","password":true,"vac":true,"version":"7757534","steam_id":85568392924470941,"keywords":["nocrits","nodmgspread","payload","uncletopia"],"game_id":440,"stv_port":27026,"stv_name":"Uncletopia | London | 2 | All Maps | STV","players":[{"user_id":154,"name":"Thesis","steam_id":76561199308784371,"connected_time":79000000000,"state":"active","ping":63},{"user_id":118,"name":"Mankor","steam_id":76561198020439322,"connected_time":1763000000000,"state":"active","ping":58},{"user_id":99,"name":"Hilldog","steam_id":76561198082209322,"connected_time":2767000000000,"state":"active","ping":91},{"user_id":121,"name":"X45Y","steam_id":76561198112534025,"connected_time":1717000000000,"state":"active","ping":47},{"user_id":144,"name":"GMsU | Rebikas","steam_id":76561198077053764,"connected_time":680000000000,"state":"active","ping":54},{"user_id":151,"name":"Blastrock64","steam_id":76561199008932704,"connected_time":504000000000,"state":"active","ping":74},{"user_id":95,"name":"CommanderX","steam_id":76561197991425069,"connected_time":2916000000000,"state":"active","ping":48},{"user_id":131,"name":"Thors","steam_id":76561197968739075,"connected_time":1432000000000,"state":"active","ping":45},{"user_id":117,"name":"- 84n4n3n8r07 -","steam_id":76561198047887705,"connected_time":2042000000000,"state":"active","ping":62},{"user_id":145,"name":"FairlyFatFungus","steam_id":76561199152828854,"connected_time":671000000000,"state":"active","ping":59},{"user_id":102,"name":":)","steam_id":76561198039964082,"connected_time":2706000000000,"state":"active","ping":66},{"user_id":153,"name":"Johnny Cockroach","steam_id":76561198049648277,"connected_time":363000000000,"state":"active","ping":129},{"user_id":139,"name":"CEO of Pen Island","steam_id":76561198037212191,"connected_time":1015000000000,"state":"active","ping":69},{"user_id":141,"name":"Frogza","steam_id":76561198083844460,"connected_time":982000000000,"state":"active","ping":44},{"user_id":128,"name":"фурримальчик","steam_id":76561199433913089,"connected_time":1464000000000,"state":"active","ping":94},{"user_id":52,"name":"Lewylow","steam_id":76561198005425686,"connected_time":5697000000000,"state":"active","ping":52},{"user_id":127,"name":"AleXandriX","steam_id":76561198035203950,"connected_time":1502000000000,"state":"active","ping":71},{"user_id":115,"name":"alex47ka","steam_id":76561198117847251,"connected_time":2209000000000,"state":"active","ping":77},{"user_id":136,"name":"f l я n","steam_id":76561198079595755,"connected_time":1232000000000,"state":"active","ping":57},{"user_id":149,"name":"Buckminsterfullerene","steam_id":76561198218076629,"connected_time":627000000000,"state":"active","ping":65},{"user_id":150,"name":"Аdаmy","steam_id":76561198059932441,"connected_time":625000000000,"state":"active","ping":61},{"user_id":105,"name":"willyball$ack","steam_id":76561198002519060,"connected_time":2633000000000,"state":"active","ping":89},{"user_id":152,"name":"Ken$hi","steam_id":76561199433994281,"connected_time":432000000000,"state":"active","ping":57},{"user_id":142,"name":"Slomlol","steam_id":76561198208747007,"connected_time":978000000000,"state":"active","ping":60}]},{"server_id":320,"name":"Uncletopia | London | 3 | All Maps","name_short":"lon-3","host":"lon-1.uk.uncletopia.com","port":27035,"enabled":true,"region":"eu","cc":"gb","latitude":51.509865,"longitude":-0.118092,"reserved":0,"last_update":"0001-01-01T00:00:00Z","name_a2s":"Uncletopia | London | 3 | All Maps","protocol":17,"map":"koth_highpass","folder":"tf","game":"Team Fortress","app_id":440,"player_count":0,"max_players":24,"Bots":0,"server_type":"Dedicated","server_os":"Linux","password":true,"vac":true,"version":"7757534","steam_id":85568392924510192,"keywords":["cp","nocrits","nodmgspread","uncletopia"],"game_id":440,"stv_port":27036,"stv_name":"Uncletopia | London | 3 | All Maps | STV","players":null},{"server_id":321,"name":"Uncletopia | London | 4 | All Maps","name_short":"lon-4","host":"lon-1.uk.uncletopia.com","port":27045,"enabled":true,"region":"eu","cc":"gb","latitude":51.509865,"longitude":-0.118092,"reserved":0,"last_update":"0001-01-01T00:00:00Z","name_a2s":"Uncletopia | London | 4 | All Maps","protocol":17,"map":"pl_snowycoast","folder":"tf","game":"Team Fortress","app_id":440,"player_count":24,"max_players":24,"Bots":0,"server_type":"Dedicated","server_os":"Linux","password":true,"vac":true,"version":"7757534","steam_id":85568392924510193,"keywords":["nocrits","nodmgspread","payload","uncletopia"],"game_id":440,"stv_port":27046,"stv_name":"Uncletopia | London | 4 | All Maps | STV","players":[{"user_id":286,"name":"Anus Stretcher","steam_id":76561198028304695,"connected_time":532000000000,"state":"active","ping":61},{"user_id":257,"name":"Bob Zuga","steam_id":76561198037800176,"connected_time":1812000000000,"state":"active","ping":75},{"user_id":287,"name":"Floppa The Slav","steam_id":76561199388080503,"connected_time":530000000000,"state":"active","ping":66},{"user_id":259,"name":"THE HORROR","steam_id":76561198162446976,"connected_time":1641000000000,"state":"active","ping":46},{"user_id":288,"name":"󠁳⁧⁧ Bikko","steam_id":76561198349387153,"connected_time":511000000000,"state":"active","ping":72},{"user_id":265,"name":"TSx* Osa__PL","steam_id":76561198027016799,"connected_time":1004000000000,"state":"active","ping":76},{"user_id":266,"name":"TSx* Dante","steam_id":76561198139309331,"connected_time":1000000000000,"state":"active","ping":70},{"user_id":267,"name":"TSx* Naxer","steam_id":76561198011986779,"connected_time":999000000000,"state":"active","ping":75},{"user_id":289,"name":"chubbyhighroller","steam_id":76561198182068807,"connected_time":472000000000,"state":"active","ping":149},{"user_id":269,"name":"Ghost Rider","steam_id":76561198385332122,"connected_time":963000000000,"state":"active","ping":112},{"user_id":273,"name":"miro","steam_id":76561198196357213,"connected_time":906000000000,"state":"active","ping":90},{"user_id":290,"name":"minecrafter","steam_id":76561198797989834,"connected_time":462000000000,"state":"active","ping":48},{"user_id":272,"name":"J005KE","steam_id":76561198815127418,"connected_time":933000000000,"state":"active","ping":99},{"user_id":274,"name":"TSx* {Demon-Angel}","steam_id":76561198151486463,"connected_time":900000000000,"state":"active","ping":90},{"user_id":275,"name":"Gio","steam_id":76561198292052836,"connected_time":899000000000,"state":"active","ping":92},{"user_id":276,"name":"Thalgorock","steam_id":76561198195315022,"connected_time":876000000000,"state":"active","ping":73},{"user_id":291,"name":"pitu pik 黑鬼","steam_id":76561199067601948,"connected_time":407000000000,"state":"active","ping":94},{"user_id":278,"name":"Irdi","steam_id":76561198357322167,"connected_time":772000000000,"state":"active","ping":43},{"user_id":292,"name":"SoberOnion","steam_id":76561198987711995,"connected_time":392000000000,"state":"active","ping":93},{"user_id":293,"name":"Noob_with_source","steam_id":76561198870362103,"connected_time":382000000000,"state":"active","ping":60},{"user_id":294,"name":"gang weed studios","steam_id":76561199025084891,"connected_time":352000000000,"state":"active","ping":54},{"user_id":295,"name":"MEDiUM","steam_id":76561198112328561,"connected_time":328000000000,"state":"active","ping":88},{"user_id":297,"name":"My balls itch","steam_id":76561199121794613,"connected_time":315000000000,"state":"active","ping":87},{"user_id":298,"name":"Duke Fishlord","steam_id":76561198079928327,"connected_time":295000000000,"state":"active","ping":74}]},{"server_id":21,"name":"Uncletopia | London | 5 | All Maps","name_short":"lon-5","host":"lon-1.uk.uncletopia.com","port":27055,"enabled":true,"region":"eu","cc":"gb","latitude":51.509865,"longitude":-0.118092,"reserved":0,"last_update":"0001-01-01T00:00:00Z","name_a2s":"Uncletopia | London | 5 | All Maps","protocol":17,"map":"pl_barnblitz","folder":"tf","game":"Team Fortress","app_id":440,"player_count":24,"max_players":24,"Bots":0,"server_type":"Dedicated","server_os":"Linux","password":true,"vac":true,"version":"7757534","steam_id":85568392924742829,"keywords":["nocrits","nodmgspread","payload","uncletopia"],"game_id":440,"stv_port":27056,"stv_name":"Uncletopia | London | 5 | All Maps | STV","players":[{"user_id":273,"name":"Grizz","steam_id":76561198171010107,"connected_time":598000000000,"state":"active","ping":57},{"user_id":227,"name":"Hitsujikai","steam_id":76561198202145268,"connected_time":3190000000000,"state":"active","ping":86},{"user_id":155,"name":"Zerfesh","steam_id":76561198117534358,"connected_time":8855000000000,"state":"active","ping":96},{"user_id":258,"name":"ᗜ˰ᗜ","steam_id":76561198148074472,"connected_time":1599000000000,"state":"active","ping":45},{"user_id":267,"name":"Bismarck","steam_id":76561198442873012,"connected_time":890000000000,"state":"active","ping":126},{"user_id":274,"name":"coldwar121947","steam_id":76561199387219377,"connected_time":535000000000,"state":"active","ping":118},{"user_id":252,"name":"baro.ricky","steam_id":76561198172204039,"connected_time":1869000000000,"state":"active","ping":83},{"user_id":281,"name":"Fat Bloke","steam_id":76561199101664674,"connected_time":163000000000,"state":"active","ping":68},{"user_id":276,"name":"kilikia","steam_id":76561198350261670,"connected_time":507000000000,"state":"active","ping":101},{"user_id":277,"name":"GogsCrunchyNuts","steam_id":76561198150599213,"connected_time":498000000000,"state":"active","ping":90},{"user_id":278,"name":"mokkos","steam_id":76561198352462269,"connected_time":398000000000,"state":"active","ping":73},{"user_id":271,"name":"Célério","steam_id":76561198088253576,"connected_time":684000000000,"state":"active","ping":45},{"user_id":247,"name":"Mao Zedong","steam_id":76561198347020945,"connected_time":2209000000000,"state":"active","ping":90},{"user_id":245,"name":"bloons tower defense 6","steam_id":76561198281682473,"connected_time":2336000000000,"state":"active","ping":128},{"user_id":261,"name":"Miton","steam_id":76561197970323209,"connected_time":1427000000000,"state":"active","ping":90},{"user_id":279,"name":"Madetter_","steam_id":76561198067838929,"connected_time":379000000000,"state":"active","ping":111},{"user_id":280,"name":"saiboT","steam_id":76561198300404049,"connected_time":370000000000,"state":"active","ping":59},{"user_id":202,"name":"K.V. #RemoveRandomCrits","steam_id":76561197994832993,"connected_time":5316000000000,"state":"active","ping":93},{"user_id":256,"name":"Cunk","steam_id":76561198996618201,"connected_time":1759000000000,"state":"active","ping":59},{"user_id":264,"name":"Rodia","steam_id":76561197968293161,"connected_time":1039000000000,"state":"active","ping":74},{"user_id":222,"name":"Papa John's Pepperoni Pizza","steam_id":76561198078844080,"connected_time":3850000000000,"state":"active","ping":83},{"user_id":260,"name":"sugar.muffin22","steam_id":76561198147277460,"connected_time":1569000000000,"state":"active","ping":62},{"user_id":270,"name":"joachym","steam_id":76561198428579761,"connected_time":825000000000,"state":"active","ping":76},{"user_id":283,"name":"BRIDGEBURNER420","steam_id":76561198183949987,"connected_time":34000000000,"state":"active","ping":58}]},{"server_id":22,"name":"Uncletopia | London | 6 | All Maps","name_short":"lon-6","host":"lon-1.uk.uncletopia.com","port":27065,"enabled":true,"region":"eu","cc":"gb","latitude":51.509865,"longitude":-0.118092,"reserved":0,"last_update":"0001-01-01T00:00:00Z","name_a2s":"Uncletopia | London | 6 | All Maps","protocol":17,"map":"pl_snowycoast","folder":"tf","game":"Team Fortress","app_id":440,"player_count":0,"max_players":24,"Bots":0,"server_type":"Dedicated","server_os":"Linux","password":true,"vac":true,"version":"7757534","steam_id":85568392924742830,"keywords":["nocrits","nodmgspread","payload","uncletopia"],"game_id":440,"stv_port":27066,"stv_name":"Uncletopia | London | 6 | All Maps | STV","players":null},{"server_id":40,"name":"Uncletopia | London | 7 | No Payload","name_short":"lon-7","host":"lon-1.uk.uncletopia.com","port":27075,"enabled":true,"region":"eu","cc":"gb","latitude":51.509865,"longitude":-0.118092,"reserved":0,"last_update":"0001-01-01T00:00:00Z","name_a2s":"Uncletopia | London | 7 | No Payload","protocol":17,"map":"koth_harvest_final","folder":"tf","game":"Team Fortress","app_id":440,"player_count":8,"max_players":24,"Bots":0,"server_type":"Dedicated","server_os":"Linux","password":true,"vac":true,"version":"7757534","steam_id":85568392924964314,"keywords":["cp","nocrits","nodmgspread","uncletopia"],"game_id":440,"stv_port":27076,"stv_name":"Uncletopia | London | 7 | No Payload | STV","players":[{"user_id":11,"name":"Pinkchup","steam_id":76561198106802803,"connected_time":2119000000000,"state":"active","ping":76},{"user_id":12,"name":"Minimi","steam_id":76561198873850443,"connected_time":2110000000000,"state":"active","ping":44},{"user_id":17,"name":"shinji crank that soulja boy","steam_id":76561198099696876,"connected_time":242000000000,"state":"active","ping":66},{"user_id":16,"name":"Rexicoder","steam_id":76561198123000431,"connected_time":287000000000,"state":"active","ping":65},{"user_id":18,"name":"Kahvi","steam_id":76561198723244199,"connected_time":193000000000,"state":"active","ping":75},{"user_id":19,"name":"T1 (ted1)","steam_id":76561199229022826,"connected_time":74000000000,"state":"active","ping":101},{"user_id":20,"name":"TV12Lime","steam_id":76561199036195384,"connected_time":67000000000,"state":"active","ping":148},{"user_id":21,"name":"Popoy101","steam_id":76561199068763122,"connected_time":51000000000,"state":"active","ping":73}]},{"server_id":41,"name":"Uncletopia | London | 8 | Community","name_short":"lon-8","host":"lon-1.uk.uncletopia.com","port":27085,"enabled":true,"region":"eu","cc":"gb","latitude":51.509865,"longitude":-0.118092,"reserved":0,"last_update":"0001-01-01T00:00:00Z","name_a2s":"Uncletopia | London | 8 | Community","protocol":17,"map":"workshop/koth_product_final.ugc454272353","folder":"tf","game":"Team Fortress","app_id":440,"player_count":4,"max_players":24,"Bots":0,"server_type":"Dedicated","server_os":"Linux","password":true,"vac":true,"version":"7757534","steam_id":85568392924964315,"keywords":["cp","nocrits","nodmgspread","uncletopia"],"game_id":440,"stv_port":27086,"stv_name":"Uncletopia | London | 8 | Community | STV","players":[{"user_id":6,"name":"Wojowniczek.pl","steam_id":76561199228645329,"connected_time":1008000000000,"state":"active","ping":113},{"user_id":7,"name":"DominikDob12","steam_id":76561199116536199,"connected_time":1001000000000,"state":"active","ping":97},{"user_id":9,"name":"Fat Pigeon","steam_id":76561198817940142,"connected_time":491000000000,"state":"active","ping":45},{"user_id":11,"name":"lem0nadina","steam_id":76561198427611007,"connected_time":224000000000,"state":"active","ping":82}]},{"server_id":300,"name":"Uncletopia | Montréal | 1 | All Maps","name_short":"mtl-1","host":"mtl-1.ca.uncletopia.com","port":27015,"enabled":true,"region":"us-east","cc":"ca","latitude":45.50889,"longitude":-73.56167,"reserved":0,"last_update":"0001-01-01T00:00:00Z","name_a2s":"Uncletopia | Montréal | 1 | All Maps","protocol":17,"map":"koth_cascade","folder":"tf","game":"Team Fortress","app_id":440,"player_count":0,"max_players":24,"Bots":0,"server_type":"Dedicated","server_os":"Linux","password":true,"vac":true,"version":"7757534","steam_id":85568392924500087,"keywords":["cp","nocrits","nodmgspread","uncletopia"],"game_id":440,"stv_port":27016,"stv_name":"Uncletopia | Montréal | 1 | All Maps | STV","players":null},{"server_id":301,"name":"Uncletopia | Montréal | 2 | All Maps","name_short":"mtl-2","host":"mtl-1.ca.uncletopia.com","port":27025,"enabled":true,"region":"us-east","cc":"ca","latitude":45.50889,"longitude":-73.56167,"reserved":0,"last_update":"0001-01-01T00:00:00Z","name_a2s":"Uncletopia | Montréal | 2 | All Maps","protocol":17,"map":"pl_borneo","folder":"tf","game":"Team Fortress","app_id":440,"player_count":0,"max_players":24,"Bots":0,"server_type":"Dedicated","server_os":"Linux","password":true,"vac":true,"version":"7757534","steam_id":85568392924500088,"keywords":["nocrits","nodmgspread","payload","uncletopia"],"game_id":440,"stv_port":27026,"stv_name":"Uncletopia | Montréal | 2 | All Maps | STV","players":null},{"server_id":302,"name":"Uncletopia | Montréal | 3 | All Maps","name_short":"mtl-3","host":"mtl-1.ca.uncletopia.com","port":27035,"enabled":true,"region":"us-east","cc":"ca","latitude":45.50889,"longitude":-73.56167,"reserved":0,"last_update":"0001-01-01T00:00:00Z","name_a2s":"Uncletopia | Montréal | 3 | All Maps","protocol":17,"map":"cp_sunshine","folder":"tf","game":"Team Fortress","app_id":440,"player_count":0,"max_players":24,"Bots":0,"server_type":"Dedicated","server_os":"Linux","password":true,"vac":true,"version":"7757534","steam_id":85568392924500089,"keywords":["cp","nocrits","nodmgspread","uncletopia"],"game_id":440,"stv_port":27036,"stv_name":"Uncletopia | Montréal | 3 | All Maps | STV","players":null},{"server_id":303,"name":"Uncletopia | Montréal | 4 | No Payload","name_short":"mtl-4","host":"mtl-1.ca.uncletopia.com","port":27045,"enabled":true,"region":"us-east","cc":"ca","latitude":45.50889,"longitude":-73.56167,"reserved":0,"last_update":"0001-01-01T00:00:00Z","name_a2s":"Uncletopia | Montréal | 4 | No Payload","protocol":17,"map":"koth_lakeside_final","folder":"tf","game":"Team Fortress","app_id":440,"player_count":0,"max_players":24,"Bots":0,"server_type":"Dedicated","server_os":"Linux","password":true,"vac":true,"version":"7757534","steam_id":85568392924500090,"keywords":["cp","nocrits","nodmgspread","uncletopia"],"game_id":440,"stv_port":27046,"stv_name":"Uncletopia | Montréal | 4 | No Payload | STV","players":null},{"server_id":13,"name":"Uncletopia | New York City | 1 | All Maps","name_short":"nyc-1","host":"nyc-1.us.uncletopia.com","port":27015,"enabled":true,"region":"us-east","cc":"us","latitude":40.73061,"longitude":-73.93524,"reserved":0,"last_update":"0001-01-01T00:00:00Z","name_a2s":"Uncletopia | New York City | 1 | All Maps","protocol":17,"map":"cp_sunshine","folder":"tf","game":"Team Fortress","app_id":440,"player_count":24,"max_players":24,"Bots":0,"server_type":"Dedicated","server_os":"Linux","password":true,"vac":true,"version":"7757534","steam_id":85568392924469993,"keywords":["cp","nocrits","nodmgspread","uncletopia"],"game_id":440,"stv_port":27016,"stv_name":"Uncletopia | New York City | 1 | All Maps | STV","players":[{"user_id":161,"name":"ElBentz","steam_id":76561199059582221,"connected_time":483000000000,"state":"active","ping":125},{"user_id":125,"name":"Flyingmeadow","steam_id":76561198144687723,"connected_time":2747000000000,"state":"active","ping":57},{"user_id":115,"name":"BeKnown","steam_id":76561198344338970,"connected_time":3286000000000,"state":"active","ping":121},{"user_id":127,"name":"tasty","steam_id":76561198083839061,"connected_time":2682000000000,"state":"active","ping":60},{"user_id":169,"name":"joyeuxnoelle","steam_id":76561198062423120,"connected_time":38000000000,"state":"spawning","ping":45},{"user_id":164,"name":"RoseRadical","steam_id":76561197999984320,"connected_time":448000000000,"state":"active","ping":64},{"user_id":156,"name":"nolife","steam_id":76561198414300607,"connected_time":645000000000,"state":"active","ping":127},{"user_id":143,"name":"Nic0","steam_id":76561198305690218,"connected_time":1452000000000,"state":"active","ping":55},{"user_id":166,"name":"BLU1 l Epifiny","steam_id":76561198027958086,"connected_time":250000000000,"state":"active","ping":77},{"user_id":151,"name":"blademiss","steam_id":76561198062083019,"connected_time":710000000000,"state":"active","ping":110},{"user_id":117,"name":"HazmatH","steam_id":76561199003107869,"connected_time":3146000000000,"state":"active","ping":110},{"user_id":152,"name":"bobdragon27","steam_id":76561198065833387,"connected_time":703000000000,"state":"active","ping":44},{"user_id":153,"name":"name420","steam_id":76561198129374525,"connected_time":695000000000,"state":"active","ping":74},{"user_id":167,"name":"im going to kill you","steam_id":76561198117148323,"connected_time":241000000000,"state":"active","ping":57},{"user_id":118,"name":"MONKEY EEE OOO","steam_id":76561198009409744,"connected_time":3133000000000,"state":"active","ping":42},{"user_id":147,"name":"uVeins","steam_id":76561198067445528,"connected_time":746000000000,"state":"active","ping":54},{"user_id":155,"name":"Bart Harley Jarvis","steam_id":76561199215811448,"connected_time":673000000000,"state":"active","ping":75},{"user_id":128,"name":"MoisDM","steam_id":76561198164610169,"connected_time":2609000000000,"state":"active","ping":135},{"user_id":158,"name":"unc out here trippin","steam_id":76561198055557988,"connected_time":602000000000,"state":"active","ping":87},{"user_id":159,"name":"coatch gamign (*ᴗ͈ˬᴗ͈)\ufffd\ufffd","steam_id":76561198060886742,"connected_time":583000000000,"state":"active","ping":57},{"user_id":145,"name":"Psychosis","steam_id":76561198078659070,"connected_time":1311000000000,"state":"active","ping":73},{"user_id":134,"name":"Dong-A-Tron 27.0","steam_id":76561198082202698,"connected_time":2310000000000,"state":"active","ping":55},{"user_id":163,"name":"Metna ☁","steam_id":76561198092381079,"connected_time":457000000000,"state":"active","ping":73},{"user_id":168,"name":"Aunty Frazzle","steam_id":76561198145596626,"connected_time":236000000000,"state":"active","ping":130}]},{"server_id":14,"name":"Uncletopia | New York City | 2 | All Maps","name_short":"nyc-2","host":"nyc-1.us.uncletopia.com","port":27025,"enabled":true,"region":"us-east","cc":"us","latitude":40.73061,"longitude":-73.93524,"reserved":0,"last_update":"0001-01-01T00:00:00Z","name_a2s":"Uncletopia | New York City | 2 | All Maps","protocol":17,"map":"pl_snowycoast","folder":"tf","game":"Team Fortress","app_id":440,"player_count":0,"max_players":24,"Bots":0,"server_type":"Dedicated","server_os":"Linux","password":true,"vac":true,"version":"7757534","steam_id":85568392924469994,"keywords":["nocrits","nodmgspread","payload","uncletopia"],"game_id":440,"stv_port":27026,"stv_name":"Uncletopia | New York City | 2 | All Maps | STV","players":null},{"server_id":15,"name":"Uncletopia | New York City | 3 | Stopwatch Beta","name_short":"nyc-3","host":"nyc-1.us.uncletopia.com","port":27035,"enabled":true,"region":"us-east","cc":"us","latitude":40.73061,"longitude":-73.93524,"reserved":0,"last_update":"0001-01-01T00:00:00Z","name_a2s":"Uncletopia | New York City | 3 | Stopwatch Beta","protocol":17,"map":"workshop/koth_clearcut_b15.ugc2107050255","folder":"tf","game":"Team Fortress","app_id":440,"player_count":1,"max_players":24,"Bots":0,"server_type":"Dedicated","server_os":"Linux","password":true,"vac":true,"version":"7757534","steam_id":85568392924742820,"keywords":["cp","nocrits","nodmgspread","uncletopia"],"game_id":440,"stv_port":27036,"stv_name":"Uncletopia | New York City | 3 | Stopwatch Beta | STV","players":[{"user_id":3,"name":"FreonAddict9x19","steam_id":76561198060010824,"connected_time":88000000000,"state":"active","ping":97}]},{"server_id":16,"name":"Uncletopia | New York City | 4 | Community","name_short":"nyc-4","host":"nyc-1.us.uncletopia.com","port":27045,"enabled":true,"region":"us-east","cc":"us","latitude":40.73061,"longitude":-73.93524,"reserved":0,"last_update":"0001-01-01T00:00:00Z","name_a2s":"Uncletopia | New York City | 4 | Community","protocol":17,"map":"pl_borneo","folder":"tf","game":"Team Fortress","app_id":440,"player_count":0,"max_players":24,"Bots":0,"server_type":"Dedicated","server_os":"Linux","password":true,"vac":true,"version":"7757534","steam_id":85568392924742821,"keywords":["nocrits","nodmgspread","payload","uncletopia"],"game_id":440,"stv_port":27046,"stv_name":"Uncletopia | New York City | 4 | Community | STV","players":null},{"server_id":142,"name":"Uncletopia | São Paulo | 1 | All Maps","name_short":"sao-1","host":"sao-1.br.uncletopia.com","port":27015,"enabled":true,"region":"sa","cc":"br","latitude":-23.533773,"longitude":-46.62529,"reserved":0,"last_update":"0001-01-01T00:00:00Z","name_a2s":"Uncletopia | São Paulo | 1 | All Maps","protocol":17,"map":"cp_altitude","folder":"tf","game":"Team Fortress","app_id":440,"player_count":0,"max_players":24,"Bots":0,"server_type":"Dedicated","server_os":"Linux","password":true,"vac":true,"version":"7757534","steam_id":85568392924469996,"keywords":["cp","nocrits","nodmgspread","uncletopia"],"game_id":440,"stv_port":27016,"stv_name":"Uncletopia | São Paulo | 1 | All Maps | STV","players":null},{"server_id":143,"name":"Uncletopia | São Paulo | 2 | All Maps","name_short":"sao-2","host":"sao-2.br.uncletopia.com","port":27015,"enabled":true,"region":"sa","cc":"br","latitude":-23.533773,"longitude":-46.62529,"reserved":0,"last_update":"0001-01-01T00:00:00Z","name_a2s":"Uncletopia | São Paulo | 2 | All Maps","protocol":17,"map":"pl_badwater","folder":"tf","game":"Team Fortress","app_id":440,"player_count":20,"max_players":24,"Bots":0,"server_type":"Dedicated","server_os":"Linux","password":true,"vac":true,"version":"7757534","steam_id":85568392924485349,"keywords":["nocrits","nodmgspread","payload","uncletopia"],"game_id":440,"stv_port":27016,"stv_name":"Uncletopia | São Paulo | 2 | All Maps | STV","players":[{"user_id":124,"name":"TV AOC 52 polegadas","steam_id":76561199149219569,"connected_time":583000000000,"state":"active","ping":38},{"user_id":125,"name":"LaMira","steam_id":76561198965538287,"connected_time":401000000000,"state":"active","ping":49},{"user_id":126,"name":"sleepy","steam_id":76561198032697387,"connected_time":349000000000,"state":"active","ping":30},{"user_id":109,"name":"사랑해요 새끼 고양이","steam_id":76561197960679316,"connected_time":1678000000000,"state":"active","ping":76},{"user_id":96,"name":"jr_rusty","steam_id":76561198313937899,"connected_time":2663000000000,"state":"active","ping":49},{"user_id":101,"name":"Felina♥","steam_id":76561198811097127,"connected_time":2061000000000,"state":"active","ping":70},{"user_id":127,"name":"'moNo","steam_id":76561198839260614,"connected_time":325000000000,"state":"active","ping":65},{"user_id":128,"name":"mineblast99","steam_id":76561199065648954,"connected_time":220000000000,"state":"active","ping":165},{"user_id":129,"name":"Bostrash641","steam_id":76561199447225685,"connected_time":43000000000,"state":"active","ping":262},{"user_id":98,"name":"Egoistic Spy","steam_id":76561199294025748,"connected_time":2233000000000,"state":"active","ping":56},{"user_id":108,"name":"Duped Stickybomb Launcher","steam_id":76561198052570931,"connected_time":1709000000000,"state":"active","ping":95},{"user_id":70,"name":"n.","steam_id":76561198963738808,"connected_time":4552000000000,"state":"active","ping":45},{"user_id":114,"name":"Pendrive","steam_id":76561199427354854,"connected_time":1418000000000,"state":"active","ping":57},{"user_id":131,"name":"hxtham","steam_id":76561198993169577,"connected_time":18000000000,"state":"spawning","ping":399},{"user_id":132,"name":"jamsya","steam_id":76561199064667453,"connected_time":9000000000,"state":"spawning","ping":265},{"user_id":119,"name":"lilmanbigtalk","steam_id":76561198847459548,"connected_time":1144000000000,"state":"active","ping":58},{"user_id":117,"name":"SciFi17","steam_id":76561198294394078,"connected_time":1321000000000,"state":"active","ping":83},{"user_id":120,"name":"𝐀𝐫𝐜𝐡𝐢_","steam_id":76561198895061602,"connected_time":1085000000000,"state":"active","ping":110},{"user_id":122,"name":"terrorist from cs 1.6","steam_id":76561199097909603,"connected_time":1011000000000,"state":"active","ping":81},{"user_id":79,"name":"Braul","steam_id":76561198067738196,"connected_time":3881000000000,"state":"active","ping":98}]},{"server_id":7,"name":"Uncletopia | Seattle | 1 | All Maps","name_short":"sea-1","host":"sea-1.us.uncletopia.com","port":27015,"enabled":true,"region":"us-west","cc":"us","latitude":47.608013,"longitude":-122.33517,"reserved":0,"last_update":"0001-01-01T00:00:00Z","name_a2s":"Uncletopia | Seattle | 1 | All Maps","protocol":17,"map":"koth_lakeside_final","folder":"tf","game":"Team Fortress","app_id":440,"player_count":0,"max_players":24,"Bots":0,"server_type":"Dedicated","server_os":"Linux","password":true,"vac":true,"version":"7757534","steam_id":85568392924469997,"keywords":["cp","nocrits","nodmgspread","uncletopia"],"game_id":440,"stv_port":27016,"stv_name":"Uncletopia | Seattle | 1 | All Maps | STV","players":null},{"server_id":119,"name":"Uncletopia | Seattle | 2 | All Maps","name_short":"sea-2","host":"sea-1.us.uncletopia.com","port":27025,"enabled":true,"region":"us-west","cc":"us","latitude":47.608013,"longitude":-122.33517,"reserved":0,"last_update":"0001-01-01T00:00:00Z","name_a2s":"Uncletopia | Seattle | 2 | All Maps","protocol":17,"map":"koth_viaduct","folder":"tf","game":"Team Fortress","app_id":440,"player_count":0,"max_players":24,"Bots":0,"server_type":"Dedicated","server_os":"Linux","password":true,"vac":true,"version":"7757534","steam_id":85568392924469998,"keywords":["cp","nocrits","nodmgspread","uncletopia"],"game_id":440,"stv_port":27026,"stv_name":"Uncletopia | Seattle | 2 | All Maps | STV","players":null},{"server_id":406,"name":"Uncletopia | Seattle | 3 | Stopwatch Beta","name_short":"sea-3","host":"sea-1.us.uncletopia.com","port":27035,"enabled":true,"region":"us-west","cc":"us","latitude":47.608013,"longitude":-122.33517,"reserved":0,"last_update":"0001-01-01T00:00:00Z","name_a2s":"Uncletopia | Seattle | 3 | Stopwatch Beta","protocol":17,"map":"cp_sunshine","folder":"tf","game":"Team Fortress","app_id":440,"player_count":0,"max_players":24,"Bots":0,"server_type":"Dedicated","server_os":"Linux","password":true,"vac":true,"version":"7757534","steam_id":85568392924515217,"keywords":["cp","nocrits","nodmgspread","uncletopia"],"game_id":440,"stv_port":27036,"stv_name":"Uncletopia | Seattle | 3 | Stopwatch Beta | STV","players":null},{"server_id":17,"name":"Uncletopia | San Francisco | 1 | All Maps","name_short":"sfo-1","host":"sfo-1.us.uncletopia.com","port":27015,"enabled":true,"region":"us-west","cc":"us","latitude":37.77397,"longitude":-122.4313,"reserved":0,"last_update":"0001-01-01T00:00:00Z","name_a2s":"Uncletopia | San Francisco | 1 | All Maps","protocol":17,"map":"cp_snakewater_final1","folder":"tf","game":"Team Fortress","app_id":440,"player_count":0,"max_players":24,"Bots":0,"server_type":"Dedicated","server_os":"Linux","password":true,"vac":true,"version":"7757534","steam_id":85568392924469999,"keywords":["cp","nocrits","nodmgspread","uncletopia"],"game_id":440,"stv_port":27016,"stv_name":"Uncletopia | San Francisco | 1 | All Maps | STV","players":null},{"server_id":18,"name":"Uncletopia | San Francisco | 2 | All Maps","name_short":"sfo-2","host":"sfo-1.us.uncletopia.com","port":27025,"enabled":true,"region":"us-west","cc":"us","latitude":37.77397,"longitude":-122.4313,"reserved":0,"last_update":"0001-01-01T00:00:00Z","name_a2s":"Uncletopia | San Francisco | 2 | All Maps","protocol":17,"map":"cp_mountainlab","folder":"tf","game":"Team Fortress","app_id":440,"player_count":0,"max_players":24,"Bots":0,"server_type":"Dedicated","server_os":"Linux","password":true,"vac":true,"version":"7757534","steam_id":85568392924470000,"keywords":["cp","nocrits","nodmgspread","uncletopia"],"game_id":440,"stv_port":27026,"stv_name":"Uncletopia | San Francisco | 2 | All Maps | STV","players":null},{"server_id":19,"name":"Uncletopia | San Francisco | 3 | Stopwatch Beta","name_short":"sfo-3","host":"sfo-1.us.uncletopia.com","port":27035,"enabled":true,"region":"us-west","cc":"us","latitude":37.77397,"longitude":-122.4313,"reserved":0,"last_update":"0001-01-01T00:00:00Z","name_a2s":"Uncletopia | San Francisco | 3 | Stopwatch Beta","protocol":17,"map":"koth_viaduct","folder":"tf","game":"Team Fortress","app_id":440,"player_count":0,"max_players":24,"Bots":0,"server_type":"Dedicated","server_os":"Linux","password":true,"vac":true,"version":"7757534","steam_id":85568392924742824,"keywords":["cp","nocrits","nodmgspread","uncletopia"],"game_id":440,"stv_port":27036,"stv_name":"Uncletopia | San Francisco | 3 | Stopwatch Beta | STV","players":null},{"server_id":20,"name":"Uncletopia | San Francisco | 4 | Community","name_short":"sfo-4","host":"sfo-1.us.uncletopia.com","port":27045,"enabled":true,"region":"us-west","cc":"us","latitude":37.77397,"longitude":-122.4313,"reserved":0,"last_update":"0001-01-01T00:00:00Z","name_a2s":"Uncletopia | San Francisco | 4 | Community","protocol":17,"map":"pl_borneo","folder":"tf","game":"Team Fortress","app_id":440,"player_count":0,"max_players":24,"Bots":0,"server_type":"Dedicated","server_os":"Linux","password":true,"vac":true,"version":"7757534","steam_id":85568392924742826,"keywords":["nocrits","nodmgspread","payload","uncletopia"],"game_id":440,"stv_port":27046,"stv_name":"Uncletopia | San Francisco | 4 | Community | STV","players":null},{"server_id":141,"name":"Uncletopia | Sydney | 1 | All Maps","name_short":"syd-1","host":"syd-1.au.uncletopia.com","port":27015,"enabled":true,"region":"au","cc":"au","latitude":-33.865143,"longitude":151.2099,"reserved":0,"last_update":"0001-01-01T00:00:00Z","name_a2s":"Uncletopia | Sydney | 1 | All Maps","protocol":17,"map":"koth_cascade","folder":"tf","game":"Team Fortress","app_id":440,"player_count":0,"max_players":24,"Bots":0,"server_type":"Dedicated","server_os":"Linux","password":true,"vac":true,"version":"7757534","steam_id":85568392924470001,"keywords":["cp","nocrits","nodmgspread","uncletopia"],"game_id":440,"stv_port":27016,"stv_name":"Uncletopia | Sydney | 1 | All Maps | STV","players":null},{"server_id":123,"name":"Uncletopia | Sydney | 2 | All Maps","name_short":"syd-2","host":"syd-1.au.uncletopia.com","port":27025,"enabled":true,"region":"au","cc":"au","latitude":-33.865143,"longitude":151.2099,"reserved":0,"last_update":"0001-01-01T00:00:00Z","name_a2s":"Uncletopia | Sydney | 2 | All Maps","protocol":17,"map":"koth_lakeside_final","folder":"tf","game":"Team Fortress","app_id":440,"player_count":0,"max_players":24,"Bots":0,"server_type":"Dedicated","server_os":"Linux","password":true,"vac":true,"version":"7757534","steam_id":85568392924470002,"keywords":["cp","nocrits","nodmgspread","uncletopia"],"game_id":440,"stv_port":27026,"stv_name":"Uncletopia | Sydney | 2 | All Maps | STV","players":null},{"server_id":395,"name":"Uncletopia | Sydney | 3 | All Maps","name_short":"syd-3","host":"syd-1.au.uncletopia.com","port":27035,"enabled":true,"region":"au","cc":"au","latitude":-33.865143,"longitude":151.2099,"reserved":0,"last_update":"0001-01-01T00:00:00Z","name_a2s":"Uncletopia | Sydney | 3 | All Maps","protocol":17,"map":"cp_dustbowl","folder":"tf","game":"Team Fortress","app_id":440,"player_count":0,"max_players":24,"Bots":0,"server_type":"Dedicated","server_os":"Linux","password":true,"vac":true,"version":"7757534","steam_id":85568392925194467,"keywords":["cp","nocrits","nodmgspread","uncletopia"],"game_id":440,"stv_port":27036,"stv_name":"Uncletopia | Sydney | 3 | All Maps | STV","players":null},{"server_id":396,"name":"Uncletopia | Sydney | 4 | All Maps","name_short":"syd-4","host":"syd-1.au.uncletopia.com","port":27045,"enabled":true,"region":"au","cc":"au","latitude":-33.865143,"longitude":151.2099,"reserved":0,"last_update":"0001-01-01T00:00:00Z","name_a2s":"Uncletopia | Sydney | 4 | All Maps","protocol":17,"map":"koth_highpass","folder":"tf","game":"Team Fortress","app_id":440,"player_count":0,"max_players":24,"Bots":0,"server_type":"Dedicated","server_os":"Linux","password":true,"vac":true,"version":"7757534","steam_id":85568392925397958,"keywords":["cp","nocrits","nodmgspread","uncletopia"],"game_id":440,"stv_port":27046,"stv_name":"Uncletopia | Sydney | 4 | All Maps | STV","players":null},{"server_id":58,"name":"Uncletopia | Sydney | 5 | Stopwatch Beta","name_short":"syd-5","host":"syd-1.au.uncletopia.com","port":27055,"enabled":true,"region":"au","cc":"au","latitude":-33.865143,"longitude":151.2099,"reserved":0,"last_update":"0001-01-01T00:00:00Z","name_a2s":"Uncletopia | Sydney | 5 | Stopwatch Beta","protocol":17,"map":"pl_barnblitz","folder":"tf","game":"Team Fortress","app_id":440,"player_count":0,"max_players":24,"Bots":0,"server_type":"Dedicated","server_os":"Linux","password":true,"vac":true,"version":"7757534","steam_id":85568392925397959,"keywords":["nocrits","nodmgspread","payload","uncletopia"],"game_id":440,"stv_port":27056,"stv_name":"Uncletopia | Sydney | 5 | Stopwatch Beta | STV","players":null},{"server_id":59,"name":"Uncletopia | Sydney | 6 | Community","name_short":"syd-6","host":"syd-1.au.uncletopia.com","port":27065,"enabled":true,"region":"au","cc":"au","latitude":-33.865143,"longitude":151.2099,"reserved":0,"last_update":"0001-01-01T00:00:00Z","name_a2s":"Uncletopia | Sydney | 6 | Community","protocol":17,"map":"workshop/cp_overgrown_rc7b.ugc503939302","folder":"tf","game":"Team Fortress","app_id":440,"player_count":0,"max_players":24,"Bots":0,"server_type":"Dedicated","server_os":"Linux","password":true,"vac":true,"version":"7757534","steam_id":85568392925397960,"keywords":["cp","nocrits","nodmgspread","uncletopia"],"game_id":440,"stv_port":27066,"stv_name":"Uncletopia | Sydney | 6 | Community | STV","players":null},{"server_id":49,"name":"Uncletopia | Warsaw | 1 | All Maps","name_short":"waw-1","host":"waw-1.pl.uncletopia.com","port":27015,"enabled":true,"region":"eu","cc":"pl","latitude":52.2297,"longitude":21.017532,"reserved":0,"last_update":"0001-01-01T00:00:00Z","name_a2s":"","protocol":0,"map":"","folder":"","game":"","app_id":0,"player_count":0,"max_players":0,"Bots":0,"server_type":"","server_os":"","password":false,"vac":false,"version":"","steam_id":0,"keywords":null,"game_id":0,"stv_port":0,"stv_name":"","players":null},{"server_id":50,"name":"Uncletopia | Warsaw | 2 | All Maps","name_short":"waw-2","host":"waw-1.pl.uncletopia.com","port":27025,"enabled":true,"region":"eu","cc":"pl","latitude":52.2297,"longitude":21.017532,"reserved":0,"last_update":"0001-01-01T00:00:00Z","name_a2s":"Uncletopia | Warsaw | 2 | All Maps","protocol":17,"map":"pl_borneo","folder":"tf","game":"Team Fortress","app_id":440,"player_count":0,"max_players":24,"Bots":0,"server_type":"Dedicated","server_os":"Linux","password":true,"vac":true,"version":"7757534","steam_id":85568392925397851,"keywords":["nocrits","nodmgspread","payload","uncletopia"],"game_id":440,"stv_port":27026,"stv_name":"Uncletopia | Warsaw | 2 | All Maps | STV","players":null},{"server_id":51,"name":"Uncletopia | Warsaw | 3 | All Maps","name_short":"waw-3","host":"waw-1.pl.uncletopia.com","port":27035,"enabled":true,"region":"eu","cc":"pl","latitude":52.2297,"longitude":21.017532,"reserved":0,"last_update":"0001-01-01T00:00:00Z","name_a2s":"Uncletopia | Warsaw | 3 | All Maps","protocol":17,"map":"koth_viaduct","folder":"tf","game":"Team Fortress","app_id":440,"player_count":0,"max_players":24,"Bots":0,"server_type":"Dedicated","server_os":"Linux","password":true,"vac":true,"version":"7757534","steam_id":85568392925397852,"keywords":["cp","nocrits","nodmgspread","uncletopia"],"game_id":440,"stv_port":27036,"stv_name":"Uncletopia | Warsaw | 3 | All Maps | STV","players":null},{"server_id":52,"name":"Uncletopia | Warsaw | 4 | All Maps","name_short":"waw-4","host":"waw-1.pl.uncletopia.com","port":27045,"enabled":true,"region":"eu","cc":"pl","latitude":52.2297,"longitude":21.017532,"reserved":0,"last_update":"0001-01-01T00:00:00Z","name_a2s":"Uncletopia | Warsaw | 4 | All Maps","protocol":17,"map":"pl_borneo","folder":"tf","game":"Team Fortress","app_id":440,"player_count":0,"max_players":24,"Bots":0,"server_type":"Dedicated","server_os":"Linux","password":true,"vac":true,"version":"7757534","steam_id":85568392925397853,"keywords":["nocrits","nodmgspread","payload","uncletopia"],"game_id":440,"stv_port":27046,"stv_name":"Uncletopia | Warsaw | 4 | All Maps | STV","players":null},{"server_id":53,"name":"Uncletopia | Warsaw | 5 | Stopwatch Beta","name_short":"waw-5","host":"waw-1.pl.uncletopia.com","port":27055,"enabled":true,"region":"eu","cc":"pl","latitude":52.2297,"longitude":21.017532,"reserved":0,"last_update":"0001-01-01T00:00:00Z","name_a2s":"Uncletopia | Warsaw | 5 | Stopwatch Beta","protocol":17,"map":"pl_upward","folder":"tf","game":"Team Fortress","app_id":440,"player_count":0,"max_players":24,"Bots":0,"server_type":"Dedicated","server_os":"Linux","password":true,"vac":true,"version":"7757534","steam_id":85568392925397854,"keywords":["nocrits","nodmgspread","payload","uncletopia"],"game_id":440,"stv_port":27056,"stv_name":"Uncletopia | Warsaw | 5 | Stopwatch Beta | STV","players":null},{"server_id":54,"name":"Uncletopia | Warsaw | 6 | Community","name_short":"waw-6","host":"waw-1.pl.uncletopia.com","port":27065,"enabled":true,"region":"eu","cc":"pl","latitude":52.2297,"longitude":21.017532,"reserved":0,"last_update":"0001-01-01T00:00:00Z","name_a2s":"Uncletopia | Warsaw | 6 | Community","protocol":17,"map":"workshop/rd_asteroid_redux_b1.ugc2154902912","folder":"tf","game":"Team Fortress","app_id":440,"player_count":0,"max_players":24,"Bots":0,"server_type":"Dedicated","server_os":"Linux","password":true,"vac":true,"version":"7757534","steam_id":85568392925397856,"keywords":["beta","nocrits","nodmgspread","rd","uncletopia"],"game_id":440,"stv_port":27066,"stv_name":"Uncletopia | Warsaw | 6 | Community | STV","players":null}]}