{"status":true,"message":"","result":[{"server_id":9,"name":"Uncletopia | Atlanta | 1 | All Maps","name_short":"atl-1","host":"atl-1.us.uncletopia.com","port":27015,"enabled":true,"region":"us-east","cc":"us","latitude":33.753746,"longitude":-84.38633,"reserved":0,"last_update":"0001-01-01T00:00:00Z","name_a2s":"Uncletopia | Atlanta | 1 | All Maps","protocol":17,"map":"pl_upward","folder":"tf","game":"Team Fortress","app_id":440,"player_count":23,"max_players":24,"Bots":0,"server_type":"Dedicated","server_os":"Linux","password":true,"vac":true,"version":"7961495","steam_id":85568392924469982,"keywords":["nocrits","nodmgspread","payload","uncletopia"],"game_id":440,"stv_port":27016,"stv_name":"Uncletopia | Atlanta | 1 | All Maps | STV","players":[{"user_id":401,"name":"chexo4","steam_id":76561198150532531,"connected_time":2042000000000,"state":"active","ping":49},{"user_id":384,"name":"PussPuss","steam_id":76561198028684082,"connected_time":3816000000000,"state":"active","ping":71},{"user_id":418,"name":"Trace","steam_id":76561198009486000,"connected_time":133000000000,"state":"active","ping":60},{"user_id":421,"name":"kite","steam_id":76561198346516392,"connected_time":109000000000,"state":"active","ping":81},{"user_id":422,"name":"plutonium isotope","steam_id":76561198319442494,"connected_time":101000000000,"state":"active","ping":107},{"user_id":396,"name":"HarryjusttHarry","steam_id":76561198982810452,"connected_time":2268000000000,"state":"active","ping":81},{"user_id":388,"name":"why","steam_id":76561199059732212,"connected_time":2784000000000,"state":"active","ping":45},{"user_id":420,"name":"jpuck","steam_id":76561198025018960,"connected_time":125000000000,"state":"active","ping":56},{"user_id":423,"name":"swan","steam_id":76561198012569200,"connected_time":58000000000,"state":"active","ping":75},{"user_id":397,"name":"Dreszerg","steam_id":76561198838757422,"connected_time":2268000000000,"state":"active","ping":78},{"user_id":328,"name":"marguerite","steam_id":76561198170873495,"connected_time":8720000000000,"state":"active","ping":60},{"user_id":409,"name":"trianamarco780","steam_id":76561199084319677,"connected_time":1352000000000,"state":"active","ping":91},{"user_id":407,"name":"Heathcliff","steam_id":76561198044288534,"connected_time":1366000000000,"state":"active","ping":72},{"user_id":417,"name":"jorjor wells","steam_id":76561199073429082,"connected_time":170000000000,"state":"active","ping":69},{"user_id":395,"name":"Lavendr1001","steam_id":76561199058468170,"connected_time":2282000000000,"state":"active","ping":129},{"user_id":408,"name":"SuperAqua64","steam_id":76561199131430319,"connected_time":1365000000000,"state":"active","ping":84},{"user_id":308,"name":"2cats_2curious","steam_id":76561198027143149,"connected_time":9750000000000,"state":"active","ping":60},{"user_id":377,"name":"sansa musa","steam_id":76561198163723555,"connected_time":4848000000000,"state":"active","ping":75},{"user_id":424,"name":"-BRH- Tangled up in Bluegrass","steam_id":76561197987181139,"connected_time":55000000000,"state":"active","ping":68},{"user_id":426,"name":"HamNCheezeSandwich_LiveOnFB","steam_id":76561198368649249,"connected_time":22000000000,"state":"active","ping":92},{"user_id":419,"name":"big ol' buford","steam_id":76561198290675957,"connected_time":130000000000,"state":"active","ping":60},{"user_id":306,"name":"HumFreY","steam_id":76561198076639682,"connected_time":9988000000000,"state":"active","ping":75},{"user_id":380,"name":"Person","steam_id":76561198093244204,"connected_time":4515000000000,"state":"active","ping":75}]},{"server_id":104,"name":"Uncletopia | Atlanta | 2 | All Maps","name_short":"atl-2","host":"atl-1.us.uncletopia.com","port":27025,"enabled":true,"region":"us-east","cc":"us","latitude":33.753746,"longitude":-84.38633,"reserved":0,"last_update":"0001-01-01T00:00:00Z","name_a2s":"Uncletopia | Atlanta | 2 | All Maps","protocol":17,"map":"pl_snowycoast","folder":"tf","game":"Team Fortress","app_id":440,"player_count":24,"max_players":24,"Bots":0,"server_type":"Dedicated","server_os":"Linux","password":true,"vac":true,"version":"7961495","steam_id":85568392924469983,"keywords":["nocrits","nodmgspread","payload","uncletopia"],"game_id":440,"stv_port":27026,"stv_name":"Uncletopia | Atlanta | 2 | All Maps | STV","players":[{"user_id":255,"name":"lal","steam_id":76561198243965308,"connected_time":1269000000000,"state":"active","ping":94},{"user_id":259,"name":"☼ money sittin tall yao ming","steam_id":76561198074180953,"connected_time":645000000000,"state":"active","ping":61},{"user_id":225,"name":"frid","steam_id":76561198005806915,"connected_time":2740000000000,"state":"active","ping":79},{"user_id":257,"name":"Season Leaf","steam_id":76561198133121805,"connected_time":679000000000,"state":"active","ping":52},{"user_id":254,"name":"Oxygen User","steam_id":76561199111975528,"connected_time":1604000000000,"state":"active","ping":70},{"user_id":246,"name":"dogdotflac","steam_id":76561198201609928,"connected_time":1708000000000,"state":"active","ping":79},{"user_id":247,"name":"Hertz","steam_id":76561198310927351,"connected_time":1700000000000,"state":"active","ping":137},{"user_id":260,"name":"PlaseNec6","steam_id":76561198130098823,"connected_time":635000000000,"state":"active","ping":60},{"user_id":232,"name":"gunna sayit","steam_id":76561198034339940,"connected_time":2548000000000,"state":"active","ping":59},{"user_id":264,"name":"Weenus","steam_id":76561198144766439,"connected_time":49000000000,"state":"active","ping":65},{"user_id":117,"name":"Dead_Stranger","steam_id":76561198120804563,"connected_time":9784000000000,"state":"active","ping":83},{"user_id":256,"name":"Rummy the Blargh-gineer","steam_id":76561197997192800,"connected_time":683000000000,"state":"active","ping":85},{"user_id":241,"name":"werecat","steam_id":76561198005091213,"connected_time":1914000000000,"state":"active","ping":60},{"user_id":248,"name":"t(._. t)","steam_id":76561198241034752,"connected_time":1697000000000,"state":"active","ping":133},{"user_id":249,"name":"Kermit the Frog","steam_id":76561198314577996,"connected_time":1682000000000,"state":"active","ping":85},{"user_id":250,"name":"Drilly22","steam_id":76561198068838338,"connected_time":1675000000000,"state":"active","ping":82},{"user_id":261,"name":"Spiral Mountain","steam_id":76561198058683715,"connected_time":628000000000,"state":"active","ping":76},{"user_id":253,"name":"SpockASD","steam_id":76561198830243167,"connected_time":1628000000000,"state":"active","ping":83},{"user_id":252,"name":"sfoster","steam_id":76561197993895857,"connected_time":1654000000000,"state":"active","ping":80},{"user_id":262,"name":"Sheppy","steam_id":76561198295126940,"connected_time":618000000000,"state":"active","ping":66},{"user_id":220,"name":"A/funny/dream","steam_id":76561198354481597,"connected_time":3360000000000,"state":"active","ping":68},{"user_id":131,"name":"Mr. Wilson","steam_id":76561198162289380,"connected_time":9015000000000,"state":"active","ping":83},{"user_id":223,"name":"I came (up)","steam_id":76561198057745131,"connected_time":2800000000000,"state":"active","ping":40},{"user_id":263,"name":"Boochie","steam_id":76561198136642793,"connected_time":515000000000,"state":"active","ping":100}]},{"server_id":400,"name":"Uncletopia | Atlanta | 3 | Stopwatch","name_short":"atl-3","host":"atl-1.us.uncletopia.com","port":27035,"enabled":true,"region":"us-east","cc":"us","latitude":33.753746,"longitude":-84.38633,"reserved":0,"last_update":"0001-01-01T00:00:00Z","name_a2s":"Uncletopia | Atlanta | 3 | Stopwatch","protocol":17,"map":"workshop/koth_ashville_final.ugc2130459942","folder":"tf","game":"Team Fortress","app_id":440,"player_count":0,"max_players":24,"Bots":0,"server_type":"Dedicated","server_os":"Linux","password":true,"vac":true,"version":"7961495","steam_id":85568392924515187,"keywords":["cp","nocrits","nodmgspread","uncletopia"],"game_id":440,"stv_port":27036,"stv_name":"Uncletopia | Atlanta | 3 | Stopwatch | STV","players":null},{"server_id":401,"name":"Uncletopia | Atlanta | 4 | Community","name_short":"atl-4","host":"atl-1.us.uncletopia.com","port":27045,"enabled":true,"region":"us-east","cc":"us","latitude":33.753746,"longitude":-84.38633,"reserved":0,"last_update":"0001-01-01T00:00:00Z","name_a2s":"Uncletopia | Atlanta | 4 | Community","protocol":17,"map":"workshop/cp_snowbase_b21.ugc2081770490","folder":"tf","game":"Team Fortress","app_id":440,"player_count":0,"max_players":24,"Bots":0,"server_type":"Dedicated","server_os":"Linux","password":true,"vac":true,"version":"7961495","steam_id":85568392924515188,"keywords":["cp","nocrits","nodmgspread","uncletopia"],"game_id":440,"stv_port":27046,"stv_name":"Uncletopia | Atlanta | 4 | Community | STV","players":null},{"server_id":2,"name":"Uncletopia | Chicago | 1 | All Maps","name_short":"chi-1","host":"chi-1.us.uncletopia.com","port":27015,"enabled":true,"region":"us-central","cc":"us","latitude":41.881832,"longitude":-87.62318,"reserved":0,"last_update":"0001-01-01T00:00:00Z","name_a2s":"Uncletopia | Chicago | 1 | All Maps","protocol":17,"map":"pl_barnblitz","folder":"tf","game":"Team Fortress","app_id":440,"player_count":24,"max_players":24,"Bots":0,"server_type":"Dedicated","server_os":"Linux","password":true,"vac":true,"version":"7961495","steam_id":85568392924469984,"keywords":["nocrits","nodmgspread","payload","uncletopia"],"game_id":440,"stv_port":27016,"stv_name":"Uncletopia | Chicago | 1 | All Maps | STV","players":[{"user_id":655,"name":"Big Phonius","steam_id":76561199092395311,"connected_time":67000000000,"state":"active","ping":65},{"user_id":598,"name":"Cat on Your Porch","steam_id":76561197979078330,"connected_time":5456000000000,"state":"active","ping":60},{"user_id":583,"name":"fear_the-penguins","steam_id":76561199013292217,"connected_time":6251000000000,"state":"active","ping":72},{"user_id":632,"name":"K.O. Stradivarius","steam_id":76561198974913245,"connected_time":2253000000000,"state":"active","ping":72},{"user_id":637,"name":"Novu","steam_id":76561198886997024,"connected_time":1832000000000,"state":"active","ping":96},{"user_id":612,"name":"Mega_Man23","steam_id":76561198138341391,"connected_time":3445000000000,"state":"active","ping":62},{"user_id":645,"name":"Hackerman","steam_id":76561198077503679,"connected_time":1457000000000,"state":"active","ping":75},{"user_id":652,"name":"Fuzzy Toast","steam_id":76561198028067781,"connected_time":964000000000,"state":"active","ping":44},{"user_id":629,"name":"richard clock","steam_id":76561198048455671,"connected_time":2414000000000,"state":"active","ping":60},{"user_id":559,"name":"Jihadi Spunk Trumpet","steam_id":76561198014792482,"connected_time":7143000000000,"state":"active","ping":78},{"user_id":619,"name":"Am I Good At The Video Game?","steam_id":76561198046053281,"connected_time":3040000000000,"state":"active","ping":73},{"user_id":597,"name":"Praise_to_the_Flashlight!","steam_id":76561199001728789,"connected_time":5554000000000,"state":"active","ping":62},{"user_id":611,"name":"Amari","steam_id":76561198272446730,"connected_time":4361000000000,"state":"active","ping":111},{"user_id":653,"name":"bird enthusiast","steam_id":76561198087661713,"connected_time":957000000000,"state":"active","ping":62},{"user_id":636,"name":"Vanilla Rice","steam_id":76561198315725190,"connected_time":1896000000000,"state":"active","ping":72},{"user_id":644,"name":"♡ Cursed ♡","steam_id":76561199161458959,"connected_time":1475000000000,"state":"active","ping":98},{"user_id":639,"name":"Hylic","steam_id":76561199051314589,"connected_time":1546000000000,"state":"active","ping":78},{"user_id":641,"name":"lego star wars on the psp","steam_id":76561198148014773,"connected_time":1508000000000,"state":"active","ping":83},{"user_id":620,"name":"Gengar","steam_id":76561198061247147,"connected_time":3040000000000,"state":"active","ping":70},{"user_id":646,"name":"monke12344","steam_id":76561199274757725,"connected_time":1454000000000,"state":"active","ping":63},{"user_id":642,"name":"birbmanminty","steam_id":76561199159145275,"connected_time":1503000000000,"state":"active","ping":113},{"user_id":555,"name":"General Lee","steam_id":76561199501497157,"connected_time":7300000000000,"state":"active","ping":84},{"user_id":649,"name":"piss gallon","steam_id":76561199281203789,"connected_time":1234000000000,"state":"active","ping":76},{"user_id":657,"name":"spaceboots","steam_id":76561197977322319,"connected_time":27000000000,"state":"active","ping":70}]},{"server_id":106,"name":"Uncletopia | Chicago | 2 | All Maps","name_short":"chi-2","host":"chi-1.us.uncletopia.com","port":27025,"enabled":true,"region":"us-central","cc":"us","latitude":41.881832,"longitude":-87.62318,"reserved":0,"last_update":"0001-01-01T00:00:00Z","name_a2s":"Uncletopia | Chicago | 2 | All Maps","protocol":17,"map":"cp_dustbowl","folder":"tf","game":"Team Fortress","app_id":440,"player_count":24,"max_players":24,"Bots":0,"server_type":"Dedicated","server_os":"Linux","password":true,"vac":true,"version":"7961495","steam_id":85568392924469985,"keywords":["cp","nocrits","nodmgspread","uncletopia"],"game_id":440,"stv_port":27026,"stv_name":"Uncletopia | Chicago | 2 | All Maps | STV","players":[{"user_id":570,"name":"i eat glue","steam_id":76561198827026673,"connected_time":2091000000000,"state":"active","ping":64},{"user_id":605,"name":"superx","steam_id":76561198044976613,"connected_time":22000000000,"state":"active","ping":71},{"user_id":573,"name":"Conjon","steam_id":76561198083408885,"connected_time":1950000000000,"state":"active","ping":46},{"user_id":596,"name":"Red_Hatkins","steam_id":76561198214004105,"connected_time":1047000000000,"state":"active","ping":88},{"user_id":572,"name":"BiggsyBoy","steam_id":76561198119656147,"connected_time":1955000000000,"state":"active","ping":63},{"user_id":559,"name":"Scita","steam_id":76561198066861559,"connected_time":3241000000000,"state":"active","ping":72},{"user_id":598,"name":"PK","steam_id":76561198368722500,"connected_time":535000000000,"state":"active","ping":72},{"user_id":600,"name":"subdromeda","steam_id":76561198884351860,"connected_time":327000000000,"state":"active","ping":64},{"user_id":595,"name":"Tomfoolery","steam_id":76561199260306425,"connected_time":1057000000000,"state":"active","ping":87},{"user_id":558,"name":"HalfDead","steam_id":76561198049700226,"connected_time":3255000000000,"state":"active","ping":87},{"user_id":537,"name":"igotmail","steam_id":76561198070631899,"connected_time":4239000000000,"state":"active","ping":68},{"user_id":538,"name":"Shipmunk","steam_id":76561198063062670,"connected_time":4195000000000,"state":"active","ping":69},{"user_id":594,"name":"\u003c=Itachi uchiha=\u003e","steam_id":76561199162355715,"connected_time":1096000000000,"state":"active","ping":76},{"user_id":539,"name":"♥ Tomboy ♥","steam_id":76561198069881436,"connected_time":4068000000000,"state":"active","ping":72},{"user_id":603,"name":"Oh, it's Zach","steam_id":76561198103309672,"connected_time":128000000000,"state":"active","ping":60},{"user_id":582,"name":"Lord Pretty Flocko Jordye","steam_id":76561198962880749,"connected_time":1786000000000,"state":"active","ping":100},{"user_id":495,"name":"Ajax","steam_id":76561197962240140,"connected_time":7296000000000,"state":"active","ping":62},{"user_id":575,"name":"Khorne Flakes","steam_id":76561198058699167,"connected_time":1911000000000,"state":"active","ping":83},{"user_id":604,"name":"Carpet enthusiast","steam_id":76561198024040142,"connected_time":49000000000,"state":"active","ping":95},{"user_id":577,"name":"Sorry","steam_id":76561198040722720,"connected_time":1904000000000,"state":"active","ping":85},{"user_id":587,"name":"Josmerson","steam_id":76561198244171886,"connected_time":1594000000000,"state":"active","ping":64},{"user_id":602,"name":"Belly Slapper","steam_id":76561198129745094,"connected_time":177000000000,"state":"active","ping":61},{"user_id":584,"name":"Smiles","steam_id":76561198107197973,"connected_time":1763000000000,"state":"active","ping":60},{"user_id":591,"name":"Carl, Good to see you","steam_id":76561198070574075,"connected_time":1406000000000,"state":"active","ping":69}]},{"server_id":402,"name":"Uncletopia | Chicago | 3 | All Maps","name_short":"chi-3","host":"chi-1.us.uncletopia.com","port":27035,"enabled":true,"region":"us-central","cc":"us","latitude":41.881832,"longitude":-87.62318,"reserved":0,"last_update":"0001-01-01T00:00:00Z","name_a2s":"Uncletopia | Chicago | 3 | All Maps","protocol":17,"map":"pl_barnblitz","folder":"tf","game":"Team Fortress","app_id":440,"player_count":24,"max_players":24,"Bots":0,"server_type":"Dedicated","server_os":"Linux","password":true,"vac":true,"version":"7961495","steam_id":85568392924515191,"keywords":["nocrits","nodmgspread","payload","uncletopia"],"game_id":440,"stv_port":27036,"stv_name":"Uncletopia | Chicago | 3 | All Maps | STV","players":[{"user_id":417,"name":"MarauderOP","steam_id":76561199087316861,"connected_time":4541000000000,"state":"active","ping":71},{"user_id":451,"name":"grate_warior-232","steam_id":76561198073424589,"connected_time":1144000000000,"state":"active","ping":63},{"user_id":449,"name":":o","steam_id":76561198204995668,"connected_time":1205000000000,"state":"active","ping":88},{"user_id":381,"name":"hearthian","steam_id":76561198113235260,"connected_time":7215000000000,"state":"active","ping":92},{"user_id":457,"name":"Captain Malarkey","steam_id":76561198869924281,"connected_time":968000000000,"state":"active","ping":79},{"user_id":466,"name":"Clyde","steam_id":76561198158206236,"connected_time":84000000000,"state":"active","ping":107},{"user_id":416,"name":"Juan Solo","steam_id":76561198018688536,"connected_time":4555000000000,"state":"active","ping":79},{"user_id":465,"name":"mootier","steam_id":76561198030365192,"connected_time":142000000000,"state":"active","ping":75},{"user_id":445,"name":"lins the ok","steam_id":76561199072805077,"connected_time":1836000000000,"state":"active","ping":55},{"user_id":461,"name":"Ganondorf","steam_id":76561198010421059,"connected_time":210000000000,"state":"active","ping":52},{"user_id":456,"name":"1001NinjaDucks","steam_id":76561198058169660,"connected_time":1006000000000,"state":"active","ping":62},{"user_id":387,"name":"nomai","steam_id":76561198076201225,"connected_time":7138000000000,"state":"active","ping":104},{"user_id":442,"name":"my name jeff","steam_id":76561198179816898,"connected_time":1984000000000,"state":"active","ping":81},{"user_id":424,"name":"The One True Luke","steam_id":76561198180891187,"connected_time":4363000000000,"state":"active","ping":69},{"user_id":411,"name":"Fio4","steam_id":76561199221171536,"connected_time":5091000000000,"state":"active","ping":81},{"user_id":438,"name":"CHIKN","steam_id":76561198277792665,"connected_time":2064000000000,"state":"active","ping":104},{"user_id":459,"name":"BlueCrue","steam_id":76561198066698869,"connected_time":700000000000,"state":"active","ping":73},{"user_id":446,"name":"lasagna","steam_id":76561199138154899,"connected_time":1829000000000,"state":"active","ping":83},{"user_id":462,"name":"boo_thefeared","steam_id":76561198127967685,"connected_time":210000000000,"state":"active","ping":144},{"user_id":458,"name":"DaiNoMas","steam_id":76561198168232133,"connected_time":928000000000,"state":"active","ping":104},{"user_id":420,"name":"Soju","steam_id":76561198044130442,"connected_time":4488000000000,"state":"active","ping":81},{"user_id":463,"name":"Snugboo","steam_id":76561198147970327,"connected_time":206000000000,"state":"active","ping":60},{"user_id":455,"name":"Harven Cosset","steam_id":76561198399526024,"connected_time":1056000000000,"state":"active","ping":73},{"user_id":464,"name":"uufyfuu","steam_id":76561198142787212,"connected_time":191000000000,"state":"active","ping":78}]},{"server_id":403,"name":"Uncletopia | Chicago | 4 | All Maps","name_short":"chi-4","host":"chi-1.us.uncletopia.com","port":27045,"enabled":true,"region":"us-central","cc":"us","latitude":41.881832,"longitude":-87.62318,"reserved":0,"last_update":"0001-01-01T00:00:00Z","name_a2s":"Uncletopia | Chicago | 4 | All Maps","protocol":17,"map":"pl_upward","folder":"tf","game":"Team Fortress","app_id":440,"player_count":23,"max_players":24,"Bots":0,"server_type":"Dedicated","server_os":"Linux","password":true,"vac":true,"version":"7961495","steam_id":85568392924515193,"keywords":["nocrits","nodmgspread","payload","uncletopia"],"game_id":440,"stv_port":27046,"stv_name":"Uncletopia | Chicago | 4 | All Maps | STV","players":[{"user_id":391,"name":"THORNFIELDGAMER","steam_id":76561199087167473,"connected_time":546000000000,"state":"connecting","ping":92},{"user_id":394,"name":"slug units","steam_id":76561198028658527,"connected_time":310000000000,"state":"connecting","ping":111},{"user_id":388,"name":"Butters495","steam_id":76561197998689042,"connected_time":624000000000,"state":"connecting","ping":86},{"user_id":374,"name":"wheresgeorge","steam_id":76561198986281248,"connected_time":1362000000000,"state":"connecting","ping":93},{"user_id":396,"name":"+03e","steam_id":76561198147970180,"connected_time":66000000000,"state":"connecting","ping":59},{"user_id":395,"name":"Philo","steam_id":76561198061873341,"connected_time":298000000000,"state":"connecting","ping":91},{"user_id":344,"name":"King","steam_id":76561198123927752,"connected_time":3683000000000,"state":"connecting","ping":60},{"user_id":375,"name":"JACOB","steam_id":76561198211874895,"connected_time":1347000000000,"state":"connecting","ping":82},{"user_id":370,"name":"Aye, Yuh!","steam_id":76561199047877192,"connected_time":1995000000000,"state":"connecting","ping":83},{"user_id":379,"name":"eldritch","steam_id":76561199009135766,"connected_time":1280000000000,"state":"connecting","ping":59},{"user_id":384,"name":"Jarvis","steam_id":76561198020088034,"connected_time":939000000000,"state":"connecting","ping":93},{"user_id":381,"name":"LJRicochet","steam_id":76561198109125997,"connected_time":1223000000000,"state":"connecting","ping":77},{"user_id":397,"name":"Dullahan","steam_id":76561198119668908,"connected_time":20000000000,"state":"connecting","ping":101},{"user_id":333,"name":"team fartpiss poo pro","steam_id":76561198407056645,"connected_time":4349000000000,"state":"connecting","ping":83},{"user_id":398,"name":"twitch.tv/axities","steam_id":76561198278008225,"connected_time":10000000000,"state":"connecting","ping":88},{"user_id":321,"name":"Rick Astley Is A F2P?","steam_id":76561199258805660,"connected_time":4854000000000,"state":"connecting","ping":74},{"user_id":368,"name":"wizard101 pro (ur not)","steam_id":76561198073269122,"connected_time":2041000000000,"state":"connecting","ping":72},{"user_id":390,"name":"grrzzlee","steam_id":76561197997443455,"connected_time":591000000000,"state":"connecting","ping":79},{"user_id":392,"name":"KSupes","steam_id":76561199131995067,"connected_time":544000000000,"state":"connecting","ping":57},{"user_id":347,"name":"Gas Can","steam_id":76561198162853003,"connected_time":3359000000000,"state":"connecting","ping":79},{"user_id":349,"name":"skidmark mafia","steam_id":76561198288604502,"connected_time":3341000000000,"state":"connecting","ping":106},{"user_id":362,"name":"jorts","steam_id":76561199041179985,"connected_time":2606000000000,"state":"connecting","ping":122},{"user_id":383,"name":"nomis","steam_id":76561198115367704,"connected_time":1167000000000,"state":"connecting","ping":98}]},{"server_id":36,"name":"Uncletopia | Chicago | 5 | All Maps","name_short":"chi-5","host":"chi-2.us.uncletopia.com","port":27015,"enabled":true,"region":"us-central","cc":"us","latitude":41.881832,"longitude":-87.62318,"reserved":0,"last_update":"0001-01-01T00:00:00Z","name_a2s":"Uncletopia | Chicago | 5 | All Maps","protocol":17,"map":"pl_pier","folder":"tf","game":"Team Fortress","app_id":440,"player_count":24,"max_players":24,"Bots":0,"server_type":"Dedicated","server_os":"Linux","password":true,"vac":true,"version":"7961495","steam_id":85568392924866362,"keywords":["nocrits","nodmgspread","payload","uncletopia"],"game_id":440,"stv_port":27016,"stv_name":"Uncletopia | Chicago | 5 | All Maps | STV","players":[{"user_id":579,"name":"Howard Hamlin","steam_id":76561198881039861,"connected_time":1637000000000,"state":"active","ping":66},{"user_id":594,"name":"BigBubble42","steam_id":76561198136286123,"connected_time":482000000000,"state":"active","ping":76},{"user_id":585,"name":"oppenheimer style","steam_id":76561198026664629,"connected_time":865000000000,"state":"active","ping":59},{"user_id":581,"name":"The ONE TROLL MASTER!!","steam_id":76561198353923483,"connected_time":1443000000000,"state":"active","ping":64},{"user_id":587,"name":"Lil'NesGun","steam_id":76561199013395904,"connected_time":597000000000,"state":"active","ping":53},{"user_id":584,"name":"Furrio","steam_id":76561198174104607,"connected_time":912000000000,"state":"active","ping":75},{"user_id":555,"name":"I have no idea what I am doing?","steam_id":76561198093152207,"connected_time":3237000000000,"state":"active","ping":60},{"user_id":606,"name":"Drapph","steam_id":76561199384213314,"connected_time":115000000000,"state":"active","ping":67},{"user_id":590,"name":"Mr.HumanSoup","steam_id":76561198799202879,"connected_time":524000000000,"state":"active","ping":89},{"user_id":559,"name":"viper","steam_id":76561198839942937,"connected_time":2647000000000,"state":"active","ping":73},{"user_id":558,"name":"yes daddy","steam_id":76561198166100997,"connected_time":2975000000000,"state":"active","ping":72},{"user_id":603,"name":"Magnet Dood","steam_id":76561198364178746,"connected_time":295000000000,"state":"active","ping":63},{"user_id":592,"name":"Sergeant Joker LFT","steam_id":76561198854616604,"connected_time":509000000000,"state":"active","ping":74},{"user_id":566,"name":"Frog Finance Gutter Justice","steam_id":76561198067247951,"connected_time":2263000000000,"state":"active","ping":53},{"user_id":593,"name":"corntent","steam_id":76561198824847948,"connected_time":508000000000,"state":"active","ping":63},{"user_id":595,"name":"sami","steam_id":76561198138815137,"connected_time":470000000000,"state":"active","ping":44},{"user_id":582,"name":"Tri-Dot","steam_id":76561199075186597,"connected_time":1221000000000,"state":"active","ping":68},{"user_id":597,"name":"Sobertoday","steam_id":76561198010606163,"connected_time":436000000000,"state":"active","ping":82},{"user_id":576,"name":"Пвт Динго","steam_id":76561198119683217,"connected_time":1987000000000,"state":"active","ping":100},{"user_id":598,"name":"Eblizard","steam_id":76561198111481965,"connected_time":426000000000,"state":"active","ping":78},{"user_id":599,"name":"Thot Patrol","steam_id":76561198026003193,"connected_time":413000000000,"state":"active","ping":66},{"user_id":600,"name":"Jellojiggler","steam_id":76561198094320477,"connected_time":385000000000,"state":"active","ping":77},{"user_id":586,"name":"DA COOK","steam_id":76561199236177480,"connected_time":850000000000,"state":"active","ping":73},{"user_id":605,"name":"Yeti","steam_id":76561198176049478,"connected_time":227000000000,"state":"active","ping":89}]},{"server_id":37,"name":"Uncletopia | Chicago | 6 | All Maps","name_short":"chi-6","host":"chi-2.us.uncletopia.com","port":27025,"enabled":true,"region":"us-central","cc":"us","latitude":41.881832,"longitude":-87.62318,"reserved":0,"last_update":"0001-01-01T00:00:00Z","name_a2s":"Uncletopia | Chicago | 6 | All Maps","protocol":17,"map":"pl_upward","folder":"tf","game":"Team Fortress","app_id":440,"player_count":24,"max_players":24,"Bots":0,"server_type":"Dedicated","server_os":"Linux","password":true,"vac":true,"version":"7961495","steam_id":85568392924866363,"keywords":["nocrits","nodmgspread","payload","uncletopia"],"game_id":440,"stv_port":27026,"stv_name":"Uncletopia | Chicago | 6 | All Maps | STV","players":[{"user_id":313,"name":"popfulmail","steam_id":76561198865971290,"connected_time":20000000000,"state":"spawning","ping":115},{"user_id":309,"name":"TacoMan","steam_id":76561198049405741,"connected_time":274000000000,"state":"active","ping":81},{"user_id":297,"name":"dark souls boss","steam_id":76561198316610724,"connected_time":799000000000,"state":"active","ping":89},{"user_id":278,"name":"vinny6","steam_id":76561198386735728,"connected_time":2127000000000,"state":"active","ping":60},{"user_id":213,"name":"fresco","steam_id":76561199101199477,"connected_time":5485000000000,"state":"active","ping":65},{"user_id":281,"name":"Oogle","steam_id":76561198041815877,"connected_time":1728000000000,"state":"active","ping":67},{"user_id":305,"name":"Huastecko","steam_id":76561198040299217,"connected_time":414000000000,"state":"active","ping":105},{"user_id":270,"name":"Niko Jims","steam_id":76561198010282168,"connected_time":2344000000000,"state":"active","ping":76},{"user_id":290,"name":"Nordie","steam_id":76561198102297774,"connected_time":1441000000000,"state":"active","ping":62},{"user_id":303,"name":"Maximum Flame","steam_id":76561198073682529,"connected_time":496000000000,"state":"active","ping":45},{"user_id":292,"name":"Lord Cutler Beckett","steam_id":76561198091356047,"connected_time":887000000000,"state":"active","ping":53},{"user_id":298,"name":"winrarFanatic","steam_id":76561198026538317,"connected_time":780000000000,"state":"active","ping":58},{"user_id":299,"name":"punk cock","steam_id":76561198418182764,"connected_time":734000000000,"state":"active","ping":73},{"user_id":310,"name":"Gorf","steam_id":76561199060557282,"connected_time":260000000000,"state":"active","ping":69},{"user_id":300,"name":"THOTDADDY","steam_id":76561198069868942,"connected_time":718000000000,"state":"active","ping":63},{"user_id":288,"name":"menk3","steam_id":76561198120888597,"connected_time":1504000000000,"state":"active","ping":71},{"user_id":308,"name":"CandyCadet 0_0","steam_id":76561199229845864,"connected_time":297000000000,"state":"active","ping":76},{"user_id":269,"name":"Hazeyboi","steam_id":76561198130687838,"connected_time":2433000000000,"state":"active","ping":46},{"user_id":274,"name":"chanoc","steam_id":76561198026734746,"connected_time":2176000000000,"state":"active","ping":100},{"user_id":301,"name":"nav","steam_id":76561198872608266,"connected_time":627000000000,"state":"active","ping":79},{"user_id":291,"name":"Mads Mikkelsen","steam_id":76561198083482001,"connected_time":1255000000000,"state":"active","ping":136},{"user_id":277,"name":"UzedPickle","steam_id":76561198005513760,"connected_time":2166000000000,"state":"active","ping":74},{"user_id":311,"name":"Capn. Wing Ding","steam_id":76561198076068424,"connected_time":251000000000,"state":"active","ping":91},{"user_id":296,"name":"BOBBYSMOKE","steam_id":76561198201872929,"connected_time":818000000000,"state":"active","ping":63}]},{"server_id":38,"name":"Uncletopia | Chicago | 7 | Stopwatch","name_short":"chi-7","host":"chi-2.us.uncletopia.com","port":27035,"enabled":true,"region":"us-central","cc":"us","latitude":41.881832,"longitude":-87.62318,"reserved":0,"last_update":"0001-01-01T00:00:00Z","name_a2s":"Uncletopia | Chicago | 7 | Stopwatch","protocol":17,"map":"koth_highpass","folder":"tf","game":"Team Fortress","app_id":440,"player_count":0,"max_players":24,"Bots":0,"server_type":"Dedicated","server_os":"Linux","password":true,"vac":true,"version":"7961495","steam_id":85568392924866364,"keywords":["cp","nocrits","nodmgspread","uncletopia"],"game_id":440,"stv_port":27036,"stv_name":"Uncletopia | Chicago | 7 | Stopwatch | STV","players":null},{"server_id":39,"name":"Uncletopia | Chicago | 8 | Community","name_short":"chi-8","host":"chi-2.us.uncletopia.com","port":27045,"enabled":true,"region":"us-central","cc":"us","latitude":41.881832,"longitude":-87.62318,"reserved":0,"last_update":"0001-01-01T00:00:00Z","name_a2s":"Uncletopia | Chicago | 8 | Community","protocol":17,"map":"workshop/cp_mannbase_rc2a.ugc1900737467","folder":"tf","game":"Team Fortress","app_id":440,"player_count":19,"max_players":24,"Bots":0,"server_type":"Dedicated","server_os":"Linux","password":true,"vac":true,"version":"7961495","steam_id":85568392924866365,"keywords":["cp","nocrits","nodmgspread","uncletopia"],"game_id":440,"stv_port":27046,"stv_name":"Uncletopia | Chicago | 8 | Community | STV","players":[{"user_id":63,"name":"bunsy","steam_id":76561198097292857,"connected_time":2254000000000,"state":"active","ping":59},{"user_id":105,"name":"itsPanzerPanda","steam_id":76561199441946346,"connected_time":37000000000,"state":"active","ping":47},{"user_id":90,"name":"buccellb","steam_id":76561198344975466,"connected_time":611000000000,"state":"active","ping":107},{"user_id":101,"name":"zambies708","steam_id":76561198311817488,"connected_time":150000000000,"state":"active","ping":97},{"user_id":98,"name":"the man of shit","steam_id":76561198003593070,"connected_time":262000000000,"state":"active","ping":58},{"user_id":20,"name":"fish (2:3)","steam_id":76561198134331073,"connected_time":4351000000000,"state":"active","ping":103},{"user_id":99,"name":"BraverPlains","steam_id":76561198812491514,"connected_time":231000000000,"state":"active","ping":103},{"user_id":97,"name":"יט","steam_id":76561199030697193,"connected_time":299000000000,"state":"active","ping":59},{"user_id":92,"name":"left 4 dead soker","steam_id":76561198066566813,"connected_time":528000000000,"state":"active","ping":139},{"user_id":34,"name":"Mooseanator 3000","steam_id":76561198060821243,"connected_time":3514000000000,"state":"active","ping":54},{"user_id":96,"name":"he suckin on my rick til i mort","steam_id":76561198310711692,"connected_time":330000000000,"state":"active","ping":171},{"user_id":100,"name":"Niles","steam_id":76561198199680643,"connected_time":223000000000,"state":"active","ping":70},{"user_id":38,"name":"Leemerang","steam_id":76561198035793700,"connected_time":3445000000000,"state":"active","ping":68},{"user_id":91,"name":"Walmart Employee","steam_id":76561198840373909,"connected_time":581000000000,"state":"active","ping":98},{"user_id":102,"name":"Gliglamesh","steam_id":76561198058221449,"connected_time":148000000000,"state":"active","ping":52},{"user_id":103,"name":"smugleafthesmug","steam_id":76561198844190634,"connected_time":132000000000,"state":"active","ping":44},{"user_id":104,"name":"green bean","steam_id":76561198113099204,"connected_time":103000000000,"state":"active","ping":86},{"user_id":89,"name":"Thilo","steam_id":76561197987278784,"connected_time":616000000000,"state":"active","ping":63},{"user_id":95,"name":"2Tired2p1 (LGBTQIA+ rights)","steam_id":76561198800432095,"connected_time":506000000000,"state":"active","ping":87}]},{"server_id":8,"name":"Uncletopia | Dallas | 1 | All Maps","name_short":"dal-1","host":"dal-1.us.uncletopia.com","port":27015,"enabled":true,"region":"us-central","cc":"us","latitude":32.779167,"longitude":-96.80889,"reserved":0,"last_update":"0001-01-01T00:00:00Z","name_a2s":"Uncletopia | Dallas | 1 | All Maps","protocol":17,"map":"cp_foundry","folder":"tf","game":"Team Fortress","app_id":440,"player_count":23,"max_players":24,"Bots":0,"server_type":"Dedicated","server_os":"Linux","password":true,"vac":true,"version":"7961495","steam_id":85568392924469986,"keywords":["cp","nocrits","nodmgspread","uncletopia"],"game_id":440,"stv_port":27016,"stv_name":"Uncletopia | Dallas | 1 | All Maps | STV","players":[{"user_id":434,"name":"SmokeyGalaxy","steam_id":76561198118780516,"connected_time":2635000000000,"state":"active","ping":61},{"user_id":468,"name":"Grand Piano Tuna","steam_id":76561198135137213,"connected_time":1028000000000,"state":"active","ping":54},{"user_id":475,"name":"ZombieSlayer77","steam_id":76561199023974356,"connected_time":326000000000,"state":"active","ping":85},{"user_id":476,"name":"Bert","steam_id":76561198059965358,"connected_time":233000000000,"state":"active","ping":97},{"user_id":477,"name":"Fireheart888","steam_id":76561198044555953,"connected_time":188000000000,"state":"active","ping":127},{"user_id":443,"name":"REEEEEEEEEEEEEEEEEEEE","steam_id":76561199411565786,"connected_time":2182000000000,"state":"active","ping":76},{"user_id":471,"name":"catfish from toontown","steam_id":76561198060070002,"connected_time":810000000000,"state":"active","ping":61},{"user_id":472,"name":"RandomRed25","steam_id":76561198935856436,"connected_time":744000000000,"state":"active","ping":85},{"user_id":455,"name":"flame","steam_id":76561198079321914,"connected_time":1970000000000,"state":"active","ping":102},{"user_id":462,"name":"Pizza","steam_id":76561198118748364,"connected_time":1790000000000,"state":"active","ping":78},{"user_id":478,"name":"TechnoBear2099","steam_id":76561198238863596,"connected_time":157000000000,"state":"active","ping":51},{"user_id":446,"name":"Jpxfred","steam_id":76561199414783749,"connected_time":2128000000000,"state":"active","ping":89},{"user_id":432,"name":"Dragorf2010","steam_id":76561199238402270,"connected_time":2901000000000,"state":"active","ping":87},{"user_id":479,"name":"ArmyGuyIan","steam_id":76561198120926552,"connected_time":150000000000,"state":"active","ping":87},{"user_id":473,"name":"Jennifer Aniston's Nipples","steam_id":76561198086107548,"connected_time":666000000000,"state":"active","ping":45},{"user_id":470,"name":"Camper","steam_id":76561198972004586,"connected_time":892000000000,"state":"active","ping":74},{"user_id":364,"name":"Karma","steam_id":76561198320530905,"connected_time":7888000000000,"state":"active","ping":47},{"user_id":465,"name":"DethSQRL","steam_id":76561199149628610,"connected_time":1350000000000,"state":"active","ping":84},{"user_id":481,"name":"Legit_Jaxer","steam_id":76561198172234053,"connected_time":96000000000,"state":"active","ping":113},{"user_id":458,"name":"Mixed Up","steam_id":76561198042570322,"connected_time":1906000000000,"state":"active","ping":81},{"user_id":459,"name":"ng","steam_id":76561198042097982,"connected_time":1895000000000,"state":"active","ping":75},{"user_id":414,"name":"A Straw","steam_id":76561199367935846,"connected_time":4316000000000,"state":"active","ping":72},{"user_id":467,"name":"clavin","steam_id":76561198069380992,"connected_time":1046000000000,"state":"active","ping":55}]},{"server_id":108,"name":"Uncletopia | Dallas | 2 | All Maps","name_short":"dal-2","host":"dal-1.us.uncletopia.com","port":27025,"enabled":true,"region":"us-central","cc":"us","latitude":32.779167,"longitude":-96.80889,"reserved":0,"last_update":"0001-01-01T00:00:00Z","name_a2s":"Uncletopia | Dallas | 2 | All Maps","protocol":17,"map":"pl_barnblitz","folder":"tf","game":"Team Fortress","app_id":440,"player_count":22,"max_players":24,"Bots":0,"server_type":"Dedicated","server_os":"Linux","password":true,"vac":true,"version":"7961495","steam_id":85568392924469988,"keywords":["nocrits","nodmgspread","payload","uncletopia"],"game_id":440,"stv_port":27026,"stv_name":"Uncletopia | Dallas | 2 | All Maps | STV","players":[{"user_id":464,"name":"Jaxell212","steam_id":76561198307237534,"connected_time":2491000000000,"state":"active","ping":75},{"user_id":495,"name":"StevieNicholai","steam_id":76561198327310266,"connected_time":1169000000000,"state":"active","ping":59},{"user_id":500,"name":"schmuck","steam_id":76561198143789773,"connected_time":250000000000,"state":"active","ping":56},{"user_id":501,"name":"^-^","steam_id":76561198831996918,"connected_time":187000000000,"state":"active","ping":81},{"user_id":482,"name":"Doctor Emerald(bison boss)","steam_id":76561199123003872,"connected_time":2164000000000,"state":"active","ping":88},{"user_id":460,"name":"gooch_masta","steam_id":76561198151578423,"connected_time":2610000000000,"state":"active","ping":58},{"user_id":502,"name":"rat","steam_id":76561198130412963,"connected_time":169000000000,"state":"active","ping":67},{"user_id":503,"name":"pressEifurjelly213","steam_id":76561198253056245,"connected_time":76000000000,"state":"active","ping":45},{"user_id":469,"name":"The Chosen One","steam_id":76561199046984627,"connected_time":2416000000000,"state":"active","ping":86},{"user_id":477,"name":"Stryder","steam_id":76561199387418697,"connected_time":2258000000000,"state":"active","ping":66},{"user_id":494,"name":"the man","steam_id":76561199103120314,"connected_time":1179000000000,"state":"active","ping":84},{"user_id":504,"name":"truepolymorph","steam_id":76561199083212027,"connected_time":52000000000,"state":"active","ping":87},{"user_id":463,"name":"AlmondMilk","steam_id":76561198151229725,"connected_time":2499000000000,"state":"active","ping":129},{"user_id":437,"name":"white hot cattle prod","steam_id":76561198927077674,"connected_time":5588000000000,"state":"active","ping":85},{"user_id":485,"name":"Bizsnitch","steam_id":76561198017936794,"connected_time":2016000000000,"state":"active","ping":61},{"user_id":509,"name":"MrLeftTurn","steam_id":76561198856743969,"connected_time":5000000000,"state":"spawning","ping":133},{"user_id":490,"name":"texari","steam_id":76561198968037317,"connected_time":1382000000000,"state":"active","ping":100},{"user_id":506,"name":"blonde binch","steam_id":76561198066227208,"connected_time":48000000000,"state":"active","ping":83},{"user_id":507,"name":"Sup m8","steam_id":76561198081659121,"connected_time":45000000000,"state":"active","ping":44},{"user_id":508,"name":"corygaming","steam_id":76561198035669409,"connected_time":45000000000,"state":"spawning","ping":107},{"user_id":487,"name":"phoenix","steam_id":76561199094659462,"connected_time":1978000000000,"state":"active","ping":87},{"user_id":480,"name":"ark","steam_id":76561198041066271,"connected_time":2225000000000,"state":"active","ping":69}]},{"server_id":404,"name":"Uncletopia | Dallas | 3 | All Maps","name_short":"dal-3","host":"dal-1.us.uncletopia.com","port":27035,"enabled":true,"region":"us-central","cc":"us","latitude":32.779167,"longitude":-96.80889,"reserved":0,"last_update":"0001-01-01T00:00:00Z","name_a2s":"Uncletopia | Dallas | 3 | All Maps","protocol":17,"map":"ctf_2fort","folder":"tf","game":"Team Fortress","app_id":440,"player_count":23,"max_players":24,"Bots":0,"server_type":"Dedicated","server_os":"Linux","password":true,"vac":true,"version":"7961495","steam_id":85568392924515219,"keywords":["ctf","nocrits","nodmgspread","uncletopia"],"game_id":440,"stv_port":27036,"stv_name":"Uncletopia | Dallas | 3 | All Maps | STV","players":[{"user_id":133,"name":"Mum","steam_id":76561198059209643,"connected_time":895000000000,"state":"active","ping":78},{"user_id":127,"name":"Shalom","steam_id":76561198410005222,"connected_time":1144000000000,"state":"active","ping":62},{"user_id":110,"name":"Ockulus","steam_id":76561199069638460,"connected_time":2339000000000,"state":"active","ping":79},{"user_id":108,"name":"Ichibanprofen","steam_id":76561199192132061,"connected_time":2536000000000,"state":"active","ping":75},{"user_id":148,"name":"DJ Pon-3","steam_id":76561199172206856,"connected_time":130000000000,"state":"active","ping":59},{"user_id":123,"name":"Dr. Maybe","steam_id":76561198268304564,"connected_time":1354000000000,"state":"active","ping":102},{"user_id":128,"name":"Midas","steam_id":76561198962694339,"connected_time":1024000000000,"state":"active","ping":104},{"user_id":129,"name":"pizzapoweredgaming","steam_id":76561199439563792,"connected_time":1015000000000,"state":"active","ping":95},{"user_id":130,"name":"pafijohn","steam_id":76561198002535190,"connected_time":998000000000,"state":"active","ping":77},{"user_id":95,"name":"Nixhalis","steam_id":76561198289151385,"connected_time":2779000000000,"state":"active","ping":129},{"user_id":131,"name":"The Real Chicken","steam_id":76561198209487287,"connected_time":982000000000,"state":"active","ping":82},{"user_id":81,"name":"R8 Me M8 8/8","steam_id":76561198025280917,"connected_time":4168000000000,"state":"active","ping":73},{"user_id":132,"name":"dusqii","steam_id":76561199229564370,"connected_time":973000000000,"state":"active","ping":98},{"user_id":134,"name":"aykt","steam_id":76561198049420969,"connected_time":858000000000,"state":"active","ping":52},{"user_id":105,"name":"Fishandfish","steam_id":76561198298483804,"connected_time":2632000000000,"state":"active","ping":102},{"user_id":135,"name":"Dax","steam_id":76561198045549713,"connected_time":858000000000,"state":"active","ping":63},{"user_id":136,"name":"SQUEERALL","steam_id":76561198064734550,"connected_time":791000000000,"state":"active","ping":85},{"user_id":137,"name":"L to the OG","steam_id":76561199215811448,"connected_time":762000000000,"state":"active","ping":104},{"user_id":149,"name":"gabowaboinsd","steam_id":76561199085636964,"connected_time":116000000000,"state":"active","ping":71},{"user_id":138,"name":"Nøva","steam_id":76561198961239441,"connected_time":728000000000,"state":"active","ping":100},{"user_id":147,"name":"BrineSlayer","steam_id":76561199086273776,"connected_time":236000000000,"state":"active","ping":102},{"user_id":141,"name":"My' Lanta","steam_id":76561198077512050,"connected_time":699000000000,"state":"active","ping":98},{"user_id":142,"name":"Killerfish360","steam_id":76561198115029584,"connected_time":678000000000,"state":"active","ping":45}]},{"server_id":405,"name":"Uncletopia | Dallas | 4 | Community","name_short":"dal-4","host":"dal-1.us.uncletopia.com","port":27045,"enabled":true,"region":"us-central","cc":"us","latitude":32.779167,"longitude":-96.80889,"reserved":0,"last_update":"0001-01-01T00:00:00Z","name_a2s":"Uncletopia | Dallas | 4 | Community","protocol":17,"map":"workshop/pl_badwater_pro_v12.ugc2142942074","folder":"tf","game":"Team Fortress","app_id":440,"player_count":1,"max_players":24,"Bots":0,"server_type":"Dedicated","server_os":"Linux","password":true,"vac":true,"version":"7961495","steam_id":85568392924515220,"keywords":["nocrits","nodmgspread","payload","uncletopia"],"game_id":440,"stv_port":27046,"stv_name":"Uncletopia | Dallas | 4 | Community | STV","players":[{"user_id":4692,"name":"corygaming","steam_id":76561198035669409,"connected_time":69000000000,"state":"connecting","ping":0}]},{"server_id":5,"name":"Uncletopia | Frankfurt | 1 | All Maps","name_short":"frk-1","host":"frk-1.de.uncletopia.com","port":27015,"enabled":true,"region":"eu","cc":"de","latitude":50.110924,"longitude":8.682127,"reserved":0,"last_update":"0001-01-01T00:00:00Z","name_a2s":"Uncletopia | Frankfurt | 1 | All Maps","protocol":17,"map":"cp_process_final","folder":"tf","game":"Team Fortress","app_id":440,"player_count":20,"max_players":24,"Bots":0,"server_type":"Dedicated","server_os":"Linux","password":true,"vac":true,"version":"7961495","steam_id":85568392924469989,"keywords":["cp","nocrits","nodmgspread","uncletopia"],"game_id":440,"stv_port":27016,"stv_name":"Uncletopia | Frankfurt | 1 | All Maps | STV","players":[{"user_id":837,"name":"buck","steam_id":76561198434662741,"connected_time":1638000000000,"state":"active","ping":64},{"user_id":824,"name":"foo","steam_id":76561198084451074,"connected_time":2709000000000,"state":"active","ping":96},{"user_id":839,"name":"Joe","steam_id":76561198145639903,"connected_time":1372000000000,"state":"active","ping":90},{"user_id":836,"name":"Yip","steam_id":76561198946540436,"connected_time":1960000000000,"state":"active","ping":56},{"user_id":840,"name":"Dylanardo","steam_id":76561198294726950,"connected_time":1366000000000,"state":"active","ping":177},{"user_id":841,"name":"medicinal man","steam_id":76561198202668788,"connected_time":1359000000000,"state":"active","ping":62},{"user_id":807,"name":"1# autistic beast","steam_id":76561198451638173,"connected_time":4722000000000,"state":"active","ping":68},{"user_id":854,"name":"Kiogeki","steam_id":76561197996707843,"connected_time":493000000000,"state":"active","ping":49},{"user_id":813,"name":"Alfred","steam_id":76561198081691895,"connected_time":3830000000000,"state":"active","ping":63},{"user_id":842,"name":"Claw Finger","steam_id":76561198116408865,"connected_time":1353000000000,"state":"active","ping":146},{"user_id":858,"name":"root beer nooo root beer","steam_id":76561199062586342,"connected_time":186000000000,"state":"active","ping":73},{"user_id":838,"name":"Ariko","steam_id":76561198434443307,"connected_time":1591000000000,"state":"active","ping":75},{"user_id":859,"name":"Akuma","steam_id":76561198355141374,"connected_time":159000000000,"state":"active","ping":82},{"user_id":741,"name":"M7MD3BD0","steam_id":76561199072750769,"connected_time":9300000000000,"state":"active","ping":94},{"user_id":843,"name":"ZyZ 2.0","steam_id":76561199178204775,"connected_time":1343000000000,"state":"active","ping":108},{"user_id":825,"name":"The Duke","steam_id":76561198063644325,"connected_time":2674000000000,"state":"active","ping":63},{"user_id":761,"name":"chillrend_morphs_high_lod6","steam_id":76561198452963141,"connected_time":7804000000000,"state":"active","ping":74},{"user_id":833,"name":"Isak","steam_id":76561198085959762,"connected_time":2098000000000,"state":"active","ping":75},{"user_id":852,"name":"X-Coder","steam_id":76561197961062331,"connected_time":639000000000,"state":"active","ping":55},{"user_id":847,"name":"Glitch","steam_id":76561198801335846,"connected_time":1074000000000,"state":"active","ping":50}]},{"server_id":110,"name":"Uncletopia | Frankfurt | 2 | All Maps","name_short":"frk-2","host":"frk-1.de.uncletopia.com","port":27025,"enabled":true,"region":"eu","cc":"de","latitude":50.110924,"longitude":8.682127,"reserved":0,"last_update":"0001-01-01T00:00:00Z","name_a2s":"Uncletopia | Frankfurt | 2 | All Maps","protocol":17,"map":"koth_cascade","folder":"tf","game":"Team Fortress","app_id":440,"player_count":0,"max_players":24,"Bots":0,"server_type":"Dedicated","server_os":"Linux","password":true,"vac":true,"version":"7961495","steam_id":85568392924469990,"keywords":["cp","nocrits","nodmgspread","uncletopia"],"game_id":440,"stv_port":27026,"stv_name":"Uncletopia | Frankfurt | 2 | All Maps | STV","players":null},{"server_id":308,"name":"Uncletopia | Frankfurt | 3 | All Maps","name_short":"frk-3","host":"frk-1.de.uncletopia.com","port":27035,"enabled":true,"region":"eu","cc":"de","latitude":50.110924,"longitude":8.682127,"reserved":0,"last_update":"0001-01-01T00:00:00Z","name_a2s":"Uncletopia | Frankfurt | 3 | All Maps","protocol":17,"map":"koth_lakeside_final","folder":"tf","game":"Team Fortress","app_id":440,"player_count":0,"max_players":24,"Bots":0,"server_type":"Dedicated","server_os":"Linux","password":true,"vac":true,"version":"7961495","steam_id":85568392924504274,"keywords":["cp","nocrits","nodmgspread","uncletopia"],"game_id":440,"stv_port":27036,"stv_name":"Uncletopia | Frankfurt | 3 | All Maps | STV","players":null},{"server_id":309,"name":"Uncletopia | Frankfurt | 4 | All Maps","name_short":"frk-4","host":"frk-1.de.uncletopia.com","port":27045,"enabled":true,"region":"eu","cc":"de","latitude":50.110924,"longitude":8.682127,"reserved":0,"last_update":"0001-01-01T00:00:00Z","name_a2s":"Uncletopia | Frankfurt | 4 | All Maps","protocol":17,"map":"pl_snowycoast","folder":"tf","game":"Team Fortress","app_id":440,"player_count":0,"max_players":24,"Bots":0,"server_type":"Dedicated","server_os":"Linux","password":true,"vac":true,"version":"7961495","steam_id":85568392924504275,"keywords":["nocrits","nodmgspread","payload","uncletopia"],"game_id":440,"stv_port":27046,"stv_name":"Uncletopia | Frankfurt | 4 | All Maps | STV","players":null},{"server_id":310,"name":"Uncletopia | Frankfurt | 5 | All Maps","name_short":"frk-5","host":"frk-1.de.uncletopia.com","port":27055,"enabled":true,"region":"eu","cc":"de","latitude":50.110924,"longitude":8.682127,"reserved":0,"last_update":"0001-01-01T00:00:00Z","name_a2s":"Uncletopia | Frankfurt | 5 | All Maps","protocol":17,"map":"pl_borneo","folder":"tf","game":"Team Fortress","app_id":440,"player_count":24,"max_players":24,"Bots":0,"server_type":"Dedicated","server_os":"Linux","password":true,"vac":true,"version":"7961495","steam_id":85568392924504277,"keywords":["nocrits","nodmgspread","payload","uncletopia"],"game_id":440,"stv_port":27056,"stv_name":"Uncletopia | Frankfurt | 5 | All Maps | STV","players":[{"user_id":854,"name":"Dinglesack","steam_id":76561198964514611,"connected_time":70000000000,"state":"active","ping":86},{"user_id":825,"name":"tired","steam_id":76561198046838168,"connected_time":1214000000000,"state":"active","ping":52},{"user_id":840,"name":"pavyonspor","steam_id":76561198116530769,"connected_time":383000000000,"state":"active","ping":83},{"user_id":841,"name":"Klorophyte","steam_id":76561198885112655,"connected_time":358000000000,"state":"active","ping":88},{"user_id":842,"name":"nordstream bomber","steam_id":76561199401283123,"connected_time":339000000000,"state":"active","ping":64},{"user_id":855,"name":"Russenluster","steam_id":76561198118016220,"connected_time":38000000000,"state":"active","ping":45},{"user_id":828,"name":"no blocking no dodging","steam_id":76561198138208569,"connected_time":1070000000000,"state":"active","ping":149},{"user_id":813,"name":"Penis Contortionist","steam_id":76561198073663784,"connected_time":3040000000000,"state":"active","ping":45},{"user_id":843,"name":"Zamorocian","steam_id":76561198076604017,"connected_time":301000000000,"state":"active","ping":57},{"user_id":837,"name":"Vinnidict","steam_id":76561198037087000,"connected_time":667000000000,"state":"active","ping":71},{"user_id":844,"name":"Skyrider of Spaceways","steam_id":76561197991678236,"connected_time":298000000000,"state":"active","ping":137},{"user_id":835,"name":"haunts","steam_id":76561198044766573,"connected_time":812000000000,"state":"active","ping":68},{"user_id":838,"name":"/Lovna/","steam_id":76561198881615638,"connected_time":633000000000,"state":"active","ping":61},{"user_id":845,"name":"dirty rascal","steam_id":76561198000871038,"connected_time":289000000000,"state":"active","ping":60},{"user_id":745,"name":"paypig","steam_id":76561198035137115,"connected_time":6747000000000,"state":"active","ping":64},{"user_id":852,"name":"syms","steam_id":76561198066679812,"connected_time":181000000000,"state":"active","ping":66},{"user_id":847,"name":"Maxin","steam_id":76561197999923364,"connected_time":265000000000,"state":"active","ping":74},{"user_id":759,"name":"Vershal Smershal","steam_id":76561198116223995,"connected_time":6099000000000,"state":"active","ping":58},{"user_id":848,"name":"CrazyTrajce","steam_id":76561199052469254,"connected_time":263000000000,"state":"active","ping":73},{"user_id":849,"name":":|","steam_id":76561198145232617,"connected_time":243000000000,"state":"active","ping":58},{"user_id":839,"name":"geroxe cruo","steam_id":76561199480942903,"connected_time":570000000000,"state":"active","ping":66},{"user_id":850,"name":"xD","steam_id":76561198967088125,"connected_time":239000000000,"state":"active","ping":74},{"user_id":808,"name":"去吃胡萝卜笨蛋","steam_id":76561198069649097,"connected_time":3614000000000,"state":"active","ping":75},{"user_id":703,"name":"crit hit!","steam_id":76561198112693639,"connected_time":9632000000000,"state":"active","ping":59}]},{"server_id":311,"name":"Uncletopia | Frankfurt | 6 | All Maps","name_short":"frk-6","host":"frk-1.de.uncletopia.com","port":27065,"enabled":true,"region":"eu","cc":"de","latitude":50.110924,"longitude":8.682127,"reserved":0,"last_update":"0001-01-01T00:00:00Z","name_a2s":"Uncletopia | Frankfurt | 6 | All Maps","protocol":17,"map":"koth_viaduct","folder":"tf","game":"Team Fortress","app_id":440,"player_count":0,"max_players":24,"Bots":0,"server_type":"Dedicated","server_os":"Linux","password":true,"vac":true,"version":"7961495","steam_id":85568392924504278,"keywords":["cp","nocrits","nodmgspread","uncletopia"],"game_id":440,"stv_port":27066,"stv_name":"Uncletopia | Frankfurt | 6 | All Maps | STV","players":null},{"server_id":23,"name":"Uncletopia | Frankfurt | 7 | Stopwatch","name_short":"frk-7","host":"frk-1.de.uncletopia.com","port":27075,"enabled":true,"region":"eu","cc":"de","latitude":50.110924,"longitude":8.682127,"reserved":0,"last_update":"0001-01-01T00:00:00Z","name_a2s":"Uncletopia | Frankfurt | 7 | Stopwatch","protocol":17,"map":"cp_metalworks","folder":"tf","game":"Team Fortress","app_id":440,"player_count":0,"max_players":24,"Bots":0,"server_type":"Dedicated","server_os":"Linux","password":true,"vac":true,"version":"7961495","steam_id":85568392924742827,"keywords":["cp","nocrits","nodmgspread","uncletopia"],"game_id":440,"stv_port":27076,"stv_name":"Uncletopia | Frankfurt | 7 | Stopwatch | STV","players":null},{"server_id":24,"name":"Uncletopia | Frankfurt | 8 | Community","name_short":"frk-8","host":"frk-1.de.uncletopia.com","port":27085,"enabled":true,"region":"eu","cc":"de","latitude":50.110924,"longitude":8.682127,"reserved":0,"last_update":"0001-01-01T00:00:00Z","name_a2s":"Uncletopia | Frankfurt | 8 | Community","protocol":17,"map":"workshop/pl_highwood_b13.ugc1769496557","folder":"tf","game":"Team Fortress","app_id":440,"player_count":0,"max_players":24,"Bots":0,"server_type":"Dedicated","server_os":"Linux","password":true,"vac":true,"version":"7961495","steam_id":85568392924742828,"keywords":["nocrits","nodmgspread","payload","uncletopia"],"game_id":440,"stv_port":27086,"stv_name":"Uncletopia | Frankfurt | 8 | Community | STV","players":null},{"server_id":202,"name":"Uncletopia | Hong Kong | 1 | All Maps","name_short":"hgk-1","host":"hgk-1.hk.uncletopia.com","port":27015,"enabled":true,"region":"asia","cc":"hk","latitude":22.302711,"longitude":114.177216,"reserved":0,"last_update":"0001-01-01T00:00:00Z","name_a2s":"Uncletopia | Hong Kong | 1 | All Maps","protocol":17,"map":"pl_frontier_final","folder":"tf","game":"Team Fortress","app_id":440,"player_count":1,"max_players":24,"Bots":0,"server_type":"Dedicated","server_os":"Linux","password":true,"vac":true,"version":"7961495","steam_id":85568392924494504,"keywords":["nocrits","nodmgspread","payload","uncletopia"],"game_id":440,"stv_port":27016,"stv_name":"Uncletopia | Hong Kong | 1 | All Maps | STV","players":[{"user_id":3,"name":"okthanks55555","steam_id":76561199094837481,"connected_time":113000000000,"state":"active","ping":85}]},{"server_id":1,"name":"Uncletopia | Los Angeles | 1 | All Maps","name_short":"lax-1","host":"lax-1.us.uncletopia.com","port":27015,"enabled":true,"region":"us-west","cc":"us","latitude":33.94279,"longitude":-118.41004,"reserved":0,"last_update":"0001-01-01T00:00:00Z","name_a2s":"Uncletopia | Los Angeles | 1 | All Maps","protocol":17,"map":"ctf_doublecross","folder":"tf","game":"Team Fortress","app_id":440,"player_count":24,"max_players":24,"Bots":0,"server_type":"Dedicated","server_os":"Linux","password":true,"vac":true,"version":"7961495","steam_id":85568392924469991,"keywords":["ctf","nocrits","nodmgspread","uncletopia"],"game_id":440,"stv_port":27016,"stv_name":"Uncletopia | Los Angeles | 1 | All Maps | STV","players":[{"user_id":299,"name":"ThePalmTopSushi","steam_id":76561198847076153,"connected_time":3409000000000,"state":"active","ping":46},{"user_id":304,"name":"zoinked out of my gourd","steam_id":76561198106291969,"connected_time":2184000000000,"state":"active","ping":97},{"user_id":321,"name":"Tideflat","steam_id":76561198179850851,"connected_time":517000000000,"state":"active","ping":91},{"user_id":312,"name":"Whisper!","steam_id":76561198119609795,"connected_time":1617000000000,"state":"active","ping":57},{"user_id":269,"name":"beezer","steam_id":76561199049160726,"connected_time":7603000000000,"state":"active","ping":58},{"user_id":300,"name":"noceof","steam_id":76561198043656816,"connected_time":3391000000000,"state":"active","ping":171},{"user_id":322,"name":"killeroverscore123","steam_id":76561199168131321,"connected_time":498000000000,"state":"active","ping":114},{"user_id":317,"name":"Lysander Crow","steam_id":76561198214659356,"connected_time":892000000000,"state":"active","ping":64},{"user_id":309,"name":"roach :3","steam_id":76561198354811369,"connected_time":1712000000000,"state":"active","ping":47},{"user_id":255,"name":"「Jimbo Reference」","steam_id":76561198016078541,"connected_time":9062000000000,"state":"active","ping":62},{"user_id":238,"name":"Mitty","steam_id":76561198014177684,"connected_time":9841000000000,"state":"active","ping":53},{"user_id":265,"name":"The Robot Menace","steam_id":76561198043390413,"connected_time":7758000000000,"state":"active","ping":78},{"user_id":310,"name":"Grim","steam_id":76561198016978310,"connected_time":1687000000000,"state":"active","ping":75},{"user_id":319,"name":"AgentOfChaozz","steam_id":76561198210971421,"connected_time":626000000000,"state":"active","ping":93},{"user_id":301,"name":"Anon","steam_id":76561198109740776,"connected_time":3261000000000,"state":"active","ping":57},{"user_id":325,"name":"look at me hector","steam_id":76561198168492250,"connected_time":340000000000,"state":"active","ping":49},{"user_id":311,"name":"Bodach J","steam_id":76561197970562873,"connected_time":1667000000000,"state":"active","ping":48},{"user_id":323,"name":"Intex The Robo Kobold","steam_id":76561198231061660,"connected_time":483000000000,"state":"active","ping":111},{"user_id":324,"name":"Lobstyr","steam_id":76561198884406859,"connected_time":436000000000,"state":"active","ping":88},{"user_id":313,"name":"Grinski","steam_id":76561198054787727,"connected_time":1304000000000,"state":"active","ping":63},{"user_id":318,"name":"Rennsellaer","steam_id":76561198096207580,"connected_time":885000000000,"state":"active","ping":56},{"user_id":314,"name":"video games","steam_id":76561198334059206,"connected_time":1060000000000,"state":"active","ping":61},{"user_id":287,"name":"JayDuh","steam_id":76561198396293109,"connected_time":5123000000000,"state":"active","ping":96},{"user_id":275,"name":"U ω U","steam_id":76561198118802562,"connected_time":6706000000000,"state":"active","ping":58}]},{"server_id":112,"name":"Uncletopia | Los Angeles | 2 | All Maps","name_short":"lax-2","host":"lax-1.us.uncletopia.com","port":27025,"enabled":true,"region":"us-west","cc":"us","latitude":33.94279,"longitude":-118.41004,"reserved":0,"last_update":"0001-01-01T00:00:00Z","name_a2s":"Uncletopia | Los Angeles | 2 | All Maps","protocol":17,"map":"cp_egypt_final","folder":"tf","game":"Team Fortress","app_id":440,"player_count":7,"max_players":24,"Bots":0,"server_type":"Dedicated","server_os":"Linux","password":true,"vac":true,"version":"7961495","steam_id":85568392924469992,"keywords":["cp","nocrits","nodmgspread","uncletopia"],"game_id":440,"stv_port":27026,"stv_name":"Uncletopia | Los Angeles | 2 | All Maps | STV","players":[{"user_id":18,"name":"MoopStoop","steam_id":76561198140936620,"connected_time":660000000000,"state":"active","ping":82},{"user_id":19,"name":"KritzKow","steam_id":76561198086164003,"connected_time":657000000000,"state":"active","ping":34},{"user_id":20,"name":"Sham Cow","steam_id":76561198064556977,"connected_time":656000000000,"state":"active","ping":85},{"user_id":21,"name":"cirno","steam_id":76561198166081596,"connected_time":647000000000,"state":"active","ping":36},{"user_id":22,"name":"johnman gooberguy","steam_id":76561199014859764,"connected_time":633000000000,"state":"active","ping":58},{"user_id":24,"name":"Fusion","steam_id":76561198119766372,"connected_time":586000000000,"state":"active","ping":73},{"user_id":26,"name":"PandaWithHat2313","steam_id":76561199116285411,"connected_time":520000000000,"state":"active","ping":58}]},{"server_id":324,"name":"Uncletopia | Los Angeles | 3 | All Maps","name_short":"lax-3","host":"lax-1.us.uncletopia.com","port":27035,"enabled":true,"region":"us-west","cc":"us","latitude":33.94279,"longitude":-118.41004,"reserved":0,"last_update":"0001-01-01T00:00:00Z","name_a2s":"Uncletopia | Los Angeles | 3 | All Maps","protocol":17,"map":"koth_viaduct","folder":"tf","game":"Team Fortress","app_id":440,"player_count":0,"max_players":24,"Bots":0,"server_type":"Dedicated","server_os":"Linux","password":true,"vac":true,"version":"7961495","steam_id":85568392924510198,"keywords":["cp","nocrits","nodmgspread","uncletopia"],"game_id":440,"stv_port":27036,"stv_name":"Uncletopia | Los Angeles | 3 | All Maps | STV","players":null},{"server_id":25,"name":"Uncletopia | Los Angeles | 4 | Stopwatch","name_short":"lax-4","host":"lax-1.us.uncletopia.com","port":27045,"enabled":true,"region":"us-west","cc":"us","latitude":33.94279,"longitude":-118.41004,"reserved":0,"last_update":"0001-01-01T00:00:00Z","name_a2s":"Uncletopia | Los Angeles | 4 | Stopwatch","protocol":17,"map":"workshop/koth_product_final.ugc454272353","folder":"tf","game":"Team Fortress","app_id":440,"player_count":0,"max_players":24,"Bots":0,"server_type":"Dedicated","server_os":"Linux","password":true,"vac":true,"version":"7961495","steam_id":85568392924510199,"keywords":["cp","nocrits","nodmgspread","uncletopia"],"game_id":440,"stv_port":27046,"stv_name":"Uncletopia | Los Angeles | 4 | Stopwatch | STV","players":null},{"server_id":11,"name":"Uncletopia | London | 1 | All Maps","name_short":"lon-1","host":"lon-1.uk.uncletopia.com","port":27015,"enabled":true,"region":"eu","cc":"gb","latitude":51.509865,"longitude":-0.118092,"reserved":0,"last_update":"0001-01-01T00:00:00Z","name_a2s":"Uncletopia | London | 1 | All Maps","protocol":17,"map":"ctf_2fort","folder":"tf","game":"Team Fortress","app_id":440,"player_count":1,"max_players":24,"Bots":0,"server_type":"Dedicated","server_os":"Linux","password":true,"vac":true,"version":"7961495","steam_id":85568392924367362,"keywords":["ctf","nocrits","nodmgspread","uncletopia"],"game_id":440,"stv_port":27016,"stv_name":"Uncletopia | London | 1 | All Maps | STV","players":[{"user_id":726,"name":"z3","steam_id":76561198165028946,"connected_time":2599000000000,"state":"active","ping":60}]},{"server_id":114,"name":"Uncletopia | London | 2 | All Maps","name_short":"lon-2","host":"lon-1.uk.uncletopia.com","port":27025,"enabled":true,"region":"eu","cc":"gb","latitude":51.509865,"longitude":-0.118092,"reserved":0,"last_update":"0001-01-01T00:00:00Z","name_a2s":"Uncletopia | London | 2 | All Maps","protocol":17,"map":"cp_snakewater_final1","folder":"tf","game":"Team Fortress","app_id":440,"player_count":23,"max_players":24,"Bots":0,"server_type":"Dedicated","server_os":"Linux","password":true,"vac":true,"version":"7961495","steam_id":85568392924470941,"keywords":["cp","nocrits","nodmgspread","uncletopia"],"game_id":440,"stv_port":27026,"stv_name":"Uncletopia | London | 2 | All Maps | STV","players":[{"user_id":766,"name":"unnamed","steam_id":76561198373831657,"connected_time":1840000000000,"state":"active","ping":85},{"user_id":764,"name":"Jimmy Poppadopolos","steam_id":76561198044825612,"connected_time":2018000000000,"state":"active","ping":54},{"user_id":748,"name":"Ziemniaczki","steam_id":76561198061866742,"connected_time":2918000000000,"state":"active","ping":70},{"user_id":791,"name":"big bug buttz","steam_id":76561198115106008,"connected_time":22000000000,"state":"spawning","ping":79},{"user_id":768,"name":"Swedde","steam_id":76561198297296440,"connected_time":1782000000000,"state":"active","ping":70},{"user_id":784,"name":"..-. .- - / -. ..- -","steam_id":76561198138189069,"connected_time":697000000000,"state":"active","ping":55},{"user_id":788,"name":"f0x","steam_id":76561198072921704,"connected_time":321000000000,"state":"active","ping":44},{"user_id":686,"name":"Snowmotion","steam_id":76561198075022454,"connected_time":6080000000000,"state":"active","ping":69},{"user_id":786,"name":"b^uma","steam_id":76561198856016840,"connected_time":599000000000,"state":"active","ping":118},{"user_id":785,"name":"Dudepile","steam_id":76561198005831909,"connected_time":631000000000,"state":"active","ping":77},{"user_id":790,"name":"jjvthou(NOtdRuNkMeswEaRss)","steam_id":76561199403071554,"connected_time":96000000000,"state":"active","ping":130},{"user_id":772,"name":"Jureron","steam_id":76561198097535175,"connected_time":1721000000000,"state":"active","ping":64},{"user_id":773,"name":"Hex Reflect","steam_id":76561197972572841,"connected_time":1691000000000,"state":"active","ping":69},{"user_id":759,"name":"Jakk","steam_id":76561198041537908,"connected_time":2146000000000,"state":"active","ping":102},{"user_id":789,"name":"MuchoBroke","steam_id":76561199389474207,"connected_time":271000000000,"state":"active","ping":44},{"user_id":702,"name":"kaelan","steam_id":76561198001425310,"connected_time":5357000000000,"state":"active","ping":74},{"user_id":779,"name":"G4merSz3mcsi (▰˘◡˘▰)","steam_id":76561199055233794,"connected_time":1521000000000,"state":"active","ping":71},{"user_id":706,"name":"biohazard.pt","steam_id":76561198088367808,"connected_time":5235000000000,"state":"active","ping":68},{"user_id":756,"name":"Dingle Loui","steam_id":76561198114985331,"connected_time":2580000000000,"state":"active","ping":56},{"user_id":743,"name":"Grey","steam_id":76561198187190267,"connected_time":3126000000000,"state":"active","ping":45},{"user_id":787,"name":"etc","steam_id":76561197998394797,"connected_time":583000000000,"state":"active","ping":49},{"user_id":780,"name":"MeleeMeta","steam_id":76561198237963558,"connected_time":1449000000000,"state":"active","ping":59},{"user_id":755,"name":"aSourLemonade","steam_id":76561198872382968,"connected_time":2656000000000,"state":"active","ping":67}]},{"server_id":320,"name":"Uncletopia | London | 3 | All Maps","name_short":"lon-3","host":"lon-1.uk.uncletopia.com","port":27035,"enabled":true,"region":"eu","cc":"gb","latitude":51.509865,"longitude":-0.118092,"reserved":0,"last_update":"0001-01-01T00:00:00Z","name_a2s":"Uncletopia | London | 3 | All Maps","protocol":17,"map":"koth_highpass","folder":"tf","game":"Team Fortress","app_id":440,"player_count":0,"max_players":24,"Bots":0,"server_type":"Dedicated","server_os":"Linux","password":true,"vac":true,"version":"7961495","steam_id":85568392924510192,"keywords":["cp","nocrits","nodmgspread","uncletopia"],"game_id":440,"stv_port":27036,"stv_name":"Uncletopia | London | 3 | All Maps | STV","players":null},{"server_id":321,"name":"Uncletopia | London | 4 | All Maps","name_short":"lon-4","host":"lon-1.uk.uncletopia.com","port":27045,"enabled":true,"region":"eu","cc":"gb","latitude":51.509865,"longitude":-0.118092,"reserved":0,"last_update":"0001-01-01T00:00:00Z","name_a2s":"Uncletopia | London | 4 | All Maps","protocol":17,"map":"koth_highpass","folder":"tf","game":"Team Fortress","app_id":440,"player_count":0,"max_players":24,"Bots":0,"server_type":"Dedicated","server_os":"Linux","password":true,"vac":true,"version":"7961495","steam_id":85568392924510193,"keywords":["cp","nocrits","nodmgspread","uncletopia"],"game_id":440,"stv_port":27046,"stv_name":"Uncletopia | London | 4 | All Maps | STV","players":null},{"server_id":21,"name":"Uncletopia | London | 5 | All Maps","name_short":"lon-5","host":"lon-1.uk.uncletopia.com","port":27055,"enabled":true,"region":"eu","cc":"gb","latitude":51.509865,"longitude":-0.118092,"reserved":0,"last_update":"0001-01-01T00:00:00Z","name_a2s":"Uncletopia | London | 5 | All Maps","protocol":17,"map":"koth_harvest_final","folder":"tf","game":"Team Fortress","app_id":440,"player_count":0,"max_players":24,"Bots":0,"server_type":"Dedicated","server_os":"Linux","password":true,"vac":true,"version":"7961495","steam_id":85568392924742829,"keywords":["cp","nocrits","nodmgspread","uncletopia"],"game_id":440,"stv_port":27056,"stv_name":"Uncletopia | London | 5 | All Maps | STV","players":null},{"server_id":22,"name":"Uncletopia | London | 6 | All Maps","name_short":"lon-6","host":"lon-1.uk.uncletopia.com","port":27065,"enabled":true,"region":"eu","cc":"gb","latitude":51.509865,"longitude":-0.118092,"reserved":0,"last_update":"0001-01-01T00:00:00Z","name_a2s":"Uncletopia | London | 6 | All Maps","protocol":17,"map":"koth_lakeside_final","folder":"tf","game":"Team Fortress","app_id":440,"player_count":0,"max_players":24,"Bots":0,"server_type":"Dedicated","server_os":"Linux","password":true,"vac":true,"version":"7961495","steam_id":85568392924742830,"keywords":["cp","nocrits","nodmgspread","uncletopia"],"game_id":440,"stv_port":27066,"stv_name":"Uncletopia | London | 6 | All Maps | STV","players":null},{"server_id":40,"name":"Uncletopia | London | 7 | Stopwatch","name_short":"lon-7","host":"lon-1.uk.uncletopia.com","port":27075,"enabled":true,"region":"eu","cc":"gb","latitude":51.509865,"longitude":-0.118092,"reserved":0,"last_update":"0001-01-01T00:00:00Z","name_a2s":"Uncletopia | London | 7 | Stopwatch","protocol":17,"map":"workshop/koth_product_final.ugc454272353","folder":"tf","game":"Team Fortress","app_id":440,"player_count":0,"max_players":24,"Bots":0,"server_type":"Dedicated","server_os":"Linux","password":true,"vac":true,"version":"7961495","steam_id":85568392924964314,"keywords":["cp","nocrits","nodmgspread","uncletopia"],"game_id":440,"stv_port":27076,"stv_name":"Uncletopia | London | 7 | Stopwatch | STV","players":null},{"server_id":41,"name":"Uncletopia | London | 8 | Community","name_short":"lon-8","host":"lon-1.uk.uncletopia.com","port":27085,"enabled":true,"region":"eu","cc":"gb","latitude":51.509865,"longitude":-0.118092,"reserved":0,"last_update":"0001-01-01T00:00:00Z","name_a2s":"Uncletopia | London | 8 | Community","protocol":17,"map":"workshop/koth_ramjam_rc1.ugc459778887","folder":"tf","game":"Team Fortress","app_id":440,"player_count":0,"max_players":24,"Bots":0,"server_type":"Dedicated","server_os":"Linux","password":true,"vac":true,"version":"7961495","steam_id":85568392924964315,"keywords":["cp","nocrits","nodmgspread","uncletopia"],"game_id":440,"stv_port":27086,"stv_name":"Uncletopia | London | 8 | Community | STV","players":null},{"server_id":300,"name":"Uncletopia | Montréal | 1 | One Thousand Uncles","name_short":"mtl-1","host":"mtl-1.ca.uncletopia.com","port":27015,"enabled":true,"region":"us-east","cc":"ca","latitude":45.50889,"longitude":-73.56167,"reserved":0,"last_update":"0001-01-01T00:00:00Z","name_a2s":"","protocol":0,"map":"","folder":"","game":"","app_id":0,"player_count":0,"max_players":0,"Bots":0,"server_type":"","server_os":"","password":false,"vac":false,"version":"","steam_id":0,"keywords":null,"game_id":0,"stv_port":0,"stv_name":"","players":null},{"server_id":301,"name":"Uncletopia | Montréal | 2 | One Thousand Uncles","name_short":"mtl-2","host":"mtl-1.ca.uncletopia.com","port":27025,"enabled":true,"region":"us-east","cc":"ca","latitude":45.50889,"longitude":-73.56167,"reserved":0,"last_update":"0001-01-01T00:00:00Z","name_a2s":"","protocol":0,"map":"","folder":"","game":"","app_id":0,"player_count":13,"max_players":0,"Bots":0,"server_type":"","server_os":"","password":false,"vac":false,"version":"","steam_id":0,"keywords":null,"game_id":0,"stv_port":0,"stv_name":"","players":[{"user_id":229,"name":"Artificial Unintelligence","steam_id":76561199056745987,"connected_time":1261000000000,"state":"active","ping":124},{"user_id":232,"name":"DarkJesterofit","steam_id":76561198438092461,"connected_time":1099000000000,"state":"active","ping":123},{"user_id":231,"name":"Sheo","steam_id":76561198142599906,"connected_time":1183000000000,"state":"active","ping":119},{"user_id":183,"name":"joeb","steam_id":76561198149124090,"connected_time":5392000000000,"state":"active","ping":57},{"user_id":184,"name":"mmphf, eugh... i ated te banan","steam_id":76561198877232084,"connected_time":3684000000000,"state":"active","ping":69},{"user_id":206,"name":"bman1035","steam_id":76561199050001242,"connected_time":2892000000000,"state":"active","ping":89},{"user_id":242,"name":"PeterChan","steam_id":76561198398192880,"connected_time":313000000000,"state":"active","ping":76},{"user_id":233,"name":"Swag","steam_id":76561198835483242,"connected_time":925000000000,"state":"active","ping":60},{"user_id":234,"name":"eipi","steam_id":76561199084492097,"connected_time":902000000000,"state":"active","ping":52},{"user_id":237,"name":"TheMtnDewback","steam_id":76561199468606424,"connected_time":823000000000,"state":"active","ping":48},{"user_id":236,"name":"MysteryTopHat","steam_id":76561199011317714,"connected_time":863000000000,"state":"active","ping":62},{"user_id":238,"name":"angry!!!!!","steam_id":76561198435286999,"connected_time":773000000000,"state":"active","ping":44},{"user_id":245,"name":"Racist Monkey Man","steam_id":76561199083241015,"connected_time":2000000000,"state":"spawning","ping":43}]},{"server_id":302,"name":"Uncletopia | Montréal | 3 | One Thousand Uncles","name_short":"mtl-3","host":"mtl-1.ca.uncletopia.com","port":27035,"enabled":true,"region":"us-east","cc":"ca","latitude":45.50889,"longitude":-73.56167,"reserved":0,"last_update":"0001-01-01T00:00:00Z","name_a2s":"","protocol":0,"map":"","folder":"","game":"","app_id":0,"player_count":11,"max_players":0,"Bots":0,"server_type":"","server_os":"","password":false,"vac":false,"version":"","steam_id":0,"keywords":null,"game_id":0,"stv_port":0,"stv_name":"","players":[{"user_id":90,"name":"Mr.Meeseeks","steam_id":76561198335193881,"connected_time":372000000000,"state":"active","ping":74},{"user_id":76,"name":"The Fragrance of Dark Coffee","steam_id":76561198013111370,"connected_time":2370000000000,"state":"active","ping":59},{"user_id":77,"name":"[SCP] Ericbas","steam_id":76561198064405262,"connected_time":2357000000000,"state":"active","ping":45},{"user_id":79,"name":"Jimmy Pubetron","steam_id":76561198077634776,"connected_time":2242000000000,"state":"active","ping":202},{"user_id":80,"name":"armaicho","steam_id":76561198113374338,"connected_time":2052000000000,"state":"active","ping":61},{"user_id":81,"name":"Misanthrope","steam_id":76561198090692884,"connected_time":1745000000000,"state":"active","ping":58},{"user_id":85,"name":"BB Lorexav","steam_id":76561198207565988,"connected_time":1067000000000,"state":"active","ping":77},{"user_id":87,"name":"LightBulbGlue #SaveTF2","steam_id":76561198329573529,"connected_time":685000000000,"state":"active","ping":74},{"user_id":88,"name":"Yorozuya with Odd Jobs","steam_id":76561198219473128,"connected_time":606000000000,"state":"active","ping":65},{"user_id":89,"name":"Kommadant","steam_id":76561198974757310,"connected_time":565000000000,"state":"active","ping":61},{"user_id":107,"name":"Ekohtwo","steam_id":76561198067994868,"connected_time":344000000000,"state":"active","ping":63}]},{"server_id":13,"name":"Uncletopia | New York City | 1 | All Maps","name_short":"nyc-1","host":"nyc-1.us.uncletopia.com","port":27015,"enabled":true,"region":"us-east","cc":"us","latitude":40.73061,"longitude":-73.93524,"reserved":0,"last_update":"0001-01-01T00:00:00Z","name_a2s":"Uncletopia | New York City | 1 | All Maps","protocol":17,"map":"pl_frontier_final","folder":"tf","game":"Team Fortress","app_id":440,"player_count":24,"max_players":24,"Bots":0,"server_type":"Dedicated","server_os":"Linux","password":true,"vac":true,"version":"7961495","steam_id":85568392924469993,"keywords":["nocrits","nodmgspread","payload","uncletopia"],"game_id":440,"stv_port":27016,"stv_name":"Uncletopia | New York City | 1 | All Maps | STV","players":[{"user_id":735,"name":"Nexusuxen","steam_id":76561198117547131,"connected_time":2464000000000,"state":"active","ping":74},{"user_id":699,"name":"Tokyo_Timeshift_","steam_id":76561198048677523,"connected_time":5124000000000,"state":"active","ping":60},{"user_id":751,"name":"Miner2495","steam_id":76561198445904523,"connected_time":988000000000,"state":"active","ping":62},{"user_id":776,"name":"Ya viene...🥵","steam_id":76561198298364415,"connected_time":196000000000,"state":"active","ping":122},{"user_id":779,"name":"elusivetruth","steam_id":76561198445452735,"connected_time":100000000000,"state":"active","ping":60},{"user_id":641,"name":"Horse","steam_id":76561198332887086,"connected_time":10787000000000,"state":"active","ping":44},{"user_id":770,"name":"Fiendish Frog","steam_id":76561198029478821,"connected_time":621000000000,"state":"active","ping":51},{"user_id":746,"name":"David Blaine","steam_id":76561198980560578,"connected_time":1261000000000,"state":"active","ping":72},{"user_id":761,"name":"mostly ham","steam_id":76561199479937232,"connected_time":832000000000,"state":"active","ping":77},{"user_id":721,"name":"ndvr","steam_id":76561199379200102,"connected_time":3573000000000,"state":"active","ping":51},{"user_id":694,"name":"SpongedSocks","steam_id":76561198374009086,"connected_time":6282000000000,"state":"active","ping":54},{"user_id":742,"name":"lwyr","steam_id":76561198007982579,"connected_time":1490000000000,"state":"active","ping":46},{"user_id":759,"name":"Kite-Man","steam_id":76561198064302940,"connected_time":849000000000,"state":"active","ping":55},{"user_id":747,"name":"Billyjoe3000","steam_id":76561198306524388,"connected_time":1246000000000,"state":"active","ping":84},{"user_id":753,"name":"Indian Elephant From Pokemon","steam_id":76561198064249841,"connected_time":947000000000,"state":"active","ping":49},{"user_id":772,"name":"Young-OG","steam_id":76561198058800479,"connected_time":508000000000,"state":"active","ping":76},{"user_id":653,"name":"epsilene","steam_id":76561198027468624,"connected_time":9696000000000,"state":"active","ping":42},{"user_id":774,"name":"Axio","steam_id":76561198046826031,"connected_time":421000000000,"state":"active","ping":135},{"user_id":740,"name":"Dareu","steam_id":76561198081781710,"connected_time":1554000000000,"state":"active","ping":57},{"user_id":691,"name":"on that zaza?","steam_id":76561198038713198,"connected_time":6462000000000,"state":"active","ping":55},{"user_id":748,"name":"Whorse","steam_id":76561198114141445,"connected_time":1238000000000,"state":"active","ping":88},{"user_id":767,"name":"afk on my second monitor","steam_id":76561197992498834,"connected_time":737000000000,"state":"active","ping":63},{"user_id":778,"name":"CRT Cutie","steam_id":76561198055970193,"connected_time":182000000000,"state":"active","ping":35},{"user_id":769,"name":"Swifgz","steam_id":76561198162875756,"connected_time":652000000000,"state":"active","ping":52}]},{"server_id":14,"name":"Uncletopia | New York City | 2 | All Maps","name_short":"nyc-2","host":"nyc-1.us.uncletopia.com","port":27025,"enabled":true,"region":"us-east","cc":"us","latitude":40.73061,"longitude":-73.93524,"reserved":0,"last_update":"0001-01-01T00:00:00Z","name_a2s":"Uncletopia | New York City | 2 | All Maps","protocol":17,"map":"pl_badwater","folder":"tf","game":"Team Fortress","app_id":440,"player_count":24,"max_players":24,"Bots":0,"server_type":"Dedicated","server_os":"Linux","password":true,"vac":true,"version":"7961495","steam_id":85568392924469994,"keywords":["nocrits","nodmgspread","payload","uncletopia"],"game_id":440,"stv_port":27026,"stv_name":"Uncletopia | New York City | 2 | All Maps | STV","players":[{"user_id":626,"name":"Hedene","steam_id":76561198044848271,"connected_time":2131000000000,"state":"active","ping":69},{"user_id":581,"name":"BarrowBaron","steam_id":76561198013633236,"connected_time":5273000000000,"state":"active","ping":65},{"user_id":640,"name":"YourFriendJessie","steam_id":76561198176883097,"connected_time":990000000000,"state":"active","ping":46},{"user_id":608,"name":"Hopes","steam_id":76561198080979276,"connected_time":2613000000000,"state":"active","ping":127},{"user_id":606,"name":"neco arc","steam_id":76561198085725949,"connected_time":2855000000000,"state":"active","ping":95},{"user_id":642,"name":"SmiteSight","steam_id":76561199122315920,"connected_time":976000000000,"state":"active","ping":84},{"user_id":589,"name":"Smiley","steam_id":76561198056430811,"connected_time":4125000000000,"state":"active","ping":71},{"user_id":573,"name":"TheRatBoi","steam_id":76561199123032506,"connected_time":5643000000000,"state":"active","ping":93},{"user_id":643,"name":"alphatwo","steam_id":76561198012511255,"connected_time":972000000000,"state":"active","ping":72},{"user_id":549,"name":"t.tv/stabslive","steam_id":76561198293116584,"connected_time":6801000000000,"state":"active","ping":65},{"user_id":619,"name":"Classic Sniper","steam_id":76561199422766504,"connected_time":2499000000000,"state":"active","ping":94},{"user_id":609,"name":"some ants shaped like a moron","steam_id":76561199100849880,"connected_time":2581000000000,"state":"active","ping":95},{"user_id":644,"name":"Yeihlouh","steam_id":76561198119484830,"connected_time":912000000000,"state":"active","ping":55},{"user_id":659,"name":"Manila Folders","steam_id":76561198212083128,"connected_time":186000000000,"state":"active","ping":74},{"user_id":645,"name":"big boy bobert","steam_id":76561198801207748,"connected_time":852000000000,"state":"active","ping":65},{"user_id":599,"name":"H0wlr","steam_id":76561198012332824,"connected_time":3040000000000,"state":"active","ping":47},{"user_id":635,"name":"Crouching Noob Hidden Sniper","steam_id":76561197971328473,"connected_time":1161000000000,"state":"active","ping":88},{"user_id":615,"name":"drive","steam_id":76561199137541204,"connected_time":2546000000000,"state":"active","ping":69},{"user_id":655,"name":"JoeRemains","steam_id":76561199020418540,"connected_time":226000000000,"state":"active","ping":76},{"user_id":660,"name":"antoniov00gaming","steam_id":76561198364632073,"connected_time":75000000000,"state":"active","ping":87},{"user_id":622,"name":"made in jNanachikov","steam_id":76561198236206014,"connected_time":2467000000000,"state":"active","ping":118},{"user_id":554,"name":"ali :3","steam_id":76561198261914512,"connected_time":6772000000000,"state":"active","ping":48},{"user_id":634,"name":"photonbinding","steam_id":76561198250996330,"connected_time":1270000000000,"state":"active","ping":101},{"user_id":641,"name":"MissingNo","steam_id":76561198364145213,"connected_time":990000000000,"state":"active","ping":64}]},{"server_id":15,"name":"Uncletopia | New York City | 3 | Stopwatch","name_short":"nyc-3","host":"nyc-1.us.uncletopia.com","port":27035,"enabled":true,"region":"us-east","cc":"us","latitude":40.73061,"longitude":-73.93524,"reserved":0,"last_update":"0001-01-01T00:00:00Z","name_a2s":"Uncletopia | New York City | 3 | Stopwatch","protocol":17,"map":"workshop/pl_badwater_pro_v12.ugc2142942074","folder":"tf","game":"Team Fortress","app_id":440,"player_count":4,"max_players":24,"Bots":0,"server_type":"Dedicated","server_os":"Linux","password":true,"vac":true,"version":"7961495","steam_id":85568392924742820,"keywords":["nocrits","nodmgspread","payload","uncletopia"],"game_id":440,"stv_port":27036,"stv_name":"Uncletopia | New York City | 3 | Stopwatch | STV","players":[{"user_id":152,"name":"nethersome","steam_id":76561198892225148,"connected_time":524000000000,"state":"active","ping":119},{"user_id":129,"name":"Moody","steam_id":76561199013442105,"connected_time":2567000000000,"state":"active","ping":87},{"user_id":149,"name":"Thog","steam_id":76561198093699060,"connected_time":910000000000,"state":"active","ping":52},{"user_id":125,"name":"Propaniac Gaming ☑","steam_id":76561198133963270,"connected_time":2640000000000,"state":"active","ping":46}]},{"server_id":16,"name":"Uncletopia | New York City | 4 | Community","name_short":"nyc-4","host":"nyc-1.us.uncletopia.com","port":27045,"enabled":true,"region":"us-east","cc":"us","latitude":40.73061,"longitude":-73.93524,"reserved":0,"last_update":"0001-01-01T00:00:00Z","name_a2s":"Uncletopia | New York City | 4 | Community","protocol":17,"map":"workshop/pl_emerge_rc2.ugc888027758","folder":"tf","game":"Team Fortress","app_id":440,"player_count":0,"max_players":24,"Bots":0,"server_type":"Dedicated","server_os":"Linux","password":true,"vac":true,"version":"7961495","steam_id":85568392924742821,"keywords":["nocrits","nodmgspread","payload","uncletopia"],"game_id":440,"stv_port":27046,"stv_name":"Uncletopia | New York City | 4 | Community | STV","players":null},{"server_id":142,"name":"Uncletopia | São Paulo | 1 | All Maps","name_short":"sao-1","host":"sao-1.br.uncletopia.com","port":27015,"enabled":true,"region":"sa","cc":"br","latitude":-23.533773,"longitude":-46.62529,"reserved":0,"last_update":"0001-01-01T00:00:00Z","name_a2s":"Uncletopia | São Paulo | 1 | All Maps","protocol":17,"map":"koth_lakeside_final","folder":"tf","game":"Team Fortress","app_id":440,"player_count":0,"max_players":24,"Bots":0,"server_type":"Dedicated","server_os":"Linux","password":true,"vac":true,"version":"7961495","steam_id":85568392924469996,"keywords":["cp","nocrits","nodmgspread","uncletopia"],"game_id":440,"stv_port":27016,"stv_name":"Uncletopia | São Paulo | 1 | All Maps | STV","players":null},{"server_id":143,"name":"Uncletopia | São Paulo | 2 | Community","name_short":"sao-2","host":"sao-2.br.uncletopia.com","port":27015,"enabled":true,"region":"sa","cc":"br","latitude":-23.533773,"longitude":-46.62529,"reserved":0,"last_update":"0001-01-01T00:00:00Z","name_a2s":"Uncletopia | São Paulo | 2 | Community","protocol":17,"map":"workshop/koth_ashville_final.ugc2130459942","folder":"tf","game":"Team Fortress","app_id":440,"player_count":0,"max_players":24,"Bots":0,"server_type":"Dedicated","server_os":"Linux","password":true,"vac":true,"version":"7961495","steam_id":85568392924485349,"keywords":["cp","nocrits","nodmgspread","uncletopia"],"game_id":440,"stv_port":27016,"stv_name":"Uncletopia | São Paulo | 2 | Community | STV","players":null},{"server_id":7,"name":"Uncletopia | Seattle | 1 | All Maps","name_short":"sea-1","host":"sea-1.us.uncletopia.com","port":27015,"enabled":true,"region":"us-west","cc":"us","latitude":47.608013,"longitude":-122.33517,"reserved":0,"last_update":"0001-01-01T00:00:00Z","name_a2s":"Uncletopia | Seattle | 1 | All Maps","protocol":17,"map":"pl_badwater","folder":"tf","game":"Team Fortress","app_id":440,"player_count":24,"max_players":24,"Bots":0,"server_type":"Dedicated","server_os":"Linux","password":true,"vac":true,"version":"7961495","steam_id":85568392924469997,"keywords":["nocrits","nodmgspread","payload","uncletopia"],"game_id":440,"stv_port":27016,"stv_name":"Uncletopia | Seattle | 1 | All Maps | STV","players":[{"user_id":522,"name":"ORANGE","steam_id":76561198000401769,"connected_time":2047000000000,"state":"active","ping":50},{"user_id":543,"name":"SearingGustav #tG","steam_id":76561198040560786,"connected_time":213000000000,"state":"active","ping":51},{"user_id":524,"name":"BLU3","steam_id":76561198059652670,"connected_time":1752000000000,"state":"active","ping":48},{"user_id":542,"name":"Callie","steam_id":76561198131833567,"connected_time":281000000000,"state":"active","ping":69},{"user_id":538,"name":"Subject Delta","steam_id":76561199109118980,"connected_time":948000000000,"state":"active","ping":81},{"user_id":541,"name":"Neptune˖⁺｡˚⋆˙♥","steam_id":76561199054203198,"connected_time":398000000000,"state":"active","ping":113},{"user_id":510,"name":"Ayayayayayayayayayayayahuasca","steam_id":76561199002906056,"connected_time":2745000000000,"state":"active","ping":47},{"user_id":527,"name":"Renz","steam_id":76561198118995036,"connected_time":1615000000000,"state":"active","ping":43},{"user_id":503,"name":"Bl0ckM4n","steam_id":76561199016413171,"connected_time":3650000000000,"state":"active","ping":51},{"user_id":544,"name":"GreenApples","steam_id":76561198120559543,"connected_time":186000000000,"state":"active","ping":70},{"user_id":539,"name":"Jest","steam_id":76561198170173062,"connected_time":792000000000,"state":"active","ping":76},{"user_id":473,"name":"DaddyGalaxy","steam_id":76561198139697796,"connected_time":5431000000000,"state":"active","ping":55},{"user_id":515,"name":"shia.ultrainstinct","steam_id":76561198271939793,"connected_time":2531000000000,"state":"active","ping":105},{"user_id":545,"name":"Que-sus-dilla","steam_id":76561198125712564,"connected_time":157000000000,"state":"active","ping":75},{"user_id":546,"name":"bluliciouscow","steam_id":76561198839866507,"connected_time":140000000000,"state":"active","ping":67},{"user_id":514,"name":"Luca","steam_id":76561198125087140,"connected_time":2606000000000,"state":"active","ping":52},{"user_id":547,"name":"Zilenan","steam_id":76561197980042950,"connected_time":125000000000,"state":"active","ping":89},{"user_id":534,"name":"Arcane Flame","steam_id":76561198360024422,"connected_time":1380000000000,"state":"active","ping":77},{"user_id":533,"name":"Harley [Ramiel]","steam_id":76561198079510840,"connected_time":1394000000000,"state":"active","ping":48},{"user_id":548,"name":"Yu Plush","steam_id":76561198800891125,"connected_time":100000000000,"state":"active","ping":65},{"user_id":530,"name":"Meso","steam_id":76561199088153190,"connected_time":1510000000000,"state":"active","ping":57},{"user_id":531,"name":"trackpad gaming | f2p","steam_id":76561198840414371,"connected_time":1510000000000,"state":"active","ping":53},{"user_id":525,"name":"Mocha Josie","steam_id":76561198066452726,"connected_time":1736000000000,"state":"active","ping":70},{"user_id":520,"name":"MrYadaization","steam_id":76561198050770818,"connected_time":2207000000000,"state":"active","ping":59}]},{"server_id":119,"name":"Uncletopia | Seattle | 2 | All Maps","name_short":"sea-2","host":"sea-1.us.uncletopia.com","port":27025,"enabled":true,"region":"us-west","cc":"us","latitude":47.608013,"longitude":-122.33517,"reserved":0,"last_update":"0001-01-01T00:00:00Z","name_a2s":"Uncletopia | Seattle | 2 | All Maps","protocol":17,"map":"koth_cascade","folder":"tf","game":"Team Fortress","app_id":440,"player_count":22,"max_players":24,"Bots":0,"server_type":"Dedicated","server_os":"Linux","password":true,"vac":true,"version":"7961495","steam_id":85568392924469998,"keywords":["cp","nocrits","nodmgspread","uncletopia"],"game_id":440,"stv_port":27026,"stv_name":"Uncletopia | Seattle | 2 | All Maps | STV","players":[{"user_id":236,"name":"milk then cereal","steam_id":76561198047168548,"connected_time":1115000000000,"state":"active","ping":70},{"user_id":216,"name":"cielael","steam_id":76561198043971956,"connected_time":1968000000000,"state":"active","ping":133},{"user_id":238,"name":"Rally Racer","steam_id":76561198044613715,"connected_time":992000000000,"state":"active","ping":59},{"user_id":243,"name":"Waldo White™","steam_id":76561198149061447,"connected_time":170000000000,"state":"active","ping":52},{"user_id":181,"name":"Imitation Caucasian","steam_id":76561198320536166,"connected_time":3520000000000,"state":"active","ping":87},{"user_id":242,"name":"ilyKittyXOXO","steam_id":76561198179569849,"connected_time":208000000000,"state":"active","ping":88},{"user_id":244,"name":"potato gaming","steam_id":76561197978839360,"connected_time":145000000000,"state":"active","ping":110},{"user_id":230,"name":"Banana Sword","steam_id":76561199076361445,"connected_time":1419000000000,"state":"active","ping":64},{"user_id":207,"name":"cupsovietxeno","steam_id":76561198997539399,"connected_time":2644000000000,"state":"active","ping":71},{"user_id":245,"name":"bcizzo","steam_id":76561197994399953,"connected_time":99000000000,"state":"active","ping":61},{"user_id":184,"name":"Seshreb","steam_id":76561198846614634,"connected_time":3457000000000,"state":"active","ping":99},{"user_id":217,"name":"MarioLuigi0404","steam_id":76561198252513650,"connected_time":1936000000000,"state":"active","ping":69},{"user_id":234,"name":"Dongus","steam_id":76561197979056451,"connected_time":1181000000000,"state":"active","ping":48},{"user_id":235,"name":"purple hatsune miku","steam_id":76561198108844158,"connected_time":1181000000000,"state":"active","ping":89},{"user_id":214,"name":"ImNotZelda","steam_id":76561198866570682,"connected_time":1995000000000,"state":"active","ping":70},{"user_id":227,"name":"Redkiller","steam_id":76561199453655288,"connected_time":1539000000000,"state":"active","ping":122},{"user_id":69,"name":"wmjledger","steam_id":76561198443046861,"connected_time":12905000000000,"state":"active","ping":47},{"user_id":190,"name":"grape","steam_id":76561198976352881,"connected_time":3353000000000,"state":"active","ping":73},{"user_id":246,"name":"ninepappel","steam_id":76561198842091244,"connected_time":62000000000,"state":"active","ping":58},{"user_id":220,"name":"Jay","steam_id":76561198986573969,"connected_time":1799000000000,"state":"active","ping":93},{"user_id":237,"name":"Rude Dog","steam_id":76561197980385816,"connected_time":1106000000000,"state":"active","ping":47},{"user_id":228,"name":"sadlaxx","steam_id":76561198061354919,"connected_time":1534000000000,"state":"active","ping":79}]},{"server_id":406,"name":"Uncletopia | Seattle | 3 | Stopwatch","name_short":"sea-3","host":"sea-1.us.uncletopia.com","port":27035,"enabled":true,"region":"us-west","cc":"us","latitude":47.608013,"longitude":-122.33517,"reserved":0,"last_update":"0001-01-01T00:00:00Z","name_a2s":"Uncletopia | Seattle | 3 | Stopwatch","protocol":17,"map":"cp_granary","folder":"tf","game":"Team Fortress","app_id":440,"player_count":5,"max_players":24,"Bots":0,"server_type":"Dedicated","server_os":"Linux","password":true,"vac":true,"version":"7961495","steam_id":85568392924515217,"keywords":["cp","nocrits","nodmgspread","uncletopia"],"game_id":440,"stv_port":27036,"stv_name":"Uncletopia | Seattle | 3 | Stopwatch | STV","players":[{"user_id":6,"name":"Oninja94","steam_id":76561199467195274,"connected_time":317000000000,"state":"active","ping":60},{"user_id":7,"name":"Noobynoob15","steam_id":76561199497020916,"connected_time":306000000000,"state":"active","ping":29},{"user_id":8,"name":"Mom","steam_id":76561198207936000,"connected_time":257000000000,"state":"active","ping":46},{"user_id":9,"name":"mafia is mafia","steam_id":76561198042574722,"connected_time":130000000000,"state":"active","ping":43},{"user_id":10,"name":"Pyrolimited","steam_id":76561198195455657,"connected_time":126000000000,"state":"active","ping":46}]},{"server_id":17,"name":"Uncletopia | San Francisco | 1 | All Maps","name_short":"sfo-1","host":"sfo-1.us.uncletopia.com","port":27015,"enabled":true,"region":"us-west","cc":"us","latitude":37.77397,"longitude":-122.4313,"reserved":0,"last_update":"0001-01-01T00:00:00Z","name_a2s":"Uncletopia | San Francisco | 1 | All Maps","protocol":17,"map":"koth_cascade","folder":"tf","game":"Team Fortress","app_id":440,"player_count":0,"max_players":24,"Bots":0,"server_type":"Dedicated","server_os":"Linux","password":true,"vac":true,"version":"7961495","steam_id":85568392924469999,"keywords":["cp","nocrits","nodmgspread","uncletopia"],"game_id":440,"stv_port":27016,"stv_name":"Uncletopia | San Francisco | 1 | All Maps | STV","players":null},{"server_id":18,"name":"Uncletopia | San Francisco | 2 | All Maps","name_short":"sfo-2","host":"sfo-1.us.uncletopia.com","port":27025,"enabled":true,"region":"us-west","cc":"us","latitude":37.77397,"longitude":-122.4313,"reserved":0,"last_update":"0001-01-01T00:00:00Z","name_a2s":"Uncletopia | San Francisco | 2 | All Maps","protocol":17,"map":"cp_snakewater_final1","folder":"tf","game":"Team Fortress","app_id":440,"player_count":0,"max_players":24,"Bots":0,"server_type":"Dedicated","server_os":"Linux","password":true,"vac":true,"version":"7961495","steam_id":85568392924470000,"keywords":["cp","nocrits","nodmgspread","uncletopia"],"game_id":440,"stv_port":27026,"stv_name":"Uncletopia | San Francisco | 2 | All Maps | STV","players":null},{"server_id":19,"name":"Uncletopia | San Francisco | 3 | Stopwatch","name_short":"sfo-3","host":"sfo-1.us.uncletopia.com","port":27035,"enabled":true,"region":"us-west","cc":"us","latitude":37.77397,"longitude":-122.4313,"reserved":0,"last_update":"0001-01-01T00:00:00Z","name_a2s":"Uncletopia | San Francisco | 3 | Stopwatch","protocol":17,"map":"workshop/koth_ramjam_rc1.ugc459778887","folder":"tf","game":"Team Fortress","app_id":440,"player_count":0,"max_players":24,"Bots":0,"server_type":"Dedicated","server_os":"Linux","password":true,"vac":true,"version":"7961495","steam_id":85568392924742824,"keywords":["cp","nocrits","nodmgspread","uncletopia"],"game_id":440,"stv_port":27036,"stv_name":"Uncletopia | San Francisco | 3 | Stopwatch | STV","players":null},{"server_id":20,"name":"Uncletopia | San Francisco | 4 | Community","name_short":"sfo-4","host":"sfo-1.us.uncletopia.com","port":27045,"enabled":true,"region":"us-west","cc":"us","latitude":37.77397,"longitude":-122.4313,"reserved":0,"last_update":"0001-01-01T00:00:00Z","name_a2s":"Uncletopia | San Francisco | 4 | Community","protocol":17,"map":"workshop/cp_caldera_rc3.ugc2834196889","folder":"tf","game":"Team Fortress","app_id":440,"player_count":0,"max_players":24,"Bots":0,"server_type":"Dedicated","server_os":"Linux","password":true,"vac":true,"version":"7961495","steam_id":85568392924742826,"keywords":["cp","nocrits","nodmgspread","uncletopia"],"game_id":440,"stv_port":27046,"stv_name":"Uncletopia | San Francisco | 4 | Community | STV","players":null},{"server_id":141,"name":"Uncletopia | Sydney | 1 | All Maps","name_short":"syd-1","host":"syd-1.au.uncletopia.com","port":27015,"enabled":true,"region":"au","cc":"au","latitude":-33.865143,"longitude":151.2099,"reserved":0,"last_update":"0001-01-01T00:00:00Z","name_a2s":"Uncletopia | Sydney | 1 | All Maps","protocol":17,"map":"koth_viaduct","folder":"tf","game":"Team Fortress","app_id":440,"player_count":5,"max_players":24,"Bots":0,"server_type":"Dedicated","server_os":"Linux","password":true,"vac":true,"version":"7961495","steam_id":85568392924470001,"keywords":["cp","nocrits","nodmgspread","uncletopia"],"game_id":440,"stv_port":27016,"stv_name":"Uncletopia | Sydney | 1 | All Maps | STV","players":[{"user_id":10,"name":"ds1605au","steam_id":76561199151764351,"connected_time":225000000000,"state":"active","ping":184},{"user_id":6,"name":"J2PWN","steam_id":76561198409287854,"connected_time":767000000000,"state":"active","ping":158},{"user_id":7,"name":"Second Lieutenant Pisser","steam_id":76561198866538028,"connected_time":723000000000,"state":"active","ping":78},{"user_id":9,"name":"Jiggles","steam_id":76561198043939682,"connected_time":343000000000,"state":"active","ping":32},{"user_id":11,"name":"kingofthelaffs","steam_id":76561199234024173,"connected_time":199000000000,"state":"active","ping":142}]},{"server_id":123,"name":"Uncletopia | Sydney | 2 | All Maps","name_short":"syd-2","host":"syd-1.au.uncletopia.com","port":27025,"enabled":true,"region":"au","cc":"au","latitude":-33.865143,"longitude":151.2099,"reserved":0,"last_update":"0001-01-01T00:00:00Z","name_a2s":"Uncletopia | Sydney | 2 | All Maps","protocol":17,"map":"koth_lakeside_final","folder":"tf","game":"Team Fortress","app_id":440,"player_count":0,"max_players":24,"Bots":0,"server_type":"Dedicated","server_os":"Linux","password":true,"vac":true,"version":"7961495","steam_id":85568392924470002,"keywords":["cp","nocrits","nodmgspread","uncletopia"],"game_id":440,"stv_port":27026,"stv_name":"Uncletopia | Sydney | 2 | All Maps | STV","players":null},{"server_id":395,"name":"Uncletopia | Sydney | 3 | All Maps","name_short":"syd-3","host":"syd-1.au.uncletopia.com","port":27035,"enabled":true,"region":"au","cc":"au","latitude":-33.865143,"longitude":151.2099,"reserved":0,"last_update":"0001-01-01T00:00:00Z","name_a2s":"Uncletopia | Sydney | 3 | All Maps","protocol":17,"map":"pl_frontier_final","folder":"tf","game":"Team Fortress","app_id":440,"player_count":0,"max_players":24,"Bots":0,"server_type":"Dedicated","server_os":"Linux","password":true,"vac":true,"version":"7961495","steam_id":85568392925194467,"keywords":["nocrits","nodmgspread","payload","uncletopia"],"game_id":440,"stv_port":27036,"stv_name":"Uncletopia | Sydney | 3 | All Maps | STV","players":null},{"server_id":396,"name":"Uncletopia | Sydney | 4 | All Maps","name_short":"syd-4","host":"syd-1.au.uncletopia.com","port":27045,"enabled":true,"region":"au","cc":"au","latitude":-33.865143,"longitude":151.2099,"reserved":0,"last_update":"0001-01-01T00:00:00Z","name_a2s":"Uncletopia | Sydney | 4 | All Maps","protocol":17,"map":"cp_process_final","folder":"tf","game":"Team Fortress","app_id":440,"player_count":0,"max_players":24,"Bots":0,"server_type":"Dedicated","server_os":"Linux","password":true,"vac":true,"version":"7961495","steam_id":85568392925397958,"keywords":["cp","nocrits","nodmgspread","uncletopia"],"game_id":440,"stv_port":27046,"stv_name":"Uncletopia | Sydney | 4 | All Maps | STV","players":null},{"server_id":58,"name":"Uncletopia | Sydney | 5 | Stopwatch","name_short":"syd-5","host":"syd-1.au.uncletopia.com","port":27055,"enabled":true,"region":"au","cc":"au","latitude":-33.865143,"longitude":151.2099,"reserved":0,"last_update":"0001-01-01T00:00:00Z","name_a2s":"Uncletopia | Sydney | 5 | Stopwatch","protocol":17,"map":"pl_frontier_final","folder":"tf","game":"Team Fortress","app_id":440,"player_count":0,"max_players":24,"Bots":0,"server_type":"Dedicated","server_os":"Linux","password":true,"vac":true,"version":"7961495","steam_id":85568392925397959,"keywords":["nocrits","nodmgspread","payload","uncletopia"],"game_id":440,"stv_port":27056,"stv_name":"Uncletopia | Sydney | 5 | Stopwatch | STV","players":null},{"server_id":59,"name":"Uncletopia | Sydney | 6 | Community","name_short":"syd-6","host":"syd-1.au.uncletopia.com","port":27065,"enabled":true,"region":"au","cc":"au","latitude":-33.865143,"longitude":151.2099,"reserved":0,"last_update":"0001-01-01T00:00:00Z","name_a2s":"Uncletopia | Sydney | 6 | Community","protocol":17,"map":"cp_sunshine","folder":"tf","game":"Team Fortress","app_id":440,"player_count":0,"max_players":24,"Bots":0,"server_type":"Dedicated","server_os":"Linux","password":true,"vac":true,"version":"7961495","steam_id":85568392925397960,"keywords":["cp","nocrits","nodmgspread","uncletopia"],"game_id":440,"stv_port":27066,"stv_name":"Uncletopia | Sydney | 6 | Community | STV","players":null},{"server_id":49,"name":"Uncletopia | Warsaw | 1 | One Thousand Uncles","name_short":"waw-1","host":"waw-1.pl.uncletopia.com","port":27015,"enabled":true,"region":"eu","cc":"pl","latitude":52.2297,"longitude":21.017532,"reserved":0,"last_update":"0001-01-01T00:00:00Z","name_a2s":"Uncletopia | Warsaw | 1 | One Thousand Uncles","protocol":17,"map":"cp_dustbowl","folder":"tf","game":"Team Fortress","app_id":440,"player_count":19,"max_players":32,"Bots":16,"server_type":"Dedicated","server_os":"Linux","password":true,"vac":true,"version":"7961495","steam_id":85568392925397850,"keywords":["alltalk","bots","cp","danepve","increased_maxplayers","nocrits","norespawntime","uncletopia"],"game_id":440,"stv_port":0,"stv_name":"","players":[{"user_id":905,"name":"penis atomizer 9000 🏳️?","steam_id":76561198864841966,"connected_time":7505000000000,"state":"active","ping":192},{"user_id":917,"name":"Mongoose88","steam_id":76561197961442445,"connected_time":2884000000000,"state":"active","ping":172},{"user_id":914,"name":"MART1NW","steam_id":76561198271073223,"connected_time":4561000000000,"state":"active","ping":60}]},{"server_id":50,"name":"Uncletopia | Warsaw | 2 | One Thousand Uncles","name_short":"waw-2","host":"waw-1.pl.uncletopia.com","port":27025,"enabled":true,"region":"eu","cc":"pl","latitude":52.2297,"longitude":21.017532,"reserved":0,"last_update":"0001-01-01T00:00:00Z","name_a2s":"Uncletopia | Warsaw | 2 | One Thousand Uncles","protocol":17,"map":"pl_goldrush","folder":"tf","game":"Team Fortress","app_id":440,"player_count":0,"max_players":32,"Bots":0,"server_type":"Dedicated","server_os":"Linux","password":true,"vac":true,"version":"7961495","steam_id":85568392925397851,"keywords":["alltalk","danepve","increased_maxplayers","nocrits","norespawntime","payload","uncletopia"],"game_id":440,"stv_port":0,"stv_name":"","players":null},{"server_id":51,"name":"Uncletopia | Warsaw | 3 | All Maps","name_short":"waw-3","host":"waw-1.pl.uncletopia.com","port":27035,"enabled":true,"region":"eu","cc":"pl","latitude":52.2297,"longitude":21.017532,"reserved":0,"last_update":"0001-01-01T00:00:00Z","name_a2s":"Uncletopia | Warsaw | 3 | All Maps","protocol":17,"map":"cp_snakewater_final1","folder":"tf","game":"Team Fortress","app_id":440,"player_count":0,"max_players":24,"Bots":0,"server_type":"Dedicated","server_os":"Linux","password":true,"vac":true,"version":"7961495","steam_id":85568392925397852,"keywords":["cp","nocrits","nodmgspread","uncletopia"],"game_id":440,"stv_port":27036,"stv_name":"Uncletopia | Warsaw | 3 | All Maps | STV","players":null},{"server_id":52,"name":"Uncletopia | Warsaw | 4 | All Maps","name_short":"waw-4","host":"waw-1.pl.uncletopia.com","port":27045,"enabled":true,"region":"eu","cc":"pl","latitude":52.2297,"longitude":21.017532,"reserved":0,"last_update":"0001-01-01T00:00:00Z","name_a2s":"Uncletopia | Warsaw | 4 | All Maps","protocol":17,"map":"pl_snowycoast","folder":"tf","game":"Team Fortress","app_id":440,"player_count":0,"max_players":24,"Bots":0,"server_type":"Dedicated","server_os":"Linux","password":true,"vac":true,"version":"7961495","steam_id":85568392925397853,"keywords":["nocrits","nodmgspread","payload","uncletopia"],"game_id":440,"stv_port":27046,"stv_name":"Uncletopia | Warsaw | 4 | All Maps | STV","players":null},{"server_id":53,"name":"Uncletopia | Warsaw | 5 | Stopwatch","name_short":"waw-5","host":"waw-1.pl.uncletopia.com","port":27055,"enabled":true,"region":"eu","cc":"pl","latitude":52.2297,"longitude":21.017532,"reserved":0,"last_update":"0001-01-01T00:00:00Z","name_a2s":"Uncletopia | Warsaw | 5 | Stopwatch","protocol":17,"map":"workshop/pl_barnblitz_pro7.ugc582280235","folder":"tf","game":"Team Fortress","app_id":440,"player_count":0,"max_players":24,"Bots":0,"server_type":"Dedicated","server_os":"Linux","password":true,"vac":true,"version":"7961495","steam_id":85568392925397854,"keywords":["nocrits","nodmgspread","payload","uncletopia"],"game_id":440,"stv_port":27056,"stv_name":"Uncletopia | Warsaw | 5 | Stopwatch | STV","players":null},{"server_id":54,"name":"Uncletopia | Warsaw | 6 | Community","name_short":"waw-6","host":"waw-1.pl.uncletopia.com","port":27065,"enabled":true,"region":"eu","cc":"pl","latitude":52.2297,"longitude":21.017532,"reserved":0,"last_update":"0001-01-01T00:00:00Z","name_a2s":"Uncletopia | Warsaw | 6 | Community","protocol":17,"map":"workshop/koth_synthetic_rc6a.ugc1549817316","folder":"tf","game":"Team Fortress","app_id":440,"player_count":0,"max_players":24,"Bots":0,"server_type":"Dedicated","server_os":"Linux","password":true,"vac":true,"version":"7961495","steam_id":85568392925397856,"keywords":["cp","nocrits","nodmgspread","uncletopia"],"game_id":440,"stv_port":27066,"stv_name":"Uncletopia | Warsaw | 6 | Community | STV","players":null}]}