{"status":true,"message":"","result":[{"server_id":9,"name":"Uncletopia | Atlanta | 1 | All Maps","name_short":"atl-1","host":"atl-1.us.uncletopia.com","port":27015,"enabled":true,"region":"us-east","cc":"us","latitude":33.753746,"longitude":-84.38633,"reserved":0,"last_update":"0001-01-01T00:00:00Z","name_a2s":"Uncletopia | Atlanta | 1 | All Maps","protocol":17,"map":"koth_harvest_final","folder":"tf","game":"Team Fortress","app_id":440,"player_count":20,"max_players":24,"Bots":0,"server_type":"Dedicated","server_os":"Linux","password":true,"vac":true,"version":"7757534","steam_id":85568392924469982,"keywords":["cp","nocrits","nodmgspread","uncletopia"],"game_id":440,"stv_port":27016,"stv_name":"Uncletopia | Atlanta | 1 | All Maps | STV","players":[{"user_id":387,"name":"{[F.H]} Hydroida","steam_id":76561197999797274,"connected_time":13156000000000,"state":"active","ping":74},{"user_id":537,"name":"cyro","steam_id":76561198146241989,"connected_time":1571000000000,"state":"active","ping":58},{"user_id":478,"name":"⭐⊰HelpThem⊱⭐","steam_id":76561198137916759,"connected_time":5884000000000,"state":"active","ping":74},{"user_id":545,"name":"shaderoses","steam_id":76561198070800500,"connected_time":1118000000000,"state":"active","ping":60},{"user_id":519,"name":"JasonIsGold79","steam_id":76561198101441539,"connected_time":3687000000000,"state":"active","ping":84},{"user_id":534,"name":"♥Furry Whore♥","steam_id":76561198054925421,"connected_time":1595000000000,"state":"active","ping":95},{"user_id":535,"name":"calube","steam_id":76561198029350858,"connected_time":1594000000000,"state":"active","ping":95},{"user_id":557,"name":"Lauran","steam_id":76561198980838799,"connected_time":4000000000,"state":"spawning","ping":85},{"user_id":556,"name":"FemboyNate","steam_id":76561198146636410,"connected_time":12000000000,"state":"active","ping":72},{"user_id":477,"name":"Gableckle","steam_id":76561198060093327,"connected_time":5945000000000,"state":"active","ping":70},{"user_id":536,"name":"lite","steam_id":76561198300633951,"connected_time":1592000000000,"state":"active","ping":164},{"user_id":496,"name":"FreonAddict9x19","steam_id":76561198060010824,"connected_time":5156000000000,"state":"active","ping":62},{"user_id":529,"name":"[txc] garf","steam_id":76561198083078030,"connected_time":2541000000000,"state":"active","ping":45},{"user_id":500,"name":"RED1 | Le4n!!!","steam_id":76561198045522596,"connected_time":4855000000000,"state":"active","ping":60},{"user_id":501,"name":"ELO oak","steam_id":76561198092135570,"connected_time":4827000000000,"state":"active","ping":59},{"user_id":550,"name":"Sho'Nuff","steam_id":76561198010708247,"connected_time":23000000000,"state":"active","ping":63},{"user_id":503,"name":"♡Alyx♡","steam_id":76561198024303978,"connected_time":4816000000000,"state":"active","ping":50},{"user_id":525,"name":"twitch.tv/Yoshi21 | TF2Pugs.com","steam_id":76561198002516729,"connected_time":3565000000000,"state":"active","ping":42},{"user_id":543,"name":"sun ra","steam_id":76561198904898274,"connected_time":1452000000000,"state":"active","ping":66},{"user_id":526,"name":"[txc] milk","steam_id":76561198127457787,"connected_time":3373000000000,"state":"active","ping":72}]},{"server_id":400,"name":"Uncletopia | Atlanta | 3 | Stopwatch Beta","name_short":"atl-3","host":"atl-1.us.uncletopia.com","port":27035,"enabled":true,"region":"us-east","cc":"us","latitude":33.753746,"longitude":-84.38633,"reserved":0,"last_update":"0001-01-01T00:00:00Z","name_a2s":"Uncletopia | Atlanta | 3 | Stopwatch Beta","protocol":17,"map":"workshop/pl_badwater_pro_v12.ugc2142942074","folder":"tf","game":"Team Fortress","app_id":440,"player_count":0,"max_players":24,"Bots":0,"server_type":"Dedicated","server_os":"Linux","password":true,"vac":true,"version":"7757534","steam_id":85568392924515187,"keywords":["nocrits","nodmgspread","payload","uncletopia"],"game_id":440,"stv_port":27036,"stv_name":"Uncletopia | Atlanta | 3 | Stopwatch Beta | STV","players":null},{"server_id":401,"name":"Uncletopia | Atlanta | 4 | No Payload","name_short":"atl-4","host":"atl-1.us.uncletopia.com","port":27045,"enabled":true,"region":"us-east","cc":"us","latitude":33.753746,"longitude":-84.38633,"reserved":0,"last_update":"0001-01-01T00:00:00Z","name_a2s":"Uncletopia | Atlanta | 4 | No Payload","protocol":17,"map":"pl_pier","folder":"tf","game":"Team Fortress","app_id":440,"player_count":0,"max_players":24,"Bots":0,"server_type":"Dedicated","server_os":"Linux","password":true,"vac":true,"version":"7723704","steam_id":85568392924515188,"keywords":["nocrits","nodmgspread","payload","uncletopia"],"game_id":440,"stv_port":27046,"stv_name":"Uncletopia | Atlanta | 4 | No Payload | STV","players":null},{"server_id":2,"name":"Uncletopia | Chicago | 1 | All Maps","name_short":"chi-1","host":"chi-1.us.uncletopia.com","port":27015,"enabled":true,"region":"us-central","cc":"us","latitude":41.881832,"longitude":-87.62318,"reserved":0,"last_update":"0001-01-01T00:00:00Z","name_a2s":"Uncletopia | Chicago | 1 | All Maps","protocol":17,"map":"pl_badwater","folder":"tf","game":"Team Fortress","app_id":440,"player_count":24,"max_players":24,"Bots":0,"server_type":"Dedicated","server_os":"Linux","password":true,"vac":true,"version":"7757534","steam_id":85568392924469984,"keywords":["nocrits","nodmgspread","payload","uncletopia"],"game_id":440,"stv_port":27016,"stv_name":"Uncletopia | Chicago | 1 | All Maps | STV","players":[{"user_id":657,"name":"Dr. Bob","steam_id":76561198250215874,"connected_time":1480000000000,"state":"active","ping":72},{"user_id":659,"name":"not skinless (i have skin)","steam_id":76561198214138391,"connected_time":1367000000000,"state":"active","ping":79},{"user_id":684,"name":"Insidiousy #ShaveTF2","steam_id":76561199018015150,"connected_time":304000000000,"state":"active","ping":64},{"user_id":673,"name":"Dornz","steam_id":76561198055762034,"connected_time":697000000000,"state":"active","ping":60},{"user_id":676,"name":"RED1 | nomad","steam_id":76561197998740399,"connected_time":533000000000,"state":"active","ping":68},{"user_id":677,"name":"HTA","steam_id":76561198043879140,"connected_time":525000000000,"state":"active","ping":47},{"user_id":678,"name":"CroMaLaka","steam_id":76561198380926090,"connected_time":525000000000,"state":"active","ping":46},{"user_id":679,"name":"Sirius","steam_id":76561198031295225,"connected_time":523000000000,"state":"active","ping":47},{"user_id":680,"name":"Thirty Thirty","steam_id":76561197987242808,"connected_time":489000000000,"state":"active","ping":83},{"user_id":644,"name":"Pepsi-Man","steam_id":76561198052061790,"connected_time":3605000000000,"state":"active","ping":77},{"user_id":681,"name":"Mokaaaa","steam_id":76561198043659301,"connected_time":489000000000,"state":"active","ping":57},{"user_id":664,"name":"THExPIZZAxGUY","steam_id":76561198215829667,"connected_time":1229000000000,"state":"active","ping":81},{"user_id":602,"name":"RED1 | eish","steam_id":76561198089463603,"connected_time":7969000000000,"state":"active","ping":120},{"user_id":682,"name":"O_O_O_O_O_O_O_O_O_O_O","steam_id":76561198143209841,"connected_time":465000000000,"state":"active","ping":89},{"user_id":658,"name":"fuckinreece","steam_id":76561198365490421,"connected_time":1473000000000,"state":"active","ping":64},{"user_id":656,"name":"Hexalina","steam_id":76561198163665060,"connected_time":2297000000000,"state":"active","ping":147},{"user_id":645,"name":"Dumpy","steam_id":76561198067167895,"connected_time":3603000000000,"state":"active","ping":72},{"user_id":663,"name":"braindead idiot","steam_id":76561198035679918,"connected_time":1232000000000,"state":"active","ping":79},{"user_id":670,"name":"summerof69","steam_id":76561198069049410,"connected_time":1082000000000,"state":"active","ping":41},{"user_id":675,"name":"Foreskin","steam_id":76561198353569408,"connected_time":633000000000,"state":"active","ping":100},{"user_id":667,"name":"Fablor","steam_id":76561198175644926,"connected_time":1208000000000,"state":"active","ping":105},{"user_id":668,"name":"\u003c blank \u003e","steam_id":76561198061448188,"connected_time":1193000000000,"state":"active","ping":133},{"user_id":683,"name":"Star","steam_id":76561198150115757,"connected_time":458000000000,"state":"active","ping":100},{"user_id":643,"name":"movement shooter enthusiast","steam_id":76561198841593464,"connected_time":3609000000000,"state":"active","ping":67}]},{"server_id":106,"name":"Uncletopia | Chicago | 2 | All Maps","name_short":"chi-2","host":"chi-1.us.uncletopia.com","port":27025,"enabled":true,"region":"us-central","cc":"us","latitude":41.881832,"longitude":-87.62318,"reserved":0,"last_update":"0001-01-01T00:00:00Z","name_a2s":"Uncletopia | Chicago | 2 | All Maps","protocol":17,"map":"koth_lazarus","folder":"tf","game":"Team Fortress","app_id":440,"player_count":0,"max_players":24,"Bots":0,"server_type":"Dedicated","server_os":"Linux","password":true,"vac":true,"version":"7757534","steam_id":85568392924469985,"keywords":["cp","nocrits","nodmgspread","uncletopia"],"game_id":440,"stv_port":27026,"stv_name":"Uncletopia | Chicago | 2 | All Maps | STV","players":null},{"server_id":402,"name":"Uncletopia | Chicago | 3 | All Maps","name_short":"chi-3","host":"chi-1.us.uncletopia.com","port":27035,"enabled":true,"region":"us-central","cc":"us","latitude":41.881832,"longitude":-87.62318,"reserved":0,"last_update":"0001-01-01T00:00:00Z","name_a2s":"Uncletopia | Chicago | 3 | All Maps","protocol":17,"map":"cp_process_final","folder":"tf","game":"Team Fortress","app_id":440,"player_count":0,"max_players":24,"Bots":0,"server_type":"Dedicated","server_os":"Linux","password":true,"vac":true,"version":"7757534","steam_id":85568392924515191,"keywords":["cp","nocrits","nodmgspread","uncletopia"],"game_id":440,"stv_port":27036,"stv_name":"Uncletopia | Chicago | 3 | All Maps | STV","players":null},{"server_id":403,"name":"Uncletopia | Chicago | 4 | All Maps","name_short":"chi-4","host":"chi-1.us.uncletopia.com","port":27045,"enabled":true,"region":"us-central","cc":"us","latitude":41.881832,"longitude":-87.62318,"reserved":0,"last_update":"0001-01-01T00:00:00Z","name_a2s":"Uncletopia | Chicago | 4 | All Maps","protocol":17,"map":"koth_viaduct","folder":"tf","game":"Team Fortress","app_id":440,"player_count":0,"max_players":24,"Bots":0,"server_type":"Dedicated","server_os":"Linux","password":true,"vac":true,"version":"7757534","steam_id":85568392924515193,"keywords":["cp","nocrits","nodmgspread","uncletopia"],"game_id":440,"stv_port":27046,"stv_name":"Uncletopia | Chicago | 4 | All Maps | STV","players":null},{"server_id":36,"name":"Uncletopia | Chicago | 5 | All Maps","name_short":"chi-5","host":"chi-2.us.uncletopia.com","port":27015,"enabled":true,"region":"us-central","cc":"us","latitude":41.881832,"longitude":-87.62318,"reserved":0,"last_update":"0001-01-01T00:00:00Z","name_a2s":"Uncletopia | Chicago | 5 | All Maps","protocol":17,"map":"cp_altitude","folder":"tf","game":"Team Fortress","app_id":440,"player_count":0,"max_players":24,"Bots":0,"server_type":"Dedicated","server_os":"Linux","password":true,"vac":true,"version":"7757534","steam_id":85568392924866362,"keywords":["cp","nocrits","nodmgspread","uncletopia"],"game_id":440,"stv_port":27016,"stv_name":"Uncletopia | Chicago | 5 | All Maps | STV","players":null},{"server_id":37,"name":"Uncletopia | Chicago | 6 | All Maps","name_short":"chi-6","host":"chi-2.us.uncletopia.com","port":27025,"enabled":true,"region":"us-central","cc":"us","latitude":41.881832,"longitude":-87.62318,"reserved":0,"last_update":"0001-01-01T00:00:00Z","name_a2s":"Uncletopia | Chicago | 6 | All Maps","protocol":17,"map":"pl_swiftwater_final1","folder":"tf","game":"Team Fortress","app_id":440,"player_count":0,"max_players":24,"Bots":0,"server_type":"Dedicated","server_os":"Linux","password":true,"vac":true,"version":"7757534","steam_id":85568392924866363,"keywords":["nocrits","nodmgspread","payload","uncletopia"],"game_id":440,"stv_port":27026,"stv_name":"Uncletopia | Chicago | 6 | All Maps | STV","players":null},{"server_id":38,"name":"Uncletopia | Chicago | 7 | Stopwatch Beta","name_short":"chi-7","host":"chi-2.us.uncletopia.com","port":27035,"enabled":true,"region":"us-central","cc":"us","latitude":41.881832,"longitude":-87.62318,"reserved":0,"last_update":"0001-01-01T00:00:00Z","name_a2s":"Uncletopia | Chicago | 7 | Stopwatch Beta","protocol":17,"map":"pl_upward","folder":"tf","game":"Team Fortress","app_id":440,"player_count":0,"max_players":24,"Bots":0,"server_type":"Dedicated","server_os":"Linux","password":true,"vac":true,"version":"7757534","steam_id":85568392924866364,"keywords":["nocrits","nodmgspread","payload","uncletopia"],"game_id":440,"stv_port":27036,"stv_name":"Uncletopia | Chicago | 7 | Stopwatch Beta | STV","players":null},{"server_id":39,"name":"Uncletopia | Chicago | 8 | Community","name_short":"chi-8","host":"chi-2.us.uncletopia.com","port":27045,"enabled":true,"region":"us-central","cc":"us","latitude":41.881832,"longitude":-87.62318,"reserved":0,"last_update":"0001-01-01T00:00:00Z","name_a2s":"Uncletopia | Chicago | 8 | Community","protocol":17,"map":"workshop/koth_ashville_final.ugc2130459942","folder":"tf","game":"Team Fortress","app_id":440,"player_count":0,"max_players":24,"Bots":0,"server_type":"Dedicated","server_os":"Linux","password":true,"vac":true,"version":"7757534","steam_id":85568392924866365,"keywords":["cp","nocrits","nodmgspread","uncletopia"],"game_id":440,"stv_port":27046,"stv_name":"Uncletopia | Chicago | 8 | Community | STV","players":null},{"server_id":8,"name":"Uncletopia | Dallas | 1 | All Maps","name_short":"dal-1","host":"dal-1.us.uncletopia.com","port":27015,"enabled":true,"region":"us-central","cc":"us","latitude":32.779167,"longitude":-96.80889,"reserved":0,"last_update":"0001-01-01T00:00:00Z","name_a2s":"Uncletopia | Dallas | 1 | All Maps","protocol":17,"map":"pl_borneo","folder":"tf","game":"Team Fortress","app_id":440,"player_count":0,"max_players":24,"Bots":0,"server_type":"Dedicated","server_os":"Linux","password":true,"vac":true,"version":"7757534","steam_id":85568392924469986,"keywords":["nocrits","nodmgspread","payload","uncletopia"],"game_id":440,"stv_port":27016,"stv_name":"Uncletopia | Dallas | 1 | All Maps | STV","players":null},{"server_id":108,"name":"Uncletopia | Dallas | 2 | All Maps","name_short":"dal-2","host":"dal-1.us.uncletopia.com","port":27025,"enabled":true,"region":"us-central","cc":"us","latitude":32.779167,"longitude":-96.80889,"reserved":0,"last_update":"0001-01-01T00:00:00Z","name_a2s":"Uncletopia | Dallas | 2 | All Maps","protocol":17,"map":"koth_king","folder":"tf","game":"Team Fortress","app_id":440,"player_count":24,"max_players":24,"Bots":0,"server_type":"Dedicated","server_os":"Linux","password":true,"vac":true,"version":"7757534","steam_id":85568392924469988,"keywords":["cp","nocrits","nodmgspread","uncletopia"],"game_id":440,"stv_port":27026,"stv_name":"Uncletopia | Dallas | 2 | All Maps | STV","players":[{"user_id":499,"name":"Diamond Rivlz","steam_id":76561198064210289,"connected_time":1283000000000,"state":"active","ping":61},{"user_id":508,"name":"segway cop","steam_id":76561198225609936,"connected_time":727000000000,"state":"active","ping":86},{"user_id":485,"name":"Melody","steam_id":76561198407789232,"connected_time":2857000000000,"state":"active","ping":113},{"user_id":501,"name":"Ecliptica","steam_id":76561198171951333,"connected_time":1202000000000,"state":"active","ping":105},{"user_id":502,"name":"[δ] Delta","steam_id":76561198287190116,"connected_time":1201000000000,"state":"active","ping":62},{"user_id":409,"name":"Hoxatron","steam_id":76561198136288818,"connected_time":7987000000000,"state":"active","ping":40},{"user_id":503,"name":"Scunt_Bot.exe","steam_id":76561198325350546,"connected_time":1122000000000,"state":"active","ping":96},{"user_id":507,"name":"alexwasherefirst","steam_id":76561198846755124,"connected_time":828000000000,"state":"active","ping":92},{"user_id":510,"name":"Bakucon","steam_id":76561198153667638,"connected_time":633000000000,"state":"active","ping":125},{"user_id":494,"name":"bolainassr0","steam_id":76561199079078845,"connected_time":1977000000000,"state":"active","ping":104},{"user_id":511,"name":"many men wish death upon me","steam_id":76561198063128310,"connected_time":609000000000,"state":"active","ping":83},{"user_id":475,"name":"BATTLE GUY","steam_id":76561197983903966,"connected_time":3468000000000,"state":"active","ping":81},{"user_id":476,"name":"world machine","steam_id":76561198020689909,"connected_time":3466000000000,"state":"active","ping":75},{"user_id":513,"name":"ianh221","steam_id":76561199069008958,"connected_time":563000000000,"state":"active","ping":87},{"user_id":505,"name":"Huey","steam_id":76561198972816386,"connected_time":986000000000,"state":"active","ping":76},{"user_id":506,"name":"Randy \"the Man\" Johnson","steam_id":76561198039124445,"connected_time":978000000000,"state":"active","ping":103},{"user_id":514,"name":"umbrelllaboi92","steam_id":76561198178901702,"connected_time":557000000000,"state":"active","ping":92},{"user_id":515,"name":"stoned jester","steam_id":76561198079609974,"connected_time":528000000000,"state":"active","ping":88},{"user_id":517,"name":"Soap","steam_id":76561198074619142,"connected_time":397000000000,"state":"active","ping":82},{"user_id":518,"name":"The Assistant Regional Manager","steam_id":76561199221484936,"connected_time":347000000000,"state":"active","ping":94},{"user_id":519,"name":"Voids","steam_id":76561198128386726,"connected_time":274000000000,"state":"active","ping":103},{"user_id":520,"name":"greenie tea","steam_id":76561198055172841,"connected_time":126000000000,"state":"active","ping":87},{"user_id":522,"name":"skia (nyan)","steam_id":76561198053818001,"connected_time":64000000000,"state":"active","ping":70},{"user_id":523,"name":"Herr Müller","steam_id":76561198064876829,"connected_time":40000000000,"state":"active","ping":100}]},{"server_id":5,"name":"Uncletopia | Frankfurt | 1 | All Maps","name_short":"frk-1","host":"frk-1.de.uncletopia.com","port":27015,"enabled":true,"region":"eu","cc":"de","latitude":50.110924,"longitude":8.682127,"reserved":0,"last_update":"0001-01-01T00:00:00Z","name_a2s":"Uncletopia | Frankfurt | 1 | All Maps","protocol":17,"map":"koth_highpass","folder":"tf","game":"Team Fortress","app_id":440,"player_count":0,"max_players":24,"Bots":0,"server_type":"Dedicated","server_os":"Linux","password":true,"vac":true,"version":"7757534","steam_id":85568392924469989,"keywords":["cp","nocrits","nodmgspread","uncletopia"],"game_id":440,"stv_port":27016,"stv_name":"Uncletopia | Frankfurt | 1 | All Maps | STV","players":null},{"server_id":110,"name":"Uncletopia | Frankfurt | 2 | All Maps","name_short":"frk-2","host":"frk-1.de.uncletopia.com","port":27025,"enabled":true,"region":"eu","cc":"de","latitude":50.110924,"longitude":8.682127,"reserved":0,"last_update":"0001-01-01T00:00:00Z","name_a2s":"Uncletopia | Frankfurt | 2 | All Maps","protocol":17,"map":"koth_cascade","folder":"tf","game":"Team Fortress","app_id":440,"player_count":0,"max_players":24,"Bots":0,"server_type":"Dedicated","server_os":"Linux","password":true,"vac":true,"version":"7757534","steam_id":85568392924469990,"keywords":["cp","nocrits","nodmgspread","uncletopia"],"game_id":440,"stv_port":27026,"stv_name":"Uncletopia | Frankfurt | 2 | All Maps | STV","players":null},{"server_id":308,"name":"Uncletopia | Frankfurt | 3 | All Maps","name_short":"frk-3","host":"frk-1.de.uncletopia.com","port":27035,"enabled":true,"region":"eu","cc":"de","latitude":50.110924,"longitude":8.682127,"reserved":0,"last_update":"0001-01-01T00:00:00Z","name_a2s":"Uncletopia | Frankfurt | 3 | All Maps","protocol":17,"map":"pl_barnblitz","folder":"tf","game":"Team Fortress","app_id":440,"player_count":0,"max_players":24,"Bots":0,"server_type":"Dedicated","server_os":"Linux","password":true,"vac":true,"version":"7757534","steam_id":85568392924504274,"keywords":["nocrits","nodmgspread","payload","uncletopia"],"game_id":440,"stv_port":27036,"stv_name":"Uncletopia | Frankfurt | 3 | All Maps | STV","players":null},{"server_id":309,"name":"Uncletopia | Frankfurt | 4 | All Maps","name_short":"frk-4","host":"frk-1.de.uncletopia.com","port":27045,"enabled":true,"region":"eu","cc":"de","latitude":50.110924,"longitude":8.682127,"reserved":0,"last_update":"0001-01-01T00:00:00Z","name_a2s":"Uncletopia | Frankfurt | 4 | All Maps","protocol":17,"map":"pl_snowycoast","folder":"tf","game":"Team Fortress","app_id":440,"player_count":1,"max_players":24,"Bots":0,"server_type":"Dedicated","server_os":"Linux","password":true,"vac":true,"version":"7757534","steam_id":85568392924504275,"keywords":["nocrits","nodmgspread","payload","uncletopia"],"game_id":440,"stv_port":27046,"stv_name":"Uncletopia | Frankfurt | 4 | All Maps | STV","players":[{"user_id":4,"name":"Fuvuk","steam_id":76561198044458593,"connected_time":55000000000,"state":"active","ping":85}]},{"server_id":310,"name":"Uncletopia | Frankfurt | 5 | All Maps","name_short":"frk-5","host":"frk-1.de.uncletopia.com","port":27055,"enabled":true,"region":"eu","cc":"de","latitude":50.110924,"longitude":8.682127,"reserved":0,"last_update":"0001-01-01T00:00:00Z","name_a2s":"Uncletopia | Frankfurt | 5 | All Maps","protocol":17,"map":"cp_mountainlab","folder":"tf","game":"Team Fortress","app_id":440,"player_count":0,"max_players":24,"Bots":0,"server_type":"Dedicated","server_os":"Linux","password":true,"vac":true,"version":"7757534","steam_id":85568392924504277,"keywords":["cp","nocrits","nodmgspread","uncletopia"],"game_id":440,"stv_port":27056,"stv_name":"Uncletopia | Frankfurt | 5 | All Maps | STV","players":null},{"server_id":311,"name":"Uncletopia | Frankfurt | 6 | All Maps","name_short":"frk-6","host":"frk-1.de.uncletopia.com","port":27065,"enabled":true,"region":"eu","cc":"de","latitude":50.110924,"longitude":8.682127,"reserved":0,"last_update":"0001-01-01T00:00:00Z","name_a2s":"Uncletopia | Frankfurt | 6 | All Maps","protocol":17,"map":"koth_highpass","folder":"tf","game":"Team Fortress","app_id":440,"player_count":0,"max_players":24,"Bots":0,"server_type":"Dedicated","server_os":"Linux","password":true,"vac":true,"version":"7757534","steam_id":85568392924504278,"keywords":["cp","nocrits","nodmgspread","uncletopia"],"game_id":440,"stv_port":27066,"stv_name":"Uncletopia | Frankfurt | 6 | All Maps | STV","players":null},{"server_id":23,"name":"Uncletopia | Frankfurt | 7 | Stopwatch Beta","name_short":"frk-7","host":"frk-1.de.uncletopia.com","port":27075,"enabled":true,"region":"eu","cc":"de","latitude":50.110924,"longitude":8.682127,"reserved":0,"last_update":"0001-01-01T00:00:00Z","name_a2s":"Uncletopia | Frankfurt | 7 | Stopwatch Beta","protocol":17,"map":"pl_borneo","folder":"tf","game":"Team Fortress","app_id":440,"player_count":0,"max_players":24,"Bots":0,"server_type":"Dedicated","server_os":"Linux","password":true,"vac":true,"version":"7757534","steam_id":85568392924742827,"keywords":["nocrits","nodmgspread","payload","uncletopia"],"game_id":440,"stv_port":27076,"stv_name":"Uncletopia | Frankfurt | 7 | Stopwatch Beta | STV","players":null},{"server_id":24,"name":"Uncletopia | Frankfurt | 8 | Community","name_short":"frk-8","host":"frk-1.de.uncletopia.com","port":27085,"enabled":true,"region":"eu","cc":"de","latitude":50.110924,"longitude":8.682127,"reserved":0,"last_update":"0001-01-01T00:00:00Z","name_a2s":"Uncletopia | Frankfurt | 8 | Community","protocol":17,"map":"koth_cascade","folder":"tf","game":"Team Fortress","app_id":440,"player_count":0,"max_players":24,"Bots":0,"server_type":"Dedicated","server_os":"Linux","password":true,"vac":true,"version":"7757534","steam_id":85568392924742828,"keywords":["cp","nocrits","nodmgspread","uncletopia"],"game_id":440,"stv_port":27086,"stv_name":"Uncletopia | Frankfurt | 8 | Community | STV","players":null},{"server_id":202,"name":"Uncletopia | Hong Kong | 1 | All Maps","name_short":"hgk-1","host":"hgk-1.hk.uncletopia.com","port":27015,"enabled":true,"region":"asia","cc":"hk","latitude":22.302711,"longitude":114.177216,"reserved":0,"last_update":"0001-01-01T00:00:00Z","name_a2s":"Uncletopia | Hong Kong | 1 | All Maps","protocol":17,"map":"cp_snakewater_final1","folder":"tf","game":"Team Fortress","app_id":440,"player_count":9,"max_players":24,"Bots":0,"server_type":"Dedicated","server_os":"Linux","password":true,"vac":true,"version":"7757534","steam_id":85568392924494504,"keywords":["cp","nocrits","nodmgspread","uncletopia"],"game_id":440,"stv_port":27016,"stv_name":"Uncletopia | Hong Kong | 1 | All Maps | STV","players":[{"user_id":54,"name":"why wont my gun shoot?","steam_id":76561199249938987,"connected_time":707000000000,"state":"active","ping":41},{"user_id":55,"name":"Lym0n","steam_id":76561199192420260,"connected_time":706000000000,"state":"active","ping":126},{"user_id":56,"name":"timmy.1366","steam_id":76561199065433547,"connected_time":703000000000,"state":"active","ping":75},{"user_id":59,"name":"Leroy","steam_id":76561199137927625,"connected_time":311000000000,"state":"active","ping":87},{"user_id":65,"name":"ocha お茶 전통차","steam_id":76561199224096189,"connected_time":14000000000,"state":"spawning","ping":74},{"user_id":60,"name":"A Weapon to surpass Metal Gear","steam_id":76561199003477951,"connected_time":306000000000,"state":"active","ping":134},{"user_id":61,"name":"Esperesso","steam_id":76561199105427733,"connected_time":244000000000,"state":"active","ping":178},{"user_id":62,"name":"ketsu","steam_id":76561197966171554,"connected_time":205000000000,"state":"active","ping":117},{"user_id":64,"name":"uzr","steam_id":76561198799343084,"connected_time":107000000000,"state":"active","ping":142}]},{"server_id":1,"name":"Uncletopia | Los Angeles | 1 | All Maps","name_short":"lax-1","host":"lax-1.us.uncletopia.com","port":27015,"enabled":true,"region":"us-west","cc":"us","latitude":33.94279,"longitude":-118.41004,"reserved":0,"last_update":"0001-01-01T00:00:00Z","name_a2s":"Uncletopia | Los Angeles | 1 | All Maps","protocol":17,"map":"koth_viaduct","folder":"tf","game":"Team Fortress","app_id":440,"player_count":0,"max_players":24,"Bots":0,"server_type":"Dedicated","server_os":"Linux","password":true,"vac":true,"version":"7757534","steam_id":85568392924469991,"keywords":["cp","nocrits","nodmgspread","uncletopia"],"game_id":440,"stv_port":27016,"stv_name":"Uncletopia | Los Angeles | 1 | All Maps | STV","players":null},{"server_id":112,"name":"Uncletopia | Los Angeles | 2 | All Maps","name_short":"lax-2","host":"lax-1.us.uncletopia.com","port":27025,"enabled":true,"region":"us-west","cc":"us","latitude":33.94279,"longitude":-118.41004,"reserved":0,"last_update":"0001-01-01T00:00:00Z","name_a2s":"Uncletopia | Los Angeles | 2 | All Maps","protocol":17,"map":"pl_swiftwater_final1","folder":"tf","game":"Team Fortress","app_id":440,"player_count":20,"max_players":24,"Bots":0,"server_type":"Dedicated","server_os":"Linux","password":true,"vac":true,"version":"7757534","steam_id":85568392924469992,"keywords":["nocrits","nodmgspread","payload","uncletopia"],"game_id":440,"stv_port":27026,"stv_name":"Uncletopia | Los Angeles | 2 | All Maps | STV","players":[{"user_id":333,"name":"LX-24","steam_id":76561198016168993,"connected_time":4254000000000,"state":"active","ping":101},{"user_id":399,"name":"Fremond Games","steam_id":76561198847910046,"connected_time":166000000000,"state":"active","ping":87},{"user_id":347,"name":"Amish Robot","steam_id":76561198041156065,"connected_time":3812000000000,"state":"active","ping":87},{"user_id":370,"name":"Whisper!","steam_id":76561198119609795,"connected_time":2394000000000,"state":"active","ping":51},{"user_id":400,"name":"Vinnis Vidya","steam_id":76561198061908279,"connected_time":95000000000,"state":"active","ping":78},{"user_id":401,"name":"Hydro","steam_id":76561198096334702,"connected_time":87000000000,"state":"active","ping":129},{"user_id":368,"name":"Cbomb","steam_id":76561198061609614,"connected_time":2435000000000,"state":"active","ping":55},{"user_id":390,"name":"Juanelo","steam_id":76561199096390505,"connected_time":783000000000,"state":"active","ping":78},{"user_id":351,"name":"riri ᗜᴗᗜ","steam_id":76561198055462404,"connected_time":3603000000000,"state":"active","ping":33},{"user_id":371,"name":"Schnitz(Lost my Glasses)","steam_id":76561198265484253,"connected_time":2299000000000,"state":"active","ping":53},{"user_id":402,"name":"Gerbz","steam_id":76561198296032677,"connected_time":87000000000,"state":"active","ping":127},{"user_id":383,"name":"gamer","steam_id":76561198334059206,"connected_time":1685000000000,"state":"active","ping":57},{"user_id":403,"name":"rice white","steam_id":76561198320732910,"connected_time":25000000000,"state":"active","ping":115},{"user_id":385,"name":"Chan","steam_id":76561198319764811,"connected_time":1470000000000,"state":"active","ping":85},{"user_id":377,"name":"Ryle","steam_id":76561198216682264,"connected_time":2117000000000,"state":"active","ping":45},{"user_id":392,"name":"PeptoBismol","steam_id":76561198082669076,"connected_time":730000000000,"state":"active","ping":59},{"user_id":393,"name":"aflyingmouse","steam_id":76561198058134934,"connected_time":726000000000,"state":"active","ping":64},{"user_id":394,"name":"About That Beer I Owed Ya","steam_id":76561198071506287,"connected_time":656000000000,"state":"active","ping":60},{"user_id":396,"name":"Net_","steam_id":76561197986989179,"connected_time":510000000000,"state":"active","ping":66},{"user_id":397,"name":"Screaming is against the rules.","steam_id":76561198011792403,"connected_time":497000000000,"state":"active","ping":107}]},{"server_id":324,"name":"Uncletopia | Los Angeles | 3 | All Maps","name_short":"lax-3","host":"lax-1.us.uncletopia.com","port":27035,"enabled":true,"region":"us-west","cc":"us","latitude":33.94279,"longitude":-118.41004,"reserved":0,"last_update":"0001-01-01T00:00:00Z","name_a2s":"Uncletopia | Los Angeles | 3 | All Maps","protocol":17,"map":"koth_highpass","folder":"tf","game":"Team Fortress","app_id":440,"player_count":0,"max_players":24,"Bots":0,"server_type":"Dedicated","server_os":"Linux","password":true,"vac":true,"version":"7757534","steam_id":85568392924510198,"keywords":["cp","nocrits","nodmgspread","uncletopia"],"game_id":440,"stv_port":27036,"stv_name":"Uncletopia | Los Angeles | 3 | All Maps | STV","players":null},{"server_id":25,"name":"Uncletopia | Los Angeles | 4 | Stopwatch Beta","name_short":"lax-4","host":"lax-1.us.uncletopia.com","port":27045,"enabled":true,"region":"us-west","cc":"us","latitude":33.94279,"longitude":-118.41004,"reserved":0,"last_update":"0001-01-01T00:00:00Z","name_a2s":"Uncletopia | Los Angeles | 4 | Stopwatch Beta","protocol":17,"map":"koth_viaduct","folder":"tf","game":"Team Fortress","app_id":440,"player_count":0,"max_players":24,"Bots":0,"server_type":"Dedicated","server_os":"Linux","password":true,"vac":true,"version":"7757534","steam_id":85568392924510199,"keywords":["cp","nocrits","nodmgspread","uncletopia"],"game_id":440,"stv_port":27046,"stv_name":"Uncletopia | Los Angeles | 4 | Stopwatch Beta | STV","players":null},{"server_id":11,"name":"Uncletopia | London | 1 | All Maps","name_short":"lon-1","host":"lon-1.uk.uncletopia.com","port":27015,"enabled":true,"region":"eu","cc":"gb","latitude":51.509865,"longitude":-0.118092,"reserved":0,"last_update":"0001-01-01T00:00:00Z","name_a2s":"Uncletopia | London | 1 | All Maps","protocol":17,"map":"ctf_turbine","folder":"tf","game":"Team Fortress","app_id":440,"player_count":24,"max_players":24,"Bots":0,"server_type":"Dedicated","server_os":"Linux","password":true,"vac":true,"version":"7757534","steam_id":85568392924367362,"keywords":["ctf","nocrits","nodmgspread","uncletopia"],"game_id":440,"stv_port":27016,"stv_name":"Uncletopia | London | 1 | All Maps | STV","players":[{"user_id":92,"name":"Dom.","steam_id":76561199065917088,"connected_time":3911000000000,"state":"active","ping":59},{"user_id":141,"name":"LL66","steam_id":76561198269997109,"connected_time":182000000000,"state":"active","ping":89},{"user_id":77,"name":"MRLOLENO","steam_id":76561198450911838,"connected_time":4668000000000,"state":"active","ping":65},{"user_id":140,"name":"p2wta","steam_id":76561199467969775,"connected_time":263000000000,"state":"active","ping":151},{"user_id":115,"name":"re","steam_id":76561198202816899,"connected_time":1892000000000,"state":"active","ping":38},{"user_id":130,"name":"mid gash","steam_id":76561198064130889,"connected_time":807000000000,"state":"active","ping":56},{"user_id":137,"name":"meh","steam_id":76561198416527370,"connected_time":366000000000,"state":"active","ping":70},{"user_id":125,"name":"Fellas","steam_id":76561198845162162,"connected_time":1302000000000,"state":"active","ping":60},{"user_id":131,"name":"ZaiKowy","steam_id":76561198837246687,"connected_time":804000000000,"state":"active","ping":87},{"user_id":132,"name":"Ian","steam_id":76561198159334435,"connected_time":762000000000,"state":"active","ping":181},{"user_id":138,"name":"sriracha..","steam_id":76561198005560221,"connected_time":356000000000,"state":"active","ping":71},{"user_id":135,"name":"Добрый Пельмень","steam_id":76561198430703973,"connected_time":609000000000,"state":"active","ping":133},{"user_id":136,"name":"дон ягон","steam_id":76561199086100360,"connected_time":586000000000,"state":"active","ping":110},{"user_id":71,"name":"333res","steam_id":76561198148106704,"connected_time":5541000000000,"state":"active","ping":90},{"user_id":33,"name":"Sputnik","steam_id":76561198138660241,"connected_time":7519000000000,"state":"active","ping":56},{"user_id":114,"name":"Fluffed up Maverick","steam_id":76561198843516708,"connected_time":1901000000000,"state":"active","ping":75},{"user_id":91,"name":"brass beast 1","steam_id":76561198042774930,"connected_time":3993000000000,"state":"active","ping":55},{"user_id":127,"name":"Sneaky boi","steam_id":76561199195985387,"connected_time":1087000000000,"state":"active","ping":90},{"user_id":103,"name":"pAftAq","steam_id":76561198359966356,"connected_time":3232000000000,"state":"active","ping":109},{"user_id":121,"name":"theblackfire","steam_id":76561198883641136,"connected_time":1467000000000,"state":"active","ping":95},{"user_id":119,"name":"MateMO","steam_id":76561198146180114,"connected_time":1735000000000,"state":"active","ping":95},{"user_id":40,"name":"Daoloth, Render of the Veils","steam_id":76561198115106008,"connected_time":7226000000000,"state":"active","ping":47},{"user_id":123,"name":"1ostSou1","steam_id":76561199316324276,"connected_time":1443000000000,"state":"active","ping":107},{"user_id":110,"name":"Potato","steam_id":76561198883934935,"connected_time":2465000000000,"state":"active","ping":97}]},{"server_id":114,"name":"Uncletopia | London | 2 | All Maps","name_short":"lon-2","host":"lon-1.uk.uncletopia.com","port":27025,"enabled":true,"region":"eu","cc":"gb","latitude":51.509865,"longitude":-0.118092,"reserved":0,"last_update":"0001-01-01T00:00:00Z","name_a2s":"Uncletopia | London | 2 | All Maps","protocol":17,"map":"pl_borneo","folder":"tf","game":"Team Fortress","app_id":440,"player_count":0,"max_players":24,"Bots":0,"server_type":"Dedicated","server_os":"Linux","password":true,"vac":true,"version":"7757534","steam_id":85568392924470941,"keywords":["nocrits","nodmgspread","payload","uncletopia"],"game_id":440,"stv_port":27026,"stv_name":"Uncletopia | London | 2 | All Maps | STV","players":null},{"server_id":320,"name":"Uncletopia | London | 3 | All Maps","name_short":"lon-3","host":"lon-1.uk.uncletopia.com","port":27035,"enabled":true,"region":"eu","cc":"gb","latitude":51.509865,"longitude":-0.118092,"reserved":0,"last_update":"0001-01-01T00:00:00Z","name_a2s":"Uncletopia | London | 3 | All Maps","protocol":17,"map":"pl_badwater","folder":"tf","game":"Team Fortress","app_id":440,"player_count":0,"max_players":24,"Bots":0,"server_type":"Dedicated","server_os":"Linux","password":true,"vac":true,"version":"7757534","steam_id":85568392924510192,"keywords":["nocrits","nodmgspread","payload","uncletopia"],"game_id":440,"stv_port":27036,"stv_name":"Uncletopia | London | 3 | All Maps | STV","players":null},{"server_id":321,"name":"Uncletopia | London | 4 | All Maps","name_short":"lon-4","host":"lon-1.uk.uncletopia.com","port":27045,"enabled":true,"region":"eu","cc":"gb","latitude":51.509865,"longitude":-0.118092,"reserved":0,"last_update":"0001-01-01T00:00:00Z","name_a2s":"Uncletopia | London | 4 | All Maps","protocol":17,"map":"cp_snakewater_final1","folder":"tf","game":"Team Fortress","app_id":440,"player_count":0,"max_players":24,"Bots":0,"server_type":"Dedicated","server_os":"Linux","password":true,"vac":true,"version":"7757534","steam_id":85568392924510193,"keywords":["cp","nocrits","nodmgspread","uncletopia"],"game_id":440,"stv_port":27046,"stv_name":"Uncletopia | London | 4 | All Maps | STV","players":null},{"server_id":21,"name":"Uncletopia | London | 5 | All Maps","name_short":"lon-5","host":"lon-1.uk.uncletopia.com","port":27055,"enabled":true,"region":"eu","cc":"gb","latitude":51.509865,"longitude":-0.118092,"reserved":0,"last_update":"0001-01-01T00:00:00Z","name_a2s":"Uncletopia | London | 5 | All Maps","protocol":17,"map":"pl_snowycoast","folder":"tf","game":"Team Fortress","app_id":440,"player_count":0,"max_players":24,"Bots":0,"server_type":"Dedicated","server_os":"Linux","password":true,"vac":true,"version":"7757534","steam_id":85568392924742829,"keywords":["nocrits","nodmgspread","payload","uncletopia"],"game_id":440,"stv_port":27056,"stv_name":"Uncletopia | London | 5 | All Maps | STV","players":null},{"server_id":22,"name":"Uncletopia | London | 6 | All Maps","name_short":"lon-6","host":"lon-1.uk.uncletopia.com","port":27065,"enabled":true,"region":"eu","cc":"gb","latitude":51.509865,"longitude":-0.118092,"reserved":0,"last_update":"0001-01-01T00:00:00Z","name_a2s":"Uncletopia | London | 6 | All Maps","protocol":17,"map":"pl_snowycoast","folder":"tf","game":"Team Fortress","app_id":440,"player_count":0,"max_players":24,"Bots":0,"server_type":"Dedicated","server_os":"Linux","password":true,"vac":true,"version":"7757534","steam_id":85568392924742830,"keywords":["nocrits","nodmgspread","payload","uncletopia"],"game_id":440,"stv_port":27066,"stv_name":"Uncletopia | London | 6 | All Maps | STV","players":null},{"server_id":40,"name":"Uncletopia | London | 7 | No Payload","name_short":"lon-7","host":"lon-1.uk.uncletopia.com","port":27075,"enabled":true,"region":"eu","cc":"gb","latitude":51.509865,"longitude":-0.118092,"reserved":0,"last_update":"0001-01-01T00:00:00Z","name_a2s":"Uncletopia | London | 7 | No Payload","protocol":17,"map":"pl_upward","folder":"tf","game":"Team Fortress","app_id":440,"player_count":0,"max_players":24,"Bots":0,"server_type":"Dedicated","server_os":"Linux","password":true,"vac":true,"version":"7757534","steam_id":85568392924964314,"keywords":["nocrits","nodmgspread","payload","uncletopia"],"game_id":440,"stv_port":27076,"stv_name":"Uncletopia | London | 7 | No Payload | STV","players":null},{"server_id":41,"name":"Uncletopia | London | 8 | Community","name_short":"lon-8","host":"lon-1.uk.uncletopia.com","port":27085,"enabled":true,"region":"eu","cc":"gb","latitude":51.509865,"longitude":-0.118092,"reserved":0,"last_update":"0001-01-01T00:00:00Z","name_a2s":"Uncletopia | London | 8 | Community","protocol":17,"map":"cp_snakewater_final1","folder":"tf","game":"Team Fortress","app_id":440,"player_count":0,"max_players":24,"Bots":0,"server_type":"Dedicated","server_os":"Linux","password":true,"vac":true,"version":"7757534","steam_id":85568392924964315,"keywords":["cp","nocrits","nodmgspread","uncletopia"],"game_id":440,"stv_port":27086,"stv_name":"Uncletopia | London | 8 | Community | STV","players":null},{"server_id":300,"name":"Uncletopia | Montréal | 1 | All Maps","name_short":"mtl-1","host":"mtl-1.ca.uncletopia.com","port":27015,"enabled":true,"region":"us-east","cc":"ca","latitude":45.50889,"longitude":-73.56167,"reserved":0,"last_update":"0001-01-01T00:00:00Z","name_a2s":"Uncletopia | Montréal | 1 | All Maps","protocol":17,"map":"koth_cascade","folder":"tf","game":"Team Fortress","app_id":440,"player_count":0,"max_players":24,"Bots":0,"server_type":"Dedicated","server_os":"Linux","password":true,"vac":true,"version":"7757534","steam_id":85568392924500087,"keywords":["cp","nocrits","nodmgspread","uncletopia"],"game_id":440,"stv_port":27016,"stv_name":"Uncletopia | Montréal | 1 | All Maps | STV","players":null},{"server_id":301,"name":"Uncletopia | Montréal | 2 | All Maps","name_short":"mtl-2","host":"mtl-1.ca.uncletopia.com","port":27025,"enabled":true,"region":"us-east","cc":"ca","latitude":45.50889,"longitude":-73.56167,"reserved":0,"last_update":"0001-01-01T00:00:00Z","name_a2s":"Uncletopia | Montréal | 2 | All Maps","protocol":17,"map":"koth_viaduct","folder":"tf","game":"Team Fortress","app_id":440,"player_count":0,"max_players":24,"Bots":0,"server_type":"Dedicated","server_os":"Linux","password":true,"vac":true,"version":"7757534","steam_id":85568392924500088,"keywords":["cp","nocrits","nodmgspread","uncletopia"],"game_id":440,"stv_port":27026,"stv_name":"Uncletopia | Montréal | 2 | All Maps | STV","players":null},{"server_id":302,"name":"Uncletopia | Montréal | 3 | All Maps","name_short":"mtl-3","host":"mtl-1.ca.uncletopia.com","port":27035,"enabled":true,"region":"us-east","cc":"ca","latitude":45.50889,"longitude":-73.56167,"reserved":0,"last_update":"0001-01-01T00:00:00Z","name_a2s":"Uncletopia | Montréal | 3 | All Maps","protocol":17,"map":"pl_swiftwater_final1","folder":"tf","game":"Team Fortress","app_id":440,"player_count":0,"max_players":24,"Bots":0,"server_type":"Dedicated","server_os":"Linux","password":true,"vac":true,"version":"7757534","steam_id":85568392924500089,"keywords":["nocrits","nodmgspread","payload","uncletopia"],"game_id":440,"stv_port":27036,"stv_name":"Uncletopia | Montréal | 3 | All Maps | STV","players":null},{"server_id":303,"name":"Uncletopia | Montréal | 4 | No Payload","name_short":"mtl-4","host":"mtl-1.ca.uncletopia.com","port":27045,"enabled":true,"region":"us-east","cc":"ca","latitude":45.50889,"longitude":-73.56167,"reserved":0,"last_update":"0001-01-01T00:00:00Z","name_a2s":"Uncletopia | Montréal | 4 | No Payload","protocol":17,"map":"koth_lakeside_final","folder":"tf","game":"Team Fortress","app_id":440,"player_count":0,"max_players":24,"Bots":0,"server_type":"Dedicated","server_os":"Linux","password":true,"vac":true,"version":"7757534","steam_id":85568392924500090,"keywords":["cp","nocrits","nodmgspread","uncletopia"],"game_id":440,"stv_port":27046,"stv_name":"Uncletopia | Montréal | 4 | No Payload | STV","players":null},{"server_id":13,"name":"Uncletopia | New York City | 1 | All Maps","name_short":"nyc-1","host":"nyc-1.us.uncletopia.com","port":27015,"enabled":true,"region":"us-east","cc":"us","latitude":40.73061,"longitude":-73.93524,"reserved":0,"last_update":"0001-01-01T00:00:00Z","name_a2s":"Uncletopia | New York City | 1 | All Maps","protocol":17,"map":"pl_snowycoast","folder":"tf","game":"Team Fortress","app_id":440,"player_count":24,"max_players":24,"Bots":0,"server_type":"Dedicated","server_os":"Linux","password":true,"vac":true,"version":"7757534","steam_id":85568392924469993,"keywords":["nocrits","nodmgspread","payload","uncletopia"],"game_id":440,"stv_port":27016,"stv_name":"Uncletopia | New York City | 1 | All Maps | STV","players":[{"user_id":538,"name":"IrfanZn","steam_id":76561199468828920,"connected_time":825000000000,"state":"active","ping":78},{"user_id":523,"name":"Fish Politics","steam_id":76561198214754864,"connected_time":1925000000000,"state":"active","ping":69},{"user_id":551,"name":"sniffffff","steam_id":76561198041218710,"connected_time":8000000000,"state":"active","ping":73},{"user_id":540,"name":"Daisy ❋","steam_id":76561198042144492,"connected_time":750000000000,"state":"active","ping":71},{"user_id":542,"name":"sweaterfan","steam_id":76561199389567214,"connected_time":545000000000,"state":"active","ping":59},{"user_id":508,"name":"washy","steam_id":76561198046622670,"connected_time":3070000000000,"state":"active","ping":81},{"user_id":500,"name":"Elliot","steam_id":76561198052843856,"connected_time":4253000000000,"state":"active","ping":57},{"user_id":543,"name":"Fengo","steam_id":76561198139917991,"connected_time":506000000000,"state":"active","ping":129},{"user_id":544,"name":"Brass beast heavy","steam_id":76561198274197623,"connected_time":432000000000,"state":"active","ping":132},{"user_id":548,"name":"Seer","steam_id":76561198013492052,"connected_time":130000000000,"state":"active","ping":64},{"user_id":512,"name":"Jmciano24","steam_id":76561198050723212,"connected_time":2857000000000,"state":"active","ping":51},{"user_id":528,"name":"W + M1","steam_id":76561198220464631,"connected_time":1570000000000,"state":"active","ping":47},{"user_id":520,"name":"DoctorBodacious","steam_id":76561198258784171,"connected_time":2362000000000,"state":"active","ping":87},{"user_id":465,"name":"dangerous republican","steam_id":76561197993279095,"connected_time":7015000000000,"state":"active","ping":48},{"user_id":490,"name":"Laelaps","steam_id":76561198100061416,"connected_time":4931000000000,"state":"active","ping":46},{"user_id":507,"name":"shokie","steam_id":76561197997961542,"connected_time":3076000000000,"state":"active","ping":71},{"user_id":480,"name":"StrangeSaus","steam_id":76561198147790758,"connected_time":5924000000000,"state":"active","ping":61},{"user_id":504,"name":"ArtDealer","steam_id":76561197961880834,"connected_time":3459000000000,"state":"active","ping":32},{"user_id":502,"name":"Ghost","steam_id":76561198110914180,"connected_time":4017000000000,"state":"active","ping":167},{"user_id":529,"name":"Atlas","steam_id":76561198127975050,"connected_time":1563000000000,"state":"active","ping":77},{"user_id":493,"name":"JazzMuted","steam_id":76561197974184265,"connected_time":4822000000000,"state":"active","ping":69},{"user_id":546,"name":"DO NOT call me BART SIMPSON!!","steam_id":76561198069113375,"connected_time":306000000000,"state":"active","ping":60},{"user_id":521,"name":"Blanke","steam_id":76561198068912412,"connected_time":2280000000000,"state":"active","ping":98},{"user_id":549,"name":"LATINO BEAST UNIT 75","steam_id":76561198077789424,"connected_time":129000000000,"state":"active","ping":129}]},{"server_id":14,"name":"Uncletopia | New York City | 2 | All Maps","name_short":"nyc-2","host":"nyc-1.us.uncletopia.com","port":27025,"enabled":true,"region":"us-east","cc":"us","latitude":40.73061,"longitude":-73.93524,"reserved":0,"last_update":"0001-01-01T00:00:00Z","name_a2s":"Uncletopia | New York City | 2 | All Maps","protocol":17,"map":"pl_frontier_final","folder":"tf","game":"Team Fortress","app_id":440,"player_count":0,"max_players":24,"Bots":0,"server_type":"Dedicated","server_os":"Linux","password":true,"vac":true,"version":"7757534","steam_id":85568392924469994,"keywords":["nocrits","nodmgspread","payload","uncletopia"],"game_id":440,"stv_port":27026,"stv_name":"Uncletopia | New York City | 2 | All Maps | STV","players":null},{"server_id":15,"name":"Uncletopia | New York City | 3 | Stopwatch Beta","name_short":"nyc-3","host":"nyc-1.us.uncletopia.com","port":27035,"enabled":true,"region":"us-east","cc":"us","latitude":40.73061,"longitude":-73.93524,"reserved":0,"last_update":"0001-01-01T00:00:00Z","name_a2s":"Uncletopia | New York City | 3 | Stopwatch Beta","protocol":17,"map":"workshop/pl_barnblitz_pro7.ugc582280235","folder":"tf","game":"Team Fortress","app_id":440,"player_count":0,"max_players":24,"Bots":0,"server_type":"Dedicated","server_os":"Linux","password":true,"vac":true,"version":"7757534","steam_id":85568392924742820,"keywords":["nocrits","nodmgspread","payload","uncletopia"],"game_id":440,"stv_port":27036,"stv_name":"Uncletopia | New York City | 3 | Stopwatch Beta | STV","players":null},{"server_id":16,"name":"Uncletopia | New York City | 4 | Community","name_short":"nyc-4","host":"nyc-1.us.uncletopia.com","port":27045,"enabled":true,"region":"us-east","cc":"us","latitude":40.73061,"longitude":-73.93524,"reserved":0,"last_update":"0001-01-01T00:00:00Z","name_a2s":"Uncletopia | New York City | 4 | Community","protocol":17,"map":"workshop/koth_ashville_final.ugc2130459942","folder":"tf","game":"Team Fortress","app_id":440,"player_count":0,"max_players":24,"Bots":0,"server_type":"Dedicated","server_os":"Linux","password":true,"vac":true,"version":"7757534","steam_id":85568392924742821,"keywords":["cp","nocrits","nodmgspread","uncletopia"],"game_id":440,"stv_port":27046,"stv_name":"Uncletopia | New York City | 4 | Community | STV","players":null},{"server_id":142,"name":"Uncletopia | São Paulo | 1 | All Maps","name_short":"sao-1","host":"sao-1.br.uncletopia.com","port":27015,"enabled":true,"region":"sa","cc":"br","latitude":-23.533773,"longitude":-46.62529,"reserved":0,"last_update":"0001-01-01T00:00:00Z","name_a2s":"Uncletopia | São Paulo | 1 | All Maps","protocol":17,"map":"koth_highpass","folder":"tf","game":"Team Fortress","app_id":440,"player_count":0,"max_players":24,"Bots":0,"server_type":"Dedicated","server_os":"Linux","password":true,"vac":true,"version":"7757534","steam_id":85568392924469996,"keywords":["cp","nocrits","nodmgspread","uncletopia"],"game_id":440,"stv_port":27016,"stv_name":"Uncletopia | São Paulo | 1 | All Maps | STV","players":null},{"server_id":143,"name":"Uncletopia | São Paulo | 2 | All Maps","name_short":"sao-2","host":"sao-2.br.uncletopia.com","port":27015,"enabled":true,"region":"sa","cc":"br","latitude":-23.533773,"longitude":-46.62529,"reserved":0,"last_update":"0001-01-01T00:00:00Z","name_a2s":"Uncletopia | São Paulo | 2 | All Maps","protocol":17,"map":"koth_highpass","folder":"tf","game":"Team Fortress","app_id":440,"player_count":0,"max_players":24,"Bots":0,"server_type":"Dedicated","server_os":"Linux","password":true,"vac":true,"version":"7757534","steam_id":85568392924485349,"keywords":["cp","nocrits","nodmgspread","uncletopia"],"game_id":440,"stv_port":27016,"stv_name":"Uncletopia | São Paulo | 2 | All Maps | STV","players":null},{"server_id":7,"name":"Uncletopia | Seattle | 1 | All Maps","name_short":"sea-1","host":"sea-1.us.uncletopia.com","port":27015,"enabled":true,"region":"us-west","cc":"us","latitude":47.608013,"longitude":-122.33517,"reserved":0,"last_update":"0001-01-01T00:00:00Z","name_a2s":"Uncletopia | Seattle | 1 | All Maps","protocol":17,"map":"pl_borneo","folder":"tf","game":"Team Fortress","app_id":440,"player_count":24,"max_players":24,"Bots":0,"server_type":"Dedicated","server_os":"Linux","password":true,"vac":true,"version":"7757534","steam_id":85568392924469997,"keywords":["nocrits","nodmgspread","payload","uncletopia"],"game_id":440,"stv_port":27016,"stv_name":"Uncletopia | Seattle | 1 | All Maps | STV","players":[{"user_id":831,"name":"Bubbamanme","steam_id":76561198119778504,"connected_time":929000000000,"state":"active","ping":58},{"user_id":838,"name":"PerKnuckleChuckle","steam_id":76561198023221596,"connected_time":498000000000,"state":"active","ping":81},{"user_id":829,"name":"'89","steam_id":76561198020221880,"connected_time":998000000000,"state":"active","ping":60},{"user_id":782,"name":"Luca","steam_id":76561198125087140,"connected_time":6210000000000,"state":"active","ping":46},{"user_id":826,"name":"Capt.Swag","steam_id":76561198088340994,"connected_time":1984000000000,"state":"active","ping":122},{"user_id":843,"name":"cookie","steam_id":76561197971557295,"connected_time":74000000000,"state":"active","ping":89},{"user_id":812,"name":"Arsonist Goose","steam_id":76561198147441830,"connected_time":2947000000000,"state":"active","ping":75},{"user_id":778,"name":"gorlab","steam_id":76561198025089694,"connected_time":6346000000000,"state":"active","ping":59},{"user_id":840,"name":"h u r t","steam_id":76561198046073848,"connected_time":277000000000,"state":"active","ping":46},{"user_id":815,"name":"lavender","steam_id":76561199069518286,"connected_time":2841000000000,"state":"active","ping":97},{"user_id":721,"name":"Ayayahuasca","steam_id":76561199002906056,"connected_time":11000000000000,"state":"active","ping":45},{"user_id":833,"name":"Artic_Ryuu","steam_id":76561198182194918,"connected_time":831000000000,"state":"active","ping":69},{"user_id":790,"name":"Username","steam_id":76561198855586261,"connected_time":5485000000000,"state":"active","ping":61},{"user_id":835,"name":"everythingrhymeswithorange","steam_id":76561198010306193,"connected_time":805000000000,"state":"active","ping":83},{"user_id":822,"name":"JERMA BUT CRYING AND TRANS","steam_id":76561198210734407,"connected_time":2172000000000,"state":"active","ping":121},{"user_id":836,"name":"Interrobang","steam_id":76561198385044529,"connected_time":800000000000,"state":"active","ping":128},{"user_id":784,"name":"Sweets","steam_id":76561198998446307,"connected_time":6111000000000,"state":"active","ping":64},{"user_id":796,"name":"Sniff","steam_id":76561198010270922,"connected_time":5180000000000,"state":"active","ping":43},{"user_id":837,"name":"Not Dentist","steam_id":76561198103189993,"connected_time":779000000000,"state":"active","ping":77},{"user_id":841,"name":"Cassandra (She/her)","steam_id":76561198094123940,"connected_time":144000000000,"state":"active","ping":122},{"user_id":818,"name":"PheebsyDeebsy","steam_id":76561198101509436,"connected_time":2814000000000,"state":"active","ping":68},{"user_id":819,"name":"shane","steam_id":76561198060491451,"connected_time":2749000000000,"state":"active","ping":89},{"user_id":801,"name":"An Old Lady","steam_id":76561198047480318,"connected_time":4373000000000,"state":"active","ping":69},{"user_id":805,"name":"demomanfan2008","steam_id":76561198077030486,"connected_time":4214000000000,"state":"active","ping":88}]},{"server_id":119,"name":"Uncletopia | Seattle | 2 | All Maps","name_short":"sea-2","host":"sea-1.us.uncletopia.com","port":27025,"enabled":true,"region":"us-west","cc":"us","latitude":47.608013,"longitude":-122.33517,"reserved":0,"last_update":"0001-01-01T00:00:00Z","name_a2s":"Uncletopia | Seattle | 2 | All Maps","protocol":17,"map":"cp_altitude","folder":"tf","game":"Team Fortress","app_id":440,"player_count":0,"max_players":24,"Bots":0,"server_type":"Dedicated","server_os":"Linux","password":true,"vac":true,"version":"7757534","steam_id":85568392924469998,"keywords":["cp","nocrits","nodmgspread","uncletopia"],"game_id":440,"stv_port":27026,"stv_name":"Uncletopia | Seattle | 2 | All Maps | STV","players":null},{"server_id":406,"name":"Uncletopia | Seattle | 3 | Stopwatch Beta","name_short":"sea-3","host":"sea-1.us.uncletopia.com","port":27035,"enabled":true,"region":"us-west","cc":"us","latitude":47.608013,"longitude":-122.33517,"reserved":0,"last_update":"0001-01-01T00:00:00Z","name_a2s":"Uncletopia | Seattle | 3 | Stopwatch Beta","protocol":17,"map":"workshop/koth_ramjam_rc1.ugc459778887","folder":"tf","game":"Team Fortress","app_id":440,"player_count":0,"max_players":24,"Bots":0,"server_type":"Dedicated","server_os":"Linux","password":true,"vac":true,"version":"7757534","steam_id":85568392924515217,"keywords":["cp","nocrits","nodmgspread","uncletopia"],"game_id":440,"stv_port":27036,"stv_name":"Uncletopia | Seattle | 3 | Stopwatch Beta | STV","players":null},{"server_id":17,"name":"Uncletopia | San Francisco | 1 | All Maps","name_short":"sfo-1","host":"sfo-1.us.uncletopia.com","port":27015,"enabled":true,"region":"us-west","cc":"us","latitude":37.77397,"longitude":-122.4313,"reserved":0,"last_update":"0001-01-01T00:00:00Z","name_a2s":"Uncletopia | San Francisco | 1 | All Maps","protocol":17,"map":"koth_viaduct","folder":"tf","game":"Team Fortress","app_id":440,"player_count":0,"max_players":24,"Bots":0,"server_type":"Dedicated","server_os":"Linux","password":true,"vac":true,"version":"7757534","steam_id":85568392924469999,"keywords":["cp","nocrits","nodmgspread","uncletopia"],"game_id":440,"stv_port":27016,"stv_name":"Uncletopia | San Francisco | 1 | All Maps | STV","players":null},{"server_id":18,"name":"Uncletopia | San Francisco | 2 | All Maps","name_short":"sfo-2","host":"sfo-1.us.uncletopia.com","port":27025,"enabled":true,"region":"us-west","cc":"us","latitude":37.77397,"longitude":-122.4313,"reserved":0,"last_update":"0001-01-01T00:00:00Z","name_a2s":"Uncletopia | San Francisco | 2 | All Maps","protocol":17,"map":"koth_viaduct","folder":"tf","game":"Team Fortress","app_id":440,"player_count":23,"max_players":24,"Bots":0,"server_type":"Dedicated","server_os":"Linux","password":true,"vac":true,"version":"7757534","steam_id":85568392924470000,"keywords":["cp","nocrits","nodmgspread","uncletopia"],"game_id":440,"stv_port":27026,"stv_name":"Uncletopia | San Francisco | 2 | All Maps | STV","players":[{"user_id":490,"name":"Monk","steam_id":76561198072961570,"connected_time":447000000000,"state":"active","ping":76},{"user_id":491,"name":"Honkoedmai","steam_id":76561198248480260,"connected_time":358000000000,"state":"active","ping":56},{"user_id":492,"name":"Prof. Anesthesia","steam_id":76561198993250002,"connected_time":296000000000,"state":"active","ping":96},{"user_id":493,"name":"mommy","steam_id":76561198129195009,"connected_time":295000000000,"state":"active","ping":77},{"user_id":459,"name":"Sonata","steam_id":76561198088165440,"connected_time":2485000000000,"state":"active","ping":59},{"user_id":476,"name":"Biosock Infiknit","steam_id":76561198072693794,"connected_time":1839000000000,"state":"active","ping":93},{"user_id":485,"name":"nescoceo","steam_id":76561198040801160,"connected_time":1330000000000,"state":"active","ping":55},{"user_id":441,"name":"bigman1","steam_id":76561198050225055,"connected_time":3560000000000,"state":"active","ping":49},{"user_id":494,"name":"Army Ant12","steam_id":76561198121029250,"connected_time":260000000000,"state":"active","ping":51},{"user_id":466,"name":"Ryld","steam_id":76561198010174380,"connected_time":2116000000000,"state":"active","ping":70},{"user_id":464,"name":"Some Dood on the Internet","steam_id":76561198054657687,"connected_time":2331000000000,"state":"active","ping":81},{"user_id":462,"name":"Google","steam_id":76561198857237473,"connected_time":2444000000000,"state":"active","ping":81},{"user_id":495,"name":"Mintykush","steam_id":76561198210980349,"connected_time":240000000000,"state":"active","ping":72},{"user_id":465,"name":"King of the birds","steam_id":76561198891152046,"connected_time":2274000000000,"state":"active","ping":132},{"user_id":496,"name":"MA BEETS","steam_id":76561198168981607,"connected_time":234000000000,"state":"active","ping":66},{"user_id":433,"name":"Bashful Boi (0w0)","steam_id":76561198297585031,"connected_time":4294000000000,"state":"active","ping":61},{"user_id":498,"name":"bodie._.","steam_id":76561198079474904,"connected_time":177000000000,"state":"active","ping":75},{"user_id":499,"name":"Glanderson booper","steam_id":76561198021223747,"connected_time":145000000000,"state":"active","ping":85},{"user_id":488,"name":"Tanner The Fish Man","steam_id":76561198372696640,"connected_time":1018000000000,"state":"active","ping":71},{"user_id":480,"name":"Stev the Prurient Oxymoron","steam_id":76561197999442625,"connected_time":1645000000000,"state":"active","ping":77},{"user_id":500,"name":"PunishedCrab","steam_id":76561198079650017,"connected_time":99000000000,"state":"active","ping":70},{"user_id":501,"name":"Rusty","steam_id":76561198055585129,"connected_time":82000000000,"state":"active","ping":63},{"user_id":502,"name":"DORATHEEXPLORER","steam_id":76561198124773931,"connected_time":77000000000,"state":"active","ping":64}]},{"server_id":19,"name":"Uncletopia | San Francisco | 3 | Stopwatch Beta","name_short":"sfo-3","host":"sfo-1.us.uncletopia.com","port":27035,"enabled":true,"region":"us-west","cc":"us","latitude":37.77397,"longitude":-122.4313,"reserved":0,"last_update":"0001-01-01T00:00:00Z","name_a2s":"Uncletopia | San Francisco | 3 | Stopwatch Beta","protocol":17,"map":"koth_viaduct","folder":"tf","game":"Team Fortress","app_id":440,"player_count":0,"max_players":24,"Bots":0,"server_type":"Dedicated","server_os":"Linux","password":true,"vac":true,"version":"7757534","steam_id":85568392924742824,"keywords":["cp","nocrits","nodmgspread","uncletopia"],"game_id":440,"stv_port":27036,"stv_name":"Uncletopia | San Francisco | 3 | Stopwatch Beta | STV","players":null},{"server_id":20,"name":"Uncletopia | San Francisco | 4 | Community","name_short":"sfo-4","host":"sfo-1.us.uncletopia.com","port":27045,"enabled":true,"region":"us-west","cc":"us","latitude":37.77397,"longitude":-122.4313,"reserved":0,"last_update":"0001-01-01T00:00:00Z","name_a2s":"Uncletopia | San Francisco | 4 | Community","protocol":17,"map":"workshop/rd_asteroid_redux_b1.ugc2154902912","folder":"tf","game":"Team Fortress","app_id":440,"player_count":0,"max_players":24,"Bots":0,"server_type":"Dedicated","server_os":"Linux","password":true,"vac":true,"version":"7757534","steam_id":85568392924742826,"keywords":["beta","nocrits","nodmgspread","rd","uncletopia"],"game_id":440,"stv_port":27046,"stv_name":"Uncletopia | San Francisco | 4 | Community | STV","players":null},{"server_id":141,"name":"Uncletopia | Sydney | 1 | All Maps","name_short":"syd-1","host":"syd-1.au.uncletopia.com","port":27015,"enabled":true,"region":"au","cc":"au","latitude":-33.865143,"longitude":151.2099,"reserved":0,"last_update":"0001-01-01T00:00:00Z","name_a2s":"Uncletopia | Sydney | 1 | All Maps","protocol":17,"map":"koth_lakeside_final","folder":"tf","game":"Team Fortress","app_id":440,"player_count":0,"max_players":24,"Bots":0,"server_type":"Dedicated","server_os":"Linux","password":true,"vac":true,"version":"7757534","steam_id":85568392924470001,"keywords":["cp","nocrits","nodmgspread","uncletopia"],"game_id":440,"stv_port":27016,"stv_name":"Uncletopia | Sydney | 1 | All Maps | STV","players":null},{"server_id":123,"name":"Uncletopia | Sydney | 2 | All Maps","name_short":"syd-2","host":"syd-1.au.uncletopia.com","port":27025,"enabled":true,"region":"au","cc":"au","latitude":-33.865143,"longitude":151.2099,"reserved":0,"last_update":"0001-01-01T00:00:00Z","name_a2s":"Uncletopia | Sydney | 2 | All Maps","protocol":17,"map":"pl_borneo","folder":"tf","game":"Team Fortress","app_id":440,"player_count":24,"max_players":24,"Bots":0,"server_type":"Dedicated","server_os":"Linux","password":true,"vac":true,"version":"7757534","steam_id":85568392924470002,"keywords":["nocrits","nodmgspread","payload","uncletopia"],"game_id":440,"stv_port":27026,"stv_name":"Uncletopia | Sydney | 2 | All Maps | STV","players":[{"user_id":280,"name":"EpicGuy4227","steam_id":76561198094132328,"connected_time":2166000000000,"state":"active","ping":51},{"user_id":310,"name":"Sircrow22","steam_id":76561198211213113,"connected_time":398000000000,"state":"active","ping":83},{"user_id":309,"name":"Neep","steam_id":76561198391424737,"connected_time":600000000000,"state":"active","ping":53},{"user_id":301,"name":"I ain't scared of nothing","steam_id":76561199257116847,"connected_time":1109000000000,"state":"active","ping":59},{"user_id":298,"name":"yeeyeeyee","steam_id":76561198057934891,"connected_time":1347000000000,"state":"active","ping":62},{"user_id":305,"name":"[Squelette]","steam_id":76561198244232668,"connected_time":935000000000,"state":"active","ping":65},{"user_id":293,"name":"Crimson Marshmello","steam_id":76561198311358321,"connected_time":1734000000000,"state":"active","ping":59},{"user_id":282,"name":"Lobarté","steam_id":76561198090116136,"connected_time":2096000000000,"state":"active","ping":60},{"user_id":316,"name":"jim :)","steam_id":76561198127508905,"connected_time":275000000000,"state":"active","ping":42},{"user_id":318,"name":"markgyde","steam_id":76561198058557121,"connected_time":159000000000,"state":"active","ping":88},{"user_id":286,"name":"AcidOxidant","steam_id":76561198053504029,"connected_time":1982000000000,"state":"active","ping":54},{"user_id":313,"name":"Sleepy","steam_id":76561198799503871,"connected_time":320000000000,"state":"active","ping":49},{"user_id":317,"name":"pigeon","steam_id":76561198135180841,"connected_time":219000000000,"state":"active","ping":46},{"user_id":314,"name":"Jacob","steam_id":76561198059341907,"connected_time":294000000000,"state":"active","ping":36},{"user_id":306,"name":"hadouken","steam_id":76561198019740135,"connected_time":854000000000,"state":"active","ping":59},{"user_id":297,"name":"john fitzgerald kennedy","steam_id":76561198998542066,"connected_time":1452000000000,"state":"active","ping":60},{"user_id":294,"name":"TheMonsterUnderUrBed","steam_id":76561198119143250,"connected_time":1666000000000,"state":"active","ping":75},{"user_id":315,"name":"Goomannchoo","steam_id":76561199024722391,"connected_time":284000000000,"state":"active","ping":56},{"user_id":308,"name":"Trins","steam_id":76561198040922808,"connected_time":792000000000,"state":"active","ping":56},{"user_id":245,"name":"justifiedly delirious person","steam_id":76561198340730741,"connected_time":4208000000000,"state":"active","ping":59},{"user_id":296,"name":"Bing Soy","steam_id":76561198057093383,"connected_time":1659000000000,"state":"active","ping":54},{"user_id":260,"name":"Cup","steam_id":76561198038485845,"connected_time":3183000000000,"state":"active","ping":45},{"user_id":239,"name":"Easel (any/all)","steam_id":76561198049213583,"connected_time":4530000000000,"state":"active","ping":63},{"user_id":300,"name":"KnowZero","steam_id":76561198095752015,"connected_time":1168000000000,"state":"active","ping":69}]},{"server_id":395,"name":"Uncletopia | Sydney | 3 | All Maps","name_short":"syd-3","host":"syd-1.au.uncletopia.com","port":27035,"enabled":true,"region":"au","cc":"au","latitude":-33.865143,"longitude":151.2099,"reserved":0,"last_update":"0001-01-01T00:00:00Z","name_a2s":"Uncletopia | Sydney | 3 | All Maps","protocol":17,"map":"pl_frontier_final","folder":"tf","game":"Team Fortress","app_id":440,"player_count":2,"max_players":24,"Bots":0,"server_type":"Dedicated","server_os":"Linux","password":true,"vac":true,"version":"7757534","steam_id":85568392925194467,"keywords":["nocrits","nodmgspread","payload","uncletopia"],"game_id":440,"stv_port":27036,"stv_name":"Uncletopia | Sydney | 3 | All Maps | STV","players":[{"user_id":67,"name":"is_epic_stickman","steam_id":76561199078297170,"connected_time":149000000000,"state":"active","ping":83},{"user_id":57,"name":"ree boy","steam_id":76561199024189820,"connected_time":2991000000000,"state":"active","ping":86}]},{"server_id":396,"name":"Uncletopia | Sydney | 4 | All Maps","name_short":"syd-4","host":"syd-1.au.uncletopia.com","port":27045,"enabled":true,"region":"au","cc":"au","latitude":-33.865143,"longitude":151.2099,"reserved":0,"last_update":"0001-01-01T00:00:00Z","name_a2s":"Uncletopia | Sydney | 4 | All Maps","protocol":17,"map":"koth_highpass","folder":"tf","game":"Team Fortress","app_id":440,"player_count":0,"max_players":24,"Bots":0,"server_type":"Dedicated","server_os":"Linux","password":true,"vac":true,"version":"7757534","steam_id":85568392925397958,"keywords":["cp","nocrits","nodmgspread","uncletopia"],"game_id":440,"stv_port":27046,"stv_name":"Uncletopia | Sydney | 4 | All Maps | STV","players":null},{"server_id":58,"name":"Uncletopia | Sydney | 5 | Stopwatch Beta","name_short":"syd-5","host":"syd-1.au.uncletopia.com","port":27055,"enabled":true,"region":"au","cc":"au","latitude":-33.865143,"longitude":151.2099,"reserved":0,"last_update":"0001-01-01T00:00:00Z","name_a2s":"Uncletopia | Sydney | 5 | Stopwatch Beta","protocol":17,"map":"pl_barnblitz","folder":"tf","game":"Team Fortress","app_id":440,"player_count":0,"max_players":24,"Bots":0,"server_type":"Dedicated","server_os":"Linux","password":true,"vac":true,"version":"7757534","steam_id":85568392925397959,"keywords":["nocrits","nodmgspread","payload","uncletopia"],"game_id":440,"stv_port":27056,"stv_name":"Uncletopia | Sydney | 5 | Stopwatch Beta | STV","players":null},{"server_id":59,"name":"Uncletopia | Sydney | 6 | Community","name_short":"syd-6","host":"syd-1.au.uncletopia.com","port":27065,"enabled":true,"region":"au","cc":"au","latitude":-33.865143,"longitude":151.2099,"reserved":0,"last_update":"0001-01-01T00:00:00Z","name_a2s":"Uncletopia | Sydney | 6 | Community","protocol":17,"map":"workshop/cp_logjam_rc12.ugc454812035","folder":"tf","game":"Team Fortress","app_id":440,"player_count":0,"max_players":24,"Bots":0,"server_type":"Dedicated","server_os":"Linux","password":true,"vac":true,"version":"7757534","steam_id":85568392925397960,"keywords":["cp","nocrits","nodmgspread","uncletopia"],"game_id":440,"stv_port":27066,"stv_name":"Uncletopia | Sydney | 6 | Community | STV","players":null},{"server_id":49,"name":"Uncletopia | Warsaw | 1 | All Maps","name_short":"waw-1","host":"waw-1.pl.uncletopia.com","port":27015,"enabled":true,"region":"eu","cc":"pl","latitude":52.2297,"longitude":21.017532,"reserved":0,"last_update":"0001-01-01T00:00:00Z","name_a2s":"","protocol":0,"map":"","folder":"","game":"","app_id":0,"player_count":0,"max_players":0,"Bots":0,"server_type":"","server_os":"","password":false,"vac":false,"version":"","steam_id":0,"keywords":null,"game_id":0,"stv_port":0,"stv_name":"","players":null},{"server_id":50,"name":"Uncletopia | Warsaw | 2 | All Maps","name_short":"waw-2","host":"waw-1.pl.uncletopia.com","port":27025,"enabled":true,"region":"eu","cc":"pl","latitude":52.2297,"longitude":21.017532,"reserved":0,"last_update":"0001-01-01T00:00:00Z","name_a2s":"Uncletopia | Warsaw | 2 | All Maps","protocol":17,"map":"cp_snakewater_final1","folder":"tf","game":"Team Fortress","app_id":440,"player_count":0,"max_players":24,"Bots":0,"server_type":"Dedicated","server_os":"Linux","password":true,"vac":true,"version":"7757534","steam_id":85568392925397851,"keywords":["cp","nocrits","nodmgspread","uncletopia"],"game_id":440,"stv_port":27026,"stv_name":"Uncletopia | Warsaw | 2 | All Maps | STV","players":null},{"server_id":51,"name":"Uncletopia | Warsaw | 3 | All Maps","name_short":"waw-3","host":"waw-1.pl.uncletopia.com","port":27035,"enabled":true,"region":"eu","cc":"pl","latitude":52.2297,"longitude":21.017532,"reserved":0,"last_update":"0001-01-01T00:00:00Z","name_a2s":"Uncletopia | Warsaw | 3 | All Maps","protocol":17,"map":"cp_sunshine","folder":"tf","game":"Team Fortress","app_id":440,"player_count":0,"max_players":24,"Bots":0,"server_type":"Dedicated","server_os":"Linux","password":true,"vac":true,"version":"7757534","steam_id":85568392925397852,"keywords":["cp","nocrits","nodmgspread","uncletopia"],"game_id":440,"stv_port":27036,"stv_name":"Uncletopia | Warsaw | 3 | All Maps | STV","players":null},{"server_id":52,"name":"Uncletopia | Warsaw | 4 | All Maps","name_short":"waw-4","host":"waw-1.pl.uncletopia.com","port":27045,"enabled":true,"region":"eu","cc":"pl","latitude":52.2297,"longitude":21.017532,"reserved":0,"last_update":"0001-01-01T00:00:00Z","name_a2s":"Uncletopia | Warsaw | 4 | All Maps","protocol":17,"map":"pl_borneo","folder":"tf","game":"Team Fortress","app_id":440,"player_count":0,"max_players":24,"Bots":0,"server_type":"Dedicated","server_os":"Linux","password":true,"vac":true,"version":"7757534","steam_id":85568392925397853,"keywords":["nocrits","nodmgspread","payload","uncletopia"],"game_id":440,"stv_port":27046,"stv_name":"Uncletopia | Warsaw | 4 | All Maps | STV","players":null},{"server_id":53,"name":"Uncletopia | Warsaw | 5 | Stopwatch Beta","name_short":"waw-5","host":"waw-1.pl.uncletopia.com","port":27055,"enabled":true,"region":"eu","cc":"pl","latitude":52.2297,"longitude":21.017532,"reserved":0,"last_update":"0001-01-01T00:00:00Z","name_a2s":"Uncletopia | Warsaw | 5 | Stopwatch Beta","protocol":17,"map":"pl_upward","folder":"tf","game":"Team Fortress","app_id":440,"player_count":0,"max_players":24,"Bots":0,"server_type":"Dedicated","server_os":"Linux","password":true,"vac":true,"version":"7757534","steam_id":85568392925397854,"keywords":["nocrits","nodmgspread","payload","uncletopia"],"game_id":440,"stv_port":27056,"stv_name":"Uncletopia | Warsaw | 5 | Stopwatch Beta | STV","players":null},{"server_id":54,"name":"Uncletopia | Warsaw | 6 | Community","name_short":"waw-6","host":"waw-1.pl.uncletopia.com","port":27065,"enabled":true,"region":"eu","cc":"pl","latitude":52.2297,"longitude":21.017532,"reserved":0,"last_update":"0001-01-01T00:00:00Z","name_a2s":"Uncletopia | Warsaw | 6 | Community","protocol":17,"map":"pl_barnblitz","folder":"tf","game":"Team Fortress","app_id":440,"player_count":0,"max_players":24,"Bots":0,"server_type":"Dedicated","server_os":"Linux","password":true,"vac":true,"version":"7757534","steam_id":85568392925397856,"keywords":["nocrits","nodmgspread","payload","uncletopia"],"game_id":440,"stv_port":27066,"stv_name":"Uncletopia | Warsaw | 6 | Community | STV","players":null}]}