{"status":true,"message":"","result":[{"server_id":9,"name":"Uncletopia | Atlanta | 1 | All Maps","name_short":"atl-1","host":"atl-1.us.uncletopia.com","port":27015,"enabled":true,"region":"us-east","cc":"us","latitude":33.753746,"longitude":-84.38633,"reserved":0,"last_update":"0001-01-01T00:00:00Z","name_a2s":"Uncletopia | Atlanta | 1 | All Maps","protocol":17,"map":"pl_swiftwater_final1","folder":"tf","game":"Team Fortress","app_id":440,"player_count":24,"max_players":24,"Bots":0,"server_type":"Dedicated","server_os":"Linux","password":true,"vac":true,"version":"7757534","steam_id":85568392924469982,"keywords":["nocrits","nodmgspread","payload","uncletopia"],"game_id":440,"stv_port":27016,"stv_name":"Uncletopia | Atlanta | 1 | All Maps | STV","players":[{"user_id":565,"name":"xiii","steam_id":76561198079416036,"connected_time":2493000000000,"state":"active","ping":79},{"user_id":580,"name":"IQ =/- 69","steam_id":76561198102681457,"connected_time":916000000000,"state":"active","ping":71},{"user_id":572,"name":"emone coin #TOTHEMOON","steam_id":76561198089638718,"connected_time":1309000000000,"state":"active","ping":55},{"user_id":578,"name":"Legit_Jaxer","steam_id":76561198172234053,"connected_time":1108000000000,"state":"active","ping":104},{"user_id":569,"name":"Wormy","steam_id":76561198045221301,"connected_time":1810000000000,"state":"active","ping":50},{"user_id":591,"name":"Bottom Trans Cowgirl","steam_id":76561198304239680,"connected_time":426000000000,"state":"active","ping":106},{"user_id":585,"name":"perlecta","steam_id":76561198160407837,"connected_time":778000000000,"state":"active","ping":63},{"user_id":579,"name":"Kiphus","steam_id":76561198025289407,"connected_time":980000000000,"state":"active","ping":75},{"user_id":503,"name":"Intro Bonito","steam_id":76561198119478838,"connected_time":10415000000000,"state":"active","ping":53},{"user_id":556,"name":"GKEmperor","steam_id":76561197995187011,"connected_time":2739000000000,"state":"active","ping":78},{"user_id":587,"name":"♡Hunter♡","steam_id":76561199109153042,"connected_time":733000000000,"state":"active","ping":92},{"user_id":510,"name":"Albino Jellyfish","steam_id":76561198208561097,"connected_time":8644000000000,"state":"active","ping":66},{"user_id":570,"name":"ATL1 | Pango","steam_id":76561198069811545,"connected_time":1412000000000,"state":"active","ping":45},{"user_id":581,"name":"MagikCactus","steam_id":76561198035678261,"connected_time":912000000000,"state":"active","ping":118},{"user_id":567,"name":"ATL1 | Psionic Box","steam_id":76561198151019322,"connected_time":2058000000000,"state":"active","ping":72},{"user_id":592,"name":"porfer","steam_id":76561199118049168,"connected_time":287000000000,"state":"active","ping":100},{"user_id":568,"name":"spoon","steam_id":76561198927517471,"connected_time":2053000000000,"state":"active","ping":57},{"user_id":558,"name":"joe","steam_id":76561198045781320,"connected_time":2738000000000,"state":"active","ping":74},{"user_id":557,"name":"ATL1 | Vee (very cool)","steam_id":76561198330432889,"connected_time":2739000000000,"state":"active","ping":73},{"user_id":590,"name":"BIG HOG","steam_id":76561198079923652,"connected_time":536000000000,"state":"active","ping":63},{"user_id":577,"name":"Axon","steam_id":76561198117444710,"connected_time":1168000000000,"state":"active","ping":51},{"user_id":586,"name":"dipp","steam_id":76561198395577807,"connected_time":743000000000,"state":"active","ping":60},{"user_id":511,"name":"xX_HimboSwallower_Xx","steam_id":76561198016029965,"connected_time":8641000000000,"state":"active","ping":77},{"user_id":589,"name":"lil hog","steam_id":76561199230929836,"connected_time":625000000000,"state":"active","ping":87}]},{"server_id":104,"name":"Uncletopia | Atlanta | 2 | All Maps","name_short":"atl-2","host":"atl-1.us.uncletopia.com","port":27025,"enabled":true,"region":"us-east","cc":"us","latitude":33.753746,"longitude":-84.38633,"reserved":0,"last_update":"0001-01-01T00:00:00Z","name_a2s":"Uncletopia | Atlanta | 2 | All Maps","protocol":17,"map":"pl_snowycoast","folder":"tf","game":"Team Fortress","app_id":440,"player_count":25,"max_players":24,"Bots":0,"server_type":"Dedicated","server_os":"Linux","password":true,"vac":true,"version":"7757534","steam_id":85568392924469983,"keywords":["nocrits","nodmgspread","payload","uncletopia"],"game_id":440,"stv_port":27026,"stv_name":"Uncletopia | Atlanta | 2 | All Maps | STV","players":[{"user_id":378,"name":"CEO of Great Value Rootbeer","steam_id":76561198255823904,"connected_time":2043000000000,"state":"active","ping":93},{"user_id":379,"name":"CEO of IBC Rootbeer","steam_id":76561198814127825,"connected_time":2031000000000,"state":"active","ping":96},{"user_id":403,"name":"Duncle Frazzle","steam_id":76561198145596626,"connected_time":441000000000,"state":"active","ping":118},{"user_id":397,"name":"KTB","steam_id":76561197990744614,"connected_time":758000000000,"state":"active","ping":57},{"user_id":316,"name":"Voodo133","steam_id":76561198042670351,"connected_time":5565000000000,"state":"active","ping":83},{"user_id":376,"name":"rkp!","steam_id":76561199053070819,"connected_time":2252000000000,"state":"active","ping":69},{"user_id":398,"name":"non","steam_id":76561198203991196,"connected_time":694000000000,"state":"active","ping":71},{"user_id":382,"name":"JellyRoll Jerry","steam_id":76561198037149474,"connected_time":1969000000000,"state":"active","ping":126},{"user_id":399,"name":"Filthy Hope","steam_id":76561198954183101,"connected_time":650000000000,"state":"active","ping":75},{"user_id":400,"name":"JoshIsABot4168","steam_id":76561198452047234,"connected_time":622000000000,"state":"active","ping":85},{"user_id":388,"name":"The Sydney Sleeper Itself","steam_id":76561198180251763,"connected_time":1813000000000,"state":"active","ping":81},{"user_id":394,"name":"Goldy","steam_id":76561198386274766,"connected_time":964000000000,"state":"active","ping":84},{"user_id":401,"name":"Stargriefer190","steam_id":76561198996425356,"connected_time":581000000000,"state":"active","ping":74},{"user_id":402,"name":"Spiderfight1","steam_id":76561199189991528,"connected_time":453000000000,"state":"active","ping":72},{"user_id":404,"name":"Bad Rollout","steam_id":76561197971948876,"connected_time":434000000000,"state":"active","ping":70},{"user_id":405,"name":"Romo","steam_id":76561198243101572,"connected_time":391000000000,"state":"active","ping":67},{"user_id":415,"name":"Angela-1","steam_id":76561198086481048,"connected_time":113000000000,"state":"active","ping":86},{"user_id":408,"name":"Dozo","steam_id":76561198011546437,"connected_time":294000000000,"state":"active","ping":58},{"user_id":406,"name":"crush fordys","steam_id":76561198947813673,"connected_time":351000000000,"state":"active","ping":172},{"user_id":414,"name":"ecto cooler","steam_id":76561198068409067,"connected_time":122000000000,"state":"active","ping":72},{"user_id":416,"name":"Bzamo","steam_id":76561198039883392,"connected_time":108000000000,"state":"active","ping":54},{"user_id":410,"name":"The fish of doom","steam_id":76561198049069677,"connected_time":263000000000,"state":"connecting","ping":0},{"user_id":411,"name":"Taco","steam_id":76561198158621392,"connected_time":186000000000,"state":"active","ping":84},{"user_id":390,"name":"TideWTR","steam_id":76561199003526470,"connected_time":1792000000000,"state":"active","ping":64},{"user_id":413,"name":"Octo","steam_id":76561198024056355,"connected_time":136000000000,"state":"active","ping":104}]},{"server_id":400,"name":"Uncletopia | Atlanta | 3 | Community","name_short":"atl-3","host":"atl-1.us.uncletopia.com","port":27035,"enabled":true,"region":"us-east","cc":"us","latitude":33.753746,"longitude":-84.38633,"reserved":0,"last_update":"0001-01-01T00:00:00Z","name_a2s":"Uncletopia | Atlanta | 3 | Community","protocol":17,"map":"workshop/koth_kemptown_rc1.ugc767410655","folder":"tf","game":"Team Fortress","app_id":440,"player_count":0,"max_players":24,"Bots":0,"server_type":"Dedicated","server_os":"Linux","password":true,"vac":true,"version":"7757534","steam_id":85568392924515187,"keywords":["cp","nocrits","nodmgspread","uncletopia"],"game_id":440,"stv_port":27036,"stv_name":"Uncletopia | Atlanta | 3 | Community | STV","players":null},{"server_id":401,"name":"Uncletopia | Atlanta | 4 | No Payload","name_short":"atl-4","host":"atl-1.us.uncletopia.com","port":27045,"enabled":true,"region":"us-east","cc":"us","latitude":33.753746,"longitude":-84.38633,"reserved":0,"last_update":"0001-01-01T00:00:00Z","name_a2s":"","protocol":0,"map":"","folder":"","game":"","app_id":0,"player_count":0,"max_players":0,"Bots":0,"server_type":"","server_os":"","password":false,"vac":false,"version":"","steam_id":0,"keywords":null,"game_id":0,"stv_port":0,"stv_name":"","players":null},{"server_id":2,"name":"Uncletopia | Chicago | 1 | All Maps","name_short":"chi-1","host":"chi-1.us.uncletopia.com","port":27015,"enabled":true,"region":"us-central","cc":"us","latitude":41.881832,"longitude":-87.62318,"reserved":0,"last_update":"0001-01-01T00:00:00Z","name_a2s":"Uncletopia | Chicago | 1 | All Maps","protocol":17,"map":"cp_sunshine","folder":"tf","game":"Team Fortress","app_id":440,"player_count":24,"max_players":24,"Bots":0,"server_type":"Dedicated","server_os":"Linux","password":true,"vac":true,"version":"7757534","steam_id":85568392924469984,"keywords":["cp","nocrits","nodmgspread","uncletopia"],"game_id":440,"stv_port":27016,"stv_name":"Uncletopia | Chicago | 1 | All Maps | STV","players":[{"user_id":519,"name":"Ramadan Steve","steam_id":76561198138568488,"connected_time":5512000000000,"state":"active","ping":62},{"user_id":582,"name":"Derpydude2002","steam_id":76561198811719519,"connected_time":509000000000,"state":"active","ping":58},{"user_id":583,"name":"tylerbot_101","steam_id":76561198803982873,"connected_time":476000000000,"state":"active","ping":48},{"user_id":557,"name":"celery","steam_id":76561199004451589,"connected_time":2086000000000,"state":"active","ping":71},{"user_id":584,"name":"Aribari","steam_id":76561198117327938,"connected_time":474000000000,"state":"active","ping":65},{"user_id":581,"name":"ArrowOmega","steam_id":76561198079364917,"connected_time":582000000000,"state":"active","ping":62},{"user_id":544,"name":"Train (infamous)","steam_id":76561198087472085,"connected_time":3883000000000,"state":"active","ping":94},{"user_id":578,"name":"RedSock","steam_id":76561198161243404,"connected_time":655000000000,"state":"active","ping":44},{"user_id":564,"name":"habib_g6ix_God","steam_id":76561198053621664,"connected_time":1561000000000,"state":"active","ping":46},{"user_id":561,"name":"Fuegan Ra","steam_id":76561198287923849,"connected_time":1689000000000,"state":"active","ping":47},{"user_id":522,"name":"Perfume Department","steam_id":76561198128299594,"connected_time":5434000000000,"state":"active","ping":102},{"user_id":586,"name":"Spike Bones","steam_id":76561198234926120,"connected_time":426000000000,"state":"active","ping":88},{"user_id":587,"name":"iamnomnoms","steam_id":76561198177740091,"connected_time":376000000000,"state":"active","ping":77},{"user_id":551,"name":"GeneralTaco","steam_id":76561198026783097,"connected_time":3252000000000,"state":"active","ping":113},{"user_id":575,"name":"The Intruder","steam_id":76561199357437428,"connected_time":1026000000000,"state":"active","ping":98},{"user_id":556,"name":"Jezzus","steam_id":76561199289676387,"connected_time":2208000000000,"state":"active","ping":86},{"user_id":579,"name":"strawberry shortcock","steam_id":76561198032040831,"connected_time":637000000000,"state":"active","ping":74},{"user_id":580,"name":"m-Seq","steam_id":76561198114922735,"connected_time":637000000000,"state":"active","ping":63},{"user_id":588,"name":"jayhong","steam_id":76561198046772832,"connected_time":375000000000,"state":"active","ping":44},{"user_id":589,"name":"I can't read","steam_id":76561198298310744,"connected_time":372000000000,"state":"active","ping":83},{"user_id":531,"name":"tim-","steam_id":76561199119101315,"connected_time":5077000000000,"state":"active","ping":70},{"user_id":590,"name":"Sheep","steam_id":76561198122705864,"connected_time":327000000000,"state":"active","ping":86},{"user_id":591,"name":"sonic1394","steam_id":76561198054636788,"connected_time":191000000000,"state":"active","ping":73},{"user_id":574,"name":"Rx Auntie","steam_id":76561198051618393,"connected_time":1144000000000,"state":"active","ping":60}]},{"server_id":106,"name":"Uncletopia | Chicago | 2 | All Maps","name_short":"chi-2","host":"chi-1.us.uncletopia.com","port":27025,"enabled":true,"region":"us-central","cc":"us","latitude":41.881832,"longitude":-87.62318,"reserved":0,"last_update":"0001-01-01T00:00:00Z","name_a2s":"Uncletopia | Chicago | 2 | All Maps","protocol":17,"map":"cp_snakewater_final1","folder":"tf","game":"Team Fortress","app_id":440,"player_count":0,"max_players":24,"Bots":0,"server_type":"Dedicated","server_os":"Linux","password":true,"vac":true,"version":"7757534","steam_id":85568392924469985,"keywords":["cp","nocrits","nodmgspread","uncletopia"],"game_id":440,"stv_port":27026,"stv_name":"Uncletopia | Chicago | 2 | All Maps | STV","players":null},{"server_id":402,"name":"Uncletopia | Chicago | 3 | All Maps","name_short":"chi-3","host":"chi-1.us.uncletopia.com","port":27035,"enabled":true,"region":"us-central","cc":"us","latitude":41.881832,"longitude":-87.62318,"reserved":0,"last_update":"0001-01-01T00:00:00Z","name_a2s":"Uncletopia | Chicago | 3 | All Maps","protocol":17,"map":"pl_barnblitz","folder":"tf","game":"Team Fortress","app_id":440,"player_count":0,"max_players":24,"Bots":0,"server_type":"Dedicated","server_os":"Linux","password":true,"vac":true,"version":"7757534","steam_id":85568392924515191,"keywords":["nocrits","nodmgspread","payload","uncletopia"],"game_id":440,"stv_port":27036,"stv_name":"Uncletopia | Chicago | 3 | All Maps | STV","players":null},{"server_id":403,"name":"Uncletopia | Chicago | 4 | All Maps","name_short":"chi-4","host":"chi-1.us.uncletopia.com","port":27045,"enabled":true,"region":"us-central","cc":"us","latitude":41.881832,"longitude":-87.62318,"reserved":0,"last_update":"0001-01-01T00:00:00Z","name_a2s":"Uncletopia | Chicago | 4 | All Maps","protocol":17,"map":"cp_process_final","folder":"tf","game":"Team Fortress","app_id":440,"player_count":7,"max_players":24,"Bots":0,"server_type":"Dedicated","server_os":"Linux","password":true,"vac":true,"version":"7757534","steam_id":85568392924515193,"keywords":["cp","nocrits","nodmgspread","uncletopia"],"game_id":440,"stv_port":27046,"stv_name":"Uncletopia | Chicago | 4 | All Maps | STV","players":[{"user_id":858,"name":"x the struggler","steam_id":76561198065069637,"connected_time":81000000000,"state":"active","ping":189},{"user_id":845,"name":"Superman123389","steam_id":76561198267472539,"connected_time":1842000000000,"state":"active","ping":95},{"user_id":821,"name":"***cuppy dog city***","steam_id":76561198073856185,"connected_time":3266000000000,"state":"active","ping":120},{"user_id":822,"name":"orio","steam_id":76561198116550170,"connected_time":3253000000000,"state":"active","ping":98},{"user_id":823,"name":"Saturn's Ring","steam_id":76561198173267015,"connected_time":3226000000000,"state":"active","ping":93},{"user_id":824,"name":"Halp!","steam_id":76561198357868383,"connected_time":3211000000000,"state":"active","ping":127},{"user_id":844,"name":"ErrorPanda","steam_id":76561198866408000,"connected_time":2117000000000,"state":"active","ping":67}]},{"server_id":36,"name":"Uncletopia | Chicago | 5 | All Maps","name_short":"chi-5","host":"chi-2.us.uncletopia.com","port":27015,"enabled":true,"region":"us-central","cc":"us","latitude":41.881832,"longitude":-87.62318,"reserved":0,"last_update":"0001-01-01T00:00:00Z","name_a2s":"Uncletopia | Chicago | 5 | All Maps","protocol":17,"map":"cp_dustbowl","folder":"tf","game":"Team Fortress","app_id":440,"player_count":24,"max_players":24,"Bots":0,"server_type":"Dedicated","server_os":"Linux","password":true,"vac":true,"version":"7757534","steam_id":85568392924866362,"keywords":["cp","nocrits","nodmgspread","uncletopia"],"game_id":440,"stv_port":27016,"stv_name":"Uncletopia | Chicago | 5 | All Maps | STV","players":[{"user_id":206,"name":"Warzard","steam_id":76561199154051413,"connected_time":3610000000000,"state":"active","ping":366},{"user_id":241,"name":"FS Jorda","steam_id":76561198071421459,"connected_time":113000000000,"state":"active","ping":59},{"user_id":236,"name":"pant_shitter435","steam_id":76561198045148048,"connected_time":588000000000,"state":"active","ping":65},{"user_id":242,"name":"Space Cops","steam_id":76561198032414253,"connected_time":97000000000,"state":"active","ping":55},{"user_id":202,"name":"Michaelpc1","steam_id":76561198088365519,"connected_time":3678000000000,"state":"active","ping":75},{"user_id":243,"name":"The local hobo","steam_id":76561198289650060,"connected_time":84000000000,"state":"active","ping":84},{"user_id":178,"name":"AkkiAdachi","steam_id":76561198071164077,"connected_time":4944000000000,"state":"active","ping":81},{"user_id":244,"name":"Hell's Reindeer","steam_id":76561198065310364,"connected_time":74000000000,"state":"active","ping":49},{"user_id":156,"name":"Zigadox","steam_id":76561198079813479,"connected_time":6792000000000,"state":"active","ping":88},{"user_id":245,"name":"The Formal Skeleton","steam_id":76561198202326746,"connected_time":34000000000,"state":"active","ping":48},{"user_id":234,"name":"hashmap","steam_id":76561198043794014,"connected_time":1164000000000,"state":"active","ping":48},{"user_id":246,"name":"panopticon","steam_id":76561198151071386,"connected_time":28000000000,"state":"active","ping":69},{"user_id":240,"name":"I Lead MLB In \"Bats Eaten\"","steam_id":76561198034079853,"connected_time":341000000000,"state":"active","ping":72},{"user_id":233,"name":"Habba","steam_id":76561197986096340,"connected_time":1549000000000,"state":"active","ping":69},{"user_id":230,"name":"JakeLemons","steam_id":76561198065945816,"connected_time":2055000000000,"state":"active","ping":47},{"user_id":235,"name":"Sock #NEWTF2Hunt","steam_id":76561198069090237,"connected_time":1131000000000,"state":"active","ping":85},{"user_id":232,"name":"Thot Police","steam_id":76561198084299100,"connected_time":1598000000000,"state":"active","ping":72},{"user_id":225,"name":"Glass Joe","steam_id":76561198317365741,"connected_time":2341000000000,"state":"active","ping":67},{"user_id":217,"name":"Isles","steam_id":76561198036162511,"connected_time":3182000000000,"state":"active","ping":63},{"user_id":221,"name":"Record Relay","steam_id":76561198058735336,"connected_time":2606000000000,"state":"active","ping":95},{"user_id":210,"name":"The good NPC","steam_id":76561198431446386,"connected_time":3469000000000,"state":"active","ping":70},{"user_id":237,"name":"cereaI","steam_id":76561198066929519,"connected_time":549000000000,"state":"active","ping":81},{"user_id":227,"name":"hashbang1","steam_id":76561198025558514,"connected_time":2160000000000,"state":"active","ping":88},{"user_id":228,"name":"bd","steam_id":76561197998319285,"connected_time":2118000000000,"state":"active","ping":48}]},{"server_id":37,"name":"Uncletopia | Chicago | 6 | All Maps","name_short":"chi-6","host":"chi-2.us.uncletopia.com","port":27025,"enabled":true,"region":"us-central","cc":"us","latitude":41.881832,"longitude":-87.62318,"reserved":0,"last_update":"0001-01-01T00:00:00Z","name_a2s":"Uncletopia | Chicago | 6 | All Maps","protocol":17,"map":"pl_upward","folder":"tf","game":"Team Fortress","app_id":440,"player_count":20,"max_players":24,"Bots":0,"server_type":"Dedicated","server_os":"Linux","password":true,"vac":true,"version":"7757534","steam_id":85568392924866363,"keywords":["nocrits","nodmgspread","payload","uncletopia"],"game_id":440,"stv_port":27026,"stv_name":"Uncletopia | Chicago | 6 | All Maps | STV","players":[{"user_id":750,"name":"[BGS] BїvїsUA ᗜˬᗜ","steam_id":76561198029932939,"connected_time":116000000000,"state":"active","ping":172},{"user_id":753,"name":"Certified BigMan","steam_id":76561198095544632,"connected_time":11000000000,"state":"active","ping":63},{"user_id":699,"name":"WAKEUP!","steam_id":76561198254479725,"connected_time":4551000000000,"state":"active","ping":40},{"user_id":674,"name":"mouthbreather","steam_id":76561198255825452,"connected_time":7293000000000,"state":"active","ping":61},{"user_id":746,"name":"Inteus Vardez","steam_id":76561198022760738,"connected_time":866000000000,"state":"active","ping":109},{"user_id":754,"name":"MaurbaaTTV","steam_id":76561198396244334,"connected_time":2000000000,"state":"spawning","ping":56},{"user_id":658,"name":"Rick Beato","steam_id":76561199080451611,"connected_time":8283000000000,"state":"active","ping":79},{"user_id":737,"name":"canid","steam_id":76561198103496593,"connected_time":1629000000000,"state":"active","ping":62},{"user_id":700,"name":"The Juice","steam_id":76561198065307144,"connected_time":4517000000000,"state":"active","ping":67},{"user_id":751,"name":"Born 2 shit Forced 2 wipe","steam_id":76561199438197886,"connected_time":69000000000,"state":"active","ping":112},{"user_id":732,"name":"Pinto","steam_id":76561199105386998,"connected_time":1855000000000,"state":"active","ping":76},{"user_id":752,"name":"MissQueeny","steam_id":76561198079744510,"connected_time":59000000000,"state":"active","ping":56},{"user_id":719,"name":"earthbound393","steam_id":76561199444276547,"connected_time":2628000000000,"state":"active","ping":110},{"user_id":738,"name":"Sonku10","steam_id":76561198922842677,"connected_time":1572000000000,"state":"active","ping":136},{"user_id":739,"name":"Love","steam_id":76561199173445015,"connected_time":1570000000000,"state":"active","ping":54},{"user_id":744,"name":"Kaprinae","steam_id":76561199260109617,"connected_time":1278000000000,"state":"active","ping":74},{"user_id":740,"name":"SuperRPGgamer","steam_id":76561198288017834,"connected_time":1540000000000,"state":"active","ping":117},{"user_id":747,"name":"ETHAN NATION","steam_id":76561198215446665,"connected_time":853000000000,"state":"active","ping":60},{"user_id":742,"name":"bojack from the show bojack hor","steam_id":76561198053006712,"connected_time":1413000000000,"state":"active","ping":60},{"user_id":745,"name":"EpicGamer48484","steam_id":76561199230935031,"connected_time":1263000000000,"state":"active","ping":63}]},{"server_id":38,"name":"Uncletopia | Chicago | 7 | Stopwatch Beta","name_short":"chi-7","host":"chi-2.us.uncletopia.com","port":27035,"enabled":true,"region":"us-central","cc":"us","latitude":41.881832,"longitude":-87.62318,"reserved":0,"last_update":"0001-01-01T00:00:00Z","name_a2s":"Uncletopia | Chicago | 7 | Stopwatch Beta","protocol":17,"map":"workshop/koth_product_final.ugc454272353","folder":"tf","game":"Team Fortress","app_id":440,"player_count":5,"max_players":24,"Bots":0,"server_type":"Dedicated","server_os":"Linux","password":true,"vac":true,"version":"7757534","steam_id":85568392924866364,"keywords":["cp","nocrits","nodmgspread","uncletopia"],"game_id":440,"stv_port":27036,"stv_name":"Uncletopia | Chicago | 7 | Stopwatch Beta | STV","players":[{"user_id":111,"name":"GrumpyGumbo","steam_id":76561199220680234,"connected_time":387000000000,"state":"active","ping":77},{"user_id":101,"name":"12oz","steam_id":76561198971354161,"connected_time":1867000000000,"state":"active","ping":58},{"user_id":105,"name":"ari","steam_id":76561198355068405,"connected_time":1116000000000,"state":"active","ping":68},{"user_id":108,"name":"Norway135","steam_id":76561198285052971,"connected_time":672000000000,"state":"active","ping":84},{"user_id":110,"name":"Anidok","steam_id":76561198397473378,"connected_time":621000000000,"state":"active","ping":75}]},{"server_id":39,"name":"Uncletopia | Chicago | 8 | Community","name_short":"chi-8","host":"chi-2.us.uncletopia.com","port":27045,"enabled":true,"region":"us-central","cc":"us","latitude":41.881832,"longitude":-87.62318,"reserved":0,"last_update":"0001-01-01T00:00:00Z","name_a2s":"Uncletopia | Chicago | 8 | Community","protocol":17,"map":"workshop/cp_logjam_rc12.ugc454812035","folder":"tf","game":"Team Fortress","app_id":440,"player_count":18,"max_players":24,"Bots":0,"server_type":"Dedicated","server_os":"Linux","password":true,"vac":true,"version":"7757534","steam_id":85568392924866365,"keywords":["cp","nocrits","nodmgspread","uncletopia"],"game_id":440,"stv_port":27046,"stv_name":"Uncletopia | Chicago | 8 | Community | STV","players":[{"user_id":164,"name":"Rage Pyro","steam_id":76561197998285726,"connected_time":4294000000000,"state":"active","ping":79},{"user_id":172,"name":"[DEEP] Danmar33","steam_id":76561198056453091,"connected_time":3501000000000,"state":"active","ping":51},{"user_id":157,"name":"VHSTAPE","steam_id":76561198036560740,"connected_time":5000000000000,"state":"active","ping":90},{"user_id":186,"name":"Lego Man","steam_id":76561198798283675,"connected_time":1675000000000,"state":"active","ping":79},{"user_id":198,"name":"An Unhappy Clown","steam_id":76561198175516514,"connected_time":325000000000,"state":"active","ping":72},{"user_id":167,"name":"jiar37","steam_id":76561198370897705,"connected_time":3687000000000,"state":"active","ping":93},{"user_id":187,"name":"BeepBoop","steam_id":76561198071213900,"connected_time":1645000000000,"state":"active","ping":90},{"user_id":188,"name":"Goobert Pumpernickel","steam_id":76561198268273645,"connected_time":1602000000000,"state":"active","ping":87},{"user_id":150,"name":"Kazul","steam_id":76561198014925555,"connected_time":5589000000000,"state":"active","ping":51},{"user_id":199,"name":"mepng","steam_id":76561199018758598,"connected_time":171000000000,"state":"active","ping":79},{"user_id":120,"name":"H3AVTM3TAL","steam_id":76561199017911640,"connected_time":6909000000000,"state":"active","ping":83},{"user_id":200,"name":"Scoober Doob","steam_id":76561198117582706,"connected_time":34000000000,"state":"active","ping":82},{"user_id":197,"name":"Nobody","steam_id":76561199352089107,"connected_time":357000000000,"state":"active","ping":93},{"user_id":196,"name":"Moonshine Man","steam_id":76561198088010073,"connected_time":755000000000,"state":"active","ping":90},{"user_id":175,"name":"Queen Ishtar","steam_id":76561198035614233,"connected_time":3321000000000,"state":"active","ping":94},{"user_id":176,"name":"AFK BRB","steam_id":76561198104939612,"connected_time":3300000000000,"state":"active","ping":47},{"user_id":191,"name":"aqua","steam_id":76561199407709552,"connected_time":1423000000000,"state":"active","ping":44},{"user_id":192,"name":"anon003","steam_id":76561198286971687,"connected_time":1403000000000,"state":"active","ping":94}]},{"server_id":8,"name":"Uncletopia | Dallas | 1 | All Maps","name_short":"dal-1","host":"dal-1.us.uncletopia.com","port":27015,"enabled":true,"region":"us-central","cc":"us","latitude":32.779167,"longitude":-96.80889,"reserved":0,"last_update":"0001-01-01T00:00:00Z","name_a2s":"Uncletopia | Dallas | 1 | All Maps","protocol":17,"map":"pl_badwater","folder":"tf","game":"Team Fortress","app_id":440,"player_count":24,"max_players":24,"Bots":0,"server_type":"Dedicated","server_os":"Linux","password":true,"vac":true,"version":"7757534","steam_id":85568392924469986,"keywords":["nocrits","nodmgspread","payload","uncletopia"],"game_id":440,"stv_port":27016,"stv_name":"Uncletopia | Dallas | 1 | All Maps | STV","players":[{"user_id":508,"name":"errant","steam_id":76561197961758410,"connected_time":943000000000,"state":"active","ping":34},{"user_id":488,"name":".Cassius.","steam_id":76561199181383832,"connected_time":2572000000000,"state":"active","ping":89},{"user_id":509,"name":"KewlKris","steam_id":76561198260738308,"connected_time":936000000000,"state":"active","ping":31},{"user_id":522,"name":"Sean","steam_id":76561198011422340,"connected_time":193000000000,"state":"active","ping":60},{"user_id":505,"name":"Joob","steam_id":76561197972852132,"connected_time":1453000000000,"state":"active","ping":50},{"user_id":511,"name":"Lore","steam_id":76561198098407538,"connected_time":843000000000,"state":"active","ping":74},{"user_id":507,"name":"Faraday","steam_id":76561198089928357,"connected_time":1119000000000,"state":"active","ping":51},{"user_id":523,"name":"Ivy","steam_id":76561198047758442,"connected_time":112000000000,"state":"active","ping":111},{"user_id":489,"name":"Not A Rapper","steam_id":76561198077523537,"connected_time":2568000000000,"state":"active","ping":95},{"user_id":524,"name":"Bunchie","steam_id":76561198011549808,"connected_time":96000000000,"state":"active","ping":46},{"user_id":434,"name":"double tap 2.0","steam_id":76561198062146253,"connected_time":3879000000000,"state":"active","ping":97},{"user_id":513,"name":"I'm Only 4 Inches","steam_id":76561198055542546,"connected_time":822000000000,"state":"active","ping":80},{"user_id":514,"name":"kite man","steam_id":76561198156336213,"connected_time":816000000000,"state":"active","ping":98},{"user_id":516,"name":"garfield","steam_id":76561198114119308,"connected_time":803000000000,"state":"active","ping":61},{"user_id":525,"name":"glue","steam_id":76561198382076026,"connected_time":90000000000,"state":"active","ping":87},{"user_id":502,"name":"ThatGoofKidAintThere","steam_id":76561197998436504,"connected_time":1656000000000,"state":"active","ping":48},{"user_id":499,"name":"Quomples","steam_id":76561198140996628,"connected_time":1711000000000,"state":"active","ping":56},{"user_id":506,"name":"Ramsay","steam_id":76561198027065805,"connected_time":1364000000000,"state":"active","ping":72},{"user_id":504,"name":"flintdotcom (trans rights)","steam_id":76561199198577763,"connected_time":1631000000000,"state":"active","ping":66},{"user_id":472,"name":"carol in HR","steam_id":76561198071775268,"connected_time":3186000000000,"state":"active","ping":81},{"user_id":493,"name":"ƐՌѴƳ","steam_id":76561198099470277,"connected_time":2488000000000,"state":"active","ping":81},{"user_id":521,"name":"great1photo","steam_id":76561198085481933,"connected_time":604000000000,"state":"active","ping":96},{"user_id":484,"name":"D3RPYN00B101","steam_id":76561198864191308,"connected_time":2736000000000,"state":"active","ping":71},{"user_id":497,"name":"Gandalf's Old Man Farts","steam_id":76561198058300151,"connected_time":2022000000000,"state":"active","ping":69}]},{"server_id":108,"name":"Uncletopia | Dallas | 2 | All Maps","name_short":"dal-2","host":"dal-1.us.uncletopia.com","port":27025,"enabled":true,"region":"us-central","cc":"us","latitude":32.779167,"longitude":-96.80889,"reserved":0,"last_update":"0001-01-01T00:00:00Z","name_a2s":"Uncletopia | Dallas | 2 | All Maps","protocol":17,"map":"cp_mercenarypark","folder":"tf","game":"Team Fortress","app_id":440,"player_count":24,"max_players":24,"Bots":0,"server_type":"Dedicated","server_os":"Linux","password":true,"vac":true,"version":"7757534","steam_id":85568392924469988,"keywords":["cp","nocrits","nodmgspread","uncletopia"],"game_id":440,"stv_port":27026,"stv_name":"Uncletopia | Dallas | 2 | All Maps | STV","players":[{"user_id":698,"name":"the henny man","steam_id":76561198042600523,"connected_time":3217000000000,"state":"active","ping":45},{"user_id":688,"name":"Brain Rot Zee","steam_id":76561198094070642,"connected_time":3667000000000,"state":"active","ping":90},{"user_id":689,"name":"RetroDame","steam_id":76561198201974996,"connected_time":3587000000000,"state":"active","ping":50},{"user_id":714,"name":"Xecom","steam_id":76561198067868538,"connected_time":1415000000000,"state":"active","ping":78},{"user_id":595,"name":"Ghaeril","steam_id":76561198047880019,"connected_time":13168000000000,"state":"active","ping":59},{"user_id":730,"name":"HoaroBatty","steam_id":76561198120361221,"connected_time":316000000000,"state":"active","ping":47},{"user_id":724,"name":"DF KMAN","steam_id":76561198001845262,"connected_time":848000000000,"state":"active","ping":86},{"user_id":725,"name":"Dell Conagher (real)","steam_id":76561198220120368,"connected_time":810000000000,"state":"active","ping":31},{"user_id":729,"name":"Gnome Chomsky","steam_id":76561197970450546,"connected_time":350000000000,"state":"active","ping":115},{"user_id":715,"name":"ORANG3Koolade4","steam_id":76561198354174030,"connected_time":1351000000000,"state":"active","ping":86},{"user_id":716,"name":"Mystic_The_Goat","steam_id":76561198163344887,"connected_time":1348000000000,"state":"active","ping":99},{"user_id":667,"name":"Disqordant","steam_id":76561198052514978,"connected_time":6490000000000,"state":"active","ping":44},{"user_id":700,"name":"Len","steam_id":76561199141913673,"connected_time":3214000000000,"state":"active","ping":76},{"user_id":701,"name":"Flubdy_","steam_id":76561198073338521,"connected_time":3092000000000,"state":"active","ping":57},{"user_id":567,"name":"Joe Swanson","steam_id":76561199089907740,"connected_time":16663000000000,"state":"active","ping":66},{"user_id":710,"name":"The Great Karizma!","steam_id":76561198346191193,"connected_time":2691000000000,"state":"active","ping":81},{"user_id":702,"name":"ExplosiveGamer21","steam_id":76561198132370955,"connected_time":3089000000000,"state":"active","ping":90},{"user_id":717,"name":"Burny Sanders","steam_id":76561197961879048,"connected_time":1185000000000,"state":"active","ping":45},{"user_id":726,"name":"Hot Milk + Sweet Delight","steam_id":76561197988989149,"connected_time":679000000000,"state":"active","ping":88},{"user_id":727,"name":"stove","steam_id":76561198094702875,"connected_time":597000000000,"state":"active","ping":72},{"user_id":722,"name":"Smell. Ron Hubbard","steam_id":76561198072897408,"connected_time":948000000000,"state":"active","ping":107},{"user_id":672,"name":"Zero","steam_id":76561199383267408,"connected_time":5971000000000,"state":"active","ping":51},{"user_id":723,"name":"Walmus","steam_id":76561198111416393,"connected_time":940000000000,"state":"active","ping":71},{"user_id":686,"name":"Rat","steam_id":76561198330059340,"connected_time":3916000000000,"state":"active","ping":162}]},{"server_id":5,"name":"Uncletopia | Frankfurt | 1 | All Maps","name_short":"frk-1","host":"frk-1.de.uncletopia.com","port":27015,"enabled":true,"region":"eu","cc":"de","latitude":50.110924,"longitude":8.682127,"reserved":0,"last_update":"0001-01-01T00:00:00Z","name_a2s":"Uncletopia | Frankfurt | 1 | All Maps","protocol":17,"map":"pl_snowycoast","folder":"tf","game":"Team Fortress","app_id":440,"player_count":0,"max_players":24,"Bots":0,"server_type":"Dedicated","server_os":"Linux","password":true,"vac":true,"version":"7757534","steam_id":85568392924469989,"keywords":["nocrits","nodmgspread","payload","uncletopia"],"game_id":440,"stv_port":27016,"stv_name":"Uncletopia | Frankfurt | 1 | All Maps | STV","players":null},{"server_id":110,"name":"Uncletopia | Frankfurt | 2 | All Maps","name_short":"frk-2","host":"frk-1.de.uncletopia.com","port":27025,"enabled":true,"region":"eu","cc":"de","latitude":50.110924,"longitude":8.682127,"reserved":0,"last_update":"0001-01-01T00:00:00Z","name_a2s":"Uncletopia | Frankfurt | 2 | All Maps","protocol":17,"map":"cp_snakewater_final1","folder":"tf","game":"Team Fortress","app_id":440,"player_count":0,"max_players":24,"Bots":0,"server_type":"Dedicated","server_os":"Linux","password":true,"vac":true,"version":"7757534","steam_id":85568392924469990,"keywords":["cp","nocrits","nodmgspread","uncletopia"],"game_id":440,"stv_port":27026,"stv_name":"Uncletopia | Frankfurt | 2 | All Maps | STV","players":null},{"server_id":308,"name":"Uncletopia | Frankfurt | 3 | All Maps","name_short":"frk-3","host":"frk-1.de.uncletopia.com","port":27035,"enabled":true,"region":"eu","cc":"de","latitude":50.110924,"longitude":8.682127,"reserved":0,"last_update":"0001-01-01T00:00:00Z","name_a2s":"Uncletopia | Frankfurt | 3 | All Maps","protocol":17,"map":"pl_swiftwater_final1","folder":"tf","game":"Team Fortress","app_id":440,"player_count":0,"max_players":24,"Bots":0,"server_type":"Dedicated","server_os":"Linux","password":true,"vac":true,"version":"7757534","steam_id":85568392924504274,"keywords":["nocrits","nodmgspread","payload","uncletopia"],"game_id":440,"stv_port":27036,"stv_name":"Uncletopia | Frankfurt | 3 | All Maps | STV","players":null},{"server_id":309,"name":"Uncletopia | Frankfurt | 4 | All Maps","name_short":"frk-4","host":"frk-1.de.uncletopia.com","port":27045,"enabled":true,"region":"eu","cc":"de","latitude":50.110924,"longitude":8.682127,"reserved":0,"last_update":"0001-01-01T00:00:00Z","name_a2s":"Uncletopia | Frankfurt | 4 | All Maps","protocol":17,"map":"koth_viaduct","folder":"tf","game":"Team Fortress","app_id":440,"player_count":0,"max_players":24,"Bots":0,"server_type":"Dedicated","server_os":"Linux","password":true,"vac":true,"version":"7757534","steam_id":85568392924504275,"keywords":["cp","nocrits","nodmgspread","uncletopia"],"game_id":440,"stv_port":27046,"stv_name":"Uncletopia | Frankfurt | 4 | All Maps | STV","players":null},{"server_id":310,"name":"Uncletopia | Frankfurt | 5 | All Maps","name_short":"frk-5","host":"frk-1.de.uncletopia.com","port":27055,"enabled":true,"region":"eu","cc":"de","latitude":50.110924,"longitude":8.682127,"reserved":0,"last_update":"0001-01-01T00:00:00Z","name_a2s":"Uncletopia | Frankfurt | 5 | All Maps","protocol":17,"map":"koth_lakeside_final","folder":"tf","game":"Team Fortress","app_id":440,"player_count":0,"max_players":24,"Bots":0,"server_type":"Dedicated","server_os":"Linux","password":true,"vac":true,"version":"7757534","steam_id":85568392924504277,"keywords":["cp","nocrits","nodmgspread","uncletopia"],"game_id":440,"stv_port":27056,"stv_name":"Uncletopia | Frankfurt | 5 | All Maps | STV","players":null},{"server_id":311,"name":"Uncletopia | Frankfurt | 6 | All Maps","name_short":"frk-6","host":"frk-1.de.uncletopia.com","port":27065,"enabled":true,"region":"eu","cc":"de","latitude":50.110924,"longitude":8.682127,"reserved":0,"last_update":"0001-01-01T00:00:00Z","name_a2s":"Uncletopia | Frankfurt | 6 | All Maps","protocol":17,"map":"pl_frontier_final","folder":"tf","game":"Team Fortress","app_id":440,"player_count":0,"max_players":24,"Bots":0,"server_type":"Dedicated","server_os":"Linux","password":true,"vac":true,"version":"7757534","steam_id":85568392924504278,"keywords":["nocrits","nodmgspread","payload","uncletopia"],"game_id":440,"stv_port":27066,"stv_name":"Uncletopia | Frankfurt | 6 | All Maps | STV","players":null},{"server_id":23,"name":"Uncletopia | Frankfurt | 7 | Stopwatch Beta","name_short":"frk-7","host":"frk-1.de.uncletopia.com","port":27075,"enabled":true,"region":"eu","cc":"de","latitude":50.110924,"longitude":8.682127,"reserved":0,"last_update":"0001-01-01T00:00:00Z","name_a2s":"Uncletopia | Frankfurt | 7 | Stopwatch Beta","protocol":17,"map":"cp_sunshine","folder":"tf","game":"Team Fortress","app_id":440,"player_count":0,"max_players":24,"Bots":0,"server_type":"Dedicated","server_os":"Linux","password":true,"vac":true,"version":"7757534","steam_id":85568392924742827,"keywords":["cp","nocrits","nodmgspread","uncletopia"],"game_id":440,"stv_port":27076,"stv_name":"Uncletopia | Frankfurt | 7 | Stopwatch Beta | STV","players":null},{"server_id":24,"name":"Uncletopia | Frankfurt | 8 | Community","name_short":"frk-8","host":"frk-1.de.uncletopia.com","port":27085,"enabled":true,"region":"eu","cc":"de","latitude":50.110924,"longitude":8.682127,"reserved":0,"last_update":"0001-01-01T00:00:00Z","name_a2s":"Uncletopia | Frankfurt | 8 | Community","protocol":17,"map":"koth_lakeside_final","folder":"tf","game":"Team Fortress","app_id":440,"player_count":0,"max_players":24,"Bots":0,"server_type":"Dedicated","server_os":"Linux","password":true,"vac":true,"version":"7757534","steam_id":85568392924742828,"keywords":["cp","nocrits","nodmgspread","uncletopia"],"game_id":440,"stv_port":27086,"stv_name":"Uncletopia | Frankfurt | 8 | Community | STV","players":null},{"server_id":202,"name":"Uncletopia | Hong Kong | 1 | All Maps","name_short":"hgk-1","host":"hgk-1.hk.uncletopia.com","port":27015,"enabled":true,"region":"asia","cc":"hk","latitude":22.302711,"longitude":114.177216,"reserved":0,"last_update":"0001-01-01T00:00:00Z","name_a2s":"Uncletopia | Hong Kong | 1 | All Maps","protocol":17,"map":"koth_nucleus","folder":"tf","game":"Team Fortress","app_id":440,"player_count":1,"max_players":24,"Bots":0,"server_type":"Dedicated","server_os":"Linux","password":true,"vac":true,"version":"7757534","steam_id":85568392924494504,"keywords":["cp","nocrits","nodmgspread","uncletopia"],"game_id":440,"stv_port":27016,"stv_name":"Uncletopia | Hong Kong | 1 | All Maps | STV","players":[{"user_id":9,"name":"マグナス","steam_id":76561198208990721,"connected_time":496000000000,"state":"active","ping":128}]},{"server_id":1,"name":"Uncletopia | Los Angeles | 1 | All Maps","name_short":"lax-1","host":"lax-1.us.uncletopia.com","port":27015,"enabled":true,"region":"us-west","cc":"us","latitude":33.94279,"longitude":-118.41004,"reserved":0,"last_update":"0001-01-01T00:00:00Z","name_a2s":"Uncletopia | Los Angeles | 1 | All Maps","protocol":17,"map":"cp_process_final","folder":"tf","game":"Team Fortress","app_id":440,"player_count":20,"max_players":24,"Bots":0,"server_type":"Dedicated","server_os":"Linux","password":true,"vac":true,"version":"7757534","steam_id":85568392924469991,"keywords":["cp","nocrits","nodmgspread","uncletopia"],"game_id":440,"stv_port":27016,"stv_name":"Uncletopia | Los Angeles | 1 | All Maps | STV","players":[{"user_id":244,"name":"fire","steam_id":76561198044354279,"connected_time":84000000000,"state":"active","ping":46},{"user_id":245,"name":"shoe","steam_id":76561198451476220,"connected_time":44000000000,"state":"active","ping":75},{"user_id":234,"name":"Tcmango","steam_id":76561198057233847,"connected_time":1409000000000,"state":"active","ping":51},{"user_id":246,"name":"KnightOfGames","steam_id":76561198080460659,"connected_time":22000000000,"state":"active","ping":88},{"user_id":225,"name":"Spaghetti","steam_id":76561199231170712,"connected_time":2035000000000,"state":"active","ping":66},{"user_id":235,"name":"Crowvette","steam_id":76561198000457496,"connected_time":1186000000000,"state":"active","ping":46},{"user_id":236,"name":"jayden","steam_id":76561198152455865,"connected_time":962000000000,"state":"active","ping":55},{"user_id":171,"name":"awtem","steam_id":76561198083673187,"connected_time":6903000000000,"state":"active","ping":54},{"user_id":247,"name":"twin","steam_id":76561198055626638,"connected_time":8000000000,"state":"active","ping":150},{"user_id":206,"name":"Eden","steam_id":76561198081284664,"connected_time":3687000000000,"state":"active","ping":46},{"user_id":227,"name":"big fish","steam_id":76561198186479818,"connected_time":2024000000000,"state":"active","ping":60},{"user_id":228,"name":"Npenplz","steam_id":76561197999605423,"connected_time":1921000000000,"state":"active","ping":54},{"user_id":208,"name":"Cosmic Visor","steam_id":76561197990817172,"connected_time":3363000000000,"state":"active","ping":79},{"user_id":198,"name":"fertile moist and well drained","steam_id":76561198031409921,"connected_time":5451000000000,"state":"active","ping":45},{"user_id":241,"name":"The Horselords and Animal Gods","steam_id":76561197975094050,"connected_time":851000000000,"state":"active","ping":50},{"user_id":212,"name":"GLXy","steam_id":76561198207551544,"connected_time":2486000000000,"state":"active","ping":83},{"user_id":150,"name":"JamesSetRadio","steam_id":76561198444320809,"connected_time":8662000000000,"state":"active","ping":169},{"user_id":220,"name":"HOG RIDER","steam_id":76561198298589502,"connected_time":2266000000000,"state":"active","ping":45},{"user_id":223,"name":"fishydeluxe","steam_id":76561198032182301,"connected_time":2105000000000,"state":"active","ping":68},{"user_id":232,"name":"MyMonkeyBaby","steam_id":76561198046896670,"connected_time":1710000000000,"state":"active","ping":95}]},{"server_id":112,"name":"Uncletopia | Los Angeles | 2 | All Maps","name_short":"lax-2","host":"lax-1.us.uncletopia.com","port":27025,"enabled":true,"region":"us-west","cc":"us","latitude":33.94279,"longitude":-118.41004,"reserved":0,"last_update":"0001-01-01T00:00:00Z","name_a2s":"Uncletopia | Los Angeles | 2 | All Maps","protocol":17,"map":"koth_king","folder":"tf","game":"Team Fortress","app_id":440,"player_count":12,"max_players":24,"Bots":0,"server_type":"Dedicated","server_os":"Linux","password":true,"vac":true,"version":"7757534","steam_id":85568392924469992,"keywords":["cp","nocrits","nodmgspread","uncletopia"],"game_id":440,"stv_port":27026,"stv_name":"Uncletopia | Los Angeles | 2 | All Maps | STV","players":[{"user_id":29,"name":"Schnitz","steam_id":76561198265484253,"connected_time":1709000000000,"state":"active","ping":52},{"user_id":31,"name":"john, evader of taxes","steam_id":76561198858328080,"connected_time":1671000000000,"state":"active","ping":41},{"user_id":32,"name":"MERCHANT","steam_id":76561198210010549,"connected_time":1658000000000,"state":"active","ping":61},{"user_id":33,"name":"Phishie","steam_id":76561198051778851,"connected_time":1653000000000,"state":"active","ping":46},{"user_id":36,"name":"Bonkers","steam_id":76561198161835788,"connected_time":1578000000000,"state":"active","ping":84},{"user_id":37,"name":"Snooter","steam_id":76561198042435225,"connected_time":1551000000000,"state":"active","ping":86},{"user_id":41,"name":"HeartAttack","steam_id":76561198135833968,"connected_time":835000000000,"state":"active","ping":65},{"user_id":43,"name":"Arbiter Soul","steam_id":76561198067798973,"connected_time":393000000000,"state":"active","ping":64},{"user_id":44,"name":"LuigiRed","steam_id":76561198230578712,"connected_time":368000000000,"state":"active","ping":36},{"user_id":48,"name":"Yoozer","steam_id":76561198420257694,"connected_time":52000000000,"state":"active","ping":111},{"user_id":46,"name":"St. Bimmius","steam_id":76561198013595716,"connected_time":188000000000,"state":"active","ping":59},{"user_id":47,"name":"weedmaster","steam_id":76561199012869095,"connected_time":116000000000,"state":"active","ping":186}]},{"server_id":324,"name":"Uncletopia | Los Angeles | 3 | All Maps","name_short":"lax-3","host":"lax-1.us.uncletopia.com","port":27035,"enabled":true,"region":"us-west","cc":"us","latitude":33.94279,"longitude":-118.41004,"reserved":0,"last_update":"0001-01-01T00:00:00Z","name_a2s":"Uncletopia | Los Angeles | 3 | All Maps","protocol":17,"map":"pl_swiftwater_final1","folder":"tf","game":"Team Fortress","app_id":440,"player_count":0,"max_players":24,"Bots":0,"server_type":"Dedicated","server_os":"Linux","password":true,"vac":true,"version":"7757534","steam_id":85568392924510198,"keywords":["nocrits","nodmgspread","payload","uncletopia"],"game_id":440,"stv_port":27036,"stv_name":"Uncletopia | Los Angeles | 3 | All Maps | STV","players":null},{"server_id":25,"name":"Uncletopia | Los Angeles | 4 | Stopwatch Beta","name_short":"lax-4","host":"lax-1.us.uncletopia.com","port":27045,"enabled":true,"region":"us-west","cc":"us","latitude":33.94279,"longitude":-118.41004,"reserved":0,"last_update":"0001-01-01T00:00:00Z","name_a2s":"Uncletopia | Los Angeles | 4 | Stopwatch Beta","protocol":17,"map":"pl_swiftwater_final1","folder":"tf","game":"Team Fortress","app_id":440,"player_count":0,"max_players":24,"Bots":0,"server_type":"Dedicated","server_os":"Linux","password":true,"vac":true,"version":"7757534","steam_id":85568392924510199,"keywords":["nocrits","nodmgspread","payload","uncletopia"],"game_id":440,"stv_port":27046,"stv_name":"Uncletopia | Los Angeles | 4 | Stopwatch Beta | STV","players":null},{"server_id":11,"name":"Uncletopia | London | 1 | All Maps","name_short":"lon-1","host":"lon-1.uk.uncletopia.com","port":27015,"enabled":true,"region":"eu","cc":"gb","latitude":51.509865,"longitude":-0.118092,"reserved":0,"last_update":"0001-01-01T00:00:00Z","name_a2s":"Uncletopia | London | 1 | All Maps","protocol":17,"map":"cp_snakewater_final1","folder":"tf","game":"Team Fortress","app_id":440,"player_count":23,"max_players":24,"Bots":0,"server_type":"Dedicated","server_os":"Linux","password":true,"vac":true,"version":"7757534","steam_id":85568392924367362,"keywords":["cp","nocrits","nodmgspread","uncletopia"],"game_id":440,"stv_port":27016,"stv_name":"Uncletopia | London | 1 | All Maps | STV","players":[{"user_id":875,"name":"Kuwabara Kuwabara","steam_id":76561198218969683,"connected_time":2817000000000,"state":"active","ping":102},{"user_id":884,"name":"Труп Володя","steam_id":76561198035718457,"connected_time":1744000000000,"state":"active","ping":93},{"user_id":891,"name":"Taste","steam_id":76561197994506978,"connected_time":1195000000000,"state":"active","ping":51},{"user_id":838,"name":"BubbyPlum","steam_id":76561198053568814,"connected_time":6012000000000,"state":"active","ping":43},{"user_id":842,"name":"ja","steam_id":76561199228540618,"connected_time":5492000000000,"state":"active","ping":76},{"user_id":886,"name":"!!!","steam_id":76561199099057716,"connected_time":1428000000000,"state":"active","ping":94},{"user_id":864,"name":"glow","steam_id":76561198086654069,"connected_time":3906000000000,"state":"active","ping":76},{"user_id":865,"name":"neo the cracked protogen","steam_id":76561198874467825,"connected_time":3835000000000,"state":"active","ping":47},{"user_id":892,"name":"lol.com","steam_id":76561198231764164,"connected_time":1106000000000,"state":"active","ping":60},{"user_id":817,"name":"Joseph Stalin","steam_id":76561198033199746,"connected_time":7163000000000,"state":"active","ping":45},{"user_id":850,"name":"Riel","steam_id":76561198066017633,"connected_time":5120000000000,"state":"active","ping":68},{"user_id":861,"name":"Loop_Cat","steam_id":76561199045902145,"connected_time":4004000000000,"state":"active","ping":126},{"user_id":780,"name":"MoeruKurowassan","steam_id":76561198319349647,"connected_time":11548000000000,"state":"active","ping":82},{"user_id":889,"name":"K","steam_id":76561198144604444,"connected_time":1327000000000,"state":"active","ping":57},{"user_id":895,"name":"MushySushi 🔥","steam_id":76561198007769611,"connected_time":951000000000,"state":"active","ping":60},{"user_id":846,"name":"regimiro","steam_id":76561198120457008,"connected_time":5236000000000,"state":"active","ping":47},{"user_id":867,"name":"killer of noob, winner of game","steam_id":76561198190583242,"connected_time":3568000000000,"state":"active","ping":67},{"user_id":896,"name":"Russenluster","steam_id":76561198118016220,"connected_time":918000000000,"state":"active","ping":68},{"user_id":868,"name":"feed and seed","steam_id":76561199088046420,"connected_time":3500000000000,"state":"active","ping":59},{"user_id":888,"name":"AREKK DPM alice","steam_id":76561198180361759,"connected_time":1343000000000,"state":"active","ping":41},{"user_id":898,"name":"hmscole09","steam_id":76561198811362788,"connected_time":412000000000,"state":"active","ping":55},{"user_id":897,"name":"Ducky[WADZ]","steam_id":76561198060341245,"connected_time":582000000000,"state":"active","ping":67},{"user_id":883,"name":"yeah!!! eatign rocks!!!","steam_id":76561198199117446,"connected_time":1930000000000,"state":"active","ping":59}]},{"server_id":114,"name":"Uncletopia | London | 2 | All Maps","name_short":"lon-2","host":"lon-1.uk.uncletopia.com","port":27025,"enabled":true,"region":"eu","cc":"gb","latitude":51.509865,"longitude":-0.118092,"reserved":0,"last_update":"0001-01-01T00:00:00Z","name_a2s":"Uncletopia | London | 2 | All Maps","protocol":17,"map":"koth_cascade","folder":"tf","game":"Team Fortress","app_id":440,"player_count":0,"max_players":24,"Bots":0,"server_type":"Dedicated","server_os":"Linux","password":true,"vac":true,"version":"7757534","steam_id":85568392924470941,"keywords":["cp","nocrits","nodmgspread","uncletopia"],"game_id":440,"stv_port":27026,"stv_name":"Uncletopia | London | 2 | All Maps | STV","players":null},{"server_id":320,"name":"Uncletopia | London | 3 | All Maps","name_short":"lon-3","host":"lon-1.uk.uncletopia.com","port":27035,"enabled":true,"region":"eu","cc":"gb","latitude":51.509865,"longitude":-0.118092,"reserved":0,"last_update":"0001-01-01T00:00:00Z","name_a2s":"Uncletopia | London | 3 | All Maps","protocol":17,"map":"koth_lakeside_final","folder":"tf","game":"Team Fortress","app_id":440,"player_count":0,"max_players":24,"Bots":0,"server_type":"Dedicated","server_os":"Linux","password":true,"vac":true,"version":"7757534","steam_id":85568392924510192,"keywords":["cp","nocrits","nodmgspread","uncletopia"],"game_id":440,"stv_port":27036,"stv_name":"Uncletopia | London | 3 | All Maps | STV","players":null},{"server_id":321,"name":"Uncletopia | London | 4 | All Maps","name_short":"lon-4","host":"lon-1.uk.uncletopia.com","port":27045,"enabled":true,"region":"eu","cc":"gb","latitude":51.509865,"longitude":-0.118092,"reserved":0,"last_update":"0001-01-01T00:00:00Z","name_a2s":"Uncletopia | London | 4 | All Maps","protocol":17,"map":"koth_viaduct","folder":"tf","game":"Team Fortress","app_id":440,"player_count":0,"max_players":24,"Bots":0,"server_type":"Dedicated","server_os":"Linux","password":true,"vac":true,"version":"7757534","steam_id":85568392924510193,"keywords":["cp","nocrits","nodmgspread","uncletopia"],"game_id":440,"stv_port":27046,"stv_name":"Uncletopia | London | 4 | All Maps | STV","players":null},{"server_id":21,"name":"Uncletopia | London | 5 | All Maps","name_short":"lon-5","host":"lon-1.uk.uncletopia.com","port":27055,"enabled":true,"region":"eu","cc":"gb","latitude":51.509865,"longitude":-0.118092,"reserved":0,"last_update":"0001-01-01T00:00:00Z","name_a2s":"Uncletopia | London | 5 | All Maps","protocol":17,"map":"koth_lakeside_final","folder":"tf","game":"Team Fortress","app_id":440,"player_count":0,"max_players":24,"Bots":0,"server_type":"Dedicated","server_os":"Linux","password":true,"vac":true,"version":"7757534","steam_id":85568392924742829,"keywords":["cp","nocrits","nodmgspread","uncletopia"],"game_id":440,"stv_port":27056,"stv_name":"Uncletopia | London | 5 | All Maps | STV","players":null},{"server_id":22,"name":"Uncletopia | London | 6 | All Maps","name_short":"lon-6","host":"lon-1.uk.uncletopia.com","port":27065,"enabled":true,"region":"eu","cc":"gb","latitude":51.509865,"longitude":-0.118092,"reserved":0,"last_update":"0001-01-01T00:00:00Z","name_a2s":"Uncletopia | London | 6 | All Maps","protocol":17,"map":"pl_upward","folder":"tf","game":"Team Fortress","app_id":440,"player_count":0,"max_players":24,"Bots":0,"server_type":"Dedicated","server_os":"Linux","password":true,"vac":true,"version":"7757534","steam_id":85568392924742830,"keywords":["nocrits","nodmgspread","payload","uncletopia"],"game_id":440,"stv_port":27066,"stv_name":"Uncletopia | London | 6 | All Maps | STV","players":null},{"server_id":40,"name":"Uncletopia | London | 7 | No Payload","name_short":"lon-7","host":"lon-1.uk.uncletopia.com","port":27075,"enabled":true,"region":"eu","cc":"gb","latitude":51.509865,"longitude":-0.118092,"reserved":0,"last_update":"0001-01-01T00:00:00Z","name_a2s":"Uncletopia | London | 7 | No Payload","protocol":17,"map":"cp_process_final","folder":"tf","game":"Team Fortress","app_id":440,"player_count":0,"max_players":24,"Bots":0,"server_type":"Dedicated","server_os":"Linux","password":true,"vac":true,"version":"7757534","steam_id":85568392924964314,"keywords":["cp","nocrits","nodmgspread","uncletopia"],"game_id":440,"stv_port":27076,"stv_name":"Uncletopia | London | 7 | No Payload | STV","players":null},{"server_id":41,"name":"Uncletopia | London | 8 | Community","name_short":"lon-8","host":"lon-1.uk.uncletopia.com","port":27085,"enabled":true,"region":"eu","cc":"gb","latitude":51.509865,"longitude":-0.118092,"reserved":0,"last_update":"0001-01-01T00:00:00Z","name_a2s":"Uncletopia | London | 8 | Community","protocol":17,"map":"workshop/koth_bagel_rc6.ugc2514036946","folder":"tf","game":"Team Fortress","app_id":440,"player_count":0,"max_players":24,"Bots":0,"server_type":"Dedicated","server_os":"Linux","password":true,"vac":true,"version":"7757534","steam_id":85568392924964315,"keywords":["cp","nocrits","nodmgspread","uncletopia"],"game_id":440,"stv_port":27086,"stv_name":"Uncletopia | London | 8 | Community | STV","players":null},{"server_id":300,"name":"Uncletopia | Montréal | 1 | All Maps","name_short":"mtl-1","host":"mtl-1.ca.uncletopia.com","port":27015,"enabled":true,"region":"us-east","cc":"ca","latitude":45.50889,"longitude":-73.56167,"reserved":0,"last_update":"0001-01-01T00:00:00Z","name_a2s":"Uncletopia | Montréal | 1 | All Maps","protocol":17,"map":"cp_snakewater_final1","folder":"tf","game":"Team Fortress","app_id":440,"player_count":0,"max_players":24,"Bots":0,"server_type":"Dedicated","server_os":"Linux","password":true,"vac":true,"version":"7757534","steam_id":85568392924500087,"keywords":["cp","nocrits","nodmgspread","uncletopia"],"game_id":440,"stv_port":27016,"stv_name":"Uncletopia | Montréal | 1 | All Maps | STV","players":null},{"server_id":301,"name":"Uncletopia | Montréal | 2 | All Maps","name_short":"mtl-2","host":"mtl-1.ca.uncletopia.com","port":27025,"enabled":true,"region":"us-east","cc":"ca","latitude":45.50889,"longitude":-73.56167,"reserved":0,"last_update":"0001-01-01T00:00:00Z","name_a2s":"Uncletopia | Montréal | 2 | All Maps","protocol":17,"map":"pl_upward","folder":"tf","game":"Team Fortress","app_id":440,"player_count":20,"max_players":24,"Bots":0,"server_type":"Dedicated","server_os":"Linux","password":true,"vac":true,"version":"7757534","steam_id":85568392924500088,"keywords":["nocrits","nodmgspread","payload","uncletopia"],"game_id":440,"stv_port":27026,"stv_name":"Uncletopia | Montréal | 2 | All Maps | STV","players":[{"user_id":241,"name":"BrickWallKnuckled","steam_id":76561198941204746,"connected_time":2555000000000,"state":"active","ping":125},{"user_id":265,"name":"BINKY","steam_id":76561198144829128,"connected_time":44000000000,"state":"active","ping":105},{"user_id":263,"name":"chilis baby back ribs","steam_id":76561198813516435,"connected_time":238000000000,"state":"active","ping":116},{"user_id":264,"name":"frog gaming","steam_id":76561198323926258,"connected_time":230000000000,"state":"active","ping":85},{"user_id":243,"name":"JohnnyGitGud","steam_id":76561198401455467,"connected_time":2363000000000,"state":"active","ping":120},{"user_id":207,"name":"Neuro","steam_id":76561198247184680,"connected_time":6430000000000,"state":"active","ping":161},{"user_id":266,"name":"Sluurp","steam_id":76561199436537763,"connected_time":30000000000,"state":"active","ping":82},{"user_id":261,"name":"saharan yunus","steam_id":76561198308986384,"connected_time":687000000000,"state":"active","ping":50},{"user_id":245,"name":"『Jesman101』","steam_id":76561198038295051,"connected_time":2229000000000,"state":"active","ping":75},{"user_id":235,"name":"a footnote in sounding history","steam_id":76561198063064857,"connected_time":3886000000000,"state":"active","ping":62},{"user_id":236,"name":"Gay Porn Stuntman","steam_id":76561198844362758,"connected_time":3833000000000,"state":"active","ping":59},{"user_id":246,"name":"captain red","steam_id":76561198191587983,"connected_time":2071000000000,"state":"active","ping":108},{"user_id":258,"name":"MantisToboggan","steam_id":76561197969447887,"connected_time":840000000000,"state":"active","ping":146},{"user_id":267,"name":"Malevo","steam_id":76561198148606522,"connected_time":27000000000,"state":"active","ping":91},{"user_id":249,"name":"DO NOT call me BART SIMPSON!!","steam_id":76561198069113375,"connected_time":1863000000000,"state":"active","ping":52},{"user_id":251,"name":"McNamJam","steam_id":76561198028128686,"connected_time":1743000000000,"state":"active","ping":115},{"user_id":262,"name":"CK403","steam_id":76561198322241201,"connected_time":667000000000,"state":"active","ping":105},{"user_id":227,"name":"Slashuur","steam_id":76561198157385316,"connected_time":5374000000000,"state":"active","ping":72},{"user_id":252,"name":"AceDeuce","steam_id":76561198049904924,"connected_time":1699000000000,"state":"active","ping":73},{"user_id":228,"name":"p4lly","steam_id":76561198078400787,"connected_time":5371000000000,"state":"active","ping":60}]},{"server_id":302,"name":"Uncletopia | Montréal | 3 | All Maps","name_short":"mtl-3","host":"mtl-1.ca.uncletopia.com","port":27035,"enabled":true,"region":"us-east","cc":"ca","latitude":45.50889,"longitude":-73.56167,"reserved":0,"last_update":"0001-01-01T00:00:00Z","name_a2s":"Uncletopia | Montréal | 3 | All Maps","protocol":17,"map":"koth_cascade","folder":"tf","game":"Team Fortress","app_id":440,"player_count":0,"max_players":24,"Bots":0,"server_type":"Dedicated","server_os":"Linux","password":true,"vac":true,"version":"7757534","steam_id":85568392924500089,"keywords":["cp","nocrits","nodmgspread","uncletopia"],"game_id":440,"stv_port":27036,"stv_name":"Uncletopia | Montréal | 3 | All Maps | STV","players":null},{"server_id":303,"name":"Uncletopia | Montréal | 4 | No Payload","name_short":"mtl-4","host":"mtl-1.ca.uncletopia.com","port":27045,"enabled":true,"region":"us-east","cc":"ca","latitude":45.50889,"longitude":-73.56167,"reserved":0,"last_update":"0001-01-01T00:00:00Z","name_a2s":"Uncletopia | Montréal | 4 | No Payload","protocol":17,"map":"cp_mercenarypark","folder":"tf","game":"Team Fortress","app_id":440,"player_count":0,"max_players":24,"Bots":0,"server_type":"Dedicated","server_os":"Linux","password":true,"vac":true,"version":"7757534","steam_id":85568392924500090,"keywords":["cp","nocrits","nodmgspread","uncletopia"],"game_id":440,"stv_port":27046,"stv_name":"Uncletopia | Montréal | 4 | No Payload | STV","players":null},{"server_id":13,"name":"Uncletopia | New York City | 1 | All Maps","name_short":"nyc-1","host":"nyc-1.us.uncletopia.com","port":27015,"enabled":true,"region":"us-east","cc":"us","latitude":40.73061,"longitude":-73.93524,"reserved":0,"last_update":"0001-01-01T00:00:00Z","name_a2s":"Uncletopia | New York City | 1 | All Maps","protocol":17,"map":"pl_snowycoast","folder":"tf","game":"Team Fortress","app_id":440,"player_count":24,"max_players":24,"Bots":0,"server_type":"Dedicated","server_os":"Linux","password":true,"vac":true,"version":"7757534","steam_id":85568392924469993,"keywords":["nocrits","nodmgspread","payload","uncletopia"],"game_id":440,"stv_port":27016,"stv_name":"Uncletopia | New York City | 1 | All Maps | STV","players":[{"user_id":242,"name":"Jin","steam_id":76561198119873148,"connected_time":11270000000000,"state":"active","ping":52},{"user_id":339,"name":"renovaatio","steam_id":76561197998700468,"connected_time":3116000000000,"state":"active","ping":61},{"user_id":350,"name":"IRON_LIZARD","steam_id":76561198015960205,"connected_time":1258000000000,"state":"active","ping":67},{"user_id":333,"name":"Female Gamer","steam_id":76561199366482682,"connected_time":3461000000000,"state":"active","ping":123},{"user_id":352,"name":"thatbedrockblock","steam_id":76561199069286524,"connected_time":1227000000000,"state":"active","ping":125},{"user_id":363,"name":"kirakuneos","steam_id":76561198050682071,"connected_time":6000000000,"state":"spawning","ping":82},{"user_id":313,"name":"WibbyOne","steam_id":76561198052843846,"connected_time":5378000000000,"state":"active","ping":34},{"user_id":348,"name":"Warmaster00","steam_id":76561197987001858,"connected_time":1584000000000,"state":"active","ping":98},{"user_id":359,"name":"WikiThis","steam_id":76561198103209713,"connected_time":577000000000,"state":"active","ping":68},{"user_id":360,"name":"CorruptedValk","steam_id":76561198966380096,"connected_time":459000000000,"state":"active","ping":76},{"user_id":361,"name":"mr.edderkopper","steam_id":76561198152614478,"connected_time":457000000000,"state":"active","ping":75},{"user_id":336,"name":"Butters495","steam_id":76561197998689042,"connected_time":3325000000000,"state":"active","ping":72},{"user_id":354,"name":"Brown_Dream","steam_id":76561198975766145,"connected_time":1083000000000,"state":"active","ping":79},{"user_id":318,"name":"Propaniac Gaming ☑","steam_id":76561198133963270,"connected_time":4787000000000,"state":"active","ping":60},{"user_id":355,"name":"Ashia","steam_id":76561198089336357,"connected_time":1078000000000,"state":"active","ping":67},{"user_id":306,"name":"Fever Dreams","steam_id":76561198116614620,"connected_time":6058000000000,"state":"active","ping":79},{"user_id":343,"name":"ＳＬＶＴＣＨＡＭＰ","steam_id":76561198883157736,"connected_time":2148000000000,"state":"active","ping":128},{"user_id":362,"name":"quint","steam_id":76561198046797995,"connected_time":456000000000,"state":"active","ping":76},{"user_id":324,"name":"SnurglePlurff","steam_id":76561198079414596,"connected_time":4471000000000,"state":"active","ping":79},{"user_id":341,"name":"Rudy","steam_id":76561198013456828,"connected_time":2926000000000,"state":"active","ping":55},{"user_id":349,"name":"Irregulars","steam_id":76561198048498230,"connected_time":1282000000000,"state":"active","ping":30},{"user_id":356,"name":"lytewerk","steam_id":76561198002819791,"connected_time":1037000000000,"state":"active","ping":97},{"user_id":310,"name":"sauce","steam_id":76561198068430673,"connected_time":5658000000000,"state":"active","ping":71},{"user_id":327,"name":"plum","steam_id":76561198145759044,"connected_time":4415000000000,"state":"active","ping":61}]},{"server_id":14,"name":"Uncletopia | New York City | 2 | All Maps","name_short":"nyc-2","host":"nyc-1.us.uncletopia.com","port":27025,"enabled":true,"region":"us-east","cc":"us","latitude":40.73061,"longitude":-73.93524,"reserved":0,"last_update":"0001-01-01T00:00:00Z","name_a2s":"Uncletopia | New York City | 2 | All Maps","protocol":17,"map":"pl_borneo","folder":"tf","game":"Team Fortress","app_id":440,"player_count":10,"max_players":24,"Bots":0,"server_type":"Dedicated","server_os":"Linux","password":true,"vac":true,"version":"7757534","steam_id":85568392924469994,"keywords":["nocrits","nodmgspread","payload","uncletopia"],"game_id":440,"stv_port":27026,"stv_name":"Uncletopia | New York City | 2 | All Maps | STV","players":[{"user_id":313,"name":"god doesnt here me","steam_id":76561198125328737,"connected_time":336000000000,"state":"active","ping":45},{"user_id":304,"name":"Moonadoo","steam_id":76561198133377546,"connected_time":989000000000,"state":"active","ping":90},{"user_id":314,"name":"Gamer","steam_id":76561198295713840,"connected_time":319000000000,"state":"active","ping":78},{"user_id":291,"name":"PapaCheungus","steam_id":76561198052262520,"connected_time":1874000000000,"state":"active","ping":68},{"user_id":315,"name":"Pohnut","steam_id":76561198087831690,"connected_time":241000000000,"state":"active","ping":115},{"user_id":273,"name":"Fiendish Frog","steam_id":76561198029478821,"connected_time":3878000000000,"state":"active","ping":49},{"user_id":303,"name":"SuperBlaze","steam_id":76561198095196411,"connected_time":1051000000000,"state":"active","ping":72},{"user_id":288,"name":"DoubleTee","steam_id":76561198018980347,"connected_time":2195000000000,"state":"active","ping":85},{"user_id":309,"name":"Goofball","steam_id":76561198061211537,"connected_time":814000000000,"state":"active","ping":74},{"user_id":310,"name":"Metapod","steam_id":76561198008725465,"connected_time":800000000000,"state":"active","ping":61}]},{"server_id":15,"name":"Uncletopia | New York City | 3 | Stopwatch Beta","name_short":"nyc-3","host":"nyc-1.us.uncletopia.com","port":27035,"enabled":true,"region":"us-east","cc":"us","latitude":40.73061,"longitude":-73.93524,"reserved":0,"last_update":"0001-01-01T00:00:00Z","name_a2s":"Uncletopia | New York City | 3 | Stopwatch Beta","protocol":17,"map":"pl_upward","folder":"tf","game":"Team Fortress","app_id":440,"player_count":0,"max_players":24,"Bots":0,"server_type":"Dedicated","server_os":"Linux","password":true,"vac":true,"version":"7757534","steam_id":85568392924742820,"keywords":["nocrits","nodmgspread","payload","uncletopia"],"game_id":440,"stv_port":27036,"stv_name":"Uncletopia | New York City | 3 | Stopwatch Beta | STV","players":null},{"server_id":16,"name":"Uncletopia | New York City | 4 | Community","name_short":"nyc-4","host":"nyc-1.us.uncletopia.com","port":27045,"enabled":true,"region":"us-east","cc":"us","latitude":40.73061,"longitude":-73.93524,"reserved":0,"last_update":"0001-01-01T00:00:00Z","name_a2s":"Uncletopia | New York City | 4 | Community","protocol":17,"map":"workshop/pl_eruption_b9a.ugc2807898013","folder":"tf","game":"Team Fortress","app_id":440,"player_count":8,"max_players":24,"Bots":0,"server_type":"Dedicated","server_os":"Linux","password":true,"vac":true,"version":"7757534","steam_id":85568392924742821,"keywords":["nocrits","nodmgspread","payload","uncletopia"],"game_id":440,"stv_port":27046,"stv_name":"Uncletopia | New York City | 4 | Community | STV","players":[{"user_id":318,"name":"Duk","steam_id":76561198450692568,"connected_time":1447000000000,"state":"active","ping":78},{"user_id":321,"name":"boy from the rafters","steam_id":76561198042926224,"connected_time":414000000000,"state":"active","ping":68},{"user_id":310,"name":"Chicken #420DONGSQUAD","steam_id":76561198047863656,"connected_time":2568000000000,"state":"active","ping":37},{"user_id":320,"name":"Washington","steam_id":76561198121595112,"connected_time":643000000000,"state":"active","ping":114},{"user_id":308,"name":"hazel","steam_id":76561198173271218,"connected_time":2811000000000,"state":"active","ping":59},{"user_id":312,"name":"Twink covered in slurry","steam_id":76561198156906497,"connected_time":2146000000000,"state":"active","ping":120},{"user_id":314,"name":"lost","steam_id":76561198068624497,"connected_time":2084000000000,"state":"active","ping":80},{"user_id":316,"name":"3thyr3al","steam_id":76561198152795720,"connected_time":1875000000000,"state":"active","ping":43}]},{"server_id":142,"name":"Uncletopia | São Paulo | 1 | All Maps","name_short":"sao-1","host":"sao-1.br.uncletopia.com","port":27015,"enabled":true,"region":"sa","cc":"br","latitude":-23.533773,"longitude":-46.62529,"reserved":0,"last_update":"0001-01-01T00:00:00Z","name_a2s":"Uncletopia | São Paulo | 1 | All Maps","protocol":17,"map":"koth_harvest_final","folder":"tf","game":"Team Fortress","app_id":440,"player_count":0,"max_players":24,"Bots":0,"server_type":"Dedicated","server_os":"Linux","password":true,"vac":true,"version":"7757534","steam_id":85568392924469996,"keywords":["cp","nocrits","nodmgspread","uncletopia"],"game_id":440,"stv_port":27016,"stv_name":"Uncletopia | São Paulo | 1 | All Maps | STV","players":null},{"server_id":143,"name":"Uncletopia | São Paulo | 2 | All Maps","name_short":"sao-2","host":"sao-2.br.uncletopia.com","port":27015,"enabled":true,"region":"sa","cc":"br","latitude":-23.533773,"longitude":-46.62529,"reserved":0,"last_update":"0001-01-01T00:00:00Z","name_a2s":"Uncletopia | São Paulo | 2 | All Maps","protocol":17,"map":"koth_viaduct","folder":"tf","game":"Team Fortress","app_id":440,"player_count":2,"max_players":24,"Bots":0,"server_type":"Dedicated","server_os":"Linux","password":true,"vac":true,"version":"7757534","steam_id":85568392924485349,"keywords":["cp","nocrits","nodmgspread","uncletopia"],"game_id":440,"stv_port":27016,"stv_name":"Uncletopia | São Paulo | 2 | All Maps | STV","players":[{"user_id":26,"name":"Membrillo","steam_id":76561198842538871,"connected_time":2912000000000,"state":"active","ping":65},{"user_id":29,"name":"Binger Fozo #CompleteTF2","steam_id":76561199226513809,"connected_time":2337000000000,"state":"active","ping":332}]},{"server_id":7,"name":"Uncletopia | Seattle | 1 | All Maps","name_short":"sea-1","host":"sea-1.us.uncletopia.com","port":27015,"enabled":true,"region":"us-west","cc":"us","latitude":47.608013,"longitude":-122.33517,"reserved":0,"last_update":"0001-01-01T00:00:00Z","name_a2s":"Uncletopia | Seattle | 1 | All Maps","protocol":17,"map":"koth_harvest_final","folder":"tf","game":"Team Fortress","app_id":440,"player_count":24,"max_players":24,"Bots":0,"server_type":"Dedicated","server_os":"Linux","password":true,"vac":true,"version":"7757534","steam_id":85568392924469997,"keywords":["cp","nocrits","nodmgspread","uncletopia"],"game_id":440,"stv_port":27016,"stv_name":"Uncletopia | Seattle | 1 | All Maps | STV","players":[{"user_id":818,"name":"jop.p.ing","steam_id":76561197999150236,"connected_time":3907000000000,"state":"active","ping":37},{"user_id":860,"name":"Coolshroomish","steam_id":76561199109440924,"connected_time":768000000000,"state":"active","ping":50},{"user_id":852,"name":"Monsieur Pequeño","steam_id":76561198327271041,"connected_time":953000000000,"state":"active","ping":49},{"user_id":801,"name":"trashbro","steam_id":76561199417993197,"connected_time":5310000000000,"state":"active","ping":74},{"user_id":839,"name":"Jovo","steam_id":76561197993265970,"connected_time":1685000000000,"state":"active","ping":32},{"user_id":846,"name":"Princess Froggy","steam_id":76561197999674212,"connected_time":1238000000000,"state":"active","ping":55},{"user_id":861,"name":"altiokis","steam_id":76561198048752532,"connected_time":713000000000,"state":"active","ping":75},{"user_id":760,"name":"dust | she/it","steam_id":76561198045218909,"connected_time":9152000000000,"state":"active","ping":44},{"user_id":844,"name":"Vexx","steam_id":76561198141552639,"connected_time":1406000000000,"state":"active","ping":62},{"user_id":825,"name":"makeshift_burrito","steam_id":76561198042510825,"connected_time":2860000000000,"state":"active","ping":69},{"user_id":849,"name":"Klone","steam_id":76561198854485605,"connected_time":1107000000000,"state":"active","ping":120},{"user_id":851,"name":"CPTforever","steam_id":76561198237767198,"connected_time":1036000000000,"state":"active","ping":62},{"user_id":816,"name":"Cloud","steam_id":76561198272454184,"connected_time":4145000000000,"state":"active","ping":176},{"user_id":815,"name":"viciousbeatmaker","steam_id":76561198086876652,"connected_time":4224000000000,"state":"active","ping":83},{"user_id":853,"name":"M4L1C3","steam_id":76561198282839695,"connected_time":925000000000,"state":"active","ping":68},{"user_id":832,"name":"Username","steam_id":76561198855586261,"connected_time":2577000000000,"state":"active","ping":61},{"user_id":838,"name":"purple™ | they/she","steam_id":76561198057459725,"connected_time":1870000000000,"state":"active","ping":51},{"user_id":856,"name":"Kir","steam_id":76561198057745344,"connected_time":823000000000,"state":"active","ping":98},{"user_id":855,"name":"reiidaya","steam_id":76561198325306660,"connected_time":848000000000,"state":"active","ping":55},{"user_id":780,"name":"jacix3 [gay wolfgirl]{she/it}","steam_id":76561198205004165,"connected_time":7479000000000,"state":"active","ping":66},{"user_id":782,"name":"soup","steam_id":76561198043209046,"connected_time":7267000000000,"state":"active","ping":85},{"user_id":857,"name":"Pubk","steam_id":76561198095939571,"connected_time":807000000000,"state":"active","ping":37},{"user_id":858,"name":"Tetra","steam_id":76561198848344627,"connected_time":790000000000,"state":"active","ping":45},{"user_id":859,"name":"PheebsyDeebsy","steam_id":76561198101509436,"connected_time":781000000000,"state":"active","ping":73}]},{"server_id":119,"name":"Uncletopia | Seattle | 2 | All Maps","name_short":"sea-2","host":"sea-1.us.uncletopia.com","port":27025,"enabled":true,"region":"us-west","cc":"us","latitude":47.608013,"longitude":-122.33517,"reserved":0,"last_update":"0001-01-01T00:00:00Z","name_a2s":"Uncletopia | Seattle | 2 | All Maps","protocol":17,"map":"pl_badwater","folder":"tf","game":"Team Fortress","app_id":440,"player_count":24,"max_players":24,"Bots":0,"server_type":"Dedicated","server_os":"Linux","password":true,"vac":true,"version":"7757534","steam_id":85568392924469998,"keywords":["nocrits","nodmgspread","payload","uncletopia"],"game_id":440,"stv_port":27026,"stv_name":"Uncletopia | Seattle | 2 | All Maps | STV","players":[{"user_id":489,"name":"The Champagne of Mayonnaise","steam_id":76561197961107982,"connected_time":379000000000,"state":"active","ping":91},{"user_id":474,"name":"Homewrecker Bill","steam_id":76561198120379171,"connected_time":1470000000000,"state":"active","ping":71},{"user_id":469,"name":"doopsies","steam_id":76561198083000867,"connected_time":1776000000000,"state":"active","ping":54},{"user_id":478,"name":"Dextersbrain","steam_id":76561198011831579,"connected_time":734000000000,"state":"active","ping":70},{"user_id":480,"name":"squashbone","steam_id":76561197999466442,"connected_time":727000000000,"state":"active","ping":46},{"user_id":481,"name":"Randy \"the Man\" Johnson","steam_id":76561198039124445,"connected_time":711000000000,"state":"active","ping":119},{"user_id":485,"name":"resting neutral face","steam_id":76561197999259502,"connected_time":530000000000,"state":"active","ping":63},{"user_id":482,"name":"predinator850","steam_id":76561199392085652,"connected_time":710000000000,"state":"active","ping":115},{"user_id":472,"name":"dlatgirp","steam_id":76561198417137724,"connected_time":1613000000000,"state":"active","ping":64},{"user_id":468,"name":"SvicidalBug","steam_id":76561198221390504,"connected_time":1817000000000,"state":"active","ping":64},{"user_id":483,"name":"DWSkilltonTTV","steam_id":76561197967027880,"connected_time":709000000000,"state":"active","ping":99},{"user_id":447,"name":"Re-Crix","steam_id":76561198351895601,"connected_time":3348000000000,"state":"active","ping":86},{"user_id":490,"name":"PerKnuckleChuckle","steam_id":76561198023221596,"connected_time":357000000000,"state":"active","ping":97},{"user_id":487,"name":"FluffyNinjaRobatech","steam_id":76561197981072423,"connected_time":446000000000,"state":"active","ping":106},{"user_id":491,"name":"Inadequate","steam_id":76561198108263810,"connected_time":342000000000,"state":"active","ping":105},{"user_id":492,"name":"Thndr_","steam_id":76561198113242036,"connected_time":319000000000,"state":"active","ping":67},{"user_id":497,"name":"ROGUE-PLANET","steam_id":76561198116023052,"connected_time":136000000000,"state":"active","ping":75},{"user_id":460,"name":"Villchip","steam_id":76561198198599982,"connected_time":2560000000000,"state":"active","ping":53},{"user_id":479,"name":"Dargoos","steam_id":76561198366212046,"connected_time":733000000000,"state":"active","ping":77},{"user_id":493,"name":"Double Tapp","steam_id":76561197993847700,"connected_time":276000000000,"state":"active","ping":106},{"user_id":494,"name":"Bheem","steam_id":76561198170453459,"connected_time":256000000000,"state":"active","ping":39},{"user_id":498,"name":"bobshellby","steam_id":76561198371098936,"connected_time":2000000000,"state":"spawning","ping":250},{"user_id":476,"name":"DW codeN1nj4","steam_id":76561198025558856,"connected_time":1332000000000,"state":"active","ping":69},{"user_id":467,"name":"autumnal.messenger","steam_id":76561199345816635,"connected_time":2262000000000,"state":"active","ping":56}]},{"server_id":406,"name":"Uncletopia | Seattle | 3 | Stopwatch Beta","name_short":"sea-3","host":"sea-1.us.uncletopia.com","port":27035,"enabled":true,"region":"us-west","cc":"us","latitude":47.608013,"longitude":-122.33517,"reserved":0,"last_update":"0001-01-01T00:00:00Z","name_a2s":"Uncletopia | Seattle | 3 | Stopwatch Beta","protocol":17,"map":"workshop/koth_clearcut_b15.ugc2107050255","folder":"tf","game":"Team Fortress","app_id":440,"player_count":0,"max_players":24,"Bots":0,"server_type":"Dedicated","server_os":"Linux","password":true,"vac":true,"version":"7757534","steam_id":85568392924515217,"keywords":["cp","nocrits","nodmgspread","uncletopia"],"game_id":440,"stv_port":27036,"stv_name":"Uncletopia | Seattle | 3 | Stopwatch Beta | STV","players":null},{"server_id":17,"name":"Uncletopia | San Francisco | 1 | All Maps","name_short":"sfo-1","host":"sfo-1.us.uncletopia.com","port":27015,"enabled":true,"region":"us-west","cc":"us","latitude":37.77397,"longitude":-122.4313,"reserved":0,"last_update":"0001-01-01T00:00:00Z","name_a2s":"Uncletopia | San Francisco | 1 | All Maps","protocol":17,"map":"koth_lakeside_final","folder":"tf","game":"Team Fortress","app_id":440,"player_count":19,"max_players":24,"Bots":0,"server_type":"Dedicated","server_os":"Linux","password":true,"vac":true,"version":"7757534","steam_id":85568392924469999,"keywords":["cp","nocrits","nodmgspread","uncletopia"],"game_id":440,"stv_port":27016,"stv_name":"Uncletopia | San Francisco | 1 | All Maps | STV","players":[{"user_id":230,"name":"Amadeus","steam_id":76561198160047173,"connected_time":1056000000000,"state":"connecting","ping":69},{"user_id":255,"name":"Maid 'n' China","steam_id":76561198423392976,"connected_time":7000000000,"state":"connecting","ping":38},{"user_id":250,"name":"John Coltrane","steam_id":76561198037789297,"connected_time":454000000000,"state":"connecting","ping":120},{"user_id":237,"name":"LordRa","steam_id":76561197974550971,"connected_time":786000000000,"state":"connecting","ping":79},{"user_id":229,"name":"Medicated Thembo","steam_id":76561198035868181,"connected_time":1156000000000,"state":"connecting","ping":92},{"user_id":180,"name":"wait no stop dont do that","steam_id":76561199117157198,"connected_time":4429000000000,"state":"connecting","ping":86},{"user_id":235,"name":"Love Waffle","steam_id":76561197990077189,"connected_time":938000000000,"state":"connecting","ping":94},{"user_id":236,"name":"Sov8t","steam_id":76561199046281330,"connected_time":935000000000,"state":"connecting","ping":58},{"user_id":240,"name":"Cheetose Intolerant","steam_id":76561198013399809,"connected_time":731000000000,"state":"connecting","ping":70},{"user_id":239,"name":"Reduxxtion","steam_id":76561199029162443,"connected_time":767000000000,"state":"connecting","ping":75},{"user_id":254,"name":"Pah-Wraith Gul Dukat","steam_id":76561198033918106,"connected_time":83000000000,"state":"connecting","ping":78},{"user_id":243,"name":"Kirbominable Wolfman","steam_id":76561197999987442,"connected_time":699000000000,"state":"connecting","ping":76},{"user_id":242,"name":"Foof","steam_id":76561198068996707,"connected_time":706000000000,"state":"connecting","ping":96},{"user_id":244,"name":"Coffee","steam_id":76561197976596806,"connected_time":694000000000,"state":"connecting","ping":81},{"user_id":217,"name":"YoteDab McFapDab.jpg","steam_id":76561197984870380,"connected_time":2261000000000,"state":"connecting","ping":133},{"user_id":245,"name":"Dixxy","steam_id":76561198010760019,"connected_time":667000000000,"state":"connecting","ping":134},{"user_id":246,"name":"Driln","steam_id":76561199070196375,"connected_time":665000000000,"state":"connecting","ping":74},{"user_id":253,"name":"ConfusedRelic91","steam_id":76561199178575029,"connected_time":373000000000,"state":"connecting","ping":107},{"user_id":252,"name":"ChErrY","steam_id":76561198045614766,"connected_time":387000000000,"state":"connecting","ping":163}]},{"server_id":18,"name":"Uncletopia | San Francisco | 2 | All Maps","name_short":"sfo-2","host":"sfo-1.us.uncletopia.com","port":27025,"enabled":true,"region":"us-west","cc":"us","latitude":37.77397,"longitude":-122.4313,"reserved":0,"last_update":"0001-01-01T00:00:00Z","name_a2s":"Uncletopia | San Francisco | 2 | All Maps","protocol":17,"map":"pl_swiftwater_final1","folder":"tf","game":"Team Fortress","app_id":440,"player_count":24,"max_players":24,"Bots":0,"server_type":"Dedicated","server_os":"Linux","password":true,"vac":true,"version":"7757534","steam_id":85568392924470000,"keywords":["nocrits","nodmgspread","payload","uncletopia"],"game_id":440,"stv_port":27026,"stv_name":"Uncletopia | San Francisco | 2 | All Maps | STV","players":[{"user_id":333,"name":"teeth","steam_id":76561198103189993,"connected_time":320000000000,"state":"active","ping":55},{"user_id":335,"name":"XxChocola20xX","steam_id":76561199108579557,"connected_time":305000000000,"state":"active","ping":83},{"user_id":346,"name":"suave","steam_id":76561198294281809,"connected_time":5000000000,"state":"spawning","ping":67},{"user_id":338,"name":"SHADOW (he/him)","steam_id":76561198207768148,"connected_time":115000000000,"state":"active","ping":62},{"user_id":329,"name":"His buddy Eric","steam_id":76561198275362375,"connected_time":588000000000,"state":"active","ping":50},{"user_id":339,"name":"zowey its yaoi","steam_id":76561198097637080,"connected_time":111000000000,"state":"active","ping":106},{"user_id":330,"name":"Kazel","steam_id":76561197989757682,"connected_time":584000000000,"state":"active","ping":114},{"user_id":331,"name":"GoldtoothFour","steam_id":76561198055529332,"connected_time":572000000000,"state":"active","ping":104},{"user_id":319,"name":"madi's sexy and crunchy pickle\ufffd","steam_id":76561198361917585,"connected_time":1654000000000,"state":"active","ping":46},{"user_id":311,"name":"British Zoner","steam_id":76561198977330214,"connected_time":1970000000000,"state":"active","ping":57},{"user_id":195,"name":"Drakon","steam_id":76561198078210822,"connected_time":9592000000000,"state":"active","ping":128},{"user_id":332,"name":"Mr. Dick™","steam_id":76561198047309044,"connected_time":561000000000,"state":"active","ping":90},{"user_id":312,"name":"FCKGW-RHQQ2-YXRKT-8TG6W-2B7Q8","steam_id":76561197993138592,"connected_time":1948000000000,"state":"active","ping":57},{"user_id":324,"name":"Sundews Vera","steam_id":76561198202360243,"connected_time":1184000000000,"state":"active","ping":114},{"user_id":320,"name":"will’s extra large baguette\ufffd\ufffd","steam_id":76561199095395177,"connected_time":1640000000000,"state":"active","ping":91},{"user_id":340,"name":"Hannibal Lecture","steam_id":76561198329087915,"connected_time":110000000000,"state":"active","ping":69},{"user_id":341,"name":"LovingKindness","steam_id":76561199064932372,"connected_time":104000000000,"state":"active","ping":53},{"user_id":322,"name":"Burgie","steam_id":76561198066425198,"connected_time":1622000000000,"state":"active","ping":70},{"user_id":342,"name":"Whos Mans Is Dis","steam_id":76561198370978056,"connected_time":95000000000,"state":"active","ping":99},{"user_id":343,"name":"moopmop","steam_id":76561198065224965,"connected_time":83000000000,"state":"active","ping":45},{"user_id":294,"name":"wedwind","steam_id":76561199089931270,"connected_time":3337000000000,"state":"active","ping":77},{"user_id":344,"name":"Wavelengths (they/it)","steam_id":76561197997621320,"connected_time":60000000000,"state":"active","ping":97},{"user_id":345,"name":"fish (2:3)","steam_id":76561198134331073,"connected_time":59000000000,"state":"active","ping":75},{"user_id":287,"name":"Chongo","steam_id":76561198017604393,"connected_time":4125000000000,"state":"active","ping":56}]},{"server_id":19,"name":"Uncletopia | San Francisco | 3 | Stopwatch Beta","name_short":"sfo-3","host":"sfo-1.us.uncletopia.com","port":27035,"enabled":true,"region":"us-west","cc":"us","latitude":37.77397,"longitude":-122.4313,"reserved":0,"last_update":"0001-01-01T00:00:00Z","name_a2s":"Uncletopia | San Francisco | 3 | Stopwatch Beta","protocol":17,"map":"pl_swiftwater_final1","folder":"tf","game":"Team Fortress","app_id":440,"player_count":0,"max_players":24,"Bots":0,"server_type":"Dedicated","server_os":"Linux","password":true,"vac":true,"version":"7757534","steam_id":85568392924742824,"keywords":["nocrits","nodmgspread","payload","uncletopia"],"game_id":440,"stv_port":27036,"stv_name":"Uncletopia | San Francisco | 3 | Stopwatch Beta | STV","players":null},{"server_id":20,"name":"Uncletopia | San Francisco | 4 | Community","name_short":"sfo-4","host":"sfo-1.us.uncletopia.com","port":27045,"enabled":true,"region":"us-west","cc":"us","latitude":37.77397,"longitude":-122.4313,"reserved":0,"last_update":"0001-01-01T00:00:00Z","name_a2s":"Uncletopia | San Francisco | 4 | Community","protocol":17,"map":"workshop/cp_hazyfort_rc6.ugc1365963729","folder":"tf","game":"Team Fortress","app_id":440,"player_count":11,"max_players":24,"Bots":0,"server_type":"Dedicated","server_os":"Linux","password":true,"vac":true,"version":"7757534","steam_id":85568392924742826,"keywords":["cp","nocrits","nodmgspread","uncletopia"],"game_id":440,"stv_port":27046,"stv_name":"Uncletopia | San Francisco | 4 | Community | STV","players":[{"user_id":527,"name":"Peter, what are you doing?","steam_id":76561198066452726,"connected_time":4032000000000,"state":"active","ping":60},{"user_id":578,"name":"LProduct","steam_id":76561199442139670,"connected_time":335000000000,"state":"spawning","ping":285},{"user_id":564,"name":"stoned jester","steam_id":76561198079609974,"connected_time":1269000000000,"state":"active","ping":54},{"user_id":579,"name":"ULTRACOCK","steam_id":76561198022967929,"connected_time":269000000000,"state":"active","ping":61},{"user_id":515,"name":"NooBHatteR","steam_id":76561198077662703,"connected_time":4534000000000,"state":"active","ping":66},{"user_id":517,"name":"Das_","steam_id":76561198055908152,"connected_time":4517000000000,"state":"active","ping":117},{"user_id":531,"name":"Diamond","steam_id":76561198355662964,"connected_time":3703000000000,"state":"active","ping":52},{"user_id":554,"name":"UV","steam_id":76561198083936918,"connected_time":2237000000000,"state":"active","ping":67},{"user_id":562,"name":"Lad","steam_id":76561197990645296,"connected_time":1449000000000,"state":"active","ping":94},{"user_id":576,"name":"The Assistant Regional Manager","steam_id":76561199221484936,"connected_time":609000000000,"state":"active","ping":65},{"user_id":551,"name":"Elongated Muskrat","steam_id":76561198314501346,"connected_time":2416000000000,"state":"active","ping":69}]},{"server_id":141,"name":"Uncletopia | Sydney | 1 | All Maps","name_short":"syd-1","host":"syd-1.au.uncletopia.com","port":27015,"enabled":true,"region":"au","cc":"au","latitude":-33.865143,"longitude":151.2099,"reserved":0,"last_update":"0001-01-01T00:00:00Z","name_a2s":"Uncletopia | Sydney | 1 | All Maps","protocol":17,"map":"koth_lakeside_final","folder":"tf","game":"Team Fortress","app_id":440,"player_count":0,"max_players":24,"Bots":0,"server_type":"Dedicated","server_os":"Linux","password":true,"vac":true,"version":"7757534","steam_id":85568392924470001,"keywords":["cp","nocrits","nodmgspread","uncletopia"],"game_id":440,"stv_port":27016,"stv_name":"Uncletopia | Sydney | 1 | All Maps | STV","players":null},{"server_id":123,"name":"Uncletopia | Sydney | 2 | All Maps","name_short":"syd-2","host":"syd-1.au.uncletopia.com","port":27025,"enabled":true,"region":"au","cc":"au","latitude":-33.865143,"longitude":151.2099,"reserved":0,"last_update":"0001-01-01T00:00:00Z","name_a2s":"Uncletopia | Sydney | 2 | All Maps","protocol":17,"map":"pl_snowycoast","folder":"tf","game":"Team Fortress","app_id":440,"player_count":24,"max_players":24,"Bots":0,"server_type":"Dedicated","server_os":"Linux","password":true,"vac":true,"version":"7757534","steam_id":85568392924470002,"keywords":["nocrits","nodmgspread","payload","uncletopia"],"game_id":440,"stv_port":27026,"stv_name":"Uncletopia | Sydney | 2 | All Maps | STV","players":[{"user_id":150,"name":"OmegaJay","steam_id":76561198069070596,"connected_time":1288000000000,"state":"active","ping":55},{"user_id":23,"name":"Jamie2Cool","steam_id":76561198155695809,"connected_time":9467000000000,"state":"active","ping":85},{"user_id":159,"name":"Brooklyn","steam_id":76561198160577231,"connected_time":453000000000,"state":"active","ping":60},{"user_id":160,"name":"Toody","steam_id":76561198212656752,"connected_time":292000000000,"state":"active","ping":57},{"user_id":135,"name":"TheDoctor30","steam_id":76561198433686866,"connected_time":2584000000000,"state":"active","ping":106},{"user_id":140,"name":"Handlebar inspectors","steam_id":76561198930683342,"connected_time":2204000000000,"state":"active","ping":54},{"user_id":90,"name":"Humboldt","steam_id":76561198064930358,"connected_time":6382000000000,"state":"active","ping":107},{"user_id":125,"name":"Skidallion","steam_id":76561198083922206,"connected_time":3378000000000,"state":"active","ping":69},{"user_id":87,"name":"Mail Bomb Victim","steam_id":76561198284533039,"connected_time":6838000000000,"state":"active","ping":46},{"user_id":123,"name":"Mezzanine","steam_id":76561198110502329,"connected_time":3507000000000,"state":"active","ping":32},{"user_id":156,"name":"Doodles ♛","steam_id":76561198023807247,"connected_time":515000000000,"state":"active","ping":61},{"user_id":62,"name":"KayJay","steam_id":76561198884770591,"connected_time":7793000000000,"state":"active","ping":42},{"user_id":147,"name":"Gnat","steam_id":76561198109747863,"connected_time":1433000000000,"state":"active","ping":100},{"user_id":148,"name":"Flat White","steam_id":76561198410190974,"connected_time":1416000000000,"state":"active","ping":89},{"user_id":72,"name":"Jdn","steam_id":76561198293079232,"connected_time":7354000000000,"state":"active","ping":61},{"user_id":143,"name":"EpicGuy4227","steam_id":76561198094132328,"connected_time":1834000000000,"state":"active","ping":63},{"user_id":71,"name":"NollReed","steam_id":76561198098501571,"connected_time":7390000000000,"state":"active","ping":79},{"user_id":74,"name":"helton1 #RemoveCrossbow","steam_id":76561198841855657,"connected_time":7286000000000,"state":"active","ping":51},{"user_id":157,"name":"Sparky","steam_id":76561198117687688,"connected_time":512000000000,"state":"active","ping":68},{"user_id":138,"name":"♥ Sharpy \u003e v \u003c","steam_id":76561198091613743,"connected_time":2263000000000,"state":"active","ping":109},{"user_id":102,"name":"Jazzalinco","steam_id":76561198174835835,"connected_time":4979000000000,"state":"active","ping":38},{"user_id":144,"name":"Sledgehammer","steam_id":76561198066726621,"connected_time":1808000000000,"state":"active","ping":53},{"user_id":154,"name":"dreamydoggy","steam_id":76561198448243169,"connected_time":1065000000000,"state":"active","ping":58},{"user_id":152,"name":"var","steam_id":76561198164892406,"connected_time":1207000000000,"state":"active","ping":69}]},{"server_id":395,"name":"Uncletopia | Sydney | 3 | All Maps","name_short":"syd-3","host":"syd-1.au.uncletopia.com","port":27035,"enabled":true,"region":"au","cc":"au","latitude":-33.865143,"longitude":151.2099,"reserved":0,"last_update":"0001-01-01T00:00:00Z","name_a2s":"Uncletopia | Sydney | 3 | All Maps","protocol":17,"map":"pl_swiftwater_final1","folder":"tf","game":"Team Fortress","app_id":440,"player_count":0,"max_players":24,"Bots":0,"server_type":"Dedicated","server_os":"Linux","password":true,"vac":true,"version":"7757534","steam_id":85568392925194467,"keywords":["nocrits","nodmgspread","payload","uncletopia"],"game_id":440,"stv_port":27036,"stv_name":"Uncletopia | Sydney | 3 | All Maps | STV","players":null},{"server_id":396,"name":"Uncletopia | Sydney | 4 | All Maps","name_short":"syd-4","host":"syd-1.au.uncletopia.com","port":27045,"enabled":true,"region":"au","cc":"au","latitude":-33.865143,"longitude":151.2099,"reserved":0,"last_update":"0001-01-01T00:00:00Z","name_a2s":"Uncletopia | Sydney | 4 | All Maps","protocol":17,"map":"koth_highpass","folder":"tf","game":"Team Fortress","app_id":440,"player_count":0,"max_players":24,"Bots":0,"server_type":"Dedicated","server_os":"Linux","password":true,"vac":true,"version":"7757534","steam_id":85568392925397958,"keywords":["cp","nocrits","nodmgspread","uncletopia"],"game_id":440,"stv_port":27046,"stv_name":"Uncletopia | Sydney | 4 | All Maps | STV","players":null},{"server_id":58,"name":"Uncletopia | Sydney | 5 | Stopwatch Beta","name_short":"syd-5","host":"syd-1.au.uncletopia.com","port":27055,"enabled":true,"region":"au","cc":"au","latitude":-33.865143,"longitude":151.2099,"reserved":0,"last_update":"0001-01-01T00:00:00Z","name_a2s":"Uncletopia | Sydney | 5 | Stopwatch Beta","protocol":17,"map":"koth_cascade","folder":"tf","game":"Team Fortress","app_id":440,"player_count":0,"max_players":24,"Bots":0,"server_type":"Dedicated","server_os":"Linux","password":true,"vac":true,"version":"7757534","steam_id":85568392925397959,"keywords":["cp","nocrits","nodmgspread","uncletopia"],"game_id":440,"stv_port":27056,"stv_name":"Uncletopia | Sydney | 5 | Stopwatch Beta | STV","players":null},{"server_id":59,"name":"Uncletopia | Sydney | 6 | Community","name_short":"syd-6","host":"syd-1.au.uncletopia.com","port":27065,"enabled":true,"region":"au","cc":"au","latitude":-33.865143,"longitude":151.2099,"reserved":0,"last_update":"0001-01-01T00:00:00Z","name_a2s":"Uncletopia | Sydney | 6 | Community","protocol":17,"map":"workshop/koth_ramjam_rc1.ugc459778887","folder":"tf","game":"Team Fortress","app_id":440,"player_count":0,"max_players":24,"Bots":0,"server_type":"Dedicated","server_os":"Linux","password":true,"vac":true,"version":"7757534","steam_id":85568392925397960,"keywords":["cp","nocrits","nodmgspread","uncletopia"],"game_id":440,"stv_port":27066,"stv_name":"Uncletopia | Sydney | 6 | Community | STV","players":null},{"server_id":49,"name":"Uncletopia | Warsaw | 1 | All Maps","name_short":"waw-1","host":"waw-1.pl.uncletopia.com","port":27015,"enabled":true,"region":"eu","cc":"pl","latitude":52.2297,"longitude":21.017532,"reserved":0,"last_update":"0001-01-01T00:00:00Z","name_a2s":"","protocol":0,"map":"","folder":"","game":"","app_id":0,"player_count":0,"max_players":0,"Bots":0,"server_type":"","server_os":"","password":false,"vac":false,"version":"","steam_id":0,"keywords":null,"game_id":0,"stv_port":0,"stv_name":"","players":null},{"server_id":50,"name":"Uncletopia | Warsaw | 2 | All Maps","name_short":"waw-2","host":"waw-1.pl.uncletopia.com","port":27025,"enabled":true,"region":"eu","cc":"pl","latitude":52.2297,"longitude":21.017532,"reserved":0,"last_update":"0001-01-01T00:00:00Z","name_a2s":"Uncletopia | Warsaw | 2 | All Maps","protocol":17,"map":"koth_viaduct","folder":"tf","game":"Team Fortress","app_id":440,"player_count":0,"max_players":24,"Bots":0,"server_type":"Dedicated","server_os":"Linux","password":true,"vac":true,"version":"7757534","steam_id":85568392925397851,"keywords":["cp","nocrits","nodmgspread","uncletopia"],"game_id":440,"stv_port":27026,"stv_name":"Uncletopia | Warsaw | 2 | All Maps | STV","players":null},{"server_id":51,"name":"Uncletopia | Warsaw | 3 | All Maps","name_short":"waw-3","host":"waw-1.pl.uncletopia.com","port":27035,"enabled":true,"region":"eu","cc":"pl","latitude":52.2297,"longitude":21.017532,"reserved":0,"last_update":"0001-01-01T00:00:00Z","name_a2s":"Uncletopia | Warsaw | 3 | All Maps","protocol":17,"map":"pl_badwater","folder":"tf","game":"Team Fortress","app_id":440,"player_count":0,"max_players":24,"Bots":0,"server_type":"Dedicated","server_os":"Linux","password":true,"vac":true,"version":"7757534","steam_id":85568392925397852,"keywords":["nocrits","nodmgspread","payload","uncletopia"],"game_id":440,"stv_port":27036,"stv_name":"Uncletopia | Warsaw | 3 | All Maps | STV","players":null},{"server_id":52,"name":"Uncletopia | Warsaw | 4 | All Maps","name_short":"waw-4","host":"waw-1.pl.uncletopia.com","port":27045,"enabled":true,"region":"eu","cc":"pl","latitude":52.2297,"longitude":21.017532,"reserved":0,"last_update":"0001-01-01T00:00:00Z","name_a2s":"Uncletopia | Warsaw | 4 | All Maps","protocol":17,"map":"koth_lakeside_final","folder":"tf","game":"Team Fortress","app_id":440,"player_count":0,"max_players":24,"Bots":0,"server_type":"Dedicated","server_os":"Linux","password":true,"vac":true,"version":"7757534","steam_id":85568392925397853,"keywords":["cp","nocrits","nodmgspread","uncletopia"],"game_id":440,"stv_port":27046,"stv_name":"Uncletopia | Warsaw | 4 | All Maps | STV","players":null},{"server_id":53,"name":"Uncletopia | Warsaw | 5 | Stopwatch Beta","name_short":"waw-5","host":"waw-1.pl.uncletopia.com","port":27055,"enabled":true,"region":"eu","cc":"pl","latitude":52.2297,"longitude":21.017532,"reserved":0,"last_update":"0001-01-01T00:00:00Z","name_a2s":"Uncletopia | Warsaw | 5 | Stopwatch Beta","protocol":17,"map":"pl_borneo","folder":"tf","game":"Team Fortress","app_id":440,"player_count":0,"max_players":24,"Bots":0,"server_type":"Dedicated","server_os":"Linux","password":true,"vac":true,"version":"7757534","steam_id":85568392925397854,"keywords":["nocrits","nodmgspread","payload","uncletopia"],"game_id":440,"stv_port":27056,"stv_name":"Uncletopia | Warsaw | 5 | Stopwatch Beta | STV","players":null},{"server_id":54,"name":"Uncletopia | Warsaw | 6 | Community","name_short":"waw-6","host":"waw-1.pl.uncletopia.com","port":27065,"enabled":true,"region":"eu","cc":"pl","latitude":52.2297,"longitude":21.017532,"reserved":0,"last_update":"0001-01-01T00:00:00Z","name_a2s":"Uncletopia | Warsaw | 6 | Community","protocol":17,"map":"koth_lakeside_final","folder":"tf","game":"Team Fortress","app_id":440,"player_count":0,"max_players":24,"Bots":0,"server_type":"Dedicated","server_os":"Linux","password":true,"vac":true,"version":"7757534","steam_id":85568392925397856,"keywords":["cp","nocrits","nodmgspread","uncletopia"],"game_id":440,"stv_port":27066,"stv_name":"Uncletopia | Warsaw | 6 | Community | STV","players":null}]}