{"status":true,"message":"","result":[{"server_id":9,"name":"Uncletopia | Atlanta | 1 | All Maps","name_short":"atl-1","host":"atl-1.us.uncletopia.com","port":27015,"enabled":true,"region":"us-east","cc":"us","latitude":33.753746,"longitude":-84.38633,"reserved":0,"last_update":"0001-01-01T00:00:00Z","name_a2s":"Uncletopia | Atlanta | 1 | All Maps","protocol":17,"map":"pl_snowycoast","folder":"tf","game":"Team Fortress","app_id":440,"player_count":24,"max_players":24,"Bots":0,"server_type":"Dedicated","server_os":"Linux","password":true,"vac":true,"version":"7742253","steam_id":85568392924469982,"keywords":["nocrits","nodmgspread","payload","uncletopia"],"game_id":440,"stv_port":27016,"stv_name":"Uncletopia | Atlanta | 1 | All Maps | STV","players":[{"user_id":3,"name":"hi","steam_id":76561199441787165,"connected_time":1560000000000,"state":"active","ping":82},{"user_id":4,"name":"DarkenedPolarity","steam_id":76561199073099596,"connected_time":1557000000000,"state":"active","ping":52},{"user_id":5,"name":"Veilos","steam_id":76561198071897172,"connected_time":1555000000000,"state":"active","ping":76},{"user_id":33,"name":"Biosock Infiknit","steam_id":76561198072693794,"connected_time":814000000000,"state":"active","ping":74},{"user_id":7,"name":"SALEM","steam_id":76561198116281100,"connected_time":1554000000000,"state":"active","ping":42},{"user_id":8,"name":"Limbo_Darkness","steam_id":76561198127411819,"connected_time":1553000000000,"state":"active","ping":64},{"user_id":44,"name":"GIGANTIC HOG","steam_id":76561198079923652,"connected_time":450000000000,"state":"active","ping":74},{"user_id":10,"name":"jorjor wells","steam_id":76561199073429082,"connected_time":1547000000000,"state":"active","ping":72},{"user_id":11,"name":"rrrr","steam_id":76561198048882285,"connected_time":1547000000000,"state":"active","ping":60},{"user_id":12,"name":"indi","steam_id":76561198045917538,"connected_time":1543000000000,"state":"active","ping":64},{"user_id":13,"name":"Yakul","steam_id":76561198100040013,"connected_time":1542000000000,"state":"active","ping":77},{"user_id":43,"name":"ATL1 | eish","steam_id":76561198089463603,"connected_time":493000000000,"state":"active","ping":111},{"user_id":15,"name":"Spag Hekki","steam_id":76561198207579353,"connected_time":1540000000000,"state":"active","ping":74},{"user_id":37,"name":"schizo","steam_id":76561198016121536,"connected_time":738000000000,"state":"active","ping":78},{"user_id":39,"name":"Monkey","steam_id":76561198031015186,"connected_time":694000000000,"state":"active","ping":73},{"user_id":18,"name":"James","steam_id":76561198081313916,"connected_time":1539000000000,"state":"active","ping":57},{"user_id":30,"name":"Rockgraham101","steam_id":76561198171740458,"connected_time":1483000000000,"state":"active","ping":69},{"user_id":41,"name":"Inky (Coolest)","steam_id":76561198968337022,"connected_time":587000000000,"state":"active","ping":57},{"user_id":42,"name":"ATL1 | to4st","steam_id":76561198981009008,"connected_time":565000000000,"state":"active","ping":66},{"user_id":23,"name":"ApertureCity","steam_id":76561198004153607,"connected_time":1529000000000,"state":"active","ping":79},{"user_id":31,"name":"little hog","steam_id":76561199230929836,"connected_time":1248000000000,"state":"active","ping":80},{"user_id":36,"name":"Stealtheh‚ò™","steam_id":76561198004840957,"connected_time":766000000000,"state":"active","ping":42},{"user_id":26,"name":"Boter","steam_id":76561198066994093,"connected_time":1529000000000,"state":"active","ping":77},{"user_id":29,"name":"ATL6 Le4n!!!","steam_id":76561198045522596,"connected_time":1520000000000,"state":"active","ping":74}]},{"server_id":400,"name":"Uncletopia | Atlanta | 3 | Stopwatch Beta","name_short":"atl-3","host":"atl-1.us.uncletopia.com","port":27035,"enabled":true,"region":"us-east","cc":"us","latitude":33.753746,"longitude":-84.38633,"reserved":0,"last_update":"0001-01-01T00:00:00Z","name_a2s":"Uncletopia | Atlanta | 3 | Stopwatch Beta","protocol":17,"map":"pl_pier","folder":"tf","game":"Team Fortress","app_id":440,"player_count":0,"max_players":24,"Bots":0,"server_type":"Dedicated","server_os":"Linux","password":true,"vac":true,"version":"7742253","steam_id":85568392924515187,"keywords":["nocrits","nodmgspread","payload","uncletopia"],"game_id":440,"stv_port":27036,"stv_name":"Uncletopia | Atlanta | 3 | Stopwatch Beta | STV","players":null},{"server_id":401,"name":"Uncletopia | Atlanta | 4 | No Payload","name_short":"atl-4","host":"atl-1.us.uncletopia.com","port":27045,"enabled":true,"region":"us-east","cc":"us","latitude":33.753746,"longitude":-84.38633,"reserved":0,"last_update":"0001-01-01T00:00:00Z","name_a2s":"Uncletopia | Atlanta | 4 | No Payload","protocol":17,"map":"pl_pier","folder":"tf","game":"Team Fortress","app_id":440,"player_count":0,"max_players":24,"Bots":0,"server_type":"Dedicated","server_os":"Linux","password":true,"vac":true,"version":"7723704","steam_id":85568392924515188,"keywords":["nocrits","nodmgspread","payload","uncletopia"],"game_id":440,"stv_port":27046,"stv_name":"Uncletopia | Atlanta | 4 | No Payload | STV","players":null},{"server_id":2,"name":"Uncletopia | Chicago | 1 | All Maps","name_short":"chi-1","host":"chi-1.us.uncletopia.com","port":27015,"enabled":true,"region":"us-central","cc":"us","latitude":41.881832,"longitude":-87.62318,"reserved":0,"last_update":"0001-01-01T00:00:00Z","name_a2s":"Uncletopia | Chicago | 1 | All Maps","protocol":17,"map":"pl_barnblitz","folder":"tf","game":"Team Fortress","app_id":440,"player_count":24,"max_players":24,"Bots":0,"server_type":"Dedicated","server_os":"Linux","password":true,"vac":true,"version":"7742253","steam_id":85568392924469984,"keywords":["nocrits","nodmgspread","payload","uncletopia"],"game_id":440,"stv_port":27016,"stv_name":"Uncletopia | Chicago | 1 | All Maps | STV","players":[{"user_id":3,"name":"spinglebarp","steam_id":76561198091472345,"connected_time":1557000000000,"state":"active","ping":65},{"user_id":4,"name":"Jumbo \u003c3","steam_id":76561199075777687,"connected_time":1554000000000,"state":"active","ping":91},{"user_id":5,"name":"Alt","steam_id":76561197992591984,"connected_time":1552000000000,"state":"active","ping":59},{"user_id":6,"name":"The Doc K","steam_id":76561198035695029,"connected_time":1545000000000,"state":"active","ping":81},{"user_id":7,"name":"AJSM","steam_id":76561198036852424,"connected_time":1544000000000,"state":"active","ping":50},{"user_id":37,"name":"Ye ( I Love Caulk ) West","steam_id":76561198068830312,"connected_time":148000000000,"state":"active","ping":46},{"user_id":32,"name":"Risil Idarin","steam_id":76561198061325263,"connected_time":214000000000,"state":"active","ping":69},{"user_id":10,"name":"hej","steam_id":76561197996366940,"connected_time":1531000000000,"state":"active","ping":76},{"user_id":33,"name":"-flagellum","steam_id":76561198006297974,"connected_time":201000000000,"state":"active","ping":52},{"user_id":38,"name":"SwingDickerson","steam_id":76561198045542926,"connected_time":106000000000,"state":"active","ping":76},{"user_id":13,"name":"Pikapillar","steam_id":76561198343321881,"connected_time":1526000000000,"state":"active","ping":105},{"user_id":14,"name":"MedRed‚Ñ¢ #IATAH","steam_id":76561198002962970,"connected_time":1526000000000,"state":"active","ping":103},{"user_id":15,"name":"sonnovasmurf","steam_id":76561199092251434,"connected_time":1525000000000,"state":"active","ping":48},{"user_id":16,"name":"Demon Jake","steam_id":76561199060466592,"connected_time":1525000000000,"state":"active","ping":50},{"user_id":35,"name":"adankmix","steam_id":76561198106945614,"connected_time":159000000000,"state":"active","ping":71},{"user_id":18,"name":"Salixiola","steam_id":76561198042177809,"connected_time":1521000000000,"state":"active","ping":74},{"user_id":19,"name":"Jambi","steam_id":76561198846091685,"connected_time":1521000000000,"state":"active","ping":61},{"user_id":36,"name":"plutonium isotope","steam_id":76561198319442494,"connected_time":159000000000,"state":"active","ping":106},{"user_id":21,"name":"CAdaverOusPRophet","steam_id":76561198045304110,"connected_time":1520000000000,"state":"active","ping":45},{"user_id":27,"name":"icarly.com","steam_id":76561198157774267,"connected_time":1493000000000,"state":"active","ping":105},{"user_id":28,"name":"Thog","steam_id":76561198093699060,"connected_time":1480000000000,"state":"active","ping":74},{"user_id":31,"name":"Muffin","steam_id":76561199064341106,"connected_time":722000000000,"state":"active","ping":78},{"user_id":25,"name":"Jolly Old Asshat","steam_id":76561198004584315,"connected_time":1516000000000,"state":"active","ping":71},{"user_id":26,"name":"lamadre07","steam_id":76561198067337453,"connected_time":1516000000000,"state":"active","ping":93}]},{"server_id":106,"name":"Uncletopia | Chicago | 2 | All Maps","name_short":"chi-2","host":"chi-1.us.uncletopia.com","port":27025,"enabled":true,"region":"us-central","cc":"us","latitude":41.881832,"longitude":-87.62318,"reserved":0,"last_update":"0001-01-01T00:00:00Z","name_a2s":"Uncletopia | Chicago | 2 | All Maps","protocol":17,"map":"pl_snowycoast","folder":"tf","game":"Team Fortress","app_id":440,"player_count":24,"max_players":24,"Bots":0,"server_type":"Dedicated","server_os":"Linux","password":true,"vac":true,"version":"7742253","steam_id":85568392924469985,"keywords":["nocrits","nodmgspread","payload","uncletopia"],"game_id":440,"stv_port":27026,"stv_name":"Uncletopia | Chicago | 2 | All Maps | STV","players":[{"user_id":38,"name":"Mr. Goat","steam_id":76561198801616417,"connected_time":107000000000,"state":"active","ping":71},{"user_id":12,"name":"Ze_√úber_Nerd","steam_id":76561198091148675,"connected_time":1510000000000,"state":"active","ping":85},{"user_id":5,"name":"Rizz","steam_id":76561198255401336,"connected_time":1542000000000,"state":"active","ping":69},{"user_id":6,"name":"SHARK0!","steam_id":76561199391489466,"connected_time":1541000000000,"state":"active","ping":64},{"user_id":36,"name":"Strawberry's Jam","steam_id":76561198072705242,"connected_time":391000000000,"state":"active","ping":97},{"user_id":8,"name":"TheFlyingTortis","steam_id":76561198071576016,"connected_time":1537000000000,"state":"active","ping":56},{"user_id":9,"name":"Thundermonkey (SMOKE)","steam_id":76561198017631728,"connected_time":1535000000000,"state":"active","ping":65},{"user_id":37,"name":"EmeraldCola","steam_id":76561198066663687,"connected_time":387000000000,"state":"active","ping":71},{"user_id":13,"name":"ooBah!","steam_id":76561198133684216,"connected_time":1496000000000,"state":"active","ping":56},{"user_id":39,"name":"DJ Absolute Garbage","steam_id":76561198068000747,"connected_time":48000000000,"state":"active","ping":62},{"user_id":15,"name":"Big Tiddy Serperior","steam_id":76561198114808144,"connected_time":1483000000000,"state":"active","ping":121},{"user_id":16,"name":"St4pps","steam_id":76561198449842958,"connected_time":1482000000000,"state":"active","ping":55},{"user_id":17,"name":"christmas larguu","steam_id":76561197994336210,"connected_time":1478000000000,"state":"active","ping":59},{"user_id":18,"name":"scarybroccoli","steam_id":76561198296440084,"connected_time":1475000000000,"state":"active","ping":75},{"user_id":19,"name":"JesterJasper","steam_id":76561198025338925,"connected_time":1473000000000,"state":"active","ping":92},{"user_id":20,"name":"strawberry","steam_id":76561198101926397,"connected_time":1472000000000,"state":"active","ping":55},{"user_id":33,"name":"Nobody","steam_id":76561198160544586,"connected_time":861000000000,"state":"active","ping":67},{"user_id":22,"name":"Bas the Fox Commando","steam_id":76561198019488252,"connected_time":1471000000000,"state":"active","ping":74},{"user_id":23,"name":"haxxorman","steam_id":76561199155156400,"connected_time":1470000000000,"state":"active","ping":55},{"user_id":24,"name":"POWER IN MISERY","steam_id":76561198032008701,"connected_time":1469000000000,"state":"active","ping":59},{"user_id":25,"name":"ZeritoPower","steam_id":76561198215274576,"connected_time":1467000000000,"state":"active","ping":60},{"user_id":26,"name":"Planetary","steam_id":76561197989686934,"connected_time":1465000000000,"state":"active","ping":67},{"user_id":27,"name":"CreeperCatBengal","steam_id":76561198213193221,"connected_time":1464000000000,"state":"active","ping":68},{"user_id":32,"name":"Chrysalis","steam_id":76561198028576126,"connected_time":1398000000000,"state":"active","ping":62}]},{"server_id":402,"name":"Uncletopia | Chicago | 3 | All Maps","name_short":"chi-3","host":"chi-1.us.uncletopia.com","port":27035,"enabled":true,"region":"us-central","cc":"us","latitude":41.881832,"longitude":-87.62318,"reserved":0,"last_update":"0001-01-01T00:00:00Z","name_a2s":"Uncletopia | Chicago | 3 | All Maps","protocol":17,"map":"koth_viaduct","folder":"tf","game":"Team Fortress","app_id":440,"player_count":24,"max_players":24,"Bots":0,"server_type":"Dedicated","server_os":"Linux","password":true,"vac":true,"version":"7742253","steam_id":85568392924515191,"keywords":["cp","nocrits","nodmgspread","uncletopia"],"game_id":440,"stv_port":27036,"stv_name":"Uncletopia | Chicago | 3 | All Maps | STV","players":[{"user_id":12,"name":"comet sooicidy","steam_id":76561198025173479,"connected_time":1503000000000,"state":"active","ping":79},{"user_id":47,"name":"grape juice -rng","steam_id":76561198093829623,"connected_time":285000000000,"state":"active","ping":82},{"user_id":37,"name":"J3SUS","steam_id":76561198368965383,"connected_time":1253000000000,"state":"active","ping":65},{"user_id":6,"name":"Calypso","steam_id":76561198082939544,"connected_time":1530000000000,"state":"active","ping":86},{"user_id":7,"name":"Tusked","steam_id":76561198078473398,"connected_time":1526000000000,"state":"active","ping":139},{"user_id":8,"name":"MemeyBoi3rd","steam_id":76561199443570634,"connected_time":1524000000000,"state":"active","ping":137},{"user_id":45,"name":"Kelpy G","steam_id":76561198105330587,"connected_time":450000000000,"state":"active","ping":63},{"user_id":38,"name":"NataKilar","steam_id":76561198041274441,"connected_time":1242000000000,"state":"active","ping":46},{"user_id":49,"name":"stungoperation","steam_id":76561199162409918,"connected_time":140000000000,"state":"active","ping":63},{"user_id":41,"name":"footoftheday","steam_id":76561198052712449,"connected_time":792000000000,"state":"active","ping":67},{"user_id":18,"name":"MiG-21bis","steam_id":76561198236109724,"connected_time":1431000000000,"state":"active","ping":59},{"user_id":19,"name":"Rawr","steam_id":76561198199946973,"connected_time":1410000000000,"state":"active","ping":72},{"user_id":39,"name":"PeopleOrderOurPatties","steam_id":76561198323144922,"connected_time":981000000000,"state":"active","ping":73},{"user_id":40,"name":"eryn üó∫","steam_id":76561198004433070,"connected_time":967000000000,"state":"active","ping":94},{"user_id":33,"name":"Goofball","steam_id":76561198061211537,"connected_time":1289000000000,"state":"active","ping":60},{"user_id":48,"name":"_DrunkenGibberish_","steam_id":76561199123070071,"connected_time":169000000000,"state":"active","ping":101},{"user_id":24,"name":"Stihl","steam_id":76561198025152405,"connected_time":1366000000000,"state":"active","ping":57},{"user_id":26,"name":"Carsen","steam_id":76561198225481404,"connected_time":1351000000000,"state":"active","ping":75},{"user_id":46,"name":"howtobepker","steam_id":76561198115053865,"connected_time":309000000000,"state":"active","ping":84},{"user_id":43,"name":"Kilbert","steam_id":76561198254454239,"connected_time":552000000000,"state":"active","ping":84},{"user_id":29,"name":"Carbon8ed","steam_id":76561198188488341,"connected_time":1340000000000,"state":"active","ping":61},{"user_id":35,"name":"Possum Witch","steam_id":76561199119125112,"connected_time":1279000000000,"state":"active","ping":61},{"user_id":31,"name":"Prof. Abedul","steam_id":76561198146171581,"connected_time":1319000000000,"state":"active","ping":102},{"user_id":34,"name":"Gita","steam_id":76561198044560747,"connected_time":1284000000000,"state":"active","ping":56}]},{"server_id":403,"name":"Uncletopia | Chicago | 4 | All Maps","name_short":"chi-4","host":"chi-1.us.uncletopia.com","port":27045,"enabled":true,"region":"us-central","cc":"us","latitude":41.881832,"longitude":-87.62318,"reserved":0,"last_update":"0001-01-01T00:00:00Z","name_a2s":"Uncletopia | Chicago | 4 | All Maps","protocol":17,"map":"koth_lakeside_final","folder":"tf","game":"Team Fortress","app_id":440,"player_count":0,"max_players":24,"Bots":0,"server_type":"Dedicated","server_os":"Linux","password":true,"vac":true,"version":"7742253","steam_id":85568392924515193,"keywords":["cp","nocrits","nodmgspread","uncletopia"],"game_id":440,"stv_port":27046,"stv_name":"Uncletopia | Chicago | 4 | All Maps | STV","players":null},{"server_id":36,"name":"Uncletopia | Chicago | 5 | All Maps","name_short":"chi-5","host":"chi-2.us.uncletopia.com","port":27015,"enabled":true,"region":"us-central","cc":"us","latitude":41.881832,"longitude":-87.62318,"reserved":0,"last_update":"0001-01-01T00:00:00Z","name_a2s":"Uncletopia | Chicago | 5 | All Maps","protocol":17,"map":"koth_lakeside_final","folder":"tf","game":"Team Fortress","app_id":440,"player_count":18,"max_players":24,"Bots":0,"server_type":"Dedicated","server_os":"Linux","password":true,"vac":true,"version":"7742253","steam_id":85568392924866362,"keywords":["cp","nocrits","nodmgspread","uncletopia"],"game_id":440,"stv_port":27016,"stv_name":"Uncletopia | Chicago | 5 | All Maps | STV","players":[{"user_id":10,"name":"supermilk","steam_id":76561197978282744,"connected_time":955000000000,"state":"active","ping":55},{"user_id":4,"name":"Fumohuxi Viriphyto","steam_id":76561198369395636,"connected_time":1519000000000,"state":"active","ping":82},{"user_id":11,"name":"80 proof Bleach","steam_id":76561198090216348,"connected_time":766000000000,"state":"active","ping":102},{"user_id":12,"name":"theholylightone","steam_id":76561198423539449,"connected_time":738000000000,"state":"active","ping":85},{"user_id":7,"name":"Cleric","steam_id":76561198045887994,"connected_time":1484000000000,"state":"active","ping":43},{"user_id":13,"name":"The_Pacific_gamer","steam_id":76561198089491446,"connected_time":732000000000,"state":"active","ping":92},{"user_id":17,"name":"Engineer tf2","steam_id":76561198186115035,"connected_time":323000000000,"state":"active","ping":50},{"user_id":15,"name":"Krow Lincoln (she/her)","steam_id":76561198085410622,"connected_time":375000000000,"state":"active","ping":93},{"user_id":18,"name":"epic.science.kid.2019","steam_id":76561198075510786,"connected_time":314000000000,"state":"active","ping":73},{"user_id":27,"name":"E-G-Z","steam_id":76561199445749245,"connected_time":155000000000,"state":"active","ping":124},{"user_id":20,"name":"Red_Hatkins","steam_id":76561198214004105,"connected_time":292000000000,"state":"active","ping":77},{"user_id":32,"name":"Michaelpc1","steam_id":76561198088365519,"connected_time":0,"state":"spawning","ping":28},{"user_id":28,"name":"zoiboi","steam_id":76561198069598590,"connected_time":120000000000,"state":"active","ping":105},{"user_id":23,"name":"Huff Dog","steam_id":76561198113397623,"connected_time":228000000000,"state":"active","ping":69},{"user_id":24,"name":"Room","steam_id":76561199174579733,"connected_time":227000000000,"state":"active","ping":83},{"user_id":29,"name":"Exotic","steam_id":76561198094518524,"connected_time":118000000000,"state":"active","ping":44},{"user_id":30,"name":"FrenchVanilla","steam_id":76561198904686537,"connected_time":103000000000,"state":"active","ping":94},{"user_id":31,"name":"cj895223","steam_id":76561199465966306,"connected_time":53000000000,"state":"connecting","ping":0}]},{"server_id":37,"name":"Uncletopia | Chicago | 6 | All Maps","name_short":"chi-6","host":"chi-2.us.uncletopia.com","port":27025,"enabled":true,"region":"us-central","cc":"us","latitude":41.881832,"longitude":-87.62318,"reserved":0,"last_update":"0001-01-01T00:00:00Z","name_a2s":"Uncletopia | Chicago | 6 | All Maps","protocol":17,"map":"cp_sunshine","folder":"tf","game":"Team Fortress","app_id":440,"player_count":13,"max_players":24,"Bots":0,"server_type":"Dedicated","server_os":"Linux","password":true,"vac":true,"version":"7742253","steam_id":85568392924866363,"keywords":["cp","nocrits","nodmgspread","uncletopia"],"game_id":440,"stv_port":27026,"stv_name":"Uncletopia | Chicago | 6 | All Maps | STV","players":[{"user_id":13,"name":"Jubb","steam_id":76561198138212832,"connected_time":985000000000,"state":"active","ping":54},{"user_id":17,"name":"Phat_nibba29","steam_id":76561198165661855,"connected_time":534000000000,"state":"active","ping":82},{"user_id":28,"name":"cold spaghetti","steam_id":76561198983037944,"connected_time":11000000000,"state":"spawning","ping":61},{"user_id":16,"name":"Popeyes Employee","steam_id":76561198157341489,"connected_time":863000000000,"state":"active","ping":117},{"user_id":18,"name":"FireQuiz","steam_id":76561198107357249,"connected_time":525000000000,"state":"active","ping":100},{"user_id":19,"name":"Bald Brinda","steam_id":76561199023661627,"connected_time":382000000000,"state":"active","ping":282},{"user_id":14,"name":"PwePwe","steam_id":76561198159375282,"connected_time":971000000000,"state":"active","ping":66},{"user_id":20,"name":"aimee","steam_id":76561198834309212,"connected_time":350000000000,"state":"active","ping":98},{"user_id":22,"name":"DragoDuck","steam_id":76561198385685683,"connected_time":221000000000,"state":"active","ping":89},{"user_id":23,"name":"American_biscuit","steam_id":76561198392173427,"connected_time":221000000000,"state":"active","ping":49},{"user_id":24,"name":"cheese (?)","steam_id":76561198232500756,"connected_time":215000000000,"state":"active","ping":77},{"user_id":25,"name":"roylando","steam_id":76561198853215040,"connected_time":200000000000,"state":"active","ping":71},{"user_id":26,"name":"foil eater","steam_id":76561198827648455,"connected_time":140000000000,"state":"active","ping":57}]},{"server_id":38,"name":"Uncletopia | Chicago | 7 | Stopwatch Beta","name_short":"chi-7","host":"chi-2.us.uncletopia.com","port":27035,"enabled":true,"region":"us-central","cc":"us","latitude":41.881832,"longitude":-87.62318,"reserved":0,"last_update":"0001-01-01T00:00:00Z","name_a2s":"Uncletopia | Chicago | 7 | Stopwatch Beta","protocol":17,"map":"koth_lakeside_final","folder":"tf","game":"Team Fortress","app_id":440,"player_count":0,"max_players":24,"Bots":0,"server_type":"Dedicated","server_os":"Linux","password":true,"vac":true,"version":"7742253","steam_id":85568392924866364,"keywords":["cp","nocrits","nodmgspread","uncletopia"],"game_id":440,"stv_port":27036,"stv_name":"Uncletopia | Chicago | 7 | Stopwatch Beta | STV","players":null},{"server_id":39,"name":"Uncletopia | Chicago | 8 | Community","name_short":"chi-8","host":"chi-2.us.uncletopia.com","port":27045,"enabled":true,"region":"us-central","cc":"us","latitude":41.881832,"longitude":-87.62318,"reserved":0,"last_update":"0001-01-01T00:00:00Z","name_a2s":"Uncletopia | Chicago | 8 | Community","protocol":17,"map":"koth_lakeside_final","folder":"tf","game":"Team Fortress","app_id":440,"player_count":0,"max_players":24,"Bots":0,"server_type":"Dedicated","server_os":"Linux","password":true,"vac":true,"version":"7742253","steam_id":85568392924866365,"keywords":["cp","nocrits","nodmgspread","uncletopia"],"game_id":440,"stv_port":27046,"stv_name":"Uncletopia | Chicago | 8 | Community | STV","players":null},{"server_id":8,"name":"Uncletopia | Dallas | 1 | All Maps","name_short":"dal-1","host":"dal-1.us.uncletopia.com","port":27015,"enabled":true,"region":"us-central","cc":"us","latitude":32.779167,"longitude":-96.80889,"reserved":0,"last_update":"0001-01-01T00:00:00Z","name_a2s":"Uncletopia | Dallas | 1 | All Maps","protocol":17,"map":"pl_frontier_final","folder":"tf","game":"Team Fortress","app_id":440,"player_count":24,"max_players":24,"Bots":0,"server_type":"Dedicated","server_os":"Linux","password":true,"vac":true,"version":"7742253","steam_id":85568392924469986,"keywords":["nocrits","nodmgspread","payload","uncletopia"],"game_id":440,"stv_port":27016,"stv_name":"Uncletopia | Dallas | 1 | All Maps | STV","players":[{"user_id":31,"name":"MF JERM","steam_id":76561199082395493,"connected_time":1253000000000,"state":"active","ping":58},{"user_id":4,"name":"Nodspine","steam_id":76561198253579994,"connected_time":1546000000000,"state":"active","ping":132},{"user_id":5,"name":"santas.secret.sauce","steam_id":76561198042464635,"connected_time":1542000000000,"state":"active","ping":57},{"user_id":6,"name":"Rat Smacker","steam_id":76561199090197628,"connected_time":1539000000000,"state":"active","ping":52},{"user_id":37,"name":"Noop","steam_id":76561198973029525,"connected_time":75000000000,"state":"active","ping":49},{"user_id":8,"name":"iluvtoust","steam_id":76561198869269207,"connected_time":1531000000000,"state":"active","ping":48},{"user_id":9,"name":"Reyloko","steam_id":76561198172480913,"connected_time":1527000000000,"state":"active","ping":68},{"user_id":40,"name":"-W3E- grim10465","steam_id":76561198045698581,"connected_time":54000000000,"state":"active","ping":75},{"user_id":32,"name":"PROFILE NAME","steam_id":76561199438851854,"connected_time":1233000000000,"state":"active","ping":111},{"user_id":38,"name":"Ko - „Åì - ÏΩî","steam_id":76561198035726982,"connected_time":70000000000,"state":"active","ping":52},{"user_id":13,"name":"Bergmann MP18","steam_id":76561198218417512,"connected_time":1520000000000,"state":"active","ping":61},{"user_id":39,"name":"KaiaDoggy","steam_id":76561197997096301,"connected_time":66000000000,"state":"active","ping":46},{"user_id":34,"name":"Mario trapped in a piano","steam_id":76561198116765135,"connected_time":565000000000,"state":"active","ping":103},{"user_id":16,"name":"Bongman","steam_id":76561199041948900,"connected_time":1509000000000,"state":"active","ping":75},{"user_id":17,"name":"The Robot Menace","steam_id":76561198043390413,"connected_time":1507000000000,"state":"active","ping":53},{"user_id":18,"name":"Jamendithas","steam_id":76561198119537716,"connected_time":1501000000000,"state":"active","ping":129},{"user_id":41,"name":"Samblueeyes15","steam_id":76561198952464155,"connected_time":23000000000,"state":"spawning","ping":71},{"user_id":20,"name":"Lane","steam_id":76561197965828506,"connected_time":1498000000000,"state":"active","ping":53},{"user_id":21,"name":"Pancreas Enjoyer","steam_id":76561199438598904,"connected_time":1494000000000,"state":"active","ping":108},{"user_id":22,"name":"Presto","steam_id":76561198069293923,"connected_time":1492000000000,"state":"active","ping":84},{"user_id":36,"name":"UncleJunkle","steam_id":76561198289559487,"connected_time":103000000000,"state":"connecting","ping":60},{"user_id":26,"name":"Arcana","steam_id":76561198120924164,"connected_time":1480000000000,"state":"active","ping":51},{"user_id":27,"name":"Cpt. Bearshark00","steam_id":76561198072528090,"connected_time":1479000000000,"state":"active","ping":81},{"user_id":29,"name":"‚í∑‚ì™‚ì™‚ì£‚ì®‚ìí‚ìê‚ìö‚ìî‚ì¢","steam_id":76561198088776421,"connected_time":1464000000000,"state":"active","ping":90}]},{"server_id":108,"name":"Uncletopia | Dallas | 2 | All Maps","name_short":"dal-2","host":"dal-1.us.uncletopia.com","port":27025,"enabled":true,"region":"us-central","cc":"us","latitude":32.779167,"longitude":-96.80889,"reserved":0,"last_update":"0001-01-01T00:00:00Z","name_a2s":"Uncletopia | Dallas | 2 | All Maps","protocol":17,"map":"cp_process_final","folder":"tf","game":"Team Fortress","app_id":440,"player_count":24,"max_players":24,"Bots":0,"server_type":"Dedicated","server_os":"Linux","password":true,"vac":true,"version":"7742253","steam_id":85568392924469988,"keywords":["cp","nocrits","nodmgspread","uncletopia"],"game_id":440,"stv_port":27026,"stv_name":"Uncletopia | Dallas | 2 | All Maps | STV","players":[{"user_id":13,"name":"KoolBucky","steam_id":76561198147927648,"connected_time":759000000000,"state":"active","ping":85},{"user_id":5,"name":"+","steam_id":76561198262422184,"connected_time":1391000000000,"state":"active","ping":45},{"user_id":32,"name":"damn ass rock","steam_id":76561198043289784,"connected_time":481000000000,"state":"active","ping":93},{"user_id":9,"name":"Toucan Stan","steam_id":76561198149967920,"connected_time":1048000000000,"state":"active","ping":115},{"user_id":14,"name":"illious","steam_id":76561198169925494,"connected_time":756000000000,"state":"active","ping":66},{"user_id":15,"name":"LinkFromDaPast","steam_id":76561198211437197,"connected_time":745000000000,"state":"active","ping":88},{"user_id":16,"name":"NoobsWeStand","steam_id":76561198034545096,"connected_time":703000000000,"state":"active","ping":97},{"user_id":17,"name":"TranspoLord","steam_id":76561198214576887,"connected_time":699000000000,"state":"active","ping":91},{"user_id":18,"name":"Phillip Jeffries","steam_id":76561198064052174,"connected_time":663000000000,"state":"active","ping":90},{"user_id":19,"name":"intense radish","steam_id":76561199061038624,"connected_time":645000000000,"state":"active","ping":62},{"user_id":20,"name":"SpiderString","steam_id":76561198092409181,"connected_time":637000000000,"state":"active","ping":98},{"user_id":28,"name":"JayK","steam_id":76561198046277492,"connected_time":528000000000,"state":"active","ping":59},{"user_id":38,"name":"callum","steam_id":76561198070918366,"connected_time":351000000000,"state":"active","ping":91},{"user_id":23,"name":"squid game","steam_id":76561199248960166,"connected_time":576000000000,"state":"active","ping":106},{"user_id":24,"name":"Akrin","steam_id":76561199254804349,"connected_time":576000000000,"state":"active","ping":96},{"user_id":25,"name":"devamar","steam_id":76561198069115467,"connected_time":562000000000,"state":"active","ping":89},{"user_id":26,"name":"jdt631","steam_id":76561198271999934,"connected_time":549000000000,"state":"active","ping":98},{"user_id":27,"name":"Am I Good At The Video Game?","steam_id":76561198046053281,"connected_time":543000000000,"state":"active","ping":91},{"user_id":29,"name":"TheLegend27","steam_id":76561198400247388,"connected_time":522000000000,"state":"active","ping":50},{"user_id":39,"name":"jalapeno handjob","steam_id":76561198123298824,"connected_time":212000000000,"state":"active","ping":81},{"user_id":31,"name":"Nibelsnarf","steam_id":76561198137642054,"connected_time":489000000000,"state":"active","ping":59},{"user_id":33,"name":"Blubman7","steam_id":76561198254718283,"connected_time":455000000000,"state":"active","ping":93},{"user_id":37,"name":"„ÄéHazon„Äè","steam_id":76561198119852107,"connected_time":373000000000,"state":"active","ping":76},{"user_id":36,"name":"River Rat","steam_id":76561198116383976,"connected_time":425000000000,"state":"active","ping":108}]},{"server_id":5,"name":"Uncletopia | Frankfurt | 1 | All Maps","name_short":"frk-1","host":"frk-1.de.uncletopia.com","port":27015,"enabled":true,"region":"eu","cc":"de","latitude":50.110924,"longitude":8.682127,"reserved":0,"last_update":"0001-01-01T00:00:00Z","name_a2s":"Uncletopia | Frankfurt | 1 | All Maps","protocol":17,"map":"pl_borneo","folder":"tf","game":"Team Fortress","app_id":440,"player_count":0,"max_players":24,"Bots":0,"server_type":"Dedicated","server_os":"Linux","password":true,"vac":true,"version":"7742253","steam_id":85568392924469989,"keywords":["nocrits","nodmgspread","payload","uncletopia"],"game_id":440,"stv_port":27016,"stv_name":"Uncletopia | Frankfurt | 1 | All Maps | STV","players":null},{"server_id":110,"name":"Uncletopia | Frankfurt | 2 | All Maps","name_short":"frk-2","host":"frk-1.de.uncletopia.com","port":27025,"enabled":true,"region":"eu","cc":"de","latitude":50.110924,"longitude":8.682127,"reserved":0,"last_update":"0001-01-01T00:00:00Z","name_a2s":"Uncletopia | Frankfurt | 2 | All Maps","protocol":17,"map":"pl_swiftwater_final1","folder":"tf","game":"Team Fortress","app_id":440,"player_count":0,"max_players":24,"Bots":0,"server_type":"Dedicated","server_os":"Linux","password":true,"vac":true,"version":"7742253","steam_id":85568392924469990,"keywords":["nocrits","nodmgspread","payload","uncletopia"],"game_id":440,"stv_port":27026,"stv_name":"Uncletopia | Frankfurt | 2 | All Maps | STV","players":null},{"server_id":308,"name":"Uncletopia | Frankfurt | 3 | All Maps","name_short":"frk-3","host":"frk-1.de.uncletopia.com","port":27035,"enabled":true,"region":"eu","cc":"de","latitude":50.110924,"longitude":8.682127,"reserved":0,"last_update":"0001-01-01T00:00:00Z","name_a2s":"Uncletopia | Frankfurt | 3 | All Maps","protocol":17,"map":"cp_dustbowl","folder":"tf","game":"Team Fortress","app_id":440,"player_count":0,"max_players":24,"Bots":0,"server_type":"Dedicated","server_os":"Linux","password":true,"vac":true,"version":"7742253","steam_id":85568392924504274,"keywords":["cp","nocrits","nodmgspread","uncletopia"],"game_id":440,"stv_port":27036,"stv_name":"Uncletopia | Frankfurt | 3 | All Maps | STV","players":null},{"server_id":309,"name":"Uncletopia | Frankfurt | 4 | All Maps","name_short":"frk-4","host":"frk-1.de.uncletopia.com","port":27045,"enabled":true,"region":"eu","cc":"de","latitude":50.110924,"longitude":8.682127,"reserved":0,"last_update":"0001-01-01T00:00:00Z","name_a2s":"Uncletopia | Frankfurt | 4 | All Maps","protocol":17,"map":"cp_sunshine","folder":"tf","game":"Team Fortress","app_id":440,"player_count":0,"max_players":24,"Bots":0,"server_type":"Dedicated","server_os":"Linux","password":true,"vac":true,"version":"7742253","steam_id":85568392924504275,"keywords":["cp","nocrits","nodmgspread","uncletopia"],"game_id":440,"stv_port":27046,"stv_name":"Uncletopia | Frankfurt | 4 | All Maps | STV","players":null},{"server_id":310,"name":"Uncletopia | Frankfurt | 5 | All Maps","name_short":"frk-5","host":"frk-1.de.uncletopia.com","port":27055,"enabled":true,"region":"eu","cc":"de","latitude":50.110924,"longitude":8.682127,"reserved":0,"last_update":"0001-01-01T00:00:00Z","name_a2s":"Uncletopia | Frankfurt | 5 | All Maps","protocol":17,"map":"cp_snakewater_final1","folder":"tf","game":"Team Fortress","app_id":440,"player_count":0,"max_players":24,"Bots":0,"server_type":"Dedicated","server_os":"Linux","password":true,"vac":true,"version":"7742253","steam_id":85568392924504277,"keywords":["cp","nocrits","nodmgspread","uncletopia"],"game_id":440,"stv_port":27056,"stv_name":"Uncletopia | Frankfurt | 5 | All Maps | STV","players":null},{"server_id":311,"name":"Uncletopia | Frankfurt | 6 | All Maps","name_short":"frk-6","host":"frk-1.de.uncletopia.com","port":27065,"enabled":true,"region":"eu","cc":"de","latitude":50.110924,"longitude":8.682127,"reserved":0,"last_update":"0001-01-01T00:00:00Z","name_a2s":"Uncletopia | Frankfurt | 6 | All Maps","protocol":17,"map":"koth_lakeside_final","folder":"tf","game":"Team Fortress","app_id":440,"player_count":0,"max_players":24,"Bots":0,"server_type":"Dedicated","server_os":"Linux","password":true,"vac":true,"version":"7742253","steam_id":85568392924504278,"keywords":["cp","nocrits","nodmgspread","uncletopia"],"game_id":440,"stv_port":27066,"stv_name":"Uncletopia | Frankfurt | 6 | All Maps | STV","players":null},{"server_id":23,"name":"Uncletopia | Frankfurt | 7 | Stopwatch Beta","name_short":"frk-7","host":"frk-1.de.uncletopia.com","port":27075,"enabled":true,"region":"eu","cc":"de","latitude":50.110924,"longitude":8.682127,"reserved":0,"last_update":"0001-01-01T00:00:00Z","name_a2s":"Uncletopia | Frankfurt | 7 | Stopwatch Beta","protocol":17,"map":"pl_badwater","folder":"tf","game":"Team Fortress","app_id":440,"player_count":0,"max_players":24,"Bots":0,"server_type":"Dedicated","server_os":"Linux","password":true,"vac":true,"version":"7742253","steam_id":85568392924742827,"keywords":["nocrits","nodmgspread","payload","uncletopia"],"game_id":440,"stv_port":27076,"stv_name":"Uncletopia | Frankfurt | 7 | Stopwatch Beta | STV","players":null},{"server_id":24,"name":"Uncletopia | Frankfurt | 8 | Community","name_short":"frk-8","host":"frk-1.de.uncletopia.com","port":27085,"enabled":true,"region":"eu","cc":"de","latitude":50.110924,"longitude":8.682127,"reserved":0,"last_update":"0001-01-01T00:00:00Z","name_a2s":"Uncletopia | Frankfurt | 8 | Community","protocol":17,"map":"koth_cascade","folder":"tf","game":"Team Fortress","app_id":440,"player_count":0,"max_players":24,"Bots":0,"server_type":"Dedicated","server_os":"Linux","password":true,"vac":true,"version":"7742253","steam_id":85568392924742828,"keywords":["cp","nocrits","nodmgspread","uncletopia"],"game_id":440,"stv_port":27086,"stv_name":"Uncletopia | Frankfurt | 8 | Community | STV","players":null},{"server_id":202,"name":"Uncletopia | Hong Kong | 1 | All Maps","name_short":"hgk-1","host":"hgk-1.hk.uncletopia.com","port":27015,"enabled":true,"region":"asia","cc":"hk","latitude":22.302711,"longitude":114.177216,"reserved":0,"last_update":"0001-01-01T00:00:00Z","name_a2s":"Uncletopia | Hong Kong | 1 | All Maps","protocol":17,"map":"pl_badwater","folder":"tf","game":"Team Fortress","app_id":440,"player_count":23,"max_players":24,"Bots":0,"server_type":"Dedicated","server_os":"Linux","password":true,"vac":true,"version":"7742253","steam_id":85568392924494504,"keywords":["nocrits","nodmgspread","payload","uncletopia"],"game_id":440,"stv_port":27016,"stv_name":"Uncletopia | Hong Kong | 1 | All Maps | STV","players":[{"user_id":15,"name":"AMBATUKAM AAAHHh","steam_id":76561198320532821,"connected_time":802000000000,"state":"active","ping":75},{"user_id":4,"name":"Nephew Nate","steam_id":76561199137872034,"connected_time":832000000000,"state":"active","ping":95},{"user_id":39,"name":"cjjakeypaul","steam_id":76561199126245431,"connected_time":155000000000,"state":"active","ping":70},{"user_id":6,"name":"Prod.NXSTVL","steam_id":76561198964234253,"connected_time":830000000000,"state":"active","ping":70},{"user_id":7,"name":"Windmill","steam_id":76561199230997986,"connected_time":829000000000,"state":"active","ping":74},{"user_id":8,"name":"lillalune","steam_id":76561198230213828,"connected_time":825000000000,"state":"active","ping":60},{"user_id":9,"name":"—ïŒ∑œÉœâ—É-—îŒΩ—îŒπ—î","steam_id":76561198334099003,"connected_time":824000000000,"state":"active","ping":135},{"user_id":17,"name":"sinyeon","steam_id":76561198125363469,"connected_time":798000000000,"state":"active","ping":80},{"user_id":11,"name":"heronthebird","steam_id":76561198964411581,"connected_time":824000000000,"state":"active","ping":73},{"user_id":12,"name":"Steve","steam_id":76561198429235506,"connected_time":823000000000,"state":"active","ping":76},{"user_id":13,"name":"old chunk of coal","steam_id":76561197990537324,"connected_time":820000000000,"state":"active","ping":152},{"user_id":14,"name":"JayJ","steam_id":76561198324008555,"connected_time":815000000000,"state":"active","ping":72},{"user_id":20,"name":"That Finger","steam_id":76561199062866529,"connected_time":786000000000,"state":"active","ping":70},{"user_id":19,"name":"Telekhine","steam_id":76561198387120618,"connected_time":797000000000,"state":"active","ping":113},{"user_id":21,"name":"Cone","steam_id":76561199193144958,"connected_time":781000000000,"state":"active","ping":69},{"user_id":26,"name":"Ezylynn","steam_id":76561198388935921,"connected_time":729000000000,"state":"active","ping":63},{"user_id":27,"name":"raguspchennai","steam_id":76561199153121364,"connected_time":698000000000,"state":"active","ping":109},{"user_id":31,"name":"Mr. Beast","steam_id":76561198447470800,"connected_time":436000000000,"state":"active","ping":69},{"user_id":29,"name":"Degenerate With Standards","steam_id":76561199174449723,"connected_time":597000000000,"state":"active","ping":76},{"user_id":32,"name":"weerez","steam_id":76561198405393811,"connected_time":426000000000,"state":"active","ping":122},{"user_id":37,"name":"Urotsuki","steam_id":76561198074339034,"connected_time":278000000000,"state":"active","ping":72},{"user_id":34,"name":"Mimosa Samosa","steam_id":76561198435782222,"connected_time":373000000000,"state":"active","ping":58},{"user_id":40,"name":"\"SKS\"","steam_id":76561198187995386,"connected_time":8000000000,"state":"spawning","ping":79}]},{"server_id":1,"name":"Uncletopia | Los Angeles | 1 | All Maps","name_short":"lax-1","host":"lax-1.us.uncletopia.com","port":27015,"enabled":true,"region":"us-west","cc":"us","latitude":33.94279,"longitude":-118.41004,"reserved":0,"last_update":"0001-01-01T00:00:00Z","name_a2s":"Uncletopia | Los Angeles | 1 | All Maps","protocol":17,"map":"cp_dustbowl","folder":"tf","game":"Team Fortress","app_id":440,"player_count":24,"max_players":24,"Bots":0,"server_type":"Dedicated","server_os":"Linux","password":true,"vac":true,"version":"7742253","steam_id":85568392924469991,"keywords":["cp","nocrits","nodmgspread","uncletopia"],"game_id":440,"stv_port":27016,"stv_name":"Uncletopia | Los Angeles | 1 | All Maps | STV","players":[{"user_id":3,"name":"kbgolden","steam_id":76561198153190510,"connected_time":1533000000000,"state":"active","ping":55},{"user_id":4,"name":"Muad'dibMcFly (Lon)","steam_id":76561197990183357,"connected_time":1532000000000,"state":"active","ping":68},{"user_id":5,"name":"TheBrocklobster","steam_id":76561198039682984,"connected_time":1531000000000,"state":"active","ping":60},{"user_id":13,"name":"Lots0","steam_id":76561198043143145,"connected_time":1507000000000,"state":"active","ping":90},{"user_id":7,"name":"perc 10","steam_id":76561198116471653,"connected_time":1522000000000,"state":"active","ping":164},{"user_id":8,"name":"Seriously Bruh","steam_id":76561198070408485,"connected_time":1521000000000,"state":"active","ping":94},{"user_id":19,"name":"Genius Meme","steam_id":76561198162911254,"connected_time":1477000000000,"state":"active","ping":80},{"user_id":10,"name":"pencil champion","steam_id":76561198871758639,"connected_time":1516000000000,"state":"active","ping":124},{"user_id":11,"name":"coffee enjoyer","steam_id":76561198059900288,"connected_time":1513000000000,"state":"active","ping":93},{"user_id":41,"name":"existential dread","steam_id":76561198041907345,"connected_time":1164000000000,"state":"active","ping":59},{"user_id":51,"name":"Noxus","steam_id":76561199009820852,"connected_time":196000000000,"state":"active","ping":92},{"user_id":15,"name":"Logan601 #savetf2","steam_id":76561198263116731,"connected_time":1505000000000,"state":"active","ping":48},{"user_id":46,"name":"ketsu","steam_id":76561197966171554,"connected_time":1093000000000,"state":"active","ping":156},{"user_id":17,"name":"DeckofDragons","steam_id":76561198057398213,"connected_time":1499000000000,"state":"active","ping":78},{"user_id":50,"name":":3 | ph0va_ \u003c3 sab","steam_id":76561198309010627,"connected_time":649000000000,"state":"active","ping":73},{"user_id":44,"name":"Shineyhiney","steam_id":76561198065777695,"connected_time":1130000000000,"state":"active","ping":129},{"user_id":49,"name":"EightySix","steam_id":76561198186678831,"connected_time":892000000000,"state":"active","ping":58},{"user_id":22,"name":"New Gaming Chair","steam_id":76561198418288939,"connected_time":1465000000000,"state":"active","ping":64},{"user_id":24,"name":"Jimbobumbag","steam_id":76561198037179391,"connected_time":1458000000000,"state":"active","ping":64},{"user_id":25,"name":"Tohru Adachi","steam_id":76561198302118756,"connected_time":1456000000000,"state":"active","ping":52},{"user_id":33,"name":"IDrinkCoffee","steam_id":76561198196987279,"connected_time":1418000000000,"state":"active","ping":75},{"user_id":27,"name":"NGsterson","steam_id":76561198162108154,"connected_time":1452000000000,"state":"active","ping":73},{"user_id":37,"name":"ElShaggy","steam_id":76561198148870214,"connected_time":1339000000000,"state":"active","ping":52},{"user_id":29,"name":"am","steam_id":76561198345528370,"connected_time":1443000000000,"state":"active","ping":45}]},{"server_id":112,"name":"Uncletopia | Los Angeles | 2 | All Maps","name_short":"lax-2","host":"lax-1.us.uncletopia.com","port":27025,"enabled":true,"region":"us-west","cc":"us","latitude":33.94279,"longitude":-118.41004,"reserved":0,"last_update":"0001-01-01T00:00:00Z","name_a2s":"Uncletopia | Los Angeles | 2 | All Maps","protocol":17,"map":"pl_frontier_final","folder":"tf","game":"Team Fortress","app_id":440,"player_count":24,"max_players":24,"Bots":0,"server_type":"Dedicated","server_os":"Linux","password":true,"vac":true,"version":"7742253","steam_id":85568392924469992,"keywords":["nocrits","nodmgspread","payload","uncletopia"],"game_id":440,"stv_port":27026,"stv_name":"Uncletopia | Los Angeles | 2 | All Maps | STV","players":[{"user_id":9,"name":"nick jr.","steam_id":76561198888992952,"connected_time":1485000000000,"state":"active","ping":110},{"user_id":4,"name":"Cute Gatito","steam_id":76561198351147780,"connected_time":1505000000000,"state":"active","ping":56},{"user_id":5,"name":"Shark Merchant","steam_id":76561198065037140,"connected_time":1504000000000,"state":"active","ping":90},{"user_id":8,"name":"c49aa4","steam_id":76561199099537250,"connected_time":1486000000000,"state":"active","ping":49},{"user_id":12,"name":"member","steam_id":76561198049238840,"connected_time":1386000000000,"state":"active","ping":75},{"user_id":11,"name":"MarshallMellows","steam_id":76561198231561020,"connected_time":1459000000000,"state":"active","ping":60},{"user_id":36,"name":"Wormy Getting Coal","steam_id":76561198054539200,"connected_time":861000000000,"state":"active","ping":78},{"user_id":14,"name":"Silverkeys","steam_id":76561197986012496,"connected_time":1186000000000,"state":"active","ping":113},{"user_id":15,"name":"Vaude","steam_id":76561198369187511,"connected_time":1133000000000,"state":"active","ping":109},{"user_id":16,"name":"B0b-1","steam_id":76561198093902432,"connected_time":1101000000000,"state":"active","ping":79},{"user_id":17,"name":"1000 Ping","steam_id":76561198098330939,"connected_time":1056000000000,"state":"active","ping":66},{"user_id":40,"name":"casual bongos","steam_id":76561199138160246,"connected_time":601000000000,"state":"active","ping":88},{"user_id":39,"name":"‚ù§ Ashley ‚ù§","steam_id":76561198056428303,"connected_time":730000000000,"state":"active","ping":47},{"user_id":20,"name":"dan","steam_id":76561198061589465,"connected_time":1024000000000,"state":"active","ping":106},{"user_id":41,"name":"Jooosh","steam_id":76561198301543903,"connected_time":196000000000,"state":"active","ping":93},{"user_id":31,"name":"hamdrinker985","steam_id":76561199241807676,"connected_time":924000000000,"state":"active","ping":87},{"user_id":32,"name":"erik","steam_id":76561198080486123,"connected_time":895000000000,"state":"active","ping":66},{"user_id":24,"name":"BowlOfRice","steam_id":76561199239165015,"connected_time":955000000000,"state":"active","ping":121},{"user_id":25,"name":"Spider","steam_id":76561198051430727,"connected_time":952000000000,"state":"active","ping":125},{"user_id":29,"name":"ChebJeb","steam_id":76561198981377081,"connected_time":947000000000,"state":"active","ping":125},{"user_id":33,"name":"Dick Fisthammer","steam_id":76561198110586348,"connected_time":883000000000,"state":"active","ping":176},{"user_id":42,"name":"Livin' Like Larry","steam_id":76561198313360974,"connected_time":74000000000,"state":"active","ping":48},{"user_id":37,"name":"Gerald of Rivia","steam_id":76561197972682355,"connected_time":852000000000,"state":"active","ping":135},{"user_id":38,"name":"LennyClan","steam_id":76561198182959074,"connected_time":794000000000,"state":"active","ping":61}]},{"server_id":324,"name":"Uncletopia | Los Angeles | 3 | All Maps","name_short":"lax-3","host":"lax-1.us.uncletopia.com","port":27035,"enabled":true,"region":"us-west","cc":"us","latitude":33.94279,"longitude":-118.41004,"reserved":0,"last_update":"0001-01-01T00:00:00Z","name_a2s":"Uncletopia | Los Angeles | 3 | All Maps","protocol":17,"map":"cp_snakewater_final1","folder":"tf","game":"Team Fortress","app_id":440,"player_count":0,"max_players":24,"Bots":0,"server_type":"Dedicated","server_os":"Linux","password":true,"vac":true,"version":"7742253","steam_id":85568392924510198,"keywords":["cp","nocrits","nodmgspread","uncletopia"],"game_id":440,"stv_port":27036,"stv_name":"Uncletopia | Los Angeles | 3 | All Maps | STV","players":null},{"server_id":25,"name":"Uncletopia | Los Angeles | 4 | Stopwatch Beta","name_short":"lax-4","host":"lax-1.us.uncletopia.com","port":27045,"enabled":true,"region":"us-west","cc":"us","latitude":33.94279,"longitude":-118.41004,"reserved":0,"last_update":"0001-01-01T00:00:00Z","name_a2s":"Uncletopia | Los Angeles | 4 | Stopwatch Beta","protocol":17,"map":"cp_snakewater_final1","folder":"tf","game":"Team Fortress","app_id":440,"player_count":0,"max_players":24,"Bots":0,"server_type":"Dedicated","server_os":"Linux","password":true,"vac":true,"version":"7742253","steam_id":85568392924510199,"keywords":["cp","nocrits","nodmgspread","uncletopia"],"game_id":440,"stv_port":27046,"stv_name":"Uncletopia | Los Angeles | 4 | Stopwatch Beta | STV","players":null},{"server_id":11,"name":"Uncletopia | London | 1 | All Maps","name_short":"lon-1","host":"lon-1.uk.uncletopia.com","port":27015,"enabled":true,"region":"eu","cc":"gb","latitude":51.509865,"longitude":-0.118092,"reserved":0,"last_update":"0001-01-01T00:00:00Z","name_a2s":"Uncletopia | London | 1 | All Maps","protocol":17,"map":"cp_altitude","folder":"tf","game":"Team Fortress","app_id":440,"player_count":0,"max_players":24,"Bots":0,"server_type":"Dedicated","server_os":"Linux","password":true,"vac":true,"version":"7742253","steam_id":85568392924367362,"keywords":["cp","nocrits","nodmgspread","uncletopia"],"game_id":440,"stv_port":27016,"stv_name":"Uncletopia | London | 1 | All Maps | STV","players":null},{"server_id":114,"name":"Uncletopia | London | 2 | All Maps","name_short":"lon-2","host":"lon-1.uk.uncletopia.com","port":27025,"enabled":true,"region":"eu","cc":"gb","latitude":51.509865,"longitude":-0.118092,"reserved":0,"last_update":"0001-01-01T00:00:00Z","name_a2s":"Uncletopia | London | 2 | All Maps","protocol":17,"map":"pl_swiftwater_final1","folder":"tf","game":"Team Fortress","app_id":440,"player_count":0,"max_players":24,"Bots":0,"server_type":"Dedicated","server_os":"Linux","password":true,"vac":true,"version":"7742253","steam_id":85568392924470941,"keywords":["nocrits","nodmgspread","payload","uncletopia"],"game_id":440,"stv_port":27026,"stv_name":"Uncletopia | London | 2 | All Maps | STV","players":null},{"server_id":320,"name":"Uncletopia | London | 3 | All Maps","name_short":"lon-3","host":"lon-1.uk.uncletopia.com","port":27035,"enabled":true,"region":"eu","cc":"gb","latitude":51.509865,"longitude":-0.118092,"reserved":0,"last_update":"0001-01-01T00:00:00Z","name_a2s":"Uncletopia | London | 3 | All Maps","protocol":17,"map":"pl_upward","folder":"tf","game":"Team Fortress","app_id":440,"player_count":0,"max_players":24,"Bots":0,"server_type":"Dedicated","server_os":"Linux","password":true,"vac":true,"version":"7742253","steam_id":85568392924510192,"keywords":["nocrits","nodmgspread","payload","uncletopia"],"game_id":440,"stv_port":27036,"stv_name":"Uncletopia | London | 3 | All Maps | STV","players":null},{"server_id":321,"name":"Uncletopia | London | 4 | All Maps","name_short":"lon-4","host":"lon-1.uk.uncletopia.com","port":27045,"enabled":true,"region":"eu","cc":"gb","latitude":51.509865,"longitude":-0.118092,"reserved":0,"last_update":"0001-01-01T00:00:00Z","name_a2s":"Uncletopia | London | 4 | All Maps","protocol":17,"map":"pl_upward","folder":"tf","game":"Team Fortress","app_id":440,"player_count":24,"max_players":24,"Bots":0,"server_type":"Dedicated","server_os":"Linux","password":true,"vac":true,"version":"7742253","steam_id":85568392924510193,"keywords":["nocrits","nodmgspread","payload","uncletopia"],"game_id":440,"stv_port":27046,"stv_name":"Uncletopia | London | 4 | All Maps | STV","players":[{"user_id":40,"name":"SNIPSNAP","steam_id":76561198275472683,"connected_time":102000000000,"state":"active","ping":109},{"user_id":4,"name":"thekoolest88","steam_id":76561199022415672,"connected_time":1528000000000,"state":"active","ping":140},{"user_id":5,"name":"Groose","steam_id":76561198261094295,"connected_time":1527000000000,"state":"active","ping":64},{"user_id":37,"name":"Poverty's Finest","steam_id":76561198127704044,"connected_time":327000000000,"state":"active","ping":122},{"user_id":7,"name":"Borat","steam_id":76561198122226417,"connected_time":1524000000000,"state":"active","ping":41},{"user_id":8,"name":"Grey","steam_id":76561198187190267,"connected_time":1524000000000,"state":"active","ping":45},{"user_id":9,"name":"R A S M U S","steam_id":76561198279799226,"connected_time":1508000000000,"state":"active","ping":77},{"user_id":38,"name":"cheated on the pregnancy test","steam_id":76561199107068627,"connected_time":311000000000,"state":"active","ping":142},{"user_id":11,"name":"vi","steam_id":76561198303147966,"connected_time":1507000000000,"state":"active","ping":34},{"user_id":35,"name":"jaime8D","steam_id":76561197980590671,"connected_time":1027000000000,"state":"active","ping":90},{"user_id":13,"name":"TaiDni","steam_id":76561198087750392,"connected_time":1501000000000,"state":"active","ping":53},{"user_id":14,"name":"Julez","steam_id":76561198045505082,"connected_time":1496000000000,"state":"active","ping":87},{"user_id":15,"name":"Chilchang Billing","steam_id":76561197993300020,"connected_time":1492000000000,"state":"active","ping":72},{"user_id":16,"name":"Tsuruko","steam_id":76561198063618114,"connected_time":1491000000000,"state":"active","ping":75},{"user_id":17,"name":"hushhx","steam_id":76561198216200092,"connected_time":1486000000000,"state":"active","ping":49},{"user_id":18,"name":"asd_","steam_id":76561198060417920,"connected_time":1473000000000,"state":"active","ping":70},{"user_id":29,"name":"Temper","steam_id":76561198044123690,"connected_time":1258000000000,"state":"active","ping":129},{"user_id":20,"name":"Lazulura","steam_id":76561198103569919,"connected_time":1466000000000,"state":"active","ping":83},{"user_id":21,"name":"Keke","steam_id":76561198161351567,"connected_time":1466000000000,"state":"active","ping":67},{"user_id":22,"name":"Mafour","steam_id":76561197994581337,"connected_time":1445000000000,"state":"active","ping":92},{"user_id":27,"name":"K.V. #RemoveRandomCrits","steam_id":76561197994832993,"connected_time":1327000000000,"state":"active","ping":79},{"user_id":24,"name":"SlonkyDonky","steam_id":76561198425787528,"connected_time":1424000000000,"state":"active","ping":48},{"user_id":39,"name":"Stats","steam_id":76561198257248737,"connected_time":199000000000,"state":"active","ping":58},{"user_id":34,"name":"etc","steam_id":76561197998394797,"connected_time":1060000000000,"state":"active","ping":52}]},{"server_id":21,"name":"Uncletopia | London | 5 | All Maps","name_short":"lon-5","host":"lon-1.uk.uncletopia.com","port":27055,"enabled":true,"region":"eu","cc":"gb","latitude":51.509865,"longitude":-0.118092,"reserved":0,"last_update":"0001-01-01T00:00:00Z","name_a2s":"Uncletopia | London | 5 | All Maps","protocol":17,"map":"pl_frontier_final","folder":"tf","game":"Team Fortress","app_id":440,"player_count":0,"max_players":24,"Bots":0,"server_type":"Dedicated","server_os":"Linux","password":true,"vac":true,"version":"7742253","steam_id":85568392924742829,"keywords":["nocrits","nodmgspread","payload","uncletopia"],"game_id":440,"stv_port":27056,"stv_name":"Uncletopia | London | 5 | All Maps | STV","players":null},{"server_id":22,"name":"Uncletopia | London | 6 | All Maps","name_short":"lon-6","host":"lon-1.uk.uncletopia.com","port":27065,"enabled":true,"region":"eu","cc":"gb","latitude":51.509865,"longitude":-0.118092,"reserved":0,"last_update":"0001-01-01T00:00:00Z","name_a2s":"Uncletopia | London | 6 | All Maps","protocol":17,"map":"pl_borneo","folder":"tf","game":"Team Fortress","app_id":440,"player_count":0,"max_players":24,"Bots":0,"server_type":"Dedicated","server_os":"Linux","password":true,"vac":true,"version":"7742253","steam_id":85568392924742830,"keywords":["nocrits","nodmgspread","payload","uncletopia"],"game_id":440,"stv_port":27066,"stv_name":"Uncletopia | London | 6 | All Maps | STV","players":null},{"server_id":40,"name":"Uncletopia | London | 7 | No Payload","name_short":"lon-7","host":"lon-1.uk.uncletopia.com","port":27075,"enabled":true,"region":"eu","cc":"gb","latitude":51.509865,"longitude":-0.118092,"reserved":0,"last_update":"0001-01-01T00:00:00Z","name_a2s":"Uncletopia | London | 7 | No Payload","protocol":17,"map":"koth_viaduct","folder":"tf","game":"Team Fortress","app_id":440,"player_count":0,"max_players":24,"Bots":0,"server_type":"Dedicated","server_os":"Linux","password":true,"vac":true,"version":"7742253","steam_id":85568392924964314,"keywords":["cp","nocrits","nodmgspread","uncletopia"],"game_id":440,"stv_port":27076,"stv_name":"Uncletopia | London | 7 | No Payload | STV","players":null},{"server_id":41,"name":"Uncletopia | London | 8 | Community","name_short":"lon-8","host":"lon-1.uk.uncletopia.com","port":27085,"enabled":true,"region":"eu","cc":"gb","latitude":51.509865,"longitude":-0.118092,"reserved":0,"last_update":"0001-01-01T00:00:00Z","name_a2s":"Uncletopia | London | 8 | Community","protocol":17,"map":"cp_altitude","folder":"tf","game":"Team Fortress","app_id":440,"player_count":0,"max_players":24,"Bots":0,"server_type":"Dedicated","server_os":"Linux","password":true,"vac":true,"version":"7742253","steam_id":85568392924964315,"keywords":["cp","nocrits","nodmgspread","uncletopia"],"game_id":440,"stv_port":27086,"stv_name":"Uncletopia | London | 8 | Community | STV","players":null},{"server_id":300,"name":"Uncletopia | Montr√©al | 1 | All Maps","name_short":"mtl-1","host":"mtl-1.ca.uncletopia.com","port":27015,"enabled":true,"region":"us-east","cc":"ca","latitude":45.50889,"longitude":-73.56167,"reserved":0,"last_update":"0001-01-01T00:00:00Z","name_a2s":"Uncletopia | Montr√©al | 1 | All Maps","protocol":17,"map":"cp_snakewater_final1","folder":"tf","game":"Team Fortress","app_id":440,"player_count":0,"max_players":24,"Bots":0,"server_type":"Dedicated","server_os":"Linux","password":true,"vac":true,"version":"7742253","steam_id":85568392924500087,"keywords":["cp","nocrits","nodmgspread","uncletopia"],"game_id":440,"stv_port":27016,"stv_name":"Uncletopia | Montr√©al | 1 | All Maps | STV","players":null},{"server_id":301,"name":"Uncletopia | Montr√©al | 2 | All Maps","name_short":"mtl-2","host":"mtl-1.ca.uncletopia.com","port":27025,"enabled":true,"region":"us-east","cc":"ca","latitude":45.50889,"longitude":-73.56167,"reserved":0,"last_update":"0001-01-01T00:00:00Z","name_a2s":"Uncletopia | Montr√©al | 2 | All Maps","protocol":17,"map":"koth_highpass","folder":"tf","game":"Team Fortress","app_id":440,"player_count":0,"max_players":24,"Bots":0,"server_type":"Dedicated","server_os":"Linux","password":true,"vac":true,"version":"7742253","steam_id":85568392924500088,"keywords":["cp","nocrits","nodmgspread","uncletopia"],"game_id":440,"stv_port":27026,"stv_name":"Uncletopia | Montr√©al | 2 | All Maps | STV","players":null},{"server_id":302,"name":"Uncletopia | Montr√©al | 3 | All Maps","name_short":"mtl-3","host":"mtl-1.ca.uncletopia.com","port":27035,"enabled":true,"region":"us-east","cc":"ca","latitude":45.50889,"longitude":-73.56167,"reserved":0,"last_update":"0001-01-01T00:00:00Z","name_a2s":"Uncletopia | Montr√©al | 3 | All Maps","protocol":17,"map":"cp_mountainlab","folder":"tf","game":"Team Fortress","app_id":440,"player_count":0,"max_players":24,"Bots":0,"server_type":"Dedicated","server_os":"Linux","password":true,"vac":true,"version":"7742253","steam_id":85568392924500089,"keywords":["cp","nocrits","nodmgspread","uncletopia"],"game_id":440,"stv_port":27036,"stv_name":"Uncletopia | Montr√©al | 3 | All Maps | STV","players":null},{"server_id":303,"name":"Uncletopia | Montr√©al | 4 | No Payload","name_short":"mtl-4","host":"mtl-1.ca.uncletopia.com","port":27045,"enabled":true,"region":"us-east","cc":"ca","latitude":45.50889,"longitude":-73.56167,"reserved":0,"last_update":"0001-01-01T00:00:00Z","name_a2s":"Uncletopia | Montr√©al | 4 | No Payload","protocol":17,"map":"cp_snakewater_final1","folder":"tf","game":"Team Fortress","app_id":440,"player_count":0,"max_players":24,"Bots":0,"server_type":"Dedicated","server_os":"Linux","password":true,"vac":true,"version":"7742253","steam_id":85568392924500090,"keywords":["cp","nocrits","nodmgspread","uncletopia"],"game_id":440,"stv_port":27046,"stv_name":"Uncletopia | Montr√©al | 4 | No Payload | STV","players":null},{"server_id":13,"name":"Uncletopia | New York City | 1 | All Maps","name_short":"nyc-1","host":"nyc-1.us.uncletopia.com","port":27015,"enabled":true,"region":"us-east","cc":"us","latitude":40.73061,"longitude":-73.93524,"reserved":0,"last_update":"0001-01-01T00:00:00Z","name_a2s":"Uncletopia | New York City | 1 | All Maps","protocol":17,"map":"cp_mountainlab","folder":"tf","game":"Team Fortress","app_id":440,"player_count":24,"max_players":24,"Bots":0,"server_type":"Dedicated","server_os":"Linux","password":true,"vac":true,"version":"7742253","steam_id":85568392924469993,"keywords":["cp","nocrits","nodmgspread","uncletopia"],"game_id":440,"stv_port":27016,"stv_name":"Uncletopia | New York City | 1 | All Maps | STV","players":[{"user_id":48,"name":"You¬¥re shit.","steam_id":76561198254030118,"connected_time":35000000000,"state":"active","ping":195},{"user_id":4,"name":"Laelaps","steam_id":76561198100061416,"connected_time":1546000000000,"state":"active","ping":47},{"user_id":17,"name":"basil","steam_id":76561198075758026,"connected_time":1382000000000,"state":"active","ping":79},{"user_id":40,"name":"matcha ^_^ \u003c3","steam_id":76561198832230598,"connected_time":570000000000,"state":"active","ping":48},{"user_id":18,"name":"C0SMIC PLAGU3","steam_id":76561198051958643,"connected_time":1376000000000,"state":"active","ping":75},{"user_id":38,"name":"MagicGnome","steam_id":76561198060886742,"connected_time":660000000000,"state":"active","ping":61},{"user_id":42,"name":"viscodolante","steam_id":76561198013650292,"connected_time":511000000000,"state":"active","ping":100},{"user_id":36,"name":"Losing My Edge","steam_id":76561198082753631,"connected_time":848000000000,"state":"active","ping":50},{"user_id":20,"name":"nightmare","steam_id":76561198170642407,"connected_time":1329000000000,"state":"active","ping":50},{"user_id":41,"name":"thomasdee725","steam_id":76561199189526173,"connected_time":513000000000,"state":"active","ping":59},{"user_id":22,"name":"MisterT","steam_id":76561198079868873,"connected_time":1319000000000,"state":"active","ping":156},{"user_id":16,"name":"ryanrichmo","steam_id":76561199083994829,"connected_time":1421000000000,"state":"active","ping":60},{"user_id":23,"name":"Uncle Majic the Hip Hop Magicia","steam_id":76561198107924303,"connected_time":1310000000000,"state":"active","ping":53},{"user_id":24,"name":"IkermlgYT","steam_id":76561199061497635,"connected_time":1283000000000,"state":"active","ping":105},{"user_id":25,"name":"ravioli","steam_id":76561199013708786,"connected_time":1257000000000,"state":"active","ping":50},{"user_id":26,"name":"(Not) Count Dante","steam_id":76561199446410166,"connected_time":1256000000000,"state":"active","ping":77},{"user_id":27,"name":"(1)MF","steam_id":76561198285264050,"connected_time":1235000000000,"state":"active","ping":76},{"user_id":28,"name":"Lycsol","steam_id":76561199258635508,"connected_time":1229000000000,"state":"active","ping":76},{"user_id":46,"name":"brian emo","steam_id":76561198109901138,"connected_time":437000000000,"state":"active","ping":59},{"user_id":30,"name":"bubba","steam_id":76561198294709999,"connected_time":1211000000000,"state":"active","ping":55},{"user_id":31,"name":"[12V] Marv","steam_id":76561198158638384,"connected_time":1210000000000,"state":"active","ping":67},{"user_id":33,"name":"MF","steam_id":76561199451797397,"connected_time":1194000000000,"state":"active","ping":60},{"user_id":43,"name":"malon milk","steam_id":76561198042558913,"connected_time":509000000000,"state":"active","ping":61},{"user_id":45,"name":"Bee","steam_id":76561198074681324,"connected_time":494000000000,"state":"active","ping":47}]},{"server_id":14,"name":"Uncletopia | New York City | 2 | All Maps","name_short":"nyc-2","host":"nyc-1.us.uncletopia.com","port":27025,"enabled":true,"region":"us-east","cc":"us","latitude":40.73061,"longitude":-73.93524,"reserved":0,"last_update":"0001-01-01T00:00:00Z","name_a2s":"Uncletopia | New York City | 2 | All Maps","protocol":17,"map":"cp_altitude","folder":"tf","game":"Team Fortress","app_id":440,"player_count":4,"max_players":24,"Bots":0,"server_type":"Dedicated","server_os":"Linux","password":true,"vac":true,"version":"7742253","steam_id":85568392924469994,"keywords":["cp","nocrits","nodmgspread","uncletopia"],"game_id":440,"stv_port":27026,"stv_name":"Uncletopia | New York City | 2 | All Maps | STV","players":[{"user_id":3,"name":"Lumpy","steam_id":76561198058840585,"connected_time":1558000000000,"state":"active","ping":47},{"user_id":4,"name":"Ferguson","steam_id":76561198121349387,"connected_time":1543000000000,"state":"active","ping":72},{"user_id":6,"name":"Caleb","steam_id":76561198002641282,"connected_time":900000000000,"state":"active","ping":67},{"user_id":9,"name":"BuddyMocha","steam_id":76561198054654515,"connected_time":714000000000,"state":"active","ping":56}]},{"server_id":15,"name":"Uncletopia | New York City | 3 | Stopwatch Beta","name_short":"nyc-3","host":"nyc-1.us.uncletopia.com","port":27035,"enabled":true,"region":"us-east","cc":"us","latitude":40.73061,"longitude":-73.93524,"reserved":0,"last_update":"0001-01-01T00:00:00Z","name_a2s":"Uncletopia | New York City | 3 | Stopwatch Beta","protocol":17,"map":"pl_pier","folder":"tf","game":"Team Fortress","app_id":440,"player_count":0,"max_players":24,"Bots":0,"server_type":"Dedicated","server_os":"Linux","password":true,"vac":true,"version":"7742253","steam_id":85568392924742820,"keywords":["nocrits","nodmgspread","payload","uncletopia"],"game_id":440,"stv_port":27036,"stv_name":"Uncletopia | New York City | 3 | Stopwatch Beta | STV","players":null},{"server_id":16,"name":"Uncletopia | New York City | 4 | Community","name_short":"nyc-4","host":"nyc-1.us.uncletopia.com","port":27045,"enabled":true,"region":"us-east","cc":"us","latitude":40.73061,"longitude":-73.93524,"reserved":0,"last_update":"0001-01-01T00:00:00Z","name_a2s":"Uncletopia | New York City | 4 | Community","protocol":17,"map":"koth_viaduct","folder":"tf","game":"Team Fortress","app_id":440,"player_count":0,"max_players":24,"Bots":0,"server_type":"Dedicated","server_os":"Linux","password":true,"vac":true,"version":"7742253","steam_id":85568392924742821,"keywords":["cp","nocrits","nodmgspread","uncletopia"],"game_id":440,"stv_port":27046,"stv_name":"Uncletopia | New York City | 4 | Community | STV","players":null},{"server_id":142,"name":"Uncletopia | S√£o Paulo | 1 | All Maps","name_short":"sao-1","host":"sao-1.br.uncletopia.com","port":27015,"enabled":true,"region":"sa","cc":"br","latitude":-23.533773,"longitude":-46.62529,"reserved":0,"last_update":"0001-01-01T00:00:00Z","name_a2s":"Uncletopia | S√£o Paulo | 1 | All Maps","protocol":17,"map":"koth_viaduct","folder":"tf","game":"Team Fortress","app_id":440,"player_count":0,"max_players":24,"Bots":0,"server_type":"Dedicated","server_os":"Linux","password":true,"vac":true,"version":"7742253","steam_id":85568392924469996,"keywords":["cp","nocrits","nodmgspread","uncletopia"],"game_id":440,"stv_port":27016,"stv_name":"Uncletopia | S√£o Paulo | 1 | All Maps | STV","players":null},{"server_id":143,"name":"Uncletopia | S√£o Paulo | 2 | All Maps","name_short":"sao-2","host":"sao-2.br.uncletopia.com","port":27015,"enabled":true,"region":"sa","cc":"br","latitude":-23.533773,"longitude":-46.62529,"reserved":0,"last_update":"0001-01-01T00:00:00Z","name_a2s":"Uncletopia | S√£o Paulo | 2 | All Maps","protocol":17,"map":"koth_viaduct","folder":"tf","game":"Team Fortress","app_id":440,"player_count":0,"max_players":24,"Bots":0,"server_type":"Dedicated","server_os":"Linux","password":true,"vac":true,"version":"7742253","steam_id":85568392924485349,"keywords":["cp","nocrits","nodmgspread","uncletopia"],"game_id":440,"stv_port":27016,"stv_name":"Uncletopia | S√£o Paulo | 2 | All Maps | STV","players":null},{"server_id":7,"name":"Uncletopia | Seattle | 1 | All Maps","name_short":"sea-1","host":"sea-1.us.uncletopia.com","port":27015,"enabled":true,"region":"us-west","cc":"us","latitude":47.608013,"longitude":-122.33517,"reserved":0,"last_update":"0001-01-01T00:00:00Z","name_a2s":"Uncletopia | Seattle | 1 | All Maps","protocol":17,"map":"pl_frontier_final","folder":"tf","game":"Team Fortress","app_id":440,"player_count":24,"max_players":24,"Bots":0,"server_type":"Dedicated","server_os":"Linux","password":true,"vac":true,"version":"7742253","steam_id":85568392924469997,"keywords":["nocrits","nodmgspread","payload","uncletopia"],"game_id":440,"stv_port":27016,"stv_name":"Uncletopia | Seattle | 1 | All Maps | STV","players":[{"user_id":37,"name":"THAT CAT","steam_id":76561198010828625,"connected_time":573000000000,"state":"active","ping":44},{"user_id":4,"name":"Spectre","steam_id":76561198025652246,"connected_time":1520000000000,"state":"active","ping":87},{"user_id":5,"name":"Mask7421","steam_id":76561198006208670,"connected_time":1517000000000,"state":"active","ping":44},{"user_id":6,"name":"Drive-By-Fish-Guy","steam_id":76561198105513652,"connected_time":1516000000000,"state":"active","ping":83},{"user_id":7,"name":"MCman","steam_id":76561198412110305,"connected_time":1516000000000,"state":"active","ping":76},{"user_id":9,"name":"Mignyanne :3","steam_id":76561198048754056,"connected_time":1514000000000,"state":"active","ping":68},{"user_id":10,"name":"Korey","steam_id":76561198210734407,"connected_time":1513000000000,"state":"active","ping":120},{"user_id":11,"name":"demoman","steam_id":76561199389584938,"connected_time":1512000000000,"state":"active","ping":42},{"user_id":20,"name":"Aardappel","steam_id":76561198030894676,"connected_time":1496000000000,"state":"active","ping":72},{"user_id":13,"name":"Asphodel","steam_id":76561198750101819,"connected_time":1509000000000,"state":"active","ping":60},{"user_id":38,"name":"Klone","steam_id":76561198854485605,"connected_time":558000000000,"state":"active","ping":77},{"user_id":15,"name":"I' eating a sandwich","steam_id":76561198253922494,"connected_time":1507000000000,"state":"active","ping":87},{"user_id":16,"name":"BlueZy","steam_id":76561198059111030,"connected_time":1506000000000,"state":"active","ping":50},{"user_id":33,"name":"S Q U I S H E  T H A T  C A T","steam_id":76561198293865429,"connected_time":1215000000000,"state":"active","ping":39},{"user_id":18,"name":"exephur","steam_id":76561198135763234,"connected_time":1503000000000,"state":"active","ping":62},{"user_id":19,"name":"Froglord","steam_id":76561197995374569,"connected_time":1500000000000,"state":"active","ping":90},{"user_id":39,"name":"icecxld‚õÑ","steam_id":76561198079018805,"connected_time":503000000000,"state":"active","ping":106},{"user_id":22,"name":"jungus","steam_id":76561198129862008,"connected_time":1492000000000,"state":"active","ping":83},{"user_id":41,"name":"goldhed","steam_id":76561198051751133,"connected_time":81000000000,"state":"active","ping":62},{"user_id":24,"name":"Stuff Gremlin","steam_id":76561198011675372,"connected_time":1490000000000,"state":"active","ping":63},{"user_id":29,"name":"jawnymac","steam_id":76561198179529599,"connected_time":1437000000000,"state":"active","ping":77},{"user_id":26,"name":"CampinCarl","steam_id":76561197997373624,"connected_time":1487000000000,"state":"active","ping":72},{"user_id":31,"name":"Papa Panda","steam_id":76561198159061475,"connected_time":1342000000000,"state":"active","ping":78},{"user_id":36,"name":"DaytimeMoon","steam_id":76561199151506394,"connected_time":588000000000,"state":"active","ping":90}]},{"server_id":119,"name":"Uncletopia | Seattle | 2 | All Maps","name_short":"sea-2","host":"sea-1.us.uncletopia.com","port":27025,"enabled":true,"region":"us-west","cc":"us","latitude":47.608013,"longitude":-122.33517,"reserved":0,"last_update":"0001-01-01T00:00:00Z","name_a2s":"Uncletopia | Seattle | 2 | All Maps","protocol":17,"map":"cp_sunshine","folder":"tf","game":"Team Fortress","app_id":440,"player_count":24,"max_players":24,"Bots":0,"server_type":"Dedicated","server_os":"Linux","password":true,"vac":true,"version":"7742253","steam_id":85568392924469998,"keywords":["cp","nocrits","nodmgspread","uncletopia"],"game_id":440,"stv_port":27026,"stv_name":"Uncletopia | Seattle | 2 | All Maps | STV","players":[{"user_id":3,"name":"ORANGE","steam_id":76561198000401769,"connected_time":1504000000000,"state":"active","ping":53},{"user_id":4,"name":"B-0-D-I-E ‚úì","steam_id":76561198079474904,"connected_time":1504000000000,"state":"active","ping":63},{"user_id":5,"name":"strong and healthy gamer","steam_id":76561198049489349,"connected_time":1501000000000,"state":"active","ping":59},{"user_id":35,"name":"Femboi Fox","steam_id":76561198915758702,"connected_time":97000000000,"state":"active","ping":60},{"user_id":7,"name":"General Fisticuffs","steam_id":76561198255721392,"connected_time":1498000000000,"state":"active","ping":105},{"user_id":8,"name":"KingTinkerer","steam_id":76561198226856548,"connected_time":1485000000000,"state":"active","ping":66},{"user_id":9,"name":"chlo√©","steam_id":76561198858926895,"connected_time":1476000000000,"state":"active","ping":39},{"user_id":10,"name":"the dingler man","steam_id":76561199099203623,"connected_time":1472000000000,"state":"active","ping":97},{"user_id":31,"name":"CobKnocker Gaming","steam_id":76561198073559617,"connected_time":943000000000,"state":"active","ping":119},{"user_id":33,"name":"pcplace","steam_id":76561198097987387,"connected_time":279000000000,"state":"active","ping":50},{"user_id":14,"name":"Quietsharp","steam_id":76561198277968438,"connected_time":1425000000000,"state":"active","ping":83},{"user_id":34,"name":"Amogous Supreme","steam_id":76561198025476774,"connected_time":276000000000,"state":"active","ping":76},{"user_id":16,"name":"CSharp","steam_id":76561199185191710,"connected_time":1417000000000,"state":"active","ping":134},{"user_id":17,"name":"nelly modelo","steam_id":76561198044875206,"connected_time":1409000000000,"state":"active","ping":50},{"user_id":18,"name":"Aunty Frazzle","steam_id":76561198145596626,"connected_time":1406000000000,"state":"active","ping":74},{"user_id":32,"name":"The Population of Sweden","steam_id":76561198202201644,"connected_time":380000000000,"state":"active","ping":46},{"user_id":20,"name":"Thanks Ants","steam_id":76561197966221018,"connected_time":1376000000000,"state":"active","ping":48},{"user_id":29,"name":"Octobella Enthusiast","steam_id":76561198199266047,"connected_time":1277000000000,"state":"active","ping":116},{"user_id":24,"name":"sara","steam_id":76561198283462369,"connected_time":1364000000000,"state":"active","ping":87},{"user_id":30,"name":"Angela","steam_id":76561198991101353,"connected_time":1172000000000,"state":"active","ping":51},{"user_id":25,"name":"Frongus","steam_id":76561197979056451,"connected_time":1336000000000,"state":"active","ping":48},{"user_id":26,"name":"Szaint","steam_id":76561198165050614,"connected_time":1335000000000,"state":"active","ping":69},{"user_id":27,"name":"NEBULA3LEM123","steam_id":76561198095433728,"connected_time":1333000000000,"state":"active","ping":74},{"user_id":28,"name":"CheekyMcCheek","steam_id":76561198081978491,"connected_time":1319000000000,"state":"active","ping":86}]},{"server_id":406,"name":"Uncletopia | Seattle | 3 | Stopwatch Beta","name_short":"sea-3","host":"sea-1.us.uncletopia.com","port":27035,"enabled":true,"region":"us-west","cc":"us","latitude":47.608013,"longitude":-122.33517,"reserved":0,"last_update":"0001-01-01T00:00:00Z","name_a2s":"Uncletopia | Seattle | 3 | Stopwatch Beta","protocol":17,"map":"cp_altitude","folder":"tf","game":"Team Fortress","app_id":440,"player_count":0,"max_players":24,"Bots":0,"server_type":"Dedicated","server_os":"Linux","password":true,"vac":true,"version":"7742253","steam_id":85568392924515217,"keywords":["cp","nocrits","nodmgspread","uncletopia"],"game_id":440,"stv_port":27036,"stv_name":"Uncletopia | Seattle | 3 | Stopwatch Beta | STV","players":null},{"server_id":17,"name":"Uncletopia | San Francisco | 1 | All Maps","name_short":"sfo-1","host":"sfo-1.us.uncletopia.com","port":27015,"enabled":true,"region":"us-west","cc":"us","latitude":37.77397,"longitude":-122.4313,"reserved":0,"last_update":"0001-01-01T00:00:00Z","name_a2s":"Uncletopia | San Francisco | 1 | All Maps","protocol":17,"map":"pl_snowycoast","folder":"tf","game":"Team Fortress","app_id":440,"player_count":0,"max_players":24,"Bots":0,"server_type":"Dedicated","server_os":"Linux","password":true,"vac":true,"version":"7742253","steam_id":85568392924469999,"keywords":["nocrits","nodmgspread","payload","uncletopia"],"game_id":440,"stv_port":27016,"stv_name":"Uncletopia | San Francisco | 1 | All Maps | STV","players":null},{"server_id":18,"name":"Uncletopia | San Francisco | 2 | All Maps","name_short":"sfo-2","host":"sfo-1.us.uncletopia.com","port":27025,"enabled":true,"region":"us-west","cc":"us","latitude":37.77397,"longitude":-122.4313,"reserved":0,"last_update":"0001-01-01T00:00:00Z","name_a2s":"Uncletopia | San Francisco | 2 | All Maps","protocol":17,"map":"cp_altitude","folder":"tf","game":"Team Fortress","app_id":440,"player_count":0,"max_players":24,"Bots":0,"server_type":"Dedicated","server_os":"Linux","password":true,"vac":true,"version":"7742253","steam_id":85568392924470000,"keywords":["cp","nocrits","nodmgspread","uncletopia"],"game_id":440,"stv_port":27026,"stv_name":"Uncletopia | San Francisco | 2 | All Maps | STV","players":null},{"server_id":19,"name":"Uncletopia | San Francisco | 3 | Stopwatch Beta","name_short":"sfo-3","host":"sfo-1.us.uncletopia.com","port":27035,"enabled":true,"region":"us-west","cc":"us","latitude":37.77397,"longitude":-122.4313,"reserved":0,"last_update":"0001-01-01T00:00:00Z","name_a2s":"Uncletopia | San Francisco | 3 | Stopwatch Beta","protocol":17,"map":"cp_snakewater_final1","folder":"tf","game":"Team Fortress","app_id":440,"player_count":0,"max_players":24,"Bots":0,"server_type":"Dedicated","server_os":"Linux","password":true,"vac":true,"version":"7742253","steam_id":85568392924742824,"keywords":["cp","nocrits","nodmgspread","uncletopia"],"game_id":440,"stv_port":27036,"stv_name":"Uncletopia | San Francisco | 3 | Stopwatch Beta | STV","players":null},{"server_id":20,"name":"Uncletopia | San Francisco | 4 | Community","name_short":"sfo-4","host":"sfo-1.us.uncletopia.com","port":27045,"enabled":true,"region":"us-west","cc":"us","latitude":37.77397,"longitude":-122.4313,"reserved":0,"last_update":"0001-01-01T00:00:00Z","name_a2s":"Uncletopia | San Francisco | 4 | Community","protocol":17,"map":"cp_dustbowl","folder":"tf","game":"Team Fortress","app_id":440,"player_count":0,"max_players":24,"Bots":0,"server_type":"Dedicated","server_os":"Linux","password":true,"vac":true,"version":"7742253","steam_id":85568392924742826,"keywords":["cp","nocrits","nodmgspread","uncletopia"],"game_id":440,"stv_port":27046,"stv_name":"Uncletopia | San Francisco | 4 | Community | STV","players":null},{"server_id":141,"name":"Uncletopia | Sydney | 1 | All Maps","name_short":"syd-1","host":"syd-1.au.uncletopia.com","port":27015,"enabled":true,"region":"au","cc":"au","latitude":-33.865143,"longitude":151.2099,"reserved":0,"last_update":"0001-01-01T00:00:00Z","name_a2s":"Uncletopia | Sydney | 1 | All Maps","protocol":17,"map":"pl_wutville_event","folder":"tf","game":"Team Fortress","app_id":440,"player_count":1,"max_players":24,"Bots":0,"server_type":"Dedicated","server_os":"Linux","password":true,"vac":true,"version":"7742253","steam_id":85568392924470001,"keywords":["nocrits","nodmgspread","payload","uncletopia"],"game_id":440,"stv_port":27016,"stv_name":"Uncletopia | Sydney | 1 | All Maps | STV","players":[{"user_id":12,"name":"tim88435","steam_id":76561198089653987,"connected_time":80000000000,"state":"active","ping":47}]},{"server_id":123,"name":"Uncletopia | Sydney | 2 | All Maps","name_short":"syd-2","host":"syd-1.au.uncletopia.com","port":27025,"enabled":true,"region":"au","cc":"au","latitude":-33.865143,"longitude":151.2099,"reserved":0,"last_update":"0001-01-01T00:00:00Z","name_a2s":"Uncletopia | Sydney | 2 | All Maps","protocol":17,"map":"pl_badwater","folder":"tf","game":"Team Fortress","app_id":440,"player_count":0,"max_players":24,"Bots":0,"server_type":"Dedicated","server_os":"Linux","password":true,"vac":true,"version":"7742253","steam_id":85568392924470002,"keywords":["nocrits","nodmgspread","payload","uncletopia"],"game_id":440,"stv_port":27026,"stv_name":"Uncletopia | Sydney | 2 | All Maps | STV","players":null},{"server_id":395,"name":"Uncletopia | Sydney | 3 | All Maps","name_short":"syd-3","host":"syd-1.au.uncletopia.com","port":27035,"enabled":true,"region":"au","cc":"au","latitude":-33.865143,"longitude":151.2099,"reserved":0,"last_update":"0001-01-01T00:00:00Z","name_a2s":"Uncletopia | Sydney | 3 | All Maps","protocol":17,"map":"koth_viaduct","folder":"tf","game":"Team Fortress","app_id":440,"player_count":0,"max_players":24,"Bots":0,"server_type":"Dedicated","server_os":"Linux","password":true,"vac":true,"version":"7742253","steam_id":85568392925194467,"keywords":["cp","nocrits","nodmgspread","uncletopia"],"game_id":440,"stv_port":27036,"stv_name":"Uncletopia | Sydney | 3 | All Maps | STV","players":null},{"server_id":396,"name":"Uncletopia | Sydney | 4 | All Maps","name_short":"syd-4","host":"syd-1.au.uncletopia.com","port":27045,"enabled":true,"region":"au","cc":"au","latitude":-33.865143,"longitude":151.2099,"reserved":0,"last_update":"0001-01-01T00:00:00Z","name_a2s":"Uncletopia | Sydney | 4 | All Maps","protocol":17,"map":"pl_frontier_final","folder":"tf","game":"Team Fortress","app_id":440,"player_count":0,"max_players":24,"Bots":0,"server_type":"Dedicated","server_os":"Linux","password":true,"vac":true,"version":"7742253","steam_id":85568392925397958,"keywords":["nocrits","nodmgspread","payload","uncletopia"],"game_id":440,"stv_port":27046,"stv_name":"Uncletopia | Sydney | 4 | All Maps | STV","players":null},{"server_id":58,"name":"Uncletopia | Sydney | 5 | Stopwatch Beta","name_short":"syd-5","host":"syd-1.au.uncletopia.com","port":27055,"enabled":true,"region":"au","cc":"au","latitude":-33.865143,"longitude":151.2099,"reserved":0,"last_update":"0001-01-01T00:00:00Z","name_a2s":"Uncletopia | Sydney | 5 | Stopwatch Beta","protocol":17,"map":"cp_sunshine","folder":"tf","game":"Team Fortress","app_id":440,"player_count":0,"max_players":24,"Bots":0,"server_type":"Dedicated","server_os":"Linux","password":true,"vac":true,"version":"7742253","steam_id":85568392925397959,"keywords":["cp","nocrits","nodmgspread","uncletopia"],"game_id":440,"stv_port":27056,"stv_name":"Uncletopia | Sydney | 5 | Stopwatch Beta | STV","players":null},{"server_id":59,"name":"Uncletopia | Sydney | 6 | Community","name_short":"syd-6","host":"syd-1.au.uncletopia.com","port":27065,"enabled":true,"region":"au","cc":"au","latitude":-33.865143,"longitude":151.2099,"reserved":0,"last_update":"0001-01-01T00:00:00Z","name_a2s":"Uncletopia | Sydney | 6 | Community","protocol":17,"map":"cp_dustbowl","folder":"tf","game":"Team Fortress","app_id":440,"player_count":0,"max_players":24,"Bots":0,"server_type":"Dedicated","server_os":"Linux","password":true,"vac":true,"version":"7742253","steam_id":85568392925397960,"keywords":["cp","nocrits","nodmgspread","uncletopia"],"game_id":440,"stv_port":27066,"stv_name":"Uncletopia | Sydney | 6 | Community | STV","players":null},{"server_id":49,"name":"Uncletopia | Warsaw | 1 | All Maps","name_short":"waw-1","host":"waw-1.pl.uncletopia.com","port":27015,"enabled":true,"region":"eu","cc":"pl","latitude":52.2297,"longitude":21.017532,"reserved":0,"last_update":"0001-01-01T00:00:00Z","name_a2s":"","protocol":0,"map":"","folder":"","game":"","app_id":0,"player_count":0,"max_players":0,"Bots":0,"server_type":"","server_os":"","password":false,"vac":false,"version":"","steam_id":0,"keywords":null,"game_id":0,"stv_port":0,"stv_name":"","players":null},{"server_id":50,"name":"Uncletopia | Warsaw | 2 | All Maps","name_short":"waw-2","host":"waw-1.pl.uncletopia.com","port":27025,"enabled":true,"region":"eu","cc":"pl","latitude":52.2297,"longitude":21.017532,"reserved":0,"last_update":"0001-01-01T00:00:00Z","name_a2s":"Uncletopia | Warsaw | 2 | All Maps","protocol":17,"map":"pl_upward","folder":"tf","game":"Team Fortress","app_id":440,"player_count":0,"max_players":24,"Bots":0,"server_type":"Dedicated","server_os":"Linux","password":true,"vac":true,"version":"7742253","steam_id":85568392925397851,"keywords":["nocrits","nodmgspread","payload","uncletopia"],"game_id":440,"stv_port":27026,"stv_name":"Uncletopia | Warsaw | 2 | All Maps | STV","players":null},{"server_id":51,"name":"Uncletopia | Warsaw | 3 | All Maps","name_short":"waw-3","host":"waw-1.pl.uncletopia.com","port":27035,"enabled":true,"region":"eu","cc":"pl","latitude":52.2297,"longitude":21.017532,"reserved":0,"last_update":"0001-01-01T00:00:00Z","name_a2s":"Uncletopia | Warsaw | 3 | All Maps","protocol":17,"map":"koth_lakeside_final","folder":"tf","game":"Team Fortress","app_id":440,"player_count":0,"max_players":24,"Bots":0,"server_type":"Dedicated","server_os":"Linux","password":true,"vac":true,"version":"7742253","steam_id":85568392925397852,"keywords":["cp","nocrits","nodmgspread","uncletopia"],"game_id":440,"stv_port":27036,"stv_name":"Uncletopia | Warsaw | 3 | All Maps | STV","players":null},{"server_id":52,"name":"Uncletopia | Warsaw | 4 | All Maps","name_short":"waw-4","host":"waw-1.pl.uncletopia.com","port":27045,"enabled":true,"region":"eu","cc":"pl","latitude":52.2297,"longitude":21.017532,"reserved":0,"last_update":"0001-01-01T00:00:00Z","name_a2s":"Uncletopia | Warsaw | 4 | All Maps","protocol":17,"map":"pl_upward","folder":"tf","game":"Team Fortress","app_id":440,"player_count":0,"max_players":24,"Bots":0,"server_type":"Dedicated","server_os":"Linux","password":true,"vac":true,"version":"7742253","steam_id":85568392925397853,"keywords":["nocrits","nodmgspread","payload","uncletopia"],"game_id":440,"stv_port":27046,"stv_name":"Uncletopia | Warsaw | 4 | All Maps | STV","players":null},{"server_id":53,"name":"Uncletopia | Warsaw | 5 | Stopwatch Beta","name_short":"waw-5","host":"waw-1.pl.uncletopia.com","port":27055,"enabled":true,"region":"eu","cc":"pl","latitude":52.2297,"longitude":21.017532,"reserved":0,"last_update":"0001-01-01T00:00:00Z","name_a2s":"Uncletopia | Warsaw | 5 | Stopwatch Beta","protocol":17,"map":"pl_swiftwater_final1","folder":"tf","game":"Team Fortress","app_id":440,"player_count":0,"max_players":24,"Bots":0,"server_type":"Dedicated","server_os":"Linux","password":true,"vac":true,"version":"7742253","steam_id":85568392925397854,"keywords":["nocrits","nodmgspread","payload","uncletopia"],"game_id":440,"stv_port":27056,"stv_name":"Uncletopia | Warsaw | 5 | Stopwatch Beta | STV","players":null},{"server_id":54,"name":"Uncletopia | Warsaw | 6 | Community","name_short":"waw-6","host":"waw-1.pl.uncletopia.com","port":27065,"enabled":true,"region":"eu","cc":"pl","latitude":52.2297,"longitude":21.017532,"reserved":0,"last_update":"0001-01-01T00:00:00Z","name_a2s":"Uncletopia | Warsaw | 6 | Community","protocol":17,"map":"koth_highpass","folder":"tf","game":"Team Fortress","app_id":440,"player_count":0,"max_players":24,"Bots":0,"server_type":"Dedicated","server_os":"Linux","password":true,"vac":true,"version":"7742253","steam_id":85568392925397856,"keywords":["cp","nocrits","nodmgspread","uncletopia"],"game_id":440,"stv_port":27066,"stv_name":"Uncletopia | Warsaw | 6 | Community | STV","players":null}]}