{"status":true,"message":"","result":[{"server_id":9,"name":"Uncletopia | Atlanta | 1 | All Maps","name_short":"atl-1","host":"atl-1.us.uncletopia.com","port":27015,"enabled":true,"region":"us-east","cc":"us","latitude":33.753746,"longitude":-84.38633,"reserved":0,"last_update":"0001-01-01T00:00:00Z","name_a2s":"Uncletopia | Atlanta | 1 | All Maps","protocol":17,"map":"koth_suijin","folder":"tf","game":"Team Fortress","app_id":440,"player_count":24,"max_players":24,"Bots":0,"server_type":"Dedicated","server_os":"Linux","password":true,"vac":true,"version":"7961495","steam_id":85568392924469982,"keywords":["cp","nocrits","nodmgspread","uncletopia"],"game_id":440,"stv_port":27016,"stv_name":"Uncletopia | Atlanta | 1 | All Maps | STV","players":null},{"server_id":104,"name":"Uncletopia | Atlanta | 2 | All Maps","name_short":"atl-2","host":"atl-1.us.uncletopia.com","port":27025,"enabled":true,"region":"us-east","cc":"us","latitude":33.753746,"longitude":-84.38633,"reserved":0,"last_update":"0001-01-01T00:00:00Z","name_a2s":"Uncletopia | Atlanta | 2 | All Maps","protocol":17,"map":"pl_barnblitz","folder":"tf","game":"Team Fortress","app_id":440,"player_count":16,"max_players":24,"Bots":0,"server_type":"Dedicated","server_os":"Linux","password":true,"vac":true,"version":"7961495","steam_id":85568392924469983,"keywords":["nocrits","nodmgspread","payload","uncletopia"],"game_id":440,"stv_port":27026,"stv_name":"Uncletopia | Atlanta | 2 | All Maps | STV","players":null},{"server_id":400,"name":"Uncletopia | Atlanta | 3 | Stopwatch","name_short":"atl-3","host":"atl-1.us.uncletopia.com","port":27035,"enabled":true,"region":"us-east","cc":"us","latitude":33.753746,"longitude":-84.38633,"reserved":0,"last_update":"0001-01-01T00:00:00Z","name_a2s":"Uncletopia | Atlanta | 3 | Stopwatch","protocol":17,"map":"cp_process_final","folder":"tf","game":"Team Fortress","app_id":440,"player_count":0,"max_players":24,"Bots":0,"server_type":"Dedicated","server_os":"Linux","password":true,"vac":true,"version":"7961495","steam_id":85568392924515187,"keywords":["cp","nocrits","nodmgspread","uncletopia"],"game_id":440,"stv_port":27036,"stv_name":"Uncletopia | Atlanta | 3 | Stopwatch | STV","players":null},{"server_id":401,"name":"Uncletopia | Atlanta | 4 | Community","name_short":"atl-4","host":"atl-1.us.uncletopia.com","port":27045,"enabled":true,"region":"us-east","cc":"us","latitude":33.753746,"longitude":-84.38633,"reserved":0,"last_update":"0001-01-01T00:00:00Z","name_a2s":"Uncletopia | Atlanta | 4 | Community","protocol":17,"map":"koth_trenchfoot_b1a","folder":"tf","game":"Team Fortress","app_id":440,"player_count":0,"max_players":24,"Bots":0,"server_type":"Dedicated","server_os":"Linux","password":true,"vac":true,"version":"7961495","steam_id":85568392924515188,"keywords":["cp","nocrits","nodmgspread","uncletopia"],"game_id":440,"stv_port":27046,"stv_name":"Uncletopia | Atlanta | 4 | Community | STV","players":null},{"server_id":2,"name":"Uncletopia | Chicago | 1 | All Maps","name_short":"chi-1","host":"chi-1.us.uncletopia.com","port":27015,"enabled":true,"region":"us-central","cc":"us","latitude":41.881832,"longitude":-87.62318,"reserved":0,"last_update":"0001-01-01T00:00:00Z","name_a2s":"Uncletopia | Chicago | 1 | All Maps","protocol":17,"map":"pl_borneo","folder":"tf","game":"Team Fortress","app_id":440,"player_count":20,"max_players":24,"Bots":0,"server_type":"Dedicated","server_os":"Linux","password":true,"vac":true,"version":"7961495","steam_id":85568392924469984,"keywords":["nocrits","nodmgspread","payload","uncletopia"],"game_id":440,"stv_port":27016,"stv_name":"Uncletopia | Chicago | 1 | All Maps | STV","players":[{"user_id":255,"name":"3pac","steam_id":76561198068393322,"connected_time":1939000000000,"state":"active","ping":65},{"user_id":195,"name":"eekum bokum","steam_id":76561198157266273,"connected_time":6248000000000,"state":"active","ping":71},{"user_id":254,"name":"SEER","steam_id":76561198075116015,"connected_time":2051000000000,"state":"active","ping":73},{"user_id":270,"name":"LikeASir","steam_id":76561198042209721,"connected_time":73000000000,"state":"active","ping":45},{"user_id":259,"name":"Derrick Rose","steam_id":76561198449527009,"connected_time":1671000000000,"state":"active","ping":105},{"user_id":269,"name":"chanoc","steam_id":76561198026734746,"connected_time":799000000000,"state":"active","ping":100},{"user_id":200,"name":"LORD CANTI","steam_id":76561198254479725,"connected_time":5764000000000,"state":"active","ping":45},{"user_id":228,"name":"ThePopularLoner3334","steam_id":76561198202436474,"connected_time":4271000000000,"state":"active","ping":58},{"user_id":267,"name":"Asshole","steam_id":76561198012157352,"connected_time":1143000000000,"state":"active","ping":108},{"user_id":265,"name":"Shrake","steam_id":76561198114379995,"connected_time":1263000000000,"state":"active","ping":43},{"user_id":272,"name":"yomommasabitch","steam_id":76561198323217150,"connected_time":68000000000,"state":"active","ping":60},{"user_id":261,"name":"Yayifications","steam_id":76561198066227208,"connected_time":1632000000000,"state":"active","ping":63},{"user_id":257,"name":"PKBEAST_7","steam_id":76561198177136537,"connected_time":1766000000000,"state":"active","ping":88},{"user_id":240,"name":"skrt","steam_id":76561198233984300,"connected_time":2816000000000,"state":"active","ping":45},{"user_id":211,"name":"The Juice","steam_id":76561198065307144,"connected_time":5118000000000,"state":"active","ping":74},{"user_id":258,"name":"Joeyy #1Team","steam_id":76561198284576866,"connected_time":1749000000000,"state":"active","ping":107},{"user_id":245,"name":"real evidence of goblins","steam_id":76561198119536224,"connected_time":2520000000000,"state":"active","ping":90},{"user_id":243,"name":"Mister36","steam_id":76561198019132100,"connected_time":2751000000000,"state":"active","ping":48},{"user_id":271,"name":"Parth Makeo","steam_id":76561198002516581,"connected_time":72000000000,"state":"active","ping":61},{"user_id":263,"name":"Kaluka","steam_id":76561198036861445,"connected_time":1612000000000,"state":"active","ping":70}]},{"server_id":106,"name":"Uncletopia | Chicago | 2 | All Maps","name_short":"chi-2","host":"chi-1.us.uncletopia.com","port":27025,"enabled":true,"region":"us-central","cc":"us","latitude":41.881832,"longitude":-87.62318,"reserved":0,"last_update":"0001-01-01T00:00:00Z","name_a2s":"Uncletopia | Chicago | 2 | All Maps","protocol":17,"map":"koth_viaduct","folder":"tf","game":"Team Fortress","app_id":440,"player_count":0,"max_players":24,"Bots":0,"server_type":"Dedicated","server_os":"Linux","password":true,"vac":true,"version":"7961495","steam_id":85568392924469985,"keywords":["cp","nocrits","nodmgspread","uncletopia"],"game_id":440,"stv_port":27026,"stv_name":"Uncletopia | Chicago | 2 | All Maps | STV","players":null},{"server_id":402,"name":"Uncletopia | Chicago | 3 | All Maps","name_short":"chi-3","host":"chi-1.us.uncletopia.com","port":27035,"enabled":true,"region":"us-central","cc":"us","latitude":41.881832,"longitude":-87.62318,"reserved":0,"last_update":"0001-01-01T00:00:00Z","name_a2s":"Uncletopia | Chicago | 3 | All Maps","protocol":17,"map":"pl_barnblitz","folder":"tf","game":"Team Fortress","app_id":440,"player_count":24,"max_players":24,"Bots":0,"server_type":"Dedicated","server_os":"Linux","password":true,"vac":true,"version":"7961495","steam_id":85568392924515191,"keywords":["nocrits","nodmgspread","payload","uncletopia"],"game_id":440,"stv_port":27036,"stv_name":"Uncletopia | Chicago | 3 | All Maps | STV","players":[{"user_id":138,"name":"Madeline the Mad","steam_id":76561198153456869,"connected_time":3568000000000,"state":"active","ping":66},{"user_id":156,"name":"Spiderfight1","steam_id":76561199189991528,"connected_time":1097000000000,"state":"active","ping":110},{"user_id":165,"name":"shmoney maker","steam_id":76561198241948526,"connected_time":486000000000,"state":"active","ping":61},{"user_id":116,"name":"Egg","steam_id":76561198028157625,"connected_time":4798000000000,"state":"active","ping":87},{"user_id":131,"name":"Unnecessary Toxicity","steam_id":76561198249397292,"connected_time":3956000000000,"state":"active","ping":60},{"user_id":163,"name":"Preacher","steam_id":76561198022215764,"connected_time":656000000000,"state":"active","ping":80},{"user_id":105,"name":"Mecha","steam_id":76561198014927379,"connected_time":5407000000000,"state":"active","ping":83},{"user_id":158,"name":"pimbo jingus","steam_id":76561198275343583,"connected_time":1040000000000,"state":"active","ping":45},{"user_id":149,"name":"he munch","steam_id":76561198339644583,"connected_time":2130000000000,"state":"active","ping":59},{"user_id":143,"name":"Spyincorporated","steam_id":76561198080956951,"connected_time":2992000000000,"state":"active","ping":58},{"user_id":152,"name":"Moophin","steam_id":76561198037797703,"connected_time":1896000000000,"state":"active","ping":72},{"user_id":130,"name":"ModernWelfare","steam_id":76561198154323641,"connected_time":4108000000000,"state":"active","ping":80},{"user_id":148,"name":"Mortal Flame","steam_id":76561198130698418,"connected_time":2390000000000,"state":"active","ping":102},{"user_id":153,"name":"tasty","steam_id":76561198083839061,"connected_time":1837000000000,"state":"active","ping":54},{"user_id":133,"name":"Try Gardening","steam_id":76561198120311340,"connected_time":3850000000000,"state":"active","ping":48},{"user_id":167,"name":"Fobby #Savetf2","steam_id":76561198047681469,"connected_time":282000000000,"state":"active","ping":74},{"user_id":164,"name":"capeeKo","steam_id":76561197970346623,"connected_time":524000000000,"state":"active","ping":74},{"user_id":147,"name":"DamerDoozle","steam_id":76561199121686201,"connected_time":2817000000000,"state":"active","ping":58},{"user_id":166,"name":"Shady Businessman","steam_id":76561198143855968,"connected_time":468000000000,"state":"active","ping":95},{"user_id":135,"name":"Balerion the Black Dread","steam_id":76561198003728369,"connected_time":3820000000000,"state":"active","ping":61},{"user_id":55,"name":"PyroEagle","steam_id":76561198296434231,"connected_time":8552000000000,"state":"active","ping":69},{"user_id":140,"name":"Chaos","steam_id":76561199068325065,"connected_time":3143000000000,"state":"active","ping":98},{"user_id":168,"name":"Boomerish","steam_id":76561198083946878,"connected_time":101000000000,"state":"active","ping":70},{"user_id":162,"name":"Pixeled","steam_id":76561198088917077,"connected_time":669000000000,"state":"active","ping":86}]},{"server_id":403,"name":"Uncletopia | Chicago | 4 | All Maps","name_short":"chi-4","host":"chi-1.us.uncletopia.com","port":27045,"enabled":true,"region":"us-central","cc":"us","latitude":41.881832,"longitude":-87.62318,"reserved":0,"last_update":"0001-01-01T00:00:00Z","name_a2s":"Uncletopia | Chicago | 4 | All Maps","protocol":17,"map":"pl_rumford_event","folder":"tf","game":"Team Fortress","app_id":440,"player_count":20,"max_players":24,"Bots":0,"server_type":"Dedicated","server_os":"Linux","password":true,"vac":true,"version":"7961495","steam_id":85568392924515193,"keywords":["nocrits","nodmgspread","payload","uncletopia"],"game_id":440,"stv_port":27046,"stv_name":"Uncletopia | Chicago | 4 | All Maps | STV","players":[{"user_id":379,"name":"Eblizard","steam_id":76561198111481965,"connected_time":11000000000,"state":"spawning","ping":59},{"user_id":327,"name":"William Wallace","steam_id":76561199343316814,"connected_time":4567000000000,"state":"active","ping":67},{"user_id":366,"name":"Servitz","steam_id":76561198194446835,"connected_time":1064000000000,"state":"spawning","ping":46},{"user_id":359,"name":"finnster531","steam_id":76561198169047546,"connected_time":2456000000000,"state":"active","ping":76},{"user_id":340,"name":"Deantallica","steam_id":76561198287223999,"connected_time":4249000000000,"state":"spawning","ping":61},{"user_id":354,"name":"SwaggerEggs","steam_id":76561199057357191,"connected_time":2589000000000,"state":"active","ping":166},{"user_id":371,"name":"Tosh","steam_id":76561198026948976,"connected_time":895000000000,"state":"active","ping":148},{"user_id":372,"name":"Sergeant Joker #savetf2","steam_id":76561198854616604,"connected_time":672000000000,"state":"active","ping":117},{"user_id":338,"name":"Sunshine","steam_id":76561198885528098,"connected_time":4314000000000,"state":"active","ping":69},{"user_id":368,"name":"::INVEST IN SKYNET::","steam_id":76561198144436132,"connected_time":1039000000000,"state":"active","ping":79},{"user_id":364,"name":"viagra addict","steam_id":76561198017705248,"connected_time":1151000000000,"state":"active","ping":40},{"user_id":355,"name":"Plant Enthusiast","steam_id":76561198045718960,"connected_time":2540000000000,"state":"active","ping":155},{"user_id":373,"name":"eat Pant","steam_id":76561197974965536,"connected_time":562000000000,"state":"active","ping":97},{"user_id":331,"name":"Rustyorion","steam_id":76561198439186347,"connected_time":4453000000000,"state":"active","ping":164},{"user_id":361,"name":"Arcadboi","steam_id":76561199496429311,"connected_time":2400000000000,"state":"spawning","ping":52},{"user_id":360,"name":"Fancyassasin","steam_id":76561198331864258,"connected_time":2455000000000,"state":"spawning","ping":283},{"user_id":343,"name":"Tr1pleA","steam_id":76561198028848587,"connected_time":4033000000000,"state":"active","ping":94},{"user_id":378,"name":"Drew P. Sack","steam_id":76561198036201738,"connected_time":210000000000,"state":"active","ping":58},{"user_id":344,"name":"ƒêƒ™ Ä…ò","steam_id":76561199014715203,"connected_time":3975000000000,"state":"active","ping":122},{"user_id":375,"name":"Dan","steam_id":76561199236719411,"connected_time":351000000000,"state":"active","ping":94}]},{"server_id":36,"name":"Uncletopia | Chicago | 5 | All Maps","name_short":"chi-5","host":"chi-2.us.uncletopia.com","port":27015,"enabled":true,"region":"us-central","cc":"us","latitude":41.881832,"longitude":-87.62318,"reserved":0,"last_update":"0001-01-01T00:00:00Z","name_a2s":"Uncletopia | Chicago | 5 | All Maps","protocol":17,"map":"koth_viaduct","folder":"tf","game":"Team Fortress","app_id":440,"player_count":0,"max_players":24,"Bots":0,"server_type":"Dedicated","server_os":"Linux","password":true,"vac":true,"version":"7961495","steam_id":85568392924866362,"keywords":["cp","nocrits","nodmgspread","uncletopia"],"game_id":440,"stv_port":27016,"stv_name":"Uncletopia | Chicago | 5 | All Maps | STV","players":null},{"server_id":37,"name":"Uncletopia | Chicago | 6 | All Maps","name_short":"chi-6","host":"chi-2.us.uncletopia.com","port":27025,"enabled":true,"region":"us-central","cc":"us","latitude":41.881832,"longitude":-87.62318,"reserved":0,"last_update":"0001-01-01T00:00:00Z","name_a2s":"Uncletopia | Chicago | 6 | All Maps","protocol":17,"map":"pl_frontier_final","folder":"tf","game":"Team Fortress","app_id":440,"player_count":0,"max_players":24,"Bots":0,"server_type":"Dedicated","server_os":"Linux","password":true,"vac":true,"version":"7961495","steam_id":85568392924866363,"keywords":["nocrits","nodmgspread","payload","uncletopia"],"game_id":440,"stv_port":27026,"stv_name":"Uncletopia | Chicago | 6 | All Maps | STV","players":null},{"server_id":38,"name":"Uncletopia | Chicago | 7 | Stopwatch","name_short":"chi-7","host":"chi-2.us.uncletopia.com","port":27035,"enabled":true,"region":"us-central","cc":"us","latitude":41.881832,"longitude":-87.62318,"reserved":0,"last_update":"0001-01-01T00:00:00Z","name_a2s":"Uncletopia | Chicago | 7 | Stopwatch","protocol":17,"map":"pl_badwater","folder":"tf","game":"Team Fortress","app_id":440,"player_count":0,"max_players":24,"Bots":0,"server_type":"Dedicated","server_os":"Linux","password":true,"vac":true,"version":"7961495","steam_id":85568392924866364,"keywords":["nocrits","nodmgspread","payload","uncletopia"],"game_id":440,"stv_port":27036,"stv_name":"Uncletopia | Chicago | 7 | Stopwatch | STV","players":null},{"server_id":39,"name":"Uncletopia | Chicago | 8 | Community","name_short":"chi-8","host":"chi-2.us.uncletopia.com","port":27045,"enabled":true,"region":"us-central","cc":"us","latitude":41.881832,"longitude":-87.62318,"reserved":0,"last_update":"0001-01-01T00:00:00Z","name_a2s":"Uncletopia | Chicago | 8 | Community","protocol":17,"map":"pl_pier","folder":"tf","game":"Team Fortress","app_id":440,"player_count":0,"max_players":24,"Bots":0,"server_type":"Dedicated","server_os":"Linux","password":true,"vac":true,"version":"7961495","steam_id":85568392924866365,"keywords":["nocrits","nodmgspread","payload","uncletopia"],"game_id":440,"stv_port":27046,"stv_name":"Uncletopia | Chicago | 8 | Community | STV","players":null},{"server_id":8,"name":"Uncletopia | Dallas | 1 | All Maps","name_short":"dal-1","host":"dal-1.us.uncletopia.com","port":27015,"enabled":true,"region":"us-central","cc":"us","latitude":32.779167,"longitude":-96.80889,"reserved":0,"last_update":"0001-01-01T00:00:00Z","name_a2s":"Uncletopia | Dallas | 1 | All Maps","protocol":17,"map":"pl_pier","folder":"tf","game":"Team Fortress","app_id":440,"player_count":24,"max_players":24,"Bots":0,"server_type":"Dedicated","server_os":"Linux","password":true,"vac":true,"version":"7961495","steam_id":85568392924469986,"keywords":["nocrits","nodmgspread","payload","uncletopia"],"game_id":440,"stv_port":27016,"stv_name":"Uncletopia | Dallas | 1 | All Maps | STV","players":[{"user_id":118,"name":"muck","steam_id":76561198120437909,"connected_time":1238000000000,"state":"active","ping":44},{"user_id":132,"name":"moe","steam_id":76561198929586245,"connected_time":231000000000,"state":"active","ping":68},{"user_id":109,"name":"here2he1p","steam_id":76561199216977630,"connected_time":1547000000000,"state":"active","ping":112},{"user_id":133,"name":"mud","steam_id":76561199085742317,"connected_time":215000000000,"state":"active","ping":110},{"user_id":111,"name":"koh ‚úß","steam_id":76561198831996918,"connected_time":1422000000000,"state":"active","ping":87},{"user_id":113,"name":"marty","steam_id":76561198032782746,"connected_time":1385000000000,"state":"active","ping":88},{"user_id":119,"name":"IchigoDolphin","steam_id":76561198319769482,"connected_time":1236000000000,"state":"active","ping":173},{"user_id":85,"name":"radicalPolio","steam_id":76561197961561855,"connected_time":2846000000000,"state":"active","ping":45},{"user_id":127,"name":"Jag_Samurott","steam_id":76561198262036126,"connected_time":1102000000000,"state":"active","ping":73},{"user_id":121,"name":"Stick","steam_id":76561198001509374,"connected_time":1224000000000,"state":"active","ping":45},{"user_id":128,"name":"Ham","steam_id":76561197994788427,"connected_time":867000000000,"state":"active","ping":104},{"user_id":126,"name":"D0g","steam_id":76561198165312893,"connected_time":1156000000000,"state":"active","ping":100},{"user_id":122,"name":"Lee-Ch","steam_id":76561198164980622,"connected_time":1221000000000,"state":"active","ping":76},{"user_id":101,"name":"UÃÅntermensch","steam_id":76561198149634242,"connected_time":1875000000000,"state":"active","ping":96},{"user_id":98,"name":"Crack Addict","steam_id":76561198166681494,"connected_time":2286000000000,"state":"active","ping":57},{"user_id":130,"name":"The Grim Heaper","steam_id":76561197987759101,"connected_time":391000000000,"state":"active","ping":109},{"user_id":80,"name":"Terror","steam_id":76561198188685728,"connected_time":3522000000000,"state":"active","ping":64},{"user_id":115,"name":"artichoke","steam_id":76561198980994364,"connected_time":1357000000000,"state":"active","ping":99},{"user_id":131,"name":"Pizza Delivery Maid","steam_id":76561198444610862,"connected_time":382000000000,"state":"active","ping":89},{"user_id":90,"name":"Jazz2T","steam_id":76561198154418867,"connected_time":2708000000000,"state":"active","ping":106},{"user_id":124,"name":"chin chin","steam_id":76561198850458366,"connected_time":1196000000000,"state":"active","ping":84},{"user_id":82,"name":"Tommy Provolone","steam_id":76561198170062377,"connected_time":3485000000000,"state":"active","ping":53},{"user_id":116,"name":"glorpo male","steam_id":76561198110320334,"connected_time":1351000000000,"state":"active","ping":88},{"user_id":125,"name":"LeafyIsHere","steam_id":76561198263271697,"connected_time":1176000000000,"state":"active","ping":69}]},{"server_id":108,"name":"Uncletopia | Dallas | 2 | All Maps","name_short":"dal-2","host":"dal-1.us.uncletopia.com","port":27025,"enabled":true,"region":"us-central","cc":"us","latitude":32.779167,"longitude":-96.80889,"reserved":0,"last_update":"0001-01-01T00:00:00Z","name_a2s":"Uncletopia | Dallas | 2 | All Maps","protocol":17,"map":"pl_frontier_final","folder":"tf","game":"Team Fortress","app_id":440,"player_count":24,"max_players":24,"Bots":0,"server_type":"Dedicated","server_os":"Linux","password":true,"vac":true,"version":"7961495","steam_id":85568392924469988,"keywords":["nocrits","nodmgspread","payload","uncletopia"],"game_id":440,"stv_port":27026,"stv_name":"Uncletopia | Dallas | 2 | All Maps | STV","players":[{"user_id":205,"name":"Rob","steam_id":76561199187786660,"connected_time":1665000000000,"state":"active","ping":56},{"user_id":229,"name":"Just a baby","steam_id":76561198018660838,"connected_time":878000000000,"state":"active","ping":110},{"user_id":207,"name":"Loogey03","steam_id":76561198155483586,"connected_time":1570000000000,"state":"active","ping":69},{"user_id":215,"name":"Pixelated Pussy","steam_id":76561198002511088,"connected_time":1327000000000,"state":"active","ping":99},{"user_id":198,"name":"Legit_Jaxer","steam_id":76561198172234053,"connected_time":1986000000000,"state":"active","ping":101},{"user_id":232,"name":"RandomGavin?","steam_id":76561199102839784,"connected_time":798000000000,"state":"active","ping":107},{"user_id":237,"name":"Decuplets","steam_id":76561198080661586,"connected_time":91000000000,"state":"active","ping":131},{"user_id":178,"name":"Kirby.exe","steam_id":76561198242714582,"connected_time":3827000000000,"state":"active","ping":54},{"user_id":208,"name":"RedCrimsons","steam_id":76561198446060671,"connected_time":1558000000000,"state":"active","ping":82},{"user_id":190,"name":"Missing Minus","steam_id":76561198120822928,"connected_time":2776000000000,"state":"active","ping":63},{"user_id":234,"name":"Unpluggedlamp1","steam_id":76561199059398050,"connected_time":351000000000,"state":"active","ping":72},{"user_id":216,"name":"barbiegirl","steam_id":76561198213450215,"connected_time":1320000000000,"state":"active","ping":86},{"user_id":235,"name":"aHumanBeing","steam_id":76561198852263866,"connected_time":299000000000,"state":"active","ping":90},{"user_id":149,"name":"–≤–Ω–∏–∑ –ø–æ–≥–∞–Ω–æ","steam_id":76561198142819600,"connected_time":5679000000000,"state":"active","ping":45},{"user_id":211,"name":"Cat_Soldier","steam_id":76561198799974610,"connected_time":1529000000000,"state":"active","ping":72},{"user_id":233,"name":"SanitysEdge","steam_id":76561198130732813,"connected_time":635000000000,"state":"active","ping":93},{"user_id":236,"name":"Goose","steam_id":76561198328998533,"connected_time":189000000000,"state":"active","ping":75},{"user_id":217,"name":"Frebresio","steam_id":76561198353493333,"connected_time":1310000000000,"state":"active","ping":106},{"user_id":182,"name":"Sup m8","steam_id":76561198081659121,"connected_time":3659000000000,"state":"active","ping":60},{"user_id":162,"name":"Alkimia","steam_id":76561198385763137,"connected_time":4595000000000,"state":"active","ping":173},{"user_id":202,"name":"Fletcher","steam_id":76561198317846538,"connected_time":1907000000000,"state":"active","ping":91},{"user_id":221,"name":"Lovedaddy","steam_id":76561198006569710,"connected_time":1123000000000,"state":"active","ping":106},{"user_id":135,"name":"ALDOMLG","steam_id":76561198343776095,"connected_time":6274000000000,"state":"active","ping":113},{"user_id":231,"name":"Skeleop","steam_id":76561198981106464,"connected_time":826000000000,"state":"active","ping":95}]},{"server_id":404,"name":"Uncletopia | Dallas | 3 | All Maps","name_short":"dal-3","host":"dal-1.us.uncletopia.com","port":27035,"enabled":true,"region":"us-central","cc":"us","latitude":32.779167,"longitude":-96.80889,"reserved":0,"last_update":"0001-01-01T00:00:00Z","name_a2s":"Uncletopia | Dallas | 3 | All Maps","protocol":17,"map":"pl_badwater","folder":"tf","game":"Team Fortress","app_id":440,"player_count":0,"max_players":24,"Bots":0,"server_type":"Dedicated","server_os":"Linux","password":true,"vac":true,"version":"7961495","steam_id":85568392924515219,"keywords":["nocrits","nodmgspread","payload","uncletopia"],"game_id":440,"stv_port":27036,"stv_name":"Uncletopia | Dallas | 3 | All Maps | STV","players":null},{"server_id":405,"name":"Uncletopia | Dallas | 4 | Community","name_short":"dal-4","host":"dal-1.us.uncletopia.com","port":27045,"enabled":true,"region":"us-central","cc":"us","latitude":32.779167,"longitude":-96.80889,"reserved":0,"last_update":"0001-01-01T00:00:00Z","name_a2s":"Uncletopia | Dallas | 4 | Community","protocol":17,"map":"workshop/cp_mannbase_rc2a.ugc1900737467","folder":"tf","game":"Team Fortress","app_id":440,"player_count":0,"max_players":24,"Bots":0,"server_type":"Dedicated","server_os":"Linux","password":true,"vac":true,"version":"7961495","steam_id":85568392924515220,"keywords":["cp","nocrits","nodmgspread","uncletopia"],"game_id":440,"stv_port":27046,"stv_name":"Uncletopia | Dallas | 4 | Community | STV","players":null},{"server_id":5,"name":"Uncletopia | Frankfurt | 1 | All Maps","name_short":"frk-1","host":"frk-1.de.uncletopia.com","port":27015,"enabled":true,"region":"eu","cc":"de","latitude":50.110924,"longitude":8.682127,"reserved":0,"last_update":"0001-01-01T00:00:00Z","name_a2s":"Uncletopia | Frankfurt | 1 | All Maps","protocol":17,"map":"cp_dustbowl","folder":"tf","game":"Team Fortress","app_id":440,"player_count":14,"max_players":24,"Bots":0,"server_type":"Dedicated","server_os":"Linux","password":true,"vac":true,"version":"7961495","steam_id":85568392924469989,"keywords":["cp","nocrits","nodmgspread","uncletopia"],"game_id":440,"stv_port":27016,"stv_name":"Uncletopia | Frankfurt | 1 | All Maps | STV","players":[{"user_id":621,"name":"-rikeOo-","steam_id":76561198303995379,"connected_time":2229000000000,"state":"active","ping":68},{"user_id":637,"name":"rajAs | Aoeitalia.com","steam_id":76561198035928111,"connected_time":583000000000,"state":"active","ping":70},{"user_id":554,"name":"nekoooooo","steam_id":76561198974207724,"connected_time":7195000000000,"state":"active","ping":108},{"user_id":610,"name":"Richard_HUN","steam_id":76561198299050967,"connected_time":3347000000000,"state":"active","ping":97},{"user_id":643,"name":"pelf","steam_id":76561198023911938,"connected_time":283000000000,"state":"active","ping":43},{"user_id":577,"name":"Lukas","steam_id":76561198454286820,"connected_time":5399000000000,"state":"active","ping":71},{"user_id":645,"name":"emir","steam_id":76561198113089831,"connected_time":48000000000,"state":"active","ping":91},{"user_id":606,"name":"monte","steam_id":76561199075506275,"connected_time":3562000000000,"state":"active","ping":60},{"user_id":622,"name":"Labracababrador","steam_id":76561198255280285,"connected_time":2213000000000,"state":"active","ping":83},{"user_id":646,"name":"Bazooka-Charlie","steam_id":76561198080776269,"connected_time":46000000000,"state":"active","ping":98},{"user_id":576,"name":"Bunnygirl Stalin","steam_id":76561199044101274,"connected_time":5423000000000,"state":"active","ping":61},{"user_id":647,"name":"LizCul","steam_id":76561198024436969,"connected_time":28000000000,"state":"active","ping":47},{"user_id":615,"name":"RattaGams","steam_id":76561198866259365,"connected_time":2688000000000,"state":"active","ping":96},{"user_id":636,"name":"HwK!","steam_id":76561198287835588,"connected_time":712000000000,"state":"active","ping":85}]},{"server_id":110,"name":"Uncletopia | Frankfurt | 2 | All Maps","name_short":"frk-2","host":"frk-1.de.uncletopia.com","port":27025,"enabled":true,"region":"eu","cc":"de","latitude":50.110924,"longitude":8.682127,"reserved":0,"last_update":"0001-01-01T00:00:00Z","name_a2s":"Uncletopia | Frankfurt | 2 | All Maps","protocol":17,"map":"cp_gravelpit","folder":"tf","game":"Team Fortress","app_id":440,"player_count":25,"max_players":24,"Bots":0,"server_type":"Dedicated","server_os":"Linux","password":true,"vac":true,"version":"7961495","steam_id":85568392924469990,"keywords":["cp","nocrits","nodmgspread","uncletopia"],"game_id":440,"stv_port":27026,"stv_name":"Uncletopia | Frankfurt | 2 | All Maps | STV","players":[{"user_id":526,"name":"XuMuK","steam_id":76561198102102340,"connected_time":1009000000000,"state":"active","ping":73},{"user_id":527,"name":"Killer13","steam_id":76561198303460133,"connected_time":981000000000,"state":"active","ping":125},{"user_id":550,"name":"MossHornet","steam_id":76561198137482608,"connected_time":145000000000,"state":"active","ping":89},{"user_id":524,"name":"Rock..","steam_id":76561198004641963,"connected_time":1064000000000,"state":"active","ping":81},{"user_id":396,"name":"Caliban","steam_id":76561197999696839,"connected_time":9991000000000,"state":"active","ping":100},{"user_id":517,"name":"Nugget","steam_id":76561198338916407,"connected_time":1646000000000,"state":"active","ping":73},{"user_id":480,"name":"Medium sized Cunt","steam_id":76561199012566222,"connected_time":5098000000000,"state":"active","ping":49},{"user_id":525,"name":"SSoppen","steam_id":76561198027245969,"connected_time":1041000000000,"state":"active","ping":72},{"user_id":528,"name":"moseley519","steam_id":76561198045485374,"connected_time":974000000000,"state":"active","ping":56},{"user_id":509,"name":"Bonca","steam_id":76561198137503531,"connected_time":2442000000000,"state":"active","ping":75},{"user_id":530,"name":"Towarish Stalin","steam_id":76561199406207941,"connected_time":829000000000,"state":"active","ping":111},{"user_id":531,"name":"Master Of Noob","steam_id":76561198217926783,"connected_time":828000000000,"state":"active","ping":65},{"user_id":532,"name":"Venenakki","steam_id":76561198311526482,"connected_time":825000000000,"state":"active","ping":80},{"user_id":504,"name":"Amon Gus","steam_id":76561199094540960,"connected_time":2630000000000,"state":"active","ping":84},{"user_id":510,"name":"glorpis","steam_id":76561199225333422,"connected_time":2384000000000,"state":"active","ping":60},{"user_id":534,"name":"Pelaxis„ÉÑ","steam_id":76561198180030121,"connected_time":686000000000,"state":"active","ping":70},{"user_id":535,"name":"yanqqo","steam_id":76561198129847626,"connected_time":675000000000,"state":"active","ping":54},{"user_id":542,"name":"Burpman","steam_id":76561198022897937,"connected_time":433000000000,"state":"active","ping":61},{"user_id":476,"name":"cactus_octoling","steam_id":76561198837919828,"connected_time":5295000000000,"state":"active","ping":104},{"user_id":537,"name":"buta dawg","steam_id":76561199360569873,"connected_time":670000000000,"state":"active","ping":62},{"user_id":539,"name":"Magirby","steam_id":76561198818777390,"connected_time":584000000000,"state":"active","ping":122},{"user_id":543,"name":"Mischail","steam_id":76561198016127010,"connected_time":418000000000,"state":"active","ping":70},{"user_id":545,"name":"ttk","steam_id":76561198094684065,"connected_time":399000000000,"state":"active","ping":71},{"user_id":556,"name":"cargo_conductor_754","steam_id":76561198165604007,"connected_time":5000000000,"state":"spawning","ping":35},{"user_id":548,"name":"Bodolaz","steam_id":76561198031327763,"connected_time":199000000000,"state":"active","ping":80}]},{"server_id":308,"name":"Uncletopia | Frankfurt | 3 | All Maps","name_short":"frk-3","host":"frk-1.de.uncletopia.com","port":27035,"enabled":true,"region":"eu","cc":"de","latitude":50.110924,"longitude":8.682127,"reserved":0,"last_update":"0001-01-01T00:00:00Z","name_a2s":"Uncletopia | Frankfurt | 3 | All Maps","protocol":17,"map":"pl_barnblitz","folder":"tf","game":"Team Fortress","app_id":440,"player_count":24,"max_players":24,"Bots":0,"server_type":"Dedicated","server_os":"Linux","password":true,"vac":true,"version":"7961495","steam_id":85568392924504274,"keywords":["nocrits","nodmgspread","payload","uncletopia"],"game_id":440,"stv_port":27036,"stv_name":"Uncletopia | Frankfurt | 3 | All Maps | STV","players":[{"user_id":149,"name":"Pohnut","steam_id":76561198087831690,"connected_time":3625000000000,"state":"active","ping":59},{"user_id":189,"name":"Coja","steam_id":76561198083974982,"connected_time":711000000000,"state":"active","ping":75},{"user_id":190,"name":"chrome heart","steam_id":76561198101978330,"connected_time":663000000000,"state":"active","ping":66},{"user_id":186,"name":"xavier","steam_id":76561198076494034,"connected_time":848000000000,"state":"active","ping":57},{"user_id":180,"name":"Average Trader","steam_id":76561199179702903,"connected_time":1147000000000,"state":"active","ping":143},{"user_id":191,"name":"S ü…™·¥òE…¥O Ä","steam_id":76561197967931911,"connected_time":609000000000,"state":"active","ping":107},{"user_id":90,"name":"Kylul_","steam_id":76561198042981061,"connected_time":7492000000000,"state":"active","ping":45},{"user_id":185,"name":"WORLIII","steam_id":76561198860027061,"connected_time":902000000000,"state":"active","ping":63},{"user_id":192,"name":"Urfangonultasadana","steam_id":76561199389286151,"connected_time":600000000000,"state":"active","ping":98},{"user_id":177,"name":"Thors","steam_id":76561197968739075,"connected_time":1460000000000,"state":"active","ping":45},{"user_id":139,"name":"Time-Green","steam_id":76561198133937444,"connected_time":4282000000000,"state":"active","ping":71},{"user_id":183,"name":"bhopping retard","steam_id":76561199208403146,"connected_time":1014000000000,"state":"active","ping":128},{"user_id":146,"name":"Estamie","steam_id":76561198058527691,"connected_time":4064000000000,"state":"active","ping":68},{"user_id":169,"name":"Professional facestab","steam_id":76561198258721056,"connected_time":2103000000000,"state":"active","ping":50},{"user_id":196,"name":"Udinese Dion","steam_id":76561198067931573,"connected_time":104000000000,"state":"active","ping":53},{"user_id":195,"name":"flr","steam_id":76561198249327786,"connected_time":415000000000,"state":"active","ping":90},{"user_id":162,"name":"TheBeardedM1G","steam_id":76561198040208946,"connected_time":2713000000000,"state":"active","ping":105},{"user_id":194,"name":"Darkf065","steam_id":76561199029257202,"connected_time":569000000000,"state":"active","ping":104},{"user_id":187,"name":"Rarky","steam_id":76561198054398642,"connected_time":786000000000,"state":"active","ping":45},{"user_id":170,"name":"Avak","steam_id":76561198196506951,"connected_time":2092000000000,"state":"active","ping":164},{"user_id":143,"name":"Spetse","steam_id":76561197990649972,"connected_time":4149000000000,"state":"active","ping":85},{"user_id":167,"name":"Chloemew","steam_id":76561198042071762,"connected_time":2237000000000,"state":"active","ping":60},{"user_id":179,"name":"Galex","steam_id":76561198045637579,"connected_time":1279000000000,"state":"active","ping":47},{"user_id":184,"name":"Szeregowy LowiRyb","steam_id":76561198855967762,"connected_time":918000000000,"state":"active","ping":123}]},{"server_id":309,"name":"Uncletopia | Frankfurt | 4 | All Maps","name_short":"frk-4","host":"frk-1.de.uncletopia.com","port":27045,"enabled":true,"region":"eu","cc":"de","latitude":50.110924,"longitude":8.682127,"reserved":0,"last_update":"0001-01-01T00:00:00Z","name_a2s":"Uncletopia | Frankfurt | 4 | All Maps","protocol":17,"map":"pl_upward","folder":"tf","game":"Team Fortress","app_id":440,"player_count":24,"max_players":24,"Bots":0,"server_type":"Dedicated","server_os":"Linux","password":true,"vac":true,"version":"7961495","steam_id":85568392924504275,"keywords":["nocrits","nodmgspread","payload","uncletopia"],"game_id":440,"stv_port":27046,"stv_name":"Uncletopia | Frankfurt | 4 | All Maps | STV","players":[{"user_id":146,"name":"Lyell","steam_id":76561198350329389,"connected_time":120000000000,"state":"active","ping":85},{"user_id":133,"name":"mid keef","steam_id":76561198235739036,"connected_time":802000000000,"state":"active","ping":69},{"user_id":135,"name":"ScoutPilgrim","steam_id":76561198013007215,"connected_time":780000000000,"state":"active","ping":58},{"user_id":116,"name":"KajaStorm","steam_id":76561199215842872,"connected_time":3138000000000,"state":"active","ping":131},{"user_id":145,"name":"CLIF Bar Blueberry Crisp","steam_id":76561198060339391,"connected_time":180000000000,"state":"active","ping":45},{"user_id":141,"name":"Star in a pond","steam_id":76561198205501279,"connected_time":548000000000,"state":"active","ping":84},{"user_id":136,"name":"Deku Grazony","steam_id":76561198006785844,"connected_time":732000000000,"state":"active","ping":148},{"user_id":143,"name":"a grilled cheese","steam_id":76561198277039351,"connected_time":453000000000,"state":"active","ping":43},{"user_id":142,"name":"Mr. Luigi","steam_id":76561198167312951,"connected_time":522000000000,"state":"active","ping":50},{"user_id":147,"name":"Donki Wonki","steam_id":76561198327761273,"connected_time":93000000000,"state":"active","ping":72},{"user_id":66,"name":"Bottle O' Scrumpy","steam_id":76561199244250562,"connected_time":5432000000000,"state":"active","ping":106},{"user_id":128,"name":"Zu","steam_id":76561198054192354,"connected_time":2214000000000,"state":"active","ping":46},{"user_id":42,"name":"Flohr","steam_id":76561198191948841,"connected_time":6565000000000,"state":"active","ping":53},{"user_id":148,"name":"xva","steam_id":76561198969286813,"connected_time":18000000000,"state":"active","ping":60},{"user_id":98,"name":"Masster","steam_id":76561198136111053,"connected_time":4347000000000,"state":"active","ping":88},{"user_id":72,"name":"MDehh","steam_id":76561198057745208,"connected_time":5363000000000,"state":"active","ping":59},{"user_id":122,"name":"Dokuro","steam_id":76561198005413903,"connected_time":2911000000000,"state":"active","ping":65},{"user_id":99,"name":"‡πñSectant","steam_id":76561198278440393,"connected_time":4320000000000,"state":"active","ping":85},{"user_id":144,"name":"onyx","steam_id":76561198951028333,"connected_time":265000000000,"state":"active","ping":85},{"user_id":110,"name":"Tichy‚òÜ","steam_id":76561198026218934,"connected_time":3844000000000,"state":"active","ping":56},{"user_id":131,"name":"Boba","steam_id":76561198369465924,"connected_time":1855000000000,"state":"active","ping":65},{"user_id":140,"name":"Noob_with_source","steam_id":76561198870362103,"connected_time":684000000000,"state":"active","ping":60},{"user_id":71,"name":"‚Ä†ùî•e œâoo","steam_id":76561198929808815,"connected_time":5396000000000,"state":"active","ping":45},{"user_id":120,"name":"Lucky B.üèÜ","steam_id":76561198077571162,"connected_time":3116000000000,"state":"active","ping":62}]},{"server_id":310,"name":"Uncletopia | Frankfurt | 5 | All Maps","name_short":"frk-5","host":"frk-1.de.uncletopia.com","port":27055,"enabled":true,"region":"eu","cc":"de","latitude":50.110924,"longitude":8.682127,"reserved":0,"last_update":"0001-01-01T00:00:00Z","name_a2s":"Uncletopia | Frankfurt | 5 | All Maps","protocol":17,"map":"pl_barnblitz","folder":"tf","game":"Team Fortress","app_id":440,"player_count":24,"max_players":24,"Bots":0,"server_type":"Dedicated","server_os":"Linux","password":true,"vac":true,"version":"7961495","steam_id":85568392924504277,"keywords":["nocrits","nodmgspread","payload","uncletopia"],"game_id":440,"stv_port":27056,"stv_name":"Uncletopia | Frankfurt | 5 | All Maps | STV","players":[{"user_id":401,"name":"Merca #savetf2","steam_id":76561198088782472,"connected_time":1466000000000,"state":"active","ping":52},{"user_id":417,"name":"lord_dracoft12","steam_id":76561199243262243,"connected_time":249000000000,"state":"active","ping":66},{"user_id":344,"name":"Threon","steam_id":76561198826783545,"connected_time":4902000000000,"state":"active","ping":90},{"user_id":413,"name":"Dukebox","steam_id":76561197977447291,"connected_time":936000000000,"state":"active","ping":75},{"user_id":398,"name":"eldaou2009","steam_id":76561198966358094,"connected_time":1611000000000,"state":"active","ping":56},{"user_id":396,"name":"squareky","steam_id":76561198433980384,"connected_time":1720000000000,"state":"active","ping":60},{"user_id":390,"name":"Erection Man","steam_id":76561198021714542,"connected_time":2231000000000,"state":"active","ping":60},{"user_id":419,"name":"YOU ARE SHITTING YOUR SELF","steam_id":76561198371719058,"connected_time":196000000000,"state":"active","ping":64},{"user_id":403,"name":"Moondrop","steam_id":76561199421181719,"connected_time":1405000000000,"state":"active","ping":66},{"user_id":415,"name":"Rigby","steam_id":76561198021552128,"connected_time":607000000000,"state":"active","ping":94},{"user_id":405,"name":"lore","steam_id":76561198120984188,"connected_time":1373000000000,"state":"active","ping":59},{"user_id":352,"name":"esheen","steam_id":76561198139376665,"connected_time":4741000000000,"state":"active","ping":61},{"user_id":418,"name":"Kestrel","steam_id":76561198144033005,"connected_time":217000000000,"state":"active","ping":66},{"user_id":414,"name":"Monkey","steam_id":76561199008411791,"connected_time":765000000000,"state":"active","ping":57},{"user_id":395,"name":"RatJam","steam_id":76561199030279432,"connected_time":1877000000000,"state":"active","ping":72},{"user_id":410,"name":"ok","steam_id":76561198044451693,"connected_time":1302000000000,"state":"active","ping":124},{"user_id":422,"name":"Lukas","steam_id":76561198009118452,"connected_time":81000000000,"state":"active","ping":61},{"user_id":420,"name":"Dewotter","steam_id":76561198007653168,"connected_time":137000000000,"state":"active","ping":70},{"user_id":408,"name":"Sergeant_cross","steam_id":76561198148270425,"connected_time":1371000000000,"state":"active","ping":68},{"user_id":409,"name":"LOBZIK","steam_id":76561198114830120,"connected_time":1366000000000,"state":"active","ping":76},{"user_id":397,"name":"Zazou","steam_id":76561198028076362,"connected_time":1720000000000,"state":"active","ping":60},{"user_id":421,"name":"Tohtori gerhard (official)","steam_id":76561198835081622,"connected_time":106000000000,"state":"active","ping":89},{"user_id":423,"name":"Testicular torsion","steam_id":76561198119547399,"connected_time":19000000000,"state":"spawning","ping":47},{"user_id":424,"name":"Wepto","steam_id":76561198009536306,"connected_time":17000000000,"state":"spawning","ping":48}]},{"server_id":311,"name":"Uncletopia | Frankfurt | 6 | All Maps","name_short":"frk-6","host":"frk-1.de.uncletopia.com","port":27065,"enabled":true,"region":"eu","cc":"de","latitude":50.110924,"longitude":8.682127,"reserved":0,"last_update":"0001-01-01T00:00:00Z","name_a2s":"Uncletopia | Frankfurt | 6 | All Maps","protocol":17,"map":"pl_badwater","folder":"tf","game":"Team Fortress","app_id":440,"player_count":24,"max_players":24,"Bots":0,"server_type":"Dedicated","server_os":"Linux","password":true,"vac":true,"version":"7961495","steam_id":85568392924504278,"keywords":["nocrits","nodmgspread","payload","uncletopia"],"game_id":440,"stv_port":27066,"stv_name":"Uncletopia | Frankfurt | 6 | All Maps | STV","players":[{"user_id":446,"name":"Coke Zero","steam_id":76561198158562873,"connected_time":3256000000000,"state":"active","ping":59},{"user_id":473,"name":"chillrend_morphs_high_lod6","steam_id":76561198452963141,"connected_time":699000000000,"state":"active","ping":74},{"user_id":455,"name":"Towercat","steam_id":76561198013141793,"connected_time":2364000000000,"state":"active","ping":65},{"user_id":405,"name":"Cookies and Bakies","steam_id":76561198017442928,"connected_time":5089000000000,"state":"active","ping":56},{"user_id":472,"name":"The Daniella","steam_id":76561198023075547,"connected_time":922000000000,"state":"active","ping":64},{"user_id":410,"name":"r0la","steam_id":76561198128315340,"connected_time":4770000000000,"state":"active","ping":93},{"user_id":474,"name":"Hey, I¬¥m Andy!","steam_id":76561198060337777,"connected_time":673000000000,"state":"active","ping":79},{"user_id":475,"name":"Sir William Gaming","steam_id":76561198037676472,"connected_time":651000000000,"state":"active","ping":84},{"user_id":465,"name":"noot","steam_id":76561198148074472,"connected_time":1659000000000,"state":"active","ping":44},{"user_id":450,"name":"SpyAssassin","steam_id":76561198204572396,"connected_time":2853000000000,"state":"active","ping":68},{"user_id":445,"name":"steck","steam_id":76561197973948113,"connected_time":3360000000000,"state":"active","ping":53},{"user_id":478,"name":"jerry","steam_id":76561199180176442,"connected_time":106000000000,"state":"active","ping":63},{"user_id":457,"name":"Lanky Hank","steam_id":76561198124243120,"connected_time":2294000000000,"state":"active","ping":65},{"user_id":437,"name":"Arsonist","steam_id":76561199087953833,"connected_time":3534000000000,"state":"active","ping":103},{"user_id":451,"name":"Rodak","steam_id":76561199135986344,"connected_time":2719000000000,"state":"active","ping":65},{"user_id":448,"name":"Hinterhofschubser","steam_id":76561198366679963,"connected_time":2985000000000,"state":"active","ping":59},{"user_id":416,"name":"real videogamer (real)","steam_id":76561198053929269,"connected_time":4503000000000,"state":"active","ping":78},{"user_id":463,"name":"bigwish | bmod.tf","steam_id":76561197997859723,"connected_time":1761000000000,"state":"active","ping":74},{"user_id":471,"name":"waizukaan","steam_id":76561198119210003,"connected_time":1166000000000,"state":"active","ping":105},{"user_id":452,"name":"HADID_sex_god","steam_id":76561198302623594,"connected_time":2698000000000,"state":"active","ping":90},{"user_id":469,"name":"Krisalex","steam_id":76561199109721742,"connected_time":1565000000000,"state":"active","ping":91},{"user_id":424,"name":"kelm","steam_id":76561198027166144,"connected_time":4388000000000,"state":"active","ping":77},{"user_id":470,"name":"Sexsmith","steam_id":76561197992927989,"connected_time":1549000000000,"state":"active","ping":106},{"user_id":468,"name":"raz i guess","steam_id":76561198147277460,"connected_time":1645000000000,"state":"active","ping":54}]},{"server_id":23,"name":"Uncletopia | Frankfurt | 7 | Stopwatch","name_short":"frk-7","host":"frk-1.de.uncletopia.com","port":27075,"enabled":true,"region":"eu","cc":"de","latitude":50.110924,"longitude":8.682127,"reserved":0,"last_update":"0001-01-01T00:00:00Z","name_a2s":"Uncletopia | Frankfurt | 7 | Stopwatch","protocol":17,"map":"cp_process_final","folder":"tf","game":"Team Fortress","app_id":440,"player_count":14,"max_players":24,"Bots":0,"server_type":"Dedicated","server_os":"Linux","password":true,"vac":true,"version":"7961495","steam_id":85568392924742827,"keywords":["cp","nocrits","nodmgspread","uncletopia"],"game_id":440,"stv_port":27076,"stv_name":"Uncletopia | Frankfurt | 7 | Stopwatch | STV","players":[{"user_id":189,"name":"fastmilkman","steam_id":76561199088071591,"connected_time":1430000000000,"state":"active","ping":45},{"user_id":219,"name":"JackTEM07","steam_id":76561198085468343,"connected_time":53000000000,"state":"active","ping":80},{"user_id":199,"name":"blessed 240hz gameplay","steam_id":76561198033695429,"connected_time":1089000000000,"state":"active","ping":59},{"user_id":215,"name":"Milosz52","steam_id":76561199060940204,"connected_time":339000000000,"state":"active","ping":81},{"user_id":207,"name":"Yobopan","steam_id":76561198088064860,"connected_time":866000000000,"state":"active","ping":68},{"user_id":86,"name":"Fum","steam_id":76561198301816090,"connected_time":5209000000000,"state":"active","ping":71},{"user_id":213,"name":"Patch","steam_id":76561198217360709,"connected_time":447000000000,"state":"active","ping":61},{"user_id":214,"name":"Nithle","steam_id":76561198025372740,"connected_time":421000000000,"state":"active","ping":45},{"user_id":216,"name":"r@","steam_id":76561198070203221,"connected_time":306000000000,"state":"active","ping":60},{"user_id":217,"name":"Yellowtt","steam_id":76561198374834340,"connected_time":266000000000,"state":"active","ping":74},{"user_id":218,"name":"MrBanana","steam_id":76561198116021623,"connected_time":168000000000,"state":"active","ping":49},{"user_id":73,"name":"Yrj√∂ Koskinen Yrj√∂-Koskinen","steam_id":76561198368181145,"connected_time":5635000000000,"state":"active","ping":75},{"user_id":208,"name":"Daan77","steam_id":76561198129940468,"connected_time":856000000000,"state":"active","ping":71},{"user_id":182,"name":"Scientific Triumph","steam_id":76561198815127418,"connected_time":1659000000000,"state":"active","ping":84}]},{"server_id":24,"name":"Uncletopia | Frankfurt | 8 | Community","name_short":"frk-8","host":"frk-1.de.uncletopia.com","port":27085,"enabled":true,"region":"eu","cc":"de","latitude":50.110924,"longitude":8.682127,"reserved":0,"last_update":"0001-01-01T00:00:00Z","name_a2s":"Uncletopia | Frankfurt | 8 | Community","protocol":17,"map":"workshop/pl_emerge_rc2.ugc888027758","folder":"tf","game":"Team Fortress","app_id":440,"player_count":1,"max_players":24,"Bots":0,"server_type":"Dedicated","server_os":"Linux","password":true,"vac":true,"version":"7961495","steam_id":85568392924742828,"keywords":["nocrits","nodmgspread","payload","uncletopia"],"game_id":440,"stv_port":27086,"stv_name":"Uncletopia | Frankfurt | 8 | Community | STV","players":[{"user_id":30,"name":"Nessieling","steam_id":76561198083556891,"connected_time":29000000000,"state":"active","ping":81}]},{"server_id":202,"name":"Uncletopia | Hong Kong | 1 | All Maps","name_short":"hgk-1","host":"hgk-1.hk.uncletopia.com","port":27015,"enabled":true,"region":"asia","cc":"hk","latitude":22.302711,"longitude":114.177216,"reserved":0,"last_update":"0001-01-01T00:00:00Z","name_a2s":"Uncletopia | Hong Kong | 1 | All Maps","protocol":17,"map":"koth_cascade","folder":"tf","game":"Team Fortress","app_id":440,"player_count":0,"max_players":24,"Bots":0,"server_type":"Dedicated","server_os":"Linux","password":true,"vac":true,"version":"7961495","steam_id":85568392924494504,"keywords":["cp","nocrits","nodmgspread","uncletopia"],"game_id":440,"stv_port":27016,"stv_name":"Uncletopia | Hong Kong | 1 | All Maps | STV","players":null},{"server_id":1,"name":"Uncletopia | Los Angeles | 1 | All Maps","name_short":"lax-1","host":"lax-1.us.uncletopia.com","port":27015,"enabled":true,"region":"us-west","cc":"us","latitude":33.94279,"longitude":-118.41004,"reserved":0,"last_update":"0001-01-01T00:00:00Z","name_a2s":"Uncletopia | Los Angeles | 1 | All Maps","protocol":17,"map":"cp_snakewater_final1","folder":"tf","game":"Team Fortress","app_id":440,"player_count":0,"max_players":24,"Bots":0,"server_type":"Dedicated","server_os":"Linux","password":true,"vac":true,"version":"7961495","steam_id":85568392924469991,"keywords":["cp","nocrits","nodmgspread","uncletopia"],"game_id":440,"stv_port":27016,"stv_name":"Uncletopia | Los Angeles | 1 | All Maps | STV","players":null},{"server_id":112,"name":"Uncletopia | Los Angeles | 2 | All Maps","name_short":"lax-2","host":"lax-1.us.uncletopia.com","port":27025,"enabled":true,"region":"us-west","cc":"us","latitude":33.94279,"longitude":-118.41004,"reserved":0,"last_update":"0001-01-01T00:00:00Z","name_a2s":"Uncletopia | Los Angeles | 2 | All Maps","protocol":17,"map":"cp_mountainlab","folder":"tf","game":"Team Fortress","app_id":440,"player_count":0,"max_players":24,"Bots":0,"server_type":"Dedicated","server_os":"Linux","password":true,"vac":true,"version":"7961495","steam_id":85568392924469992,"keywords":["cp","nocrits","nodmgspread","uncletopia"],"game_id":440,"stv_port":27026,"stv_name":"Uncletopia | Los Angeles | 2 | All Maps | STV","players":null},{"server_id":324,"name":"Uncletopia | Los Angeles | 3 | All Maps","name_short":"lax-3","host":"lax-1.us.uncletopia.com","port":27035,"enabled":true,"region":"us-west","cc":"us","latitude":33.94279,"longitude":-118.41004,"reserved":0,"last_update":"0001-01-01T00:00:00Z","name_a2s":"Uncletopia | Los Angeles | 3 | All Maps","protocol":17,"map":"pl_frontier_final","folder":"tf","game":"Team Fortress","app_id":440,"player_count":0,"max_players":24,"Bots":0,"server_type":"Dedicated","server_os":"Linux","password":true,"vac":true,"version":"7961495","steam_id":85568392924510198,"keywords":["nocrits","nodmgspread","payload","uncletopia"],"game_id":440,"stv_port":27036,"stv_name":"Uncletopia | Los Angeles | 3 | All Maps | STV","players":null},{"server_id":25,"name":"Uncletopia | Los Angeles | 4 | Stopwatch","name_short":"lax-4","host":"lax-1.us.uncletopia.com","port":27045,"enabled":true,"region":"us-west","cc":"us","latitude":33.94279,"longitude":-118.41004,"reserved":0,"last_update":"0001-01-01T00:00:00Z","name_a2s":"Uncletopia | Los Angeles | 4 | Stopwatch","protocol":17,"map":"pl_barnblitz","folder":"tf","game":"Team Fortress","app_id":440,"player_count":0,"max_players":24,"Bots":0,"server_type":"Dedicated","server_os":"Linux","password":true,"vac":true,"version":"7961495","steam_id":85568392924510199,"keywords":["nocrits","nodmgspread","payload","uncletopia"],"game_id":440,"stv_port":27046,"stv_name":"Uncletopia | Los Angeles | 4 | Stopwatch | STV","players":null},{"server_id":11,"name":"Uncletopia | London | 1 | All Maps","name_short":"lon-1","host":"lon-1.uk.uncletopia.com","port":27015,"enabled":true,"region":"eu","cc":"gb","latitude":51.509865,"longitude":-0.118092,"reserved":0,"last_update":"0001-01-01T00:00:00Z","name_a2s":"Uncletopia | London | 1 | All Maps","protocol":17,"map":"pl_thundermountain","folder":"tf","game":"Team Fortress","app_id":440,"player_count":24,"max_players":24,"Bots":0,"server_type":"Dedicated","server_os":"Linux","password":true,"vac":true,"version":"7961495","steam_id":85568392924367362,"keywords":["nocrits","nodmgspread","payload","uncletopia"],"game_id":440,"stv_port":27016,"stv_name":"Uncletopia | London | 1 | All Maps | STV","players":[{"user_id":531,"name":"Rizo","steam_id":76561198243299962,"connected_time":751000000000,"state":"active","ping":83},{"user_id":478,"name":"ein","steam_id":76561198152162834,"connected_time":5260000000000,"state":"active","ping":100},{"user_id":535,"name":"Greg_M74","steam_id":76561198823492311,"connected_time":399000000000,"state":"active","ping":120},{"user_id":489,"name":"ShebiHeart","steam_id":76561198420207307,"connected_time":4326000000000,"state":"active","ping":63},{"user_id":517,"name":"SpacePig","steam_id":76561198044662873,"connected_time":2253000000000,"state":"active","ping":100},{"user_id":538,"name":"That Bussy Can Squirt","steam_id":76561199185615752,"connected_time":310000000000,"state":"active","ping":55},{"user_id":523,"name":"map","steam_id":76561198370196400,"connected_time":1322000000000,"state":"active","ping":89},{"user_id":530,"name":"filo","steam_id":76561198103633797,"connected_time":934000000000,"state":"active","ping":96},{"user_id":537,"name":"kreeekz","steam_id":76561198014431602,"connected_time":334000000000,"state":"active","ping":73},{"user_id":508,"name":"quickfast","steam_id":76561199438900919,"connected_time":3071000000000,"state":"active","ping":43},{"user_id":516,"name":"Gioni","steam_id":76561198395912581,"connected_time":2596000000000,"state":"active","ping":108},{"user_id":482,"name":"Dr. Funkenstein","steam_id":76561197977816210,"connected_time":4954000000000,"state":"active","ping":70},{"user_id":524,"name":"jermany","steam_id":76561198126599355,"connected_time":1321000000000,"state":"active","ping":61},{"user_id":525,"name":"GASH, RAT KING","steam_id":76561198986549968,"connected_time":1319000000000,"state":"active","ping":71},{"user_id":528,"name":"uwu","steam_id":76561199058284787,"connected_time":1287000000000,"state":"active","ping":136},{"user_id":515,"name":"KnugenIV","steam_id":76561198127091993,"connected_time":2702000000000,"state":"active","ping":62},{"user_id":366,"name":"shooer!","steam_id":76561198110531281,"connected_time":12454000000000,"state":"active","ping":69},{"user_id":536,"name":"Lorents","steam_id":76561198796919618,"connected_time":398000000000,"state":"active","ping":62},{"user_id":529,"name":"Stunner/John „ÉÑ","steam_id":76561199085822219,"connected_time":1286000000000,"state":"active","ping":87},{"user_id":532,"name":"Kodama#SaveTF2","steam_id":76561199260499934,"connected_time":747000000000,"state":"active","ping":45},{"user_id":512,"name":"Texas Red","steam_id":76561199069782779,"connected_time":2897000000000,"state":"active","ping":71},{"user_id":522,"name":"‚ù§Ô∏éWarMole‚ù§","steam_id":76561198104248760,"connected_time":1672000000000,"state":"active","ping":71},{"user_id":519,"name":"YARrICk.¬´+¬ª","steam_id":76561197990126485,"connected_time":2218000000000,"state":"active","ping":61},{"user_id":534,"name":"Aaron","steam_id":76561197990046953,"connected_time":711000000000,"state":"active","ping":61}]},{"server_id":114,"name":"Uncletopia | London | 2 | All Maps","name_short":"lon-2","host":"lon-1.uk.uncletopia.com","port":27025,"enabled":true,"region":"eu","cc":"gb","latitude":51.509865,"longitude":-0.118092,"reserved":0,"last_update":"0001-01-01T00:00:00Z","name_a2s":"Uncletopia | London | 2 | All Maps","protocol":17,"map":"cp_sunshine","folder":"tf","game":"Team Fortress","app_id":440,"player_count":24,"max_players":24,"Bots":0,"server_type":"Dedicated","server_os":"Linux","password":true,"vac":true,"version":"7961495","steam_id":85568392924470941,"keywords":["cp","nocrits","nodmgspread","uncletopia"],"game_id":440,"stv_port":27026,"stv_name":"Uncletopia | London | 2 | All Maps | STV","players":[{"user_id":434,"name":"Solawep","steam_id":76561198026304692,"connected_time":474000000000,"state":"active","ping":66},{"user_id":426,"name":"MostSereneDogeBestDoge","steam_id":76561198061196566,"connected_time":1352000000000,"state":"active","ping":61},{"user_id":443,"name":"Big Basti","steam_id":76561198261804144,"connected_time":92000000000,"state":"active","ping":71},{"user_id":422,"name":"Velvet | BNKR","steam_id":76561198282866752,"connected_time":1669000000000,"state":"active","ping":92},{"user_id":444,"name":"JohkupohkuXD","steam_id":76561198391108762,"connected_time":3000000000,"state":"spawning","ping":83},{"user_id":388,"name":"Jane Doe","steam_id":76561198058675116,"connected_time":4301000000000,"state":"active","ping":52},{"user_id":423,"name":"trobin120","steam_id":76561199122420273,"connected_time":1646000000000,"state":"active","ping":116},{"user_id":431,"name":"drwhut","steam_id":76561198070218857,"connected_time":947000000000,"state":"active","ping":34},{"user_id":437,"name":"Fridge","steam_id":76561198071665589,"connected_time":259000000000,"state":"active","ping":98},{"user_id":435,"name":"gg stands for","steam_id":76561198316355509,"connected_time":437000000000,"state":"active","ping":63},{"user_id":401,"name":"RLCrazyCat3","steam_id":76561197983757878,"connected_time":3541000000000,"state":"active","ping":70},{"user_id":358,"name":"Flying Squirrel","steam_id":76561198005202791,"connected_time":6231000000000,"state":"active","ping":75},{"user_id":438,"name":"heisenberg","steam_id":76561198988867951,"connected_time":245000000000,"state":"active","ping":61},{"user_id":439,"name":"Dingerfish","steam_id":76561199075378341,"connected_time":221000000000,"state":"active","ping":106},{"user_id":432,"name":"armadillo","steam_id":76561198324656652,"connected_time":844000000000,"state":"active","ping":65},{"user_id":425,"name":"dansal","steam_id":76561197997042510,"connected_time":1499000000000,"state":"active","ping":163},{"user_id":440,"name":"Simply Devine","steam_id":76561198079023104,"connected_time":204000000000,"state":"active","ping":147},{"user_id":402,"name":"BaCyka","steam_id":76561198029333533,"connected_time":3526000000000,"state":"active","ping":52},{"user_id":427,"name":"Dyld","steam_id":76561197979603871,"connected_time":1309000000000,"state":"active","ping":64},{"user_id":441,"name":"veltek","steam_id":76561198112681438,"connected_time":170000000000,"state":"active","ping":94},{"user_id":419,"name":"Mono","steam_id":76561198114569493,"connected_time":2141000000000,"state":"active","ping":44},{"user_id":442,"name":"lemanobox user","steam_id":76561198863720301,"connected_time":161000000000,"state":"active","ping":67},{"user_id":391,"name":"sniper ruins tf","steam_id":76561197980736364,"connected_time":3898000000000,"state":"active","ping":90},{"user_id":414,"name":"slug","steam_id":76561198065902089,"connected_time":2264000000000,"state":"active","ping":69}]},{"server_id":320,"name":"Uncletopia | London | 3 | All Maps","name_short":"lon-3","host":"lon-1.uk.uncletopia.com","port":27035,"enabled":true,"region":"eu","cc":"gb","latitude":51.509865,"longitude":-0.118092,"reserved":0,"last_update":"0001-01-01T00:00:00Z","name_a2s":"Uncletopia | London | 3 | All Maps","protocol":17,"map":"cp_mossrock","folder":"tf","game":"Team Fortress","app_id":440,"player_count":24,"max_players":24,"Bots":0,"server_type":"Dedicated","server_os":"Linux","password":true,"vac":true,"version":"7961495","steam_id":85568392924510192,"keywords":["cp","nocrits","nodmgspread","uncletopia"],"game_id":440,"stv_port":27036,"stv_name":"Uncletopia | London | 3 | All Maps | STV","players":[{"user_id":289,"name":"gabagool","steam_id":76561198307111838,"connected_time":1801000000000,"state":"active","ping":30},{"user_id":269,"name":"DANDELION","steam_id":76561198038451376,"connected_time":3000000000000,"state":"active","ping":37},{"user_id":286,"name":"Der Herr Doktor","steam_id":76561198119476089,"connected_time":1880000000000,"state":"active","ping":88},{"user_id":317,"name":"Egtu","steam_id":76561198013757235,"connected_time":355000000000,"state":"active","ping":75},{"user_id":297,"name":"Ja","steam_id":76561198396340174,"connected_time":1568000000000,"state":"active","ping":122},{"user_id":304,"name":"regulartin","steam_id":76561199248036845,"connected_time":987000000000,"state":"active","ping":112},{"user_id":314,"name":"Krabs","steam_id":76561198161679477,"connected_time":582000000000,"state":"active","ping":41},{"user_id":313,"name":"Likeia #Savetf2","steam_id":76561198005214207,"connected_time":664000000000,"state":"active","ping":123},{"user_id":306,"name":"Oak","steam_id":76561198067315672,"connected_time":951000000000,"state":"active","ping":47},{"user_id":307,"name":"BREATHE","steam_id":76561198351081256,"connected_time":908000000000,"state":"active","ping":99},{"user_id":261,"name":"Average69Enjoyer","steam_id":76561198826991735,"connected_time":3553000000000,"state":"active","ping":65},{"user_id":319,"name":"MK-Ultra Violence","steam_id":76561198081328238,"connected_time":83000000000,"state":"active","ping":83},{"user_id":318,"name":"We are in a world of magic","steam_id":76561198104745492,"connected_time":277000000000,"state":"active","ping":83},{"user_id":300,"name":"3L","steam_id":76561198007208996,"connected_time":1440000000000,"state":"active","ping":56},{"user_id":301,"name":"JaneDoe","steam_id":76561198067081506,"connected_time":1208000000000,"state":"active","ping":90},{"user_id":309,"name":"Olympic Toe Curling","steam_id":76561198433807531,"connected_time":828000000000,"state":"active","ping":156},{"user_id":271,"name":"Eoghan","steam_id":76561198095344395,"connected_time":2992000000000,"state":"active","ping":43},{"user_id":257,"name":"pierogi","steam_id":76561198718760200,"connected_time":3883000000000,"state":"active","ping":58},{"user_id":310,"name":"Meladoom2","steam_id":76561198086845387,"connected_time":820000000000,"state":"active","ping":92},{"user_id":295,"name":"Chromega","steam_id":76561199075307750,"connected_time":1599000000000,"state":"active","ping":67},{"user_id":298,"name":"Big Al","steam_id":76561198079585198,"connected_time":1567000000000,"state":"active","ping":58},{"user_id":311,"name":"GregerUlander","steam_id":76561198152375055,"connected_time":761000000000,"state":"active","ping":92},{"user_id":279,"name":"Certified Hood pybro (ua)","steam_id":76561198970562699,"connected_time":2268000000000,"state":"active","ping":73},{"user_id":315,"name":"dotdotdot","steam_id":76561198057628751,"connected_time":414000000000,"state":"active","ping":69}]},{"server_id":321,"name":"Uncletopia | London | 4 | All Maps","name_short":"lon-4","host":"lon-1.uk.uncletopia.com","port":27045,"enabled":true,"region":"eu","cc":"gb","latitude":51.509865,"longitude":-0.118092,"reserved":0,"last_update":"0001-01-01T00:00:00Z","name_a2s":"Uncletopia | London | 4 | All Maps","protocol":17,"map":"koth_highpass","folder":"tf","game":"Team Fortress","app_id":440,"player_count":23,"max_players":24,"Bots":0,"server_type":"Dedicated","server_os":"Linux","password":true,"vac":true,"version":"7961495","steam_id":85568392924510193,"keywords":["cp","nocrits","nodmgspread","uncletopia"],"game_id":440,"stv_port":27046,"stv_name":"Uncletopia | London | 4 | All Maps | STV","players":[{"user_id":680,"name":"Bert","steam_id":76561198070206096,"connected_time":1697000000000,"state":"active","ping":50},{"user_id":687,"name":"hasky","steam_id":76561197986052798,"connected_time":1452000000000,"state":"active","ping":72},{"user_id":711,"name":"HHH","steam_id":76561199492732323,"connected_time":39000000000,"state":"active","ping":61},{"user_id":695,"name":"TSx* Osa__PL","steam_id":76561198027016799,"connected_time":1180000000000,"state":"active","ping":75},{"user_id":712,"name":"Alpha","steam_id":76561198133229149,"connected_time":7000000000,"state":"spawning","ping":87},{"user_id":684,"name":"McMonty","steam_id":76561198028973788,"connected_time":1494000000000,"state":"active","ping":57},{"user_id":694,"name":"pakin157","steam_id":76561198035125667,"connected_time":1219000000000,"state":"active","ping":90},{"user_id":688,"name":"j√π xiƒì","steam_id":76561198096189399,"connected_time":1452000000000,"state":"active","ping":63},{"user_id":685,"name":"soup","steam_id":76561198386933065,"connected_time":1487000000000,"state":"active","ping":63},{"user_id":574,"name":"Schmack","steam_id":76561198026535437,"connected_time":7404000000000,"state":"active","ping":55},{"user_id":708,"name":"Dr Cum Master","steam_id":76561198378657692,"connected_time":374000000000,"state":"active","ping":47},{"user_id":707,"name":"martin","steam_id":76561199390290330,"connected_time":415000000000,"state":"active","ping":54},{"user_id":679,"name":"Gibzzler","steam_id":76561198882704996,"connected_time":1732000000000,"state":"active","ping":87},{"user_id":654,"name":"yer_nerd","steam_id":76561199435454093,"connected_time":2865000000000,"state":"active","ping":133},{"user_id":710,"name":"Pudlich","steam_id":76561198300089671,"connected_time":327000000000,"state":"active","ping":78},{"user_id":661,"name":"TSx* Naxer","steam_id":76561198011986779,"connected_time":2786000000000,"state":"active","ping":78},{"user_id":704,"name":"SirCumsALot","steam_id":76561198267857927,"connected_time":612000000000,"state":"active","ping":53},{"user_id":706,"name":"falcon lord","steam_id":76561198142574823,"connected_time":571000000000,"state":"active","ping":45},{"user_id":682,"name":"Filin_Fill","steam_id":76561198044037139,"connected_time":1639000000000,"state":"active","ping":91},{"user_id":699,"name":"Plep","steam_id":76561198840259819,"connected_time":916000000000,"state":"active","ping":60},{"user_id":636,"name":"Dubious Armored Crab","steam_id":76561199195765767,"connected_time":3869000000000,"state":"active","ping":120},{"user_id":705,"name":"Julian","steam_id":76561199060272542,"connected_time":606000000000,"state":"active","ping":55},{"user_id":691,"name":"D_for_Dumbass","steam_id":76561198908993740,"connected_time":1435000000000,"state":"active","ping":65}]},{"server_id":21,"name":"Uncletopia | London | 5 | All Maps","name_short":"lon-5","host":"lon-1.uk.uncletopia.com","port":27055,"enabled":true,"region":"eu","cc":"gb","latitude":51.509865,"longitude":-0.118092,"reserved":0,"last_update":"0001-01-01T00:00:00Z","name_a2s":"Uncletopia | London | 5 | All Maps","protocol":17,"map":"cp_altitude","folder":"tf","game":"Team Fortress","app_id":440,"player_count":24,"max_players":24,"Bots":0,"server_type":"Dedicated","server_os":"Linux","password":true,"vac":true,"version":"7961495","steam_id":85568392924742829,"keywords":["cp","nocrits","nodmgspread","uncletopia"],"game_id":440,"stv_port":27056,"stv_name":"Uncletopia | London | 5 | All Maps | STV","players":[{"user_id":20,"name":"Project","steam_id":76561198159409260,"connected_time":1597000000000,"state":"active","ping":79},{"user_id":16,"name":"Milca_11","steam_id":76561198848650365,"connected_time":1839000000000,"state":"active","ping":73},{"user_id":17,"name":"Djarlem","steam_id":76561198080968386,"connected_time":1776000000000,"state":"active","ping":54},{"user_id":18,"name":"Hellago","steam_id":76561198003736380,"connected_time":1766000000000,"state":"active","ping":56},{"user_id":52,"name":"I I","steam_id":76561199101935057,"connected_time":244000000000,"state":"active","ping":97},{"user_id":21,"name":"üó°üó°üó°","steam_id":76561198427247304,"connected_time":1467000000000,"state":"active","ping":87},{"user_id":22,"name":"üçÉpingo doce da primaüåÑ","steam_id":76561198891059202,"connected_time":1443000000000,"state":"active","ping":77},{"user_id":23,"name":"Maoma112","steam_id":76561199012536447,"connected_time":1433000000000,"state":"active","ping":82},{"user_id":53,"name":"Ash","steam_id":76561198148738525,"connected_time":141000000000,"state":"active","ping":112},{"user_id":25,"name":"bignazzer","steam_id":76561199472149697,"connected_time":1378000000000,"state":"active","ping":57},{"user_id":26,"name":"Warpzel65","steam_id":76561198799303596,"connected_time":1376000000000,"state":"active","ping":116},{"user_id":49,"name":"Maks","steam_id":76561198315278876,"connected_time":571000000000,"state":"active","ping":50},{"user_id":47,"name":"goofBall1984","steam_id":76561198131020285,"connected_time":623000000000,"state":"active","ping":54},{"user_id":45,"name":"thorn648","steam_id":76561198012565777,"connected_time":686000000000,"state":"active","ping":173},{"user_id":42,"name":"nibsÓÑ∏","steam_id":76561198040099538,"connected_time":878000000000,"state":"active","ping":60},{"user_id":50,"name":"Loaf","steam_id":76561198369922194,"connected_time":541000000000,"state":"active","ping":55},{"user_id":32,"name":"Torttu","steam_id":76561198013980029,"connected_time":1098000000000,"state":"active","ping":63},{"user_id":33,"name":"Old Hat","steam_id":76561197994673297,"connected_time":1082000000000,"state":"active","ping":58},{"user_id":34,"name":"euphoricfilth","steam_id":76561198100160865,"connected_time":1071000000000,"state":"active","ping":108},{"user_id":35,"name":"lightduck","steam_id":76561197987768292,"connected_time":1071000000000,"state":"active","ping":41},{"user_id":54,"name":"(Do not display)","steam_id":76561198086304421,"connected_time":130000000000,"state":"active","ping":82},{"user_id":38,"name":"rummy","steam_id":76561197997573379,"connected_time":1049000000000,"state":"active","ping":52},{"user_id":55,"name":"vi hava en usel regering","steam_id":76561198037978654,"connected_time":113000000000,"state":"active","ping":79},{"user_id":46,"name":"GabGame","steam_id":76561198105631808,"connected_time":681000000000,"state":"active","ping":67}]},{"server_id":22,"name":"Uncletopia | London | 6 | All Maps","name_short":"lon-6","host":"lon-1.uk.uncletopia.com","port":27065,"enabled":true,"region":"eu","cc":"gb","latitude":51.509865,"longitude":-0.118092,"reserved":0,"last_update":"0001-01-01T00:00:00Z","name_a2s":"Uncletopia | London | 6 | All Maps","protocol":17,"map":"cp_dustbowl","folder":"tf","game":"Team Fortress","app_id":440,"player_count":24,"max_players":24,"Bots":0,"server_type":"Dedicated","server_os":"Linux","password":true,"vac":true,"version":"7961495","steam_id":85568392924742830,"keywords":["cp","nocrits","nodmgspread","uncletopia"],"game_id":440,"stv_port":27066,"stv_name":"Uncletopia | London | 6 | All Maps | STV","players":[{"user_id":692,"name":"BeefHammer","steam_id":76561198078426223,"connected_time":1689000000000,"state":"active","ping":137},{"user_id":648,"name":"nug","steam_id":76561198055396568,"connected_time":4084000000000,"state":"active","ping":54},{"user_id":693,"name":"‚ôÇ Animan ‚ôÇ Studios ‚ôÇ","steam_id":76561198308302932,"connected_time":1679000000000,"state":"active","ping":104},{"user_id":715,"name":"Cornmac","steam_id":76561198104780569,"connected_time":911000000000,"state":"active","ping":71},{"user_id":716,"name":"madhead200","steam_id":76561198119498666,"connected_time":896000000000,"state":"active","ping":68},{"user_id":688,"name":"Xanthippos","steam_id":76561198379266612,"connected_time":2312000000000,"state":"active","ping":51},{"user_id":649,"name":"Parky","steam_id":76561198013803623,"connected_time":4066000000000,"state":"active","ping":45},{"user_id":695,"name":"Craig Crusade","steam_id":76561199225918086,"connected_time":1645000000000,"state":"active","ping":72},{"user_id":705,"name":"≈ÅEPEK02","steam_id":76561198230715748,"connected_time":1379000000000,"state":"active","ping":76},{"user_id":721,"name":"Hedgie","steam_id":76561198174525418,"connected_time":737000000000,"state":"active","ping":61},{"user_id":717,"name":"Demolished","steam_id":76561199091263312,"connected_time":847000000000,"state":"active","ping":79},{"user_id":671,"name":"Fu Manchu","steam_id":76561197995224539,"connected_time":2850000000000,"state":"active","ping":65},{"user_id":730,"name":"Vic Boss","steam_id":76561198409324934,"connected_time":108000000000,"state":"active","ping":73},{"user_id":697,"name":"Pestilence","steam_id":76561198131764464,"connected_time":1580000000000,"state":"active","ping":69},{"user_id":720,"name":"PotassiumLover33","steam_id":76561198797628967,"connected_time":771000000000,"state":"active","ping":58},{"user_id":708,"name":"Kfer","steam_id":76561198809708638,"connected_time":1327000000000,"state":"active","ping":91},{"user_id":711,"name":"Jom F Kennedy","steam_id":76561198080379805,"connected_time":1276000000000,"state":"active","ping":46},{"user_id":713,"name":"dr. hose","steam_id":76561198152138707,"connected_time":1266000000000,"state":"active","ping":35},{"user_id":702,"name":"fischman","steam_id":76561199064142670,"connected_time":1457000000000,"state":"active","ping":66},{"user_id":722,"name":"Worm","steam_id":76561198296497176,"connected_time":735000000000,"state":"active","ping":81},{"user_id":686,"name":"Luxotrics","steam_id":76561198053455161,"connected_time":2430000000000,"state":"active","ping":94},{"user_id":630,"name":"twscsvl","steam_id":76561198045304929,"connected_time":5031000000000,"state":"active","ping":91},{"user_id":725,"name":"Pvt. Pepper","steam_id":76561198851157897,"connected_time":678000000000,"state":"active","ping":69},{"user_id":660,"name":"A Red Brick","steam_id":76561198317522580,"connected_time":3526000000000,"state":"active","ping":88}]},{"server_id":40,"name":"Uncletopia | London | 7 | Stopwatch","name_short":"lon-7","host":"lon-1.uk.uncletopia.com","port":27075,"enabled":true,"region":"eu","cc":"gb","latitude":51.509865,"longitude":-0.118092,"reserved":0,"last_update":"0001-01-01T00:00:00Z","name_a2s":"Uncletopia | London | 7 | Stopwatch","protocol":17,"map":"workshop/koth_bagel_rc6.ugc2514036946","folder":"tf","game":"Team Fortress","app_id":440,"player_count":0,"max_players":24,"Bots":0,"server_type":"Dedicated","server_os":"Linux","password":true,"vac":true,"version":"7961495","steam_id":85568392924964314,"keywords":["cp","nocrits","nodmgspread","uncletopia"],"game_id":440,"stv_port":27076,"stv_name":"Uncletopia | London | 7 | Stopwatch | STV","players":null},{"server_id":41,"name":"Uncletopia | London | 8 | Community","name_short":"lon-8","host":"lon-1.uk.uncletopia.com","port":27085,"enabled":true,"region":"eu","cc":"gb","latitude":51.509865,"longitude":-0.118092,"reserved":0,"last_update":"0001-01-01T00:00:00Z","name_a2s":"Uncletopia | London | 8 | Community","protocol":17,"map":"workshop/pl_shoreleave_rc2.ugc1238849347","folder":"tf","game":"Team Fortress","app_id":440,"player_count":1,"max_players":24,"Bots":0,"server_type":"Dedicated","server_os":"Linux","password":true,"vac":true,"version":"7961495","steam_id":85568392924964315,"keywords":["nocrits","nodmgspread","payload","uncletopia"],"game_id":440,"stv_port":27086,"stv_name":"Uncletopia | London | 8 | Community | STV","players":[{"user_id":27,"name":"TreeBeardMan","steam_id":76561198316545657,"connected_time":142000000000,"state":"spawning","ping":292}]},{"server_id":300,"name":"Uncletopia | Montr√©al | 1 | All Maps","name_short":"mtl-1","host":"mtl-1.ca.uncletopia.com","port":27015,"enabled":true,"region":"us-east","cc":"ca","latitude":45.50889,"longitude":-73.56167,"reserved":0,"last_update":"0001-01-01T00:00:00Z","name_a2s":"","protocol":0,"map":"","folder":"","game":"","app_id":0,"player_count":0,"max_players":0,"Bots":0,"server_type":"","server_os":"","password":false,"vac":false,"version":"","steam_id":0,"keywords":null,"game_id":0,"stv_port":0,"stv_name":"","players":null},{"server_id":301,"name":"Uncletopia | Montr√©al | 2 | All Maps","name_short":"mtl-2","host":"mtl-1.ca.uncletopia.com","port":27025,"enabled":true,"region":"us-east","cc":"ca","latitude":45.50889,"longitude":-73.56167,"reserved":0,"last_update":"0001-01-01T00:00:00Z","name_a2s":"","protocol":0,"map":"","folder":"","game":"","app_id":0,"player_count":0,"max_players":0,"Bots":0,"server_type":"","server_os":"","password":false,"vac":false,"version":"","steam_id":0,"keywords":null,"game_id":0,"stv_port":0,"stv_name":"","players":null},{"server_id":302,"name":"Uncletopia | Montr√©al | 3 | All Maps","name_short":"mtl-3","host":"mtl-1.ca.uncletopia.com","port":27035,"enabled":true,"region":"us-east","cc":"ca","latitude":45.50889,"longitude":-73.56167,"reserved":0,"last_update":"0001-01-01T00:00:00Z","name_a2s":"","protocol":0,"map":"","folder":"","game":"","app_id":0,"player_count":0,"max_players":0,"Bots":0,"server_type":"","server_os":"","password":false,"vac":false,"version":"","steam_id":0,"keywords":null,"game_id":0,"stv_port":0,"stv_name":"","players":null},{"server_id":303,"name":"Uncletopia | Montr√©al | 4 | No Payload","name_short":"mtl-4","host":"mtl-1.ca.uncletopia.com","port":27045,"enabled":true,"region":"us-east","cc":"ca","latitude":45.50889,"longitude":-73.56167,"reserved":0,"last_update":"0001-01-01T00:00:00Z","name_a2s":"","protocol":0,"map":"","folder":"","game":"","app_id":0,"player_count":0,"max_players":0,"Bots":0,"server_type":"","server_os":"","password":false,"vac":false,"version":"","steam_id":0,"keywords":null,"game_id":0,"stv_port":0,"stv_name":"","players":null},{"server_id":13,"name":"Uncletopia | New York City | 1 | All Maps","name_short":"nyc-1","host":"nyc-1.us.uncletopia.com","port":27015,"enabled":true,"region":"us-east","cc":"us","latitude":40.73061,"longitude":-73.93524,"reserved":0,"last_update":"0001-01-01T00:00:00Z","name_a2s":"Uncletopia | New York City | 1 | All Maps","protocol":17,"map":"pl_barnblitz","folder":"tf","game":"Team Fortress","app_id":440,"player_count":24,"max_players":24,"Bots":0,"server_type":"Dedicated","server_os":"Linux","password":true,"vac":true,"version":"7961495","steam_id":85568392924469993,"keywords":["nocrits","nodmgspread","payload","uncletopia"],"game_id":440,"stv_port":27016,"stv_name":"Uncletopia | New York City | 1 | All Maps | STV","players":[{"user_id":22,"name":"Professional Brohamad","steam_id":76561198824025210,"connected_time":1941000000000,"state":"active","ping":62},{"user_id":23,"name":"WOW i'm dead","steam_id":76561199082267619,"connected_time":1771000000000,"state":"active","ping":154},{"user_id":26,"name":"God's Silliest BoyLover","steam_id":76561199200969139,"connected_time":1393000000000,"state":"active","ping":118},{"user_id":28,"name":"bleach65","steam_id":76561198115270571,"connected_time":773000000000,"state":"active","ping":77},{"user_id":42,"name":"Xavi","steam_id":76561198337783795,"connected_time":523000000000,"state":"active","ping":48},{"user_id":44,"name":"Bronze Age Furvert","steam_id":76561198859118263,"connected_time":389000000000,"state":"active","ping":81},{"user_id":32,"name":"‡πáPericulosum PhD in Funny","steam_id":76561198123370914,"connected_time":724000000000,"state":"active","ping":89},{"user_id":33,"name":"Serene Salamander","steam_id":76561198001094770,"connected_time":716000000000,"state":"active","ping":126},{"user_id":34,"name":"SleepyCanary","steam_id":76561198071770434,"connected_time":712000000000,"state":"active","ping":131},{"user_id":37,"name":"Maggie Rhee","steam_id":76561198055921722,"connected_time":658000000000,"state":"active","ping":80},{"user_id":48,"name":"City City The City City","steam_id":76561198046942778,"connected_time":283000000000,"state":"active","ping":100},{"user_id":39,"name":"LemonZest","steam_id":76561199196369249,"connected_time":647000000000,"state":"active","ping":60},{"user_id":57,"name":"Louis(iana)Tornado","steam_id":76561199085342197,"connected_time":62000000000,"state":"active","ping":85},{"user_id":41,"name":"vomit stain","steam_id":76561198303670652,"connected_time":624000000000,"state":"active","ping":84},{"user_id":45,"name":"ndvr","steam_id":76561199379200102,"connected_time":367000000000,"state":"active","ping":40},{"user_id":46,"name":"meowfang","steam_id":76561198123056791,"connected_time":363000000000,"state":"active","ping":55},{"user_id":47,"name":"Mrs.Frizzle","steam_id":76561198117157085,"connected_time":321000000000,"state":"active","ping":60},{"user_id":49,"name":"banana","steam_id":76561199159928133,"connected_time":272000000000,"state":"active","ping":61},{"user_id":50,"name":"‡∂û","steam_id":76561199365672047,"connected_time":248000000000,"state":"active","ping":61},{"user_id":51,"name":"FlameWear (part 2)","steam_id":76561198965198292,"connected_time":235000000000,"state":"active","ping":95},{"user_id":54,"name":"ADRIEN BRODY","steam_id":76561198009299473,"connected_time":125000000000,"state":"active","ping":53},{"user_id":53,"name":"Seaport Hime","steam_id":76561198055914224,"connected_time":194000000000,"state":"active","ping":58},{"user_id":55,"name":"flootsmcdoots","steam_id":76561198124744765,"connected_time":107000000000,"state":"active","ping":68},{"user_id":56,"name":"zz","steam_id":76561198276719737,"connected_time":97000000000,"state":"active","ping":47}]},{"server_id":14,"name":"Uncletopia | New York City | 2 | All Maps","name_short":"nyc-2","host":"nyc-1.us.uncletopia.com","port":27025,"enabled":true,"region":"us-east","cc":"us","latitude":40.73061,"longitude":-73.93524,"reserved":0,"last_update":"0001-01-01T00:00:00Z","name_a2s":"Uncletopia | New York City | 2 | All Maps","protocol":17,"map":"koth_lakeside_final","folder":"tf","game":"Team Fortress","app_id":440,"player_count":0,"max_players":24,"Bots":0,"server_type":"Dedicated","server_os":"Linux","password":true,"vac":true,"version":"7961495","steam_id":85568392924469994,"keywords":["cp","nocrits","nodmgspread","uncletopia"],"game_id":440,"stv_port":27026,"stv_name":"Uncletopia | New York City | 2 | All Maps | STV","players":null},{"server_id":15,"name":"Uncletopia | New York City | 3 | Stopwatch","name_short":"nyc-3","host":"nyc-1.us.uncletopia.com","port":27035,"enabled":true,"region":"us-east","cc":"us","latitude":40.73061,"longitude":-73.93524,"reserved":0,"last_update":"0001-01-01T00:00:00Z","name_a2s":"Uncletopia | New York City | 3 | Stopwatch","protocol":17,"map":"pl_snowycoast","folder":"tf","game":"Team Fortress","app_id":440,"player_count":0,"max_players":24,"Bots":0,"server_type":"Dedicated","server_os":"Linux","password":true,"vac":true,"version":"7961495","steam_id":85568392924742820,"keywords":["nocrits","nodmgspread","payload","uncletopia"],"game_id":440,"stv_port":27036,"stv_name":"Uncletopia | New York City | 3 | Stopwatch | STV","players":null},{"server_id":16,"name":"Uncletopia | New York City | 4 | Community","name_short":"nyc-4","host":"nyc-1.us.uncletopia.com","port":27045,"enabled":true,"region":"us-east","cc":"us","latitude":40.73061,"longitude":-73.93524,"reserved":0,"last_update":"0001-01-01T00:00:00Z","name_a2s":"Uncletopia | New York City | 4 | Community","protocol":17,"map":"cp_altitude","folder":"tf","game":"Team Fortress","app_id":440,"player_count":0,"max_players":24,"Bots":0,"server_type":"Dedicated","server_os":"Linux","password":true,"vac":true,"version":"7961495","steam_id":85568392924742821,"keywords":["cp","nocrits","nodmgspread","uncletopia"],"game_id":440,"stv_port":27046,"stv_name":"Uncletopia | New York City | 4 | Community | STV","players":null},{"server_id":142,"name":"Uncletopia | S√£o Paulo | 1 | All Maps","name_short":"sao-1","host":"sao-1.br.uncletopia.com","port":27015,"enabled":true,"region":"sa","cc":"br","latitude":-23.533773,"longitude":-46.62529,"reserved":0,"last_update":"0001-01-01T00:00:00Z","name_a2s":"Uncletopia | S√£o Paulo | 1 | All Maps","protocol":17,"map":"pl_snowycoast","folder":"tf","game":"Team Fortress","app_id":440,"player_count":0,"max_players":24,"Bots":0,"server_type":"Dedicated","server_os":"Linux","password":true,"vac":true,"version":"7961495","steam_id":85568392924469996,"keywords":["nocrits","nodmgspread","payload","uncletopia"],"game_id":440,"stv_port":27016,"stv_name":"Uncletopia | S√£o Paulo | 1 | All Maps | STV","players":null},{"server_id":143,"name":"Uncletopia | S√£o Paulo | 2 | Community","name_short":"sao-2","host":"sao-2.br.uncletopia.com","port":27015,"enabled":true,"region":"sa","cc":"br","latitude":-23.533773,"longitude":-46.62529,"reserved":0,"last_update":"0001-01-01T00:00:00Z","name_a2s":"Uncletopia | S√£o Paulo | 2 | Community","protocol":17,"map":"pl_badwater","folder":"tf","game":"Team Fortress","app_id":440,"player_count":0,"max_players":24,"Bots":0,"server_type":"Dedicated","server_os":"Linux","password":true,"vac":true,"version":"7961495","steam_id":85568392924485349,"keywords":["nocrits","nodmgspread","payload","uncletopia"],"game_id":440,"stv_port":27016,"stv_name":"Uncletopia | S√£o Paulo | 2 | Community | STV","players":null},{"server_id":7,"name":"Uncletopia | Seattle | 1 | All Maps","name_short":"sea-1","host":"sea-1.us.uncletopia.com","port":27015,"enabled":true,"region":"us-west","cc":"us","latitude":47.608013,"longitude":-122.33517,"reserved":0,"last_update":"0001-01-01T00:00:00Z","name_a2s":"Uncletopia | Seattle | 1 | All Maps","protocol":17,"map":"cp_mountainlab","folder":"tf","game":"Team Fortress","app_id":440,"player_count":23,"max_players":24,"Bots":0,"server_type":"Dedicated","server_os":"Linux","password":true,"vac":true,"version":"7961495","steam_id":85568392924469997,"keywords":["cp","nocrits","nodmgspread","uncletopia"],"game_id":440,"stv_port":27016,"stv_name":"Uncletopia | Seattle | 1 | All Maps | STV","players":[{"user_id":87,"name":"ms. anthrope","steam_id":76561198063533082,"connected_time":750000000000,"state":"active","ping":39},{"user_id":85,"name":"10HourNaps","steam_id":76561199082304859,"connected_time":887000000000,"state":"active","ping":55},{"user_id":52,"name":"some nerd","steam_id":76561198297272878,"connected_time":3111000000000,"state":"active","ping":76},{"user_id":84,"name":"YourLocalArsonist","steam_id":76561199111922751,"connected_time":914000000000,"state":"active","ping":113},{"user_id":23,"name":"ExplosiveGoose","steam_id":76561197971562966,"connected_time":4666000000000,"state":"active","ping":76},{"user_id":67,"name":"jacix3 [silly doggie :3]","steam_id":76561198205004165,"connected_time":2303000000000,"state":"active","ping":59},{"user_id":78,"name":"the archmage","steam_id":76561198380018244,"connected_time":1495000000000,"state":"active","ping":62},{"user_id":26,"name":"The Crab Man","steam_id":76561198969954287,"connected_time":4606000000000,"state":"active","ping":73},{"user_id":96,"name":"bcizzo","steam_id":76561197994399953,"connected_time":395000000000,"state":"active","ping":66},{"user_id":25,"name":"Mr_Caterpillar07","steam_id":76561198984898901,"connected_time":4638000000000,"state":"active","ping":83},{"user_id":72,"name":"Keebler","steam_id":76561199465040669,"connected_time":1835000000000,"state":"active","ping":43},{"user_id":93,"name":"PileofPolygons","steam_id":76561199321343460,"connected_time":495000000000,"state":"active","ping":117},{"user_id":95,"name":"Wingman","steam_id":76561198066270405,"connected_time":411000000000,"state":"active","ping":61},{"user_id":34,"name":"Lili W.","steam_id":76561199391478575,"connected_time":4204000000000,"state":"active","ping":67},{"user_id":90,"name":"SomeRandomMail","steam_id":76561199002913110,"connected_time":587000000000,"state":"active","ping":60},{"user_id":101,"name":"pabbott123110","steam_id":76561199231739796,"connected_time":21000000000,"state":"spawning","ping":130},{"user_id":97,"name":"nachodonut8","steam_id":76561198422167399,"connected_time":376000000000,"state":"active","ping":56},{"user_id":62,"name":"Neophyte","steam_id":76561198027183394,"connected_time":2868000000000,"state":"active","ping":88},{"user_id":42,"name":"Toaster (Hamilton Beach)","steam_id":76561198039891934,"connected_time":3802000000000,"state":"active","ping":70},{"user_id":77,"name":"ten times","steam_id":76561198858474714,"connected_time":1521000000000,"state":"active","ping":46},{"user_id":73,"name":"trackpad gaming | f2p","steam_id":76561198840414371,"connected_time":1591000000000,"state":"active","ping":50},{"user_id":63,"name":"GreenBlah","steam_id":76561198009178916,"connected_time":2672000000000,"state":"active","ping":104},{"user_id":100,"name":"Lo-Pan","steam_id":76561198085670133,"connected_time":73000000000,"state":"active","ping":116}]},{"server_id":119,"name":"Uncletopia | Seattle | 2 | All Maps","name_short":"sea-2","host":"sea-1.us.uncletopia.com","port":27025,"enabled":true,"region":"us-west","cc":"us","latitude":47.608013,"longitude":-122.33517,"reserved":0,"last_update":"0001-01-01T00:00:00Z","name_a2s":"Uncletopia | Seattle | 2 | All Maps","protocol":17,"map":"pl_frontier_final","folder":"tf","game":"Team Fortress","app_id":440,"player_count":23,"max_players":24,"Bots":0,"server_type":"Dedicated","server_os":"Linux","password":true,"vac":true,"version":"7961495","steam_id":85568392924469998,"keywords":["nocrits","nodmgspread","payload","uncletopia"],"game_id":440,"stv_port":27026,"stv_name":"Uncletopia | Seattle | 2 | All Maps | STV","players":[{"user_id":164,"name":"albert jones","steam_id":76561198404271005,"connected_time":225000000000,"state":"active","ping":77},{"user_id":155,"name":"Magic Sam","steam_id":76561198089426224,"connected_time":682000000000,"state":"active","ping":56},{"user_id":168,"name":"OrangeShoes","steam_id":76561197971249940,"connected_time":59000000000,"state":"active","ping":115},{"user_id":151,"name":"real worm","steam_id":76561199065645094,"connected_time":1243000000000,"state":"active","ping":86},{"user_id":128,"name":"Loogus","steam_id":76561198811561721,"connected_time":3773000000000,"state":"active","ping":80},{"user_id":166,"name":"Skabbety","steam_id":76561198168044257,"connected_time":117000000000,"state":"active","ping":30},{"user_id":165,"name":"l.ike_mike","steam_id":76561198287467814,"connected_time":220000000000,"state":"active","ping":68},{"user_id":159,"name":"Cinnifox","steam_id":76561198068773971,"connected_time":328000000000,"state":"active","ping":69},{"user_id":107,"name":"Keamy","steam_id":76561199471434875,"connected_time":4958000000000,"state":"active","ping":34},{"user_id":120,"name":"LEAN \u003c3","steam_id":76561198185286203,"connected_time":4258000000000,"state":"active","ping":90},{"user_id":124,"name":"Apollo","steam_id":76561198162364702,"connected_time":4189000000000,"state":"active","ping":45},{"user_id":160,"name":"Strikerbolt","steam_id":76561199095622897,"connected_time":322000000000,"state":"active","ping":80},{"user_id":167,"name":"aisu","steam_id":76561198043768507,"connected_time":102000000000,"state":"active","ping":90},{"user_id":152,"name":"Acro","steam_id":76561198092451804,"connected_time":1236000000000,"state":"active","ping":131},{"user_id":169,"name":"Bigjon300","steam_id":76561198137902441,"connected_time":38000000000,"state":"active","ping":114},{"user_id":154,"name":"HUMBY","steam_id":76561198065045867,"connected_time":748000000000,"state":"active","ping":89},{"user_id":114,"name":"I am the pinnacle of funny","steam_id":76561198306393090,"connected_time":4714000000000,"state":"active","ping":93},{"user_id":170,"name":"magicmellen","steam_id":76561199210337711,"connected_time":0,"state":"spawning","ping":50},{"user_id":156,"name":"Pneumo.","steam_id":76561197987911883,"connected_time":574000000000,"state":"active","ping":76},{"user_id":148,"name":"Vincent Van Bro","steam_id":76561197966919802,"connected_time":1469000000000,"state":"active","ping":57},{"user_id":145,"name":"Nassu","steam_id":76561198147367577,"connected_time":2046000000000,"state":"active","ping":118},{"user_id":158,"name":"26O3 Ê•µÂÖâÈù¢Á¥ó","steam_id":76561198964074985,"connected_time":519000000000,"state":"active","ping":62},{"user_id":116,"name":"Satori Komeiji","steam_id":76561198158211423,"connected_time":4631000000000,"state":"active","ping":77}]},{"server_id":406,"name":"Uncletopia | Seattle | 3 | Stopwatch","name_short":"sea-3","host":"sea-1.us.uncletopia.com","port":27035,"enabled":true,"region":"us-west","cc":"us","latitude":47.608013,"longitude":-122.33517,"reserved":0,"last_update":"0001-01-01T00:00:00Z","name_a2s":"Uncletopia | Seattle | 3 | Stopwatch","protocol":17,"map":"koth_highpass","folder":"tf","game":"Team Fortress","app_id":440,"player_count":0,"max_players":24,"Bots":0,"server_type":"Dedicated","server_os":"Linux","password":true,"vac":true,"version":"7961495","steam_id":85568392924515217,"keywords":["cp","nocrits","nodmgspread","uncletopia"],"game_id":440,"stv_port":27036,"stv_name":"Uncletopia | Seattle | 3 | Stopwatch | STV","players":null},{"server_id":17,"name":"Uncletopia | San Francisco | 1 | All Maps","name_short":"sfo-1","host":"sfo-1.us.uncletopia.com","port":27015,"enabled":true,"region":"us-west","cc":"us","latitude":37.77397,"longitude":-122.4313,"reserved":0,"last_update":"0001-01-01T00:00:00Z","name_a2s":"Uncletopia | San Francisco | 1 | All Maps","protocol":17,"map":"koth_cascade","folder":"tf","game":"Team Fortress","app_id":440,"player_count":0,"max_players":24,"Bots":0,"server_type":"Dedicated","server_os":"Linux","password":true,"vac":true,"version":"7961495","steam_id":85568392924469999,"keywords":["cp","nocrits","nodmgspread","uncletopia"],"game_id":440,"stv_port":27016,"stv_name":"Uncletopia | San Francisco | 1 | All Maps | STV","players":null},{"server_id":18,"name":"Uncletopia | San Francisco | 2 | All Maps","name_short":"sfo-2","host":"sfo-1.us.uncletopia.com","port":27025,"enabled":true,"region":"us-west","cc":"us","latitude":37.77397,"longitude":-122.4313,"reserved":0,"last_update":"0001-01-01T00:00:00Z","name_a2s":"Uncletopia | San Francisco | 2 | All Maps","protocol":17,"map":"pl_frontier_final","folder":"tf","game":"Team Fortress","app_id":440,"player_count":0,"max_players":24,"Bots":0,"server_type":"Dedicated","server_os":"Linux","password":true,"vac":true,"version":"7961495","steam_id":85568392924470000,"keywords":["nocrits","nodmgspread","payload","uncletopia"],"game_id":440,"stv_port":27026,"stv_name":"Uncletopia | San Francisco | 2 | All Maps | STV","players":null},{"server_id":19,"name":"Uncletopia | San Francisco | 3 | Stopwatch","name_short":"sfo-3","host":"sfo-1.us.uncletopia.com","port":27035,"enabled":true,"region":"us-west","cc":"us","latitude":37.77397,"longitude":-122.4313,"reserved":0,"last_update":"0001-01-01T00:00:00Z","name_a2s":"Uncletopia | San Francisco | 3 | Stopwatch","protocol":17,"map":"pl_pier","folder":"tf","game":"Team Fortress","app_id":440,"player_count":0,"max_players":24,"Bots":0,"server_type":"Dedicated","server_os":"Linux","password":true,"vac":true,"version":"7961495","steam_id":85568392924742824,"keywords":["nocrits","nodmgspread","payload","uncletopia"],"game_id":440,"stv_port":27036,"stv_name":"Uncletopia | San Francisco | 3 | Stopwatch | STV","players":null},{"server_id":20,"name":"Uncletopia | San Francisco | 4 | Community","name_short":"sfo-4","host":"sfo-1.us.uncletopia.com","port":27045,"enabled":true,"region":"us-west","cc":"us","latitude":37.77397,"longitude":-122.4313,"reserved":0,"last_update":"0001-01-01T00:00:00Z","name_a2s":"Uncletopia | San Francisco | 4 | Community","protocol":17,"map":"pl_pier","folder":"tf","game":"Team Fortress","app_id":440,"player_count":0,"max_players":24,"Bots":0,"server_type":"Dedicated","server_os":"Linux","password":true,"vac":true,"version":"7961495","steam_id":85568392924742826,"keywords":["nocrits","nodmgspread","payload","uncletopia"],"game_id":440,"stv_port":27046,"stv_name":"Uncletopia | San Francisco | 4 | Community | STV","players":null},{"server_id":141,"name":"Uncletopia | Sydney | 1 | All Maps","name_short":"syd-1","host":"syd-1.au.uncletopia.com","port":27015,"enabled":true,"region":"au","cc":"au","latitude":-33.865143,"longitude":151.2099,"reserved":0,"last_update":"0001-01-01T00:00:00Z","name_a2s":"Uncletopia | Sydney | 1 | All Maps","protocol":17,"map":"pl_upward","folder":"tf","game":"Team Fortress","app_id":440,"player_count":0,"max_players":24,"Bots":0,"server_type":"Dedicated","server_os":"Linux","password":true,"vac":true,"version":"7961495","steam_id":85568392924470001,"keywords":["nocrits","nodmgspread","payload","uncletopia"],"game_id":440,"stv_port":27016,"stv_name":"Uncletopia | Sydney | 1 | All Maps | STV","players":null},{"server_id":123,"name":"Uncletopia | Sydney | 2 | All Maps","name_short":"syd-2","host":"syd-1.au.uncletopia.com","port":27025,"enabled":true,"region":"au","cc":"au","latitude":-33.865143,"longitude":151.2099,"reserved":0,"last_update":"0001-01-01T00:00:00Z","name_a2s":"Uncletopia | Sydney | 2 | All Maps","protocol":17,"map":"ctf_2fort","folder":"tf","game":"Team Fortress","app_id":440,"player_count":0,"max_players":24,"Bots":0,"server_type":"Dedicated","server_os":"Linux","password":true,"vac":true,"version":"7961495","steam_id":85568392924470002,"keywords":["ctf","nocrits","nodmgspread","uncletopia"],"game_id":440,"stv_port":27026,"stv_name":"Uncletopia | Sydney | 2 | All Maps | STV","players":null},{"server_id":395,"name":"Uncletopia | Sydney | 3 | All Maps","name_short":"syd-3","host":"syd-1.au.uncletopia.com","port":27035,"enabled":true,"region":"au","cc":"au","latitude":-33.865143,"longitude":151.2099,"reserved":0,"last_update":"0001-01-01T00:00:00Z","name_a2s":"Uncletopia | Sydney | 3 | All Maps","protocol":17,"map":"koth_viaduct","folder":"tf","game":"Team Fortress","app_id":440,"player_count":0,"max_players":24,"Bots":0,"server_type":"Dedicated","server_os":"Linux","password":true,"vac":true,"version":"7961495","steam_id":85568392925194467,"keywords":["cp","nocrits","nodmgspread","uncletopia"],"game_id":440,"stv_port":27036,"stv_name":"Uncletopia | Sydney | 3 | All Maps | STV","players":null},{"server_id":396,"name":"Uncletopia | Sydney | 4 | All Maps","name_short":"syd-4","host":"syd-1.au.uncletopia.com","port":27045,"enabled":true,"region":"au","cc":"au","latitude":-33.865143,"longitude":151.2099,"reserved":0,"last_update":"0001-01-01T00:00:00Z","name_a2s":"Uncletopia | Sydney | 4 | All Maps","protocol":17,"map":"cp_sunshine","folder":"tf","game":"Team Fortress","app_id":440,"player_count":0,"max_players":24,"Bots":0,"server_type":"Dedicated","server_os":"Linux","password":true,"vac":true,"version":"7961495","steam_id":85568392925397958,"keywords":["cp","nocrits","nodmgspread","uncletopia"],"game_id":440,"stv_port":27046,"stv_name":"Uncletopia | Sydney | 4 | All Maps | STV","players":null},{"server_id":58,"name":"Uncletopia | Sydney | 5 | Stopwatch","name_short":"syd-5","host":"syd-1.au.uncletopia.com","port":27055,"enabled":true,"region":"au","cc":"au","latitude":-33.865143,"longitude":151.2099,"reserved":0,"last_update":"0001-01-01T00:00:00Z","name_a2s":"Uncletopia | Sydney | 5 | Stopwatch","protocol":17,"map":"koth_lakeside_final","folder":"tf","game":"Team Fortress","app_id":440,"player_count":0,"max_players":24,"Bots":0,"server_type":"Dedicated","server_os":"Linux","password":true,"vac":true,"version":"7961495","steam_id":85568392925397959,"keywords":["cp","nocrits","nodmgspread","uncletopia"],"game_id":440,"stv_port":27056,"stv_name":"Uncletopia | Sydney | 5 | Stopwatch | STV","players":null},{"server_id":59,"name":"Uncletopia | Sydney | 6 | Community","name_short":"syd-6","host":"syd-1.au.uncletopia.com","port":27065,"enabled":true,"region":"au","cc":"au","latitude":-33.865143,"longitude":151.2099,"reserved":0,"last_update":"0001-01-01T00:00:00Z","name_a2s":"Uncletopia | Sydney | 6 | Community","protocol":17,"map":"workshop/koth_product_final.ugc454272353","folder":"tf","game":"Team Fortress","app_id":440,"player_count":0,"max_players":24,"Bots":0,"server_type":"Dedicated","server_os":"Linux","password":true,"vac":true,"version":"7961495","steam_id":85568392925397960,"keywords":["cp","nocrits","nodmgspread","uncletopia"],"game_id":440,"stv_port":27066,"stv_name":"Uncletopia | Sydney | 6 | Community | STV","players":null},{"server_id":49,"name":"Uncletopia | Warsaw | 1 | All Maps","name_short":"waw-1","host":"waw-1.pl.uncletopia.com","port":27015,"enabled":true,"region":"eu","cc":"pl","latitude":52.2297,"longitude":21.017532,"reserved":0,"last_update":"0001-01-01T00:00:00Z","name_a2s":"Uncletopia | Warsaw | 1 | All Maps","protocol":17,"map":"pl_swiftwater_final1","folder":"tf","game":"Team Fortress","app_id":440,"player_count":0,"max_players":24,"Bots":0,"server_type":"Dedicated","server_os":"Linux","password":true,"vac":true,"version":"7961495","steam_id":85568392925397850,"keywords":["nocrits","nodmgspread","payload","uncletopia"],"game_id":440,"stv_port":27016,"stv_name":"Uncletopia | Warsaw | 1 | All Maps | STV","players":null},{"server_id":50,"name":"Uncletopia | Warsaw | 2 | All Maps","name_short":"waw-2","host":"waw-1.pl.uncletopia.com","port":27025,"enabled":true,"region":"eu","cc":"pl","latitude":52.2297,"longitude":21.017532,"reserved":0,"last_update":"0001-01-01T00:00:00Z","name_a2s":"Uncletopia | Warsaw | 2 | All Maps","protocol":17,"map":"koth_brazil","folder":"tf","game":"Team Fortress","app_id":440,"player_count":23,"max_players":24,"Bots":0,"server_type":"Dedicated","server_os":"Linux","password":true,"vac":true,"version":"7961495","steam_id":85568392925397851,"keywords":["cp","nocrits","nodmgspread","uncletopia"],"game_id":440,"stv_port":27026,"stv_name":"Uncletopia | Warsaw | 2 | All Maps | STV","players":[{"user_id":73,"name":"God","steam_id":76561199049925843,"connected_time":3697000000000,"state":"active","ping":112},{"user_id":83,"name":"Monsteh","steam_id":76561198325898181,"connected_time":2438000000000,"state":"active","ping":93},{"user_id":77,"name":"TheFox.tf","steam_id":76561197996851702,"connected_time":3021000000000,"state":"active","ping":75},{"user_id":92,"name":"Juliazim","steam_id":76561198095248961,"connected_time":2082000000000,"state":"active","ping":82},{"user_id":106,"name":"inrzynier1","steam_id":76561199037368618,"connected_time":1820000000000,"state":"active","ping":85},{"user_id":101,"name":"Krasna-45","steam_id":76561198086584752,"connected_time":1973000000000,"state":"active","ping":96},{"user_id":120,"name":"ABOMINABLE GNOMEMAN","steam_id":76561198037591791,"connected_time":153000000000,"state":"active","ping":122},{"user_id":94,"name":"GoodOldJack12","steam_id":76561198100910669,"connected_time":2034000000000,"state":"active","ping":80},{"user_id":97,"name":"Worms","steam_id":76561198040442214,"connected_time":2011000000000,"state":"active","ping":61},{"user_id":99,"name":"MrTheMarkoman","steam_id":76561198049902374,"connected_time":1991000000000,"state":"active","ping":82},{"user_id":70,"name":"Dj_Bear","steam_id":76561198149865187,"connected_time":3782000000000,"state":"active","ping":50},{"user_id":102,"name":"bigmazi","steam_id":76561198133276643,"connected_time":1970000000000,"state":"active","ping":78},{"user_id":124,"name":"KiteNock","steam_id":76561198160622922,"connected_time":61000000000,"state":"active","ping":38},{"user_id":112,"name":"kranet ‚Ññ535","steam_id":76561198343910974,"connected_time":1508000000000,"state":"active","ping":104},{"user_id":104,"name":"RedMoose555","steam_id":76561198936369385,"connected_time":1928000000000,"state":"active","ping":83},{"user_id":116,"name":"Yachooo","steam_id":76561198085972300,"connected_time":498000000000,"state":"active","ping":45},{"user_id":119,"name":"Uguyguy","steam_id":76561198348140423,"connected_time":275000000000,"state":"active","ping":152},{"user_id":72,"name":"Pigeon Man","steam_id":76561198067030681,"connected_time":3745000000000,"state":"active","ping":75},{"user_id":107,"name":"Life Symbiont","steam_id":76561198095952777,"connected_time":1806000000000,"state":"active","ping":84},{"user_id":108,"name":"releng0","steam_id":76561198120708390,"connected_time":1786000000000,"state":"active","ping":63},{"user_id":50,"name":"kluri","steam_id":76561198084518962,"connected_time":4748000000000,"state":"active","ping":81},{"user_id":123,"name":"69 ME 2NITE","steam_id":76561199124261801,"connected_time":77000000000,"state":"active","ping":95},{"user_id":114,"name":"ploks21","steam_id":76561199014144978,"connected_time":730000000000,"state":"active","ping":55}]},{"server_id":51,"name":"Uncletopia | Warsaw | 3 | All Maps","name_short":"waw-3","host":"waw-1.pl.uncletopia.com","port":27035,"enabled":true,"region":"eu","cc":"pl","latitude":52.2297,"longitude":21.017532,"reserved":0,"last_update":"0001-01-01T00:00:00Z","name_a2s":"Uncletopia | Warsaw | 3 | All Maps","protocol":17,"map":"koth_cascade","folder":"tf","game":"Team Fortress","app_id":440,"player_count":0,"max_players":24,"Bots":0,"server_type":"Dedicated","server_os":"Linux","password":true,"vac":true,"version":"7961495","steam_id":85568392925397852,"keywords":["cp","nocrits","nodmgspread","uncletopia"],"game_id":440,"stv_port":27036,"stv_name":"Uncletopia | Warsaw | 3 | All Maps | STV","players":null},{"server_id":52,"name":"Uncletopia | Warsaw | 4 | All Maps","name_short":"waw-4","host":"waw-1.pl.uncletopia.com","port":27045,"enabled":true,"region":"eu","cc":"pl","latitude":52.2297,"longitude":21.017532,"reserved":0,"last_update":"0001-01-01T00:00:00Z","name_a2s":"Uncletopia | Warsaw | 4 | All Maps","protocol":17,"map":"cp_altitude","folder":"tf","game":"Team Fortress","app_id":440,"player_count":0,"max_players":24,"Bots":0,"server_type":"Dedicated","server_os":"Linux","password":true,"vac":true,"version":"7961495","steam_id":85568392925397853,"keywords":["cp","nocrits","nodmgspread","uncletopia"],"game_id":440,"stv_port":27046,"stv_name":"Uncletopia | Warsaw | 4 | All Maps | STV","players":null},{"server_id":53,"name":"Uncletopia | Warsaw | 5 | Stopwatch","name_short":"waw-5","host":"waw-1.pl.uncletopia.com","port":27055,"enabled":true,"region":"eu","cc":"pl","latitude":52.2297,"longitude":21.017532,"reserved":0,"last_update":"0001-01-01T00:00:00Z","name_a2s":"Uncletopia | Warsaw | 5 | Stopwatch","protocol":17,"map":"pl_barnblitz","folder":"tf","game":"Team Fortress","app_id":440,"player_count":0,"max_players":24,"Bots":0,"server_type":"Dedicated","server_os":"Linux","password":true,"vac":true,"version":"7961495","steam_id":85568392925397854,"keywords":["nocrits","nodmgspread","payload","uncletopia"],"game_id":440,"stv_port":27056,"stv_name":"Uncletopia | Warsaw | 5 | Stopwatch | STV","players":null},{"server_id":54,"name":"Uncletopia | Warsaw | 6 | Community","name_short":"waw-6","host":"waw-1.pl.uncletopia.com","port":27065,"enabled":true,"region":"eu","cc":"pl","latitude":52.2297,"longitude":21.017532,"reserved":0,"last_update":"0001-01-01T00:00:00Z","name_a2s":"Uncletopia | Warsaw | 6 | Community","protocol":17,"map":"workshop/pl_badwater_pro_v12.ugc2142942074","folder":"tf","game":"Team Fortress","app_id":440,"player_count":0,"max_players":24,"Bots":0,"server_type":"Dedicated","server_os":"Linux","password":true,"vac":true,"version":"7961495","steam_id":85568392925397856,"keywords":["nocrits","nodmgspread","payload","uncletopia"],"game_id":440,"stv_port":27066,"stv_name":"Uncletopia | Warsaw | 6 | Community | STV","players":null}]}