{"status":true,"message":"","result":[{"server_id":9,"name":"Uncletopia | Atlanta | 1 | All Maps","name_short":"atl-1","host":"atl-1.us.uncletopia.com","port":27015,"enabled":true,"region":"us-east","cc":"us","latitude":33.753746,"longitude":-84.38633,"reserved":0,"last_update":"0001-01-01T00:00:00Z","name_a2s":"Uncletopia | Atlanta | 1 | All Maps","protocol":17,"map":"cp_altitude","folder":"tf","game":"Team Fortress","app_id":440,"player_count":24,"max_players":24,"Bots":0,"server_type":"Dedicated","server_os":"Linux","password":true,"vac":true,"version":"7961495","steam_id":85568392924469982,"keywords":["cp","nocrits","nodmgspread","uncletopia"],"game_id":440,"stv_port":27016,"stv_name":"Uncletopia | Atlanta | 1 | All Maps | STV","players":[{"user_id":270,"name":"thomasdee725???","steam_id":76561199189526173,"connected_time":759000000000,"state":"active","ping":80},{"user_id":206,"name":"Alpine","steam_id":76561198436177465,"connected_time":4711000000000,"state":"active","ping":60},{"user_id":234,"name":"trianamarco780","steam_id":76561199084319677,"connected_time":1956000000000,"state":"active","ping":106},{"user_id":227,"name":"Joey","steam_id":76561198800763351,"connected_time":2393000000000,"state":"active","ping":68},{"user_id":271,"name":"Icaras","steam_id":76561198416724843,"connected_time":680000000000,"state":"active","ping":130},{"user_id":220,"name":"Albino Jellyfish","steam_id":76561198208561097,"connected_time":2968000000000,"state":"active","ping":50},{"user_id":246,"name":"1-800-GAYDOG","steam_id":76561198085815757,"connected_time":1393000000000,"state":"active","ping":81},{"user_id":214,"name":"Brown_Dream","steam_id":76561198975766145,"connected_time":3307000000000,"state":"active","ping":65},{"user_id":272,"name":"baunter","steam_id":76561198024311871,"connected_time":508000000000,"state":"active","ping":91},{"user_id":245,"name":"Wingm4n","steam_id":76561198064127012,"connected_time":1556000000000,"state":"active","ping":46},{"user_id":238,"name":"Pango","steam_id":76561198069811545,"connected_time":1848000000000,"state":"active","ping":45},{"user_id":239,"name":"Legit_Jaxer","steam_id":76561198172234053,"connected_time":1829000000000,"state":"active","ping":109},{"user_id":139,"name":"LOVEDRAGON","steam_id":76561198089908485,"connected_time":11108000000000,"state":"active","ping":60},{"user_id":230,"name":"Night time Dan","steam_id":76561199022178492,"connected_time":2162000000000,"state":"active","ping":57},{"user_id":215,"name":"Luigi4tl","steam_id":76561198051862389,"connected_time":3303000000000,"state":"active","ping":71},{"user_id":244,"name":"Gibs Degrossi","steam_id":76561198066152609,"connected_time":1615000000000,"state":"active","ping":60},{"user_id":201,"name":"Xavibite","steam_id":76561198209380493,"connected_time":5450000000000,"state":"active","ping":67},{"user_id":225,"name":"Sorbet Shark Cookie","steam_id":76561198133082665,"connected_time":2689000000000,"state":"active","ping":69},{"user_id":211,"name":"array","steam_id":76561199152294799,"connected_time":3881000000000,"state":"active","ping":63},{"user_id":231,"name":"mio","steam_id":76561198239286750,"connected_time":2073000000000,"state":"active","ping":69},{"user_id":218,"name":"Ashes!","steam_id":76561197998475441,"connected_time":3188000000000,"state":"active","ping":73},{"user_id":226,"name":"Woods","steam_id":76561198440012069,"connected_time":2471000000000,"state":"active","ping":86},{"user_id":269,"name":"creeeeeee","steam_id":76561198392539722,"connected_time":769000000000,"state":"active","ping":92},{"user_id":229,"name":"freyja","steam_id":76561198249206656,"connected_time":2259000000000,"state":"active","ping":84}]},{"server_id":104,"name":"Uncletopia | Atlanta | 2 | All Maps","name_short":"atl-2","host":"atl-1.us.uncletopia.com","port":27025,"enabled":true,"region":"us-east","cc":"us","latitude":33.753746,"longitude":-84.38633,"reserved":0,"last_update":"0001-01-01T00:00:00Z","name_a2s":"Uncletopia | Atlanta | 2 | All Maps","protocol":17,"map":"pl_badwater","folder":"tf","game":"Team Fortress","app_id":440,"player_count":24,"max_players":24,"Bots":0,"server_type":"Dedicated","server_os":"Linux","password":true,"vac":true,"version":"7961495","steam_id":85568392924469983,"keywords":["nocrits","nodmgspread","payload","uncletopia"],"game_id":440,"stv_port":27026,"stv_name":"Uncletopia | Atlanta | 2 | All Maps | STV","players":[{"user_id":139,"name":"Colonel Salt","steam_id":76561198207009563,"connected_time":1396000000000,"state":"active","ping":78},{"user_id":146,"name":"ATL1 | luxin","steam_id":76561198399383047,"connected_time":1208000000000,"state":"active","ping":49},{"user_id":141,"name":"Mello","steam_id":76561198837226897,"connected_time":1296000000000,"state":"active","ping":96},{"user_id":149,"name":"balls","steam_id":76561198058890821,"connected_time":999000000000,"state":"active","ping":64},{"user_id":153,"name":"ApertureB","steam_id":76561198019141379,"connected_time":768000000000,"state":"active","ping":72},{"user_id":143,"name":"AkaDoggo","steam_id":76561198968291063,"connected_time":1249000000000,"state":"active","ping":61},{"user_id":147,"name":"jax","steam_id":76561198414689286,"connected_time":1203000000000,"state":"active","ping":63},{"user_id":131,"name":"GUH","steam_id":76561199013202758,"connected_time":2019000000000,"state":"active","ping":100},{"user_id":82,"name":"Saturnalien","steam_id":76561198057056295,"connected_time":5598000000000,"state":"active","ping":79},{"user_id":152,"name":"radiation","steam_id":76561198001157602,"connected_time":821000000000,"state":"active","ping":49},{"user_id":115,"name":"John F Kennedy","steam_id":76561198288989828,"connected_time":2860000000000,"state":"active","ping":59},{"user_id":156,"name":"Darkmaen","steam_id":76561198060543390,"connected_time":427000000000,"state":"active","ping":152},{"user_id":136,"name":"simply","steam_id":76561198215728721,"connected_time":1776000000000,"state":"active","ping":58},{"user_id":89,"name":"Notorious H.R.T.","steam_id":76561198104012115,"connected_time":4833000000000,"state":"active","ping":64},{"user_id":151,"name":"THE GIGGLER","steam_id":76561199275294643,"connected_time":849000000000,"state":"active","ping":83},{"user_id":116,"name":"God's Drunkest Demo","steam_id":76561198369787628,"connected_time":2844000000000,"state":"active","ping":86},{"user_id":42,"name":"Lavendeer","steam_id":76561198142770666,"connected_time":8830000000000,"state":"active","ping":69},{"user_id":148,"name":"EeryCar","steam_id":76561199466199522,"connected_time":1176000000000,"state":"active","ping":68},{"user_id":157,"name":"luxl1","steam_id":76561198975034056,"connected_time":421000000000,"state":"active","ping":138},{"user_id":55,"name":"ded","steam_id":76561198128780622,"connected_time":8097000000000,"state":"active","ping":136},{"user_id":133,"name":"Rocket","steam_id":76561198207943169,"connected_time":2009000000000,"state":"active","ping":64},{"user_id":154,"name":"Axol","steam_id":76561198405038281,"connected_time":597000000000,"state":"active","ping":68},{"user_id":113,"name":"Nexo Fighter","steam_id":76561199187418090,"connected_time":2978000000000,"state":"active","ping":102},{"user_id":158,"name":"Zeek","steam_id":76561197987204351,"connected_time":236000000000,"state":"active","ping":52}]},{"server_id":400,"name":"Uncletopia | Atlanta | 3 | Stopwatch","name_short":"atl-3","host":"atl-1.us.uncletopia.com","port":27035,"enabled":true,"region":"us-east","cc":"us","latitude":33.753746,"longitude":-84.38633,"reserved":0,"last_update":"0001-01-01T00:00:00Z","name_a2s":"Uncletopia | Atlanta | 3 | Stopwatch","protocol":17,"map":"cp_metalworks","folder":"tf","game":"Team Fortress","app_id":440,"player_count":15,"max_players":24,"Bots":0,"server_type":"Dedicated","server_os":"Linux","password":true,"vac":true,"version":"7961495","steam_id":85568392924515187,"keywords":["cp","nocrits","nodmgspread","uncletopia"],"game_id":440,"stv_port":27036,"stv_name":"Uncletopia | Atlanta | 3 | Stopwatch | STV","players":[{"user_id":419,"name":"Iron Argus","steam_id":76561198181088245,"connected_time":267000000000,"state":"active","ping":75},{"user_id":420,"name":"ZachAR15","steam_id":76561198135165111,"connected_time":180000000000,"state":"active","ping":109},{"user_id":410,"name":"dr. chungy ph.d","steam_id":76561198215559840,"connected_time":805000000000,"state":"active","ping":48},{"user_id":421,"name":"elijsweet","steam_id":76561199447281400,"connected_time":153000000000,"state":"active","ping":110},{"user_id":422,"name":"Sharkinian","steam_id":76561199131996465,"connected_time":135000000000,"state":"active","ping":75},{"user_id":381,"name":"MattJettskie","steam_id":76561199229493583,"connected_time":2113000000000,"state":"active","ping":67},{"user_id":423,"name":"micjacklin","steam_id":76561199383619549,"connected_time":63000000000,"state":"active","ping":62},{"user_id":346,"name":"mz.maggie4","steam_id":76561198866614956,"connected_time":4592000000000,"state":"active","ping":61},{"user_id":424,"name":"BB Lorexav","steam_id":76561198207565988,"connected_time":48000000000,"state":"active","ping":55},{"user_id":425,"name":"Nulized","steam_id":76561198847585283,"connected_time":11000000000,"state":"active","ping":73},{"user_id":401,"name":"THEY DONT KNOWWWWWW","steam_id":76561198062991744,"connected_time":1292000000000,"state":"active","ping":57},{"user_id":426,"name":"Stop voting for PL","steam_id":76561198138420251,"connected_time":1000000000,"state":"spawning","ping":66},{"user_id":382,"name":"opossum","steam_id":76561198148905570,"connected_time":2111000000000,"state":"active","ping":59},{"user_id":413,"name":"Mr.Pugzzz","steam_id":76561198934739732,"connected_time":633000000000,"state":"active","ping":85},{"user_id":383,"name":"Maskyzx","steam_id":76561198013267904,"connected_time":2106000000000,"state":"active","ping":162}]},{"server_id":401,"name":"Uncletopia | Atlanta | 4 | Community","name_short":"atl-4","host":"atl-1.us.uncletopia.com","port":27045,"enabled":true,"region":"us-east","cc":"us","latitude":33.753746,"longitude":-84.38633,"reserved":0,"last_update":"0001-01-01T00:00:00Z","name_a2s":"Uncletopia | Atlanta | 4 | Community","protocol":17,"map":"workshop/pl_phoenix_b4a.ugc2969509359","folder":"tf","game":"Team Fortress","app_id":440,"player_count":0,"max_players":24,"Bots":0,"server_type":"Dedicated","server_os":"Linux","password":true,"vac":true,"version":"7961495","steam_id":85568392924515188,"keywords":["nocrits","nodmgspread","payload","uncletopia"],"game_id":440,"stv_port":27046,"stv_name":"Uncletopia | Atlanta | 4 | Community | STV","players":null},{"server_id":2,"name":"Uncletopia | Chicago | 1 | All Maps","name_short":"chi-1","host":"chi-1.us.uncletopia.com","port":27015,"enabled":true,"region":"us-central","cc":"us","latitude":41.881832,"longitude":-87.62318,"reserved":0,"last_update":"0001-01-01T00:00:00Z","name_a2s":"Uncletopia | Chicago | 1 | All Maps","protocol":17,"map":"pl_swiftwater_final1","folder":"tf","game":"Team Fortress","app_id":440,"player_count":24,"max_players":24,"Bots":0,"server_type":"Dedicated","server_os":"Linux","password":true,"vac":true,"version":"7961495","steam_id":85568392924469984,"keywords":["nocrits","nodmgspread","payload","uncletopia"],"game_id":440,"stv_port":27016,"stv_name":"Uncletopia | Chicago | 1 | All Maps | STV","players":[{"user_id":234,"name":"Poopisviel Von Einzbern","steam_id":76561198259260433,"connected_time":161000000000,"state":"active","ping":84},{"user_id":226,"name":"NUt","steam_id":76561198031007966,"connected_time":403000000000,"state":"active","ping":88},{"user_id":227,"name":"Praise_to_the_Flashlight!","steam_id":76561199001728789,"connected_time":380000000000,"state":"active","ping":60},{"user_id":169,"name":"✧.*Remzy✧.*","steam_id":76561199239412094,"connected_time":4425000000000,"state":"active","ping":148},{"user_id":228,"name":"HolyLambSauce","steam_id":76561198880465313,"connected_time":374000000000,"state":"active","ping":73},{"user_id":208,"name":"♥cinnamonboy♥","steam_id":76561198882330338,"connected_time":2045000000000,"state":"active","ping":89},{"user_id":215,"name":"lizard wizard","steam_id":76561198882758067,"connected_time":1174000000000,"state":"active","ping":77},{"user_id":222,"name":"Bismofunyuns","steam_id":76561198154206862,"connected_time":733000000000,"state":"active","ping":102},{"user_id":217,"name":"Great Balls of Fire","steam_id":76561198413125750,"connected_time":973000000000,"state":"active","ping":63},{"user_id":233,"name":"Biosock Infiknit","steam_id":76561198072693794,"connected_time":249000000000,"state":"active","ping":50},{"user_id":230,"name":"carne asada","steam_id":76561198108398751,"connected_time":339000000000,"state":"active","ping":65},{"user_id":235,"name":"shoota","steam_id":76561198284992433,"connected_time":157000000000,"state":"active","ping":46},{"user_id":164,"name":"YUNG NASTYMAN","steam_id":76561198039710677,"connected_time":4744000000000,"state":"active","ping":72},{"user_id":219,"name":"Fat Goblin","steam_id":76561198123211859,"connected_time":954000000000,"state":"active","ping":97},{"user_id":80,"name":"Kitty","steam_id":76561198123758854,"connected_time":10435000000000,"state":"active","ping":83},{"user_id":175,"name":"Bobbn","steam_id":76561198876124683,"connected_time":4131000000000,"state":"active","ping":69},{"user_id":231,"name":"Henry Ota-Clay","steam_id":76561198053232470,"connected_time":332000000000,"state":"active","ping":58},{"user_id":216,"name":"Beebo, Son of Beebo","steam_id":76561198055948497,"connected_time":1013000000000,"state":"active","ping":57},{"user_id":232,"name":"Boofenshmirtz","steam_id":76561198071649858,"connected_time":313000000000,"state":"active","ping":65},{"user_id":198,"name":"hearthian","steam_id":76561198113235260,"connected_time":2946000000000,"state":"active","ping":94},{"user_id":220,"name":"Novu","steam_id":76561198886997024,"connected_time":950000000000,"state":"active","ping":85},{"user_id":174,"name":"Rawhide Kobayashi","steam_id":76561198067051062,"connected_time":4151000000000,"state":"active","ping":40},{"user_id":184,"name":"tlar","steam_id":76561198060117460,"connected_time":3624000000000,"state":"active","ping":46},{"user_id":223,"name":"J The Jounin","steam_id":76561198034583622,"connected_time":592000000000,"state":"active","ping":78}]},{"server_id":106,"name":"Uncletopia | Chicago | 2 | All Maps","name_short":"chi-2","host":"chi-1.us.uncletopia.com","port":27025,"enabled":true,"region":"us-central","cc":"us","latitude":41.881832,"longitude":-87.62318,"reserved":0,"last_update":"0001-01-01T00:00:00Z","name_a2s":"Uncletopia | Chicago | 2 | All Maps","protocol":17,"map":"cp_process_final","folder":"tf","game":"Team Fortress","app_id":440,"player_count":24,"max_players":24,"Bots":0,"server_type":"Dedicated","server_os":"Linux","password":true,"vac":true,"version":"7961495","steam_id":85568392924469985,"keywords":["cp","nocrits","nodmgspread","uncletopia"],"game_id":440,"stv_port":27026,"stv_name":"Uncletopia | Chicago | 2 | All Maps | STV","players":[{"user_id":488,"name":"Torensz64(But weezer)","steam_id":76561198239036482,"connected_time":82000000000,"state":"active","ping":59},{"user_id":482,"name":"gamerfan539","steam_id":76561198803527852,"connected_time":467000000000,"state":"active","ping":63},{"user_id":484,"name":"Pepsiman","steam_id":76561198436946165,"connected_time":324000000000,"state":"active","ping":53},{"user_id":466,"name":"Dominion","steam_id":76561198005853062,"connected_time":1593000000000,"state":"active","ping":61},{"user_id":485,"name":"SanitysEdge","steam_id":76561198130732813,"connected_time":307000000000,"state":"active","ping":95},{"user_id":468,"name":"The jesus guy (FRNK)","steam_id":76561198237997622,"connected_time":1568000000000,"state":"active","ping":175},{"user_id":450,"name":"AuraBraixen_4412","steam_id":76561198120668769,"connected_time":2910000000000,"state":"active","ping":74},{"user_id":432,"name":"chunger","steam_id":76561198107931997,"connected_time":3488000000000,"state":"active","ping":73},{"user_id":435,"name":"toastman","steam_id":76561198207073088,"connected_time":3480000000000,"state":"active","ping":70},{"user_id":399,"name":"muselk (real)","steam_id":76561199094011002,"connected_time":6956000000000,"state":"active","ping":50},{"user_id":454,"name":"Sensei Wu From Ninjago","steam_id":76561198424670596,"connected_time":2726000000000,"state":"active","ping":71},{"user_id":470,"name":"NavyDinosaur","steam_id":76561198088459962,"connected_time":1534000000000,"state":"active","ping":105},{"user_id":451,"name":"Olivia Haas","steam_id":76561198070327681,"connected_time":2850000000000,"state":"active","ping":76},{"user_id":407,"name":"gretchling","steam_id":76561198046111695,"connected_time":6841000000000,"state":"active","ping":60},{"user_id":483,"name":"Amari","steam_id":76561198272446730,"connected_time":451000000000,"state":"active","ping":57},{"user_id":478,"name":"booger","steam_id":76561198333832807,"connected_time":874000000000,"state":"active","ping":114},{"user_id":487,"name":"Mr.Clean(All Purpose Cleaner)","steam_id":76561198208014257,"connected_time":208000000000,"state":"active","ping":77},{"user_id":461,"name":"Stan","steam_id":76561199057962816,"connected_time":2179000000000,"state":"active","ping":61},{"user_id":474,"name":"Yahomes","steam_id":76561199478391681,"connected_time":1200000000000,"state":"active","ping":88},{"user_id":479,"name":"custodian","steam_id":76561198058793778,"connected_time":872000000000,"state":"active","ping":75},{"user_id":412,"name":"Creatine Drinker","steam_id":76561199111336393,"connected_time":6351000000000,"state":"active","ping":128},{"user_id":471,"name":"Username","steam_id":76561198198918781,"connected_time":1527000000000,"state":"active","ping":129},{"user_id":457,"name":"Muselk, but mexican","steam_id":76561199289676387,"connected_time":2372000000000,"state":"active","ping":89},{"user_id":462,"name":"Dr. Necrofeelya","steam_id":76561198396814056,"connected_time":2179000000000,"state":"active","ping":84}]},{"server_id":402,"name":"Uncletopia | Chicago | 3 | All Maps","name_short":"chi-3","host":"chi-1.us.uncletopia.com","port":27035,"enabled":true,"region":"us-central","cc":"us","latitude":41.881832,"longitude":-87.62318,"reserved":0,"last_update":"0001-01-01T00:00:00Z","name_a2s":"Uncletopia | Chicago | 3 | All Maps","protocol":17,"map":"pl_borneo","folder":"tf","game":"Team Fortress","app_id":440,"player_count":13,"max_players":24,"Bots":0,"server_type":"Dedicated","server_os":"Linux","password":true,"vac":true,"version":"7961495","steam_id":85568392924515191,"keywords":["nocrits","nodmgspread","payload","uncletopia"],"game_id":440,"stv_port":27036,"stv_name":"Uncletopia | Chicago | 3 | All Maps | STV","players":[{"user_id":17,"name":"Perry (The White Fang Grunt)","steam_id":76561198870926636,"connected_time":1490000000000,"state":"active","ping":80},{"user_id":18,"name":"grant.grunt1","steam_id":76561199250281308,"connected_time":1256000000000,"state":"active","ping":78},{"user_id":34,"name":"doritos 3d chili cheese nacho","steam_id":76561199510491149,"connected_time":109000000000,"state":"active","ping":45},{"user_id":20,"name":"Crλf227","steam_id":76561198196211121,"connected_time":972000000000,"state":"active","ping":88},{"user_id":22,"name":"chiswola","steam_id":76561198046920142,"connected_time":721000000000,"state":"active","ping":58},{"user_id":23,"name":"JoNasty","steam_id":76561198065778003,"connected_time":555000000000,"state":"active","ping":86},{"user_id":30,"name":"jehdye","steam_id":76561198284388342,"connected_time":258000000000,"state":"active","ping":44},{"user_id":33,"name":"Freddy Fatass","steam_id":76561199240301565,"connected_time":187000000000,"state":"active","ping":51},{"user_id":26,"name":"splart","steam_id":76561198085585646,"connected_time":450000000000,"state":"active","ping":84},{"user_id":27,"name":"santaisntreal","steam_id":76561198045987309,"connected_time":442000000000,"state":"active","ping":89},{"user_id":28,"name":"crouton.net","steam_id":76561198068374646,"connected_time":408000000000,"state":"active","ping":113},{"user_id":31,"name":"Big_Beans888","steam_id":76561198100822287,"connected_time":253000000000,"state":"active","ping":129},{"user_id":32,"name":"VixianUwU","steam_id":76561198948815060,"connected_time":234000000000,"state":"active","ping":80}]},{"server_id":403,"name":"Uncletopia | Chicago | 4 | All Maps","name_short":"chi-4","host":"chi-1.us.uncletopia.com","port":27045,"enabled":true,"region":"us-central","cc":"us","latitude":41.881832,"longitude":-87.62318,"reserved":0,"last_update":"0001-01-01T00:00:00Z","name_a2s":"Uncletopia | Chicago | 4 | All Maps","protocol":17,"map":"koth_viaduct","folder":"tf","game":"Team Fortress","app_id":440,"player_count":0,"max_players":24,"Bots":0,"server_type":"Dedicated","server_os":"Linux","password":true,"vac":true,"version":"7961495","steam_id":85568392924515193,"keywords":["cp","nocrits","nodmgspread","uncletopia"],"game_id":440,"stv_port":27046,"stv_name":"Uncletopia | Chicago | 4 | All Maps | STV","players":null},{"server_id":36,"name":"Uncletopia | Chicago | 5 | All Maps","name_short":"chi-5","host":"chi-2.us.uncletopia.com","port":27015,"enabled":true,"region":"us-central","cc":"us","latitude":41.881832,"longitude":-87.62318,"reserved":0,"last_update":"0001-01-01T00:00:00Z","name_a2s":"Uncletopia | Chicago | 5 | All Maps","protocol":17,"map":"cp_mercenarypark","folder":"tf","game":"Team Fortress","app_id":440,"player_count":0,"max_players":24,"Bots":0,"server_type":"Dedicated","server_os":"Linux","password":true,"vac":true,"version":"7961495","steam_id":85568392924866362,"keywords":["cp","nocrits","nodmgspread","uncletopia"],"game_id":440,"stv_port":27016,"stv_name":"Uncletopia | Chicago | 5 | All Maps | STV","players":null},{"server_id":37,"name":"Uncletopia | Chicago | 6 | All Maps","name_short":"chi-6","host":"chi-2.us.uncletopia.com","port":27025,"enabled":true,"region":"us-central","cc":"us","latitude":41.881832,"longitude":-87.62318,"reserved":0,"last_update":"0001-01-01T00:00:00Z","name_a2s":"Uncletopia | Chicago | 6 | All Maps","protocol":17,"map":"ctf_turbine","folder":"tf","game":"Team Fortress","app_id":440,"player_count":23,"max_players":24,"Bots":0,"server_type":"Dedicated","server_os":"Linux","password":true,"vac":true,"version":"7961495","steam_id":85568392924866363,"keywords":["ctf","nocrits","nodmgspread","uncletopia"],"game_id":440,"stv_port":27026,"stv_name":"Uncletopia | Chicago | 6 | All Maps | STV","players":[{"user_id":10,"name":"minecraft_2.0","steam_id":76561198391819120,"connected_time":7244000000000,"state":"active","ping":93},{"user_id":75,"name":"TGD","steam_id":76561198197582594,"connected_time":1308000000000,"state":"active","ping":60},{"user_id":95,"name":"GamingJuice42","steam_id":76561198110469437,"connected_time":183000000000,"state":"active","ping":131},{"user_id":82,"name":"beats (16:38)","steam_id":76561199245717718,"connected_time":970000000000,"state":"active","ping":58},{"user_id":67,"name":"Derpakis","steam_id":76561199081795029,"connected_time":1686000000000,"state":"active","ping":93},{"user_id":34,"name":"bakkhertz","steam_id":76561198046745579,"connected_time":3498000000000,"state":"active","ping":81},{"user_id":31,"name":"Shaby_Frost","steam_id":76561198401334563,"connected_time":3882000000000,"state":"active","ping":64},{"user_id":23,"name":"HaloWatchSiege","steam_id":76561198855552812,"connected_time":5458000000000,"state":"active","ping":66},{"user_id":40,"name":"Kirby","steam_id":76561199161858008,"connected_time":2991000000000,"state":"active","ping":69},{"user_id":93,"name":"Chadmander","steam_id":76561197974136337,"connected_time":265000000000,"state":"active","ping":45},{"user_id":61,"name":"dadgummit","steam_id":76561198005806915,"connected_time":1929000000000,"state":"active","ping":90},{"user_id":39,"name":"you stink!","steam_id":76561198128363064,"connected_time":3088000000000,"state":"active","ping":57},{"user_id":97,"name":"emerge","steam_id":76561198186882891,"connected_time":42000000000,"state":"active","ping":50},{"user_id":98,"name":"CRUSHED","steam_id":76561199065573642,"connected_time":17000000000,"state":"spawning","ping":46},{"user_id":86,"name":"Uncle Iroh","steam_id":76561198146999983,"connected_time":787000000000,"state":"active","ping":52},{"user_id":92,"name":"Hey Girlie ;)","steam_id":76561198166666746,"connected_time":454000000000,"state":"active","ping":60},{"user_id":81,"name":"keysandrew","steam_id":76561198077178683,"connected_time":1054000000000,"state":"active","ping":81},{"user_id":77,"name":"SpyzWhyz","steam_id":76561198366071482,"connected_time":1211000000000,"state":"active","ping":52},{"user_id":88,"name":"shadow6","steam_id":76561197979807910,"connected_time":723000000000,"state":"active","ping":85},{"user_id":70,"name":"Kobe","steam_id":76561198041937355,"connected_time":1638000000000,"state":"active","ping":122},{"user_id":89,"name":"Discourse","steam_id":76561198984286678,"connected_time":658000000000,"state":"active","ping":46},{"user_id":90,"name":"General Mightyian11","steam_id":76561199125278476,"connected_time":536000000000,"state":"active","ping":63},{"user_id":62,"name":"chris","steam_id":76561198209248312,"connected_time":1911000000000,"state":"active","ping":56}]},{"server_id":38,"name":"Uncletopia | Chicago | 7 | Stopwatch","name_short":"chi-7","host":"chi-2.us.uncletopia.com","port":27035,"enabled":true,"region":"us-central","cc":"us","latitude":41.881832,"longitude":-87.62318,"reserved":0,"last_update":"0001-01-01T00:00:00Z","name_a2s":"Uncletopia | Chicago | 7 | Stopwatch","protocol":17,"map":"koth_lakeside_final","folder":"tf","game":"Team Fortress","app_id":440,"player_count":2,"max_players":24,"Bots":0,"server_type":"Dedicated","server_os":"Linux","password":true,"vac":true,"version":"7961495","steam_id":85568392924866364,"keywords":["cp","nocrits","nodmgspread","uncletopia"],"game_id":440,"stv_port":27036,"stv_name":"Uncletopia | Chicago | 7 | Stopwatch | STV","players":[{"user_id":16,"name":"_Toazt","steam_id":76561199011728341,"connected_time":871000000000,"state":"active","ping":64},{"user_id":17,"name":"paintball","steam_id":76561199125280733,"connected_time":814000000000,"state":"active","ping":80}]},{"server_id":39,"name":"Uncletopia | Chicago | 8 | Community","name_short":"chi-8","host":"chi-2.us.uncletopia.com","port":27045,"enabled":true,"region":"us-central","cc":"us","latitude":41.881832,"longitude":-87.62318,"reserved":0,"last_update":"0001-01-01T00:00:00Z","name_a2s":"Uncletopia | Chicago | 8 | Community","protocol":17,"map":"workshop/cp_caldera_rc3.ugc2834196889","folder":"tf","game":"Team Fortress","app_id":440,"player_count":0,"max_players":24,"Bots":0,"server_type":"Dedicated","server_os":"Linux","password":true,"vac":true,"version":"7961495","steam_id":85568392924866365,"keywords":["cp","nocrits","nodmgspread","uncletopia"],"game_id":440,"stv_port":27046,"stv_name":"Uncletopia | Chicago | 8 | Community | STV","players":null},{"server_id":8,"name":"Uncletopia | Dallas | 1 | All Maps","name_short":"dal-1","host":"dal-1.us.uncletopia.com","port":27015,"enabled":true,"region":"us-central","cc":"us","latitude":32.779167,"longitude":-96.80889,"reserved":0,"last_update":"0001-01-01T00:00:00Z","name_a2s":"Uncletopia | Dallas | 1 | All Maps","protocol":17,"map":"pl_borneo","folder":"tf","game":"Team Fortress","app_id":440,"player_count":24,"max_players":24,"Bots":0,"server_type":"Dedicated","server_os":"Linux","password":true,"vac":true,"version":"7961495","steam_id":85568392924469986,"keywords":["nocrits","nodmgspread","payload","uncletopia"],"game_id":440,"stv_port":27016,"stv_name":"Uncletopia | Dallas | 1 | All Maps | STV","players":[{"user_id":151,"name":"SoftAvocado","steam_id":76561198278375987,"connected_time":578000000000,"state":"active","ping":60},{"user_id":152,"name":"Nightzamtrios","steam_id":76561198238574118,"connected_time":546000000000,"state":"active","ping":83},{"user_id":101,"name":"Certified Hood Classic","steam_id":76561199086159354,"connected_time":4466000000000,"state":"active","ping":65},{"user_id":153,"name":"The Benefactor","steam_id":76561198307247913,"connected_time":533000000000,"state":"active","ping":85},{"user_id":145,"name":"Capybara Enjoyer","steam_id":76561199147114434,"connected_time":1038000000000,"state":"active","ping":87},{"user_id":120,"name":"PLSNO (RYAN)","steam_id":76561198086542505,"connected_time":3254000000000,"state":"active","ping":176},{"user_id":143,"name":"plink","steam_id":76561198057829889,"connected_time":1122000000000,"state":"active","ping":55},{"user_id":161,"name":"Shame","steam_id":76561198100490994,"connected_time":388000000000,"state":"active","ping":95},{"user_id":111,"name":"Ranger","steam_id":76561198064096654,"connected_time":4083000000000,"state":"active","ping":83},{"user_id":96,"name":"123","steam_id":76561199093006282,"connected_time":4540000000000,"state":"active","ping":80},{"user_id":155,"name":"Clagger","steam_id":76561198066701092,"connected_time":514000000000,"state":"active","ping":93},{"user_id":144,"name":"Jango","steam_id":76561198084589742,"connected_time":1089000000000,"state":"active","ping":77},{"user_id":150,"name":"Beauts","steam_id":76561198068713855,"connected_time":782000000000,"state":"active","ping":88},{"user_id":156,"name":"[ 7 ]","steam_id":76561199229668733,"connected_time":512000000000,"state":"active","ping":92},{"user_id":135,"name":"odinnn","steam_id":76561198308564076,"connected_time":1503000000000,"state":"active","ping":64},{"user_id":127,"name":"Turtle","steam_id":76561199051358736,"connected_time":2461000000000,"state":"active","ping":64},{"user_id":133,"name":"KazmirlYT","steam_id":76561198116008410,"connected_time":1545000000000,"state":"active","ping":105},{"user_id":164,"name":"nicholas","steam_id":76561198058211873,"connected_time":291000000000,"state":"active","ping":57},{"user_id":146,"name":"Deltaco","steam_id":76561198094572694,"connected_time":1033000000000,"state":"active","ping":120},{"user_id":165,"name":"Hamlindigo Blue™","steam_id":76561198116337540,"connected_time":17000000000,"state":"active","ping":82},{"user_id":149,"name":"YOU WHAT?!","steam_id":76561198418679471,"connected_time":949000000000,"state":"active","ping":61},{"user_id":159,"name":"Kriperchito","steam_id":76561198358504992,"connected_time":481000000000,"state":"active","ping":55},{"user_id":134,"name":"Derply","steam_id":76561198871211642,"connected_time":1538000000000,"state":"active","ping":65},{"user_id":163,"name":"Bolbi","steam_id":76561198051811597,"connected_time":351000000000,"state":"active","ping":96}]},{"server_id":108,"name":"Uncletopia | Dallas | 2 | All Maps","name_short":"dal-2","host":"dal-1.us.uncletopia.com","port":27025,"enabled":true,"region":"us-central","cc":"us","latitude":32.779167,"longitude":-96.80889,"reserved":0,"last_update":"0001-01-01T00:00:00Z","name_a2s":"Uncletopia | Dallas | 2 | All Maps","protocol":17,"map":"pl_badwater","folder":"tf","game":"Team Fortress","app_id":440,"player_count":24,"max_players":24,"Bots":0,"server_type":"Dedicated","server_os":"Linux","password":true,"vac":true,"version":"7961495","steam_id":85568392924469988,"keywords":["nocrits","nodmgspread","payload","uncletopia"],"game_id":440,"stv_port":27026,"stv_name":"Uncletopia | Dallas | 2 | All Maps | STV","players":[{"user_id":134,"name":"WM1 PYRO","steam_id":76561198045893896,"connected_time":443000000000,"state":"active","ping":112},{"user_id":105,"name":"adapt","steam_id":76561198156181017,"connected_time":1556000000000,"state":"active","ping":95},{"user_id":102,"name":"explosives anonymous","steam_id":76561198141862936,"connected_time":1897000000000,"state":"active","ping":86},{"user_id":133,"name":"rhsiegetank","steam_id":76561198359829118,"connected_time":459000000000,"state":"active","ping":93},{"user_id":124,"name":"Arrluk","steam_id":76561198396679452,"connected_time":929000000000,"state":"active","ping":60},{"user_id":135,"name":"Leefizzy","steam_id":76561198025759758,"connected_time":383000000000,"state":"active","ping":94},{"user_id":125,"name":"MineOpal","steam_id":76561198044716407,"connected_time":835000000000,"state":"active","ping":73},{"user_id":136,"name":"Paulktw1","steam_id":76561198362380245,"connected_time":321000000000,"state":"active","ping":172},{"user_id":141,"name":"\u003cGNGWD\u003e CrocAsaurus","steam_id":76561198213982408,"connected_time":217000000000,"state":"active","ping":168},{"user_id":128,"name":"Rango","steam_id":76561198222234172,"connected_time":721000000000,"state":"active","ping":56},{"user_id":115,"name":"MR.THE TOASTER","steam_id":76561199109565739,"connected_time":1084000000000,"state":"active","ping":65},{"user_id":138,"name":"AP test taker","steam_id":76561198856284930,"connected_time":294000000000,"state":"active","ping":87},{"user_id":116,"name":"S5lty","steam_id":76561199077992604,"connected_time":1052000000000,"state":"active","ping":80},{"user_id":143,"name":"Futanari of the Amazon Enjoyer","steam_id":76561198074294849,"connected_time":148000000000,"state":"active","ping":97},{"user_id":117,"name":"Tokyo","steam_id":76561198026913053,"connected_time":1029000000000,"state":"active","ping":76},{"user_id":132,"name":"Speedy","steam_id":76561198873086850,"connected_time":553000000000,"state":"active","ping":103},{"user_id":119,"name":"Dreamzapp","steam_id":76561199084936632,"connected_time":994000000000,"state":"active","ping":95},{"user_id":140,"name":"JimPlatinum","steam_id":76561198950714198,"connected_time":252000000000,"state":"active","ping":98},{"user_id":86,"name":"Linksaver1","steam_id":76561198096312838,"connected_time":2580000000000,"state":"active","ping":92},{"user_id":130,"name":"CDBeans","steam_id":76561198046990367,"connected_time":653000000000,"state":"active","ping":96},{"user_id":144,"name":"walting white","steam_id":76561198072156623,"connected_time":26000000000,"state":"active","ping":113},{"user_id":121,"name":"Biggus Wiiggus","steam_id":76561198078379719,"connected_time":987000000000,"state":"active","ping":83},{"user_id":122,"name":"Shrubs","steam_id":76561197995206256,"connected_time":984000000000,"state":"active","ping":101},{"user_id":98,"name":"sus bread_stain","steam_id":76561199230268075,"connected_time":2018000000000,"state":"active","ping":91}]},{"server_id":404,"name":"Uncletopia | Dallas | 3 | All Maps","name_short":"dal-3","host":"dal-1.us.uncletopia.com","port":27035,"enabled":true,"region":"us-central","cc":"us","latitude":32.779167,"longitude":-96.80889,"reserved":0,"last_update":"0001-01-01T00:00:00Z","name_a2s":"Uncletopia | Dallas | 3 | All Maps","protocol":17,"map":"cp_gorge","folder":"tf","game":"Team Fortress","app_id":440,"player_count":0,"max_players":24,"Bots":0,"server_type":"Dedicated","server_os":"Linux","password":true,"vac":true,"version":"7961495","steam_id":85568392924515219,"keywords":["cp","nocrits","nodmgspread","uncletopia"],"game_id":440,"stv_port":27036,"stv_name":"Uncletopia | Dallas | 3 | All Maps | STV","players":null},{"server_id":405,"name":"Uncletopia | Dallas | 4 | Community","name_short":"dal-4","host":"dal-1.us.uncletopia.com","port":27045,"enabled":true,"region":"us-central","cc":"us","latitude":32.779167,"longitude":-96.80889,"reserved":0,"last_update":"0001-01-01T00:00:00Z","name_a2s":"Uncletopia | Dallas | 4 | Community","protocol":17,"map":"workshop/koth_rotunda_rc10w.ugc2964421291","folder":"tf","game":"Team Fortress","app_id":440,"player_count":1,"max_players":24,"Bots":0,"server_type":"Dedicated","server_os":"Linux","password":true,"vac":true,"version":"7961495","steam_id":85568392924515220,"keywords":["cp","nocrits","nodmgspread","uncletopia"],"game_id":440,"stv_port":27046,"stv_name":"Uncletopia | Dallas | 4 | Community | STV","players":[{"user_id":292,"name":"Outer","steam_id":76561199121781498,"connected_time":147000000000,"state":"active","ping":57}]},{"server_id":5,"name":"Uncletopia | Frankfurt | 1 | All Maps","name_short":"frk-1","host":"frk-1.de.uncletopia.com","port":27015,"enabled":true,"region":"eu","cc":"de","latitude":50.110924,"longitude":8.682127,"reserved":0,"last_update":"0001-01-01T00:00:00Z","name_a2s":"Uncletopia | Frankfurt | 1 | All Maps","protocol":17,"map":"cp_altitude","folder":"tf","game":"Team Fortress","app_id":440,"player_count":1,"max_players":24,"Bots":0,"server_type":"Dedicated","server_os":"Linux","password":true,"vac":true,"version":"7961495","steam_id":85568392924469989,"keywords":["cp","nocrits","nodmgspread","uncletopia"],"game_id":440,"stv_port":27016,"stv_name":"Uncletopia | Frankfurt | 1 | All Maps | STV","players":[{"user_id":505,"name":"AhYesItsLarry","steam_id":76561198113895325,"connected_time":28000000000,"state":"active","ping":63}]},{"server_id":110,"name":"Uncletopia | Frankfurt | 2 | All Maps","name_short":"frk-2","host":"frk-1.de.uncletopia.com","port":27025,"enabled":true,"region":"eu","cc":"de","latitude":50.110924,"longitude":8.682127,"reserved":0,"last_update":"0001-01-01T00:00:00Z","name_a2s":"Uncletopia | Frankfurt | 2 | All Maps","protocol":17,"map":"pl_pier","folder":"tf","game":"Team Fortress","app_id":440,"player_count":21,"max_players":24,"Bots":0,"server_type":"Dedicated","server_os":"Linux","password":true,"vac":true,"version":"7961495","steam_id":85568392924469990,"keywords":["nocrits","nodmgspread","payload","uncletopia"],"game_id":440,"stv_port":27026,"stv_name":"Uncletopia | Frankfurt | 2 | All Maps | STV","players":[{"user_id":403,"name":"Leviticus Cornwall","steam_id":76561197993702685,"connected_time":3076000000000,"state":"active","ping":88},{"user_id":437,"name":"Not A Fake Uncletopia Server","steam_id":76561198152871288,"connected_time":890000000000,"state":"active","ping":68},{"user_id":421,"name":"donatofina","steam_id":76561198353497885,"connected_time":1481000000000,"state":"active","ping":79},{"user_id":374,"name":"Viennetta Gaming","steam_id":76561198917426802,"connected_time":4086000000000,"state":"active","ping":135},{"user_id":439,"name":"Herios","steam_id":76561198132804139,"connected_time":822000000000,"state":"active","ping":51},{"user_id":441,"name":"LeWiwinSauvage","steam_id":76561198169278821,"connected_time":615000000000,"state":"active","ping":43},{"user_id":426,"name":"nyanezt","steam_id":76561198253734265,"connected_time":1418000000000,"state":"active","ping":100},{"user_id":438,"name":"BIG BOI SPICE","steam_id":76561198194862277,"connected_time":872000000000,"state":"active","ping":62},{"user_id":442,"name":"♥Ayden♥","steam_id":76561198038049350,"connected_time":455000000000,"state":"active","ping":61},{"user_id":413,"name":"meriones","steam_id":76561198034234373,"connected_time":2071000000000,"state":"active","ping":45},{"user_id":432,"name":"MoistMomMauler","steam_id":76561198069359049,"connected_time":1215000000000,"state":"active","ping":90},{"user_id":444,"name":"Przemomalin","steam_id":76561197987528170,"connected_time":141000000000,"state":"spawning","ping":208},{"user_id":436,"name":"jimbo.pedderz","steam_id":76561199226376707,"connected_time":1086000000000,"state":"active","ping":76},{"user_id":440,"name":"tallen","steam_id":76561198061708595,"connected_time":631000000000,"state":"active","ping":75},{"user_id":443,"name":"Bmo","steam_id":76561198158818775,"connected_time":244000000000,"state":"active","ping":56},{"user_id":445,"name":"Emerald","steam_id":76561199141384216,"connected_time":49000000000,"state":"active","ping":58},{"user_id":427,"name":"DACHU","steam_id":76561198146687537,"connected_time":1407000000000,"state":"active","ping":65},{"user_id":446,"name":"906 Objects","steam_id":76561198087543005,"connected_time":47000000000,"state":"active","ping":45},{"user_id":447,"name":"That hamster has been dead for ","steam_id":76561198346638308,"connected_time":45000000000,"state":"active","ping":59},{"user_id":429,"name":"Dirtier Harry","steam_id":76561198134378108,"connected_time":1394000000000,"state":"active","ping":76},{"user_id":435,"name":"rubicus","steam_id":76561198823847982,"connected_time":1114000000000,"state":"active","ping":75}]},{"server_id":308,"name":"Uncletopia | Frankfurt | 3 | All Maps","name_short":"frk-3","host":"frk-1.de.uncletopia.com","port":27035,"enabled":true,"region":"eu","cc":"de","latitude":50.110924,"longitude":8.682127,"reserved":0,"last_update":"0001-01-01T00:00:00Z","name_a2s":"Uncletopia | Frankfurt | 3 | All Maps","protocol":17,"map":"pl_borneo","folder":"tf","game":"Team Fortress","app_id":440,"player_count":23,"max_players":24,"Bots":0,"server_type":"Dedicated","server_os":"Linux","password":true,"vac":true,"version":"7961495","steam_id":85568392924504274,"keywords":["nocrits","nodmgspread","payload","uncletopia"],"game_id":440,"stv_port":27036,"stv_name":"Uncletopia | Frankfurt | 3 | All Maps | STV","players":[{"user_id":416,"name":"AsuX","steam_id":76561197990333289,"connected_time":314000000000,"state":"active","ping":61},{"user_id":398,"name":"Rent Ntragkon","steam_id":76561198259054682,"connected_time":1292000000000,"state":"active","ping":99},{"user_id":364,"name":"guess who's beck","steam_id":76561198190073005,"connected_time":4592000000000,"state":"active","ping":54},{"user_id":407,"name":"STiNGHAN","steam_id":76561198023989090,"connected_time":884000000000,"state":"active","ping":64},{"user_id":404,"name":"itsPanzerPanda","steam_id":76561199441946346,"connected_time":920000000000,"state":"active","ping":160},{"user_id":389,"name":"Princess Fuzz","steam_id":76561198025783000,"connected_time":2187000000000,"state":"active","ping":45},{"user_id":395,"name":"Falcon","steam_id":76561198211463916,"connected_time":1935000000000,"state":"active","ping":102},{"user_id":412,"name":"Woman (Real)","steam_id":76561198131411627,"connected_time":469000000000,"state":"active","ping":80},{"user_id":374,"name":"Grim the lemon","steam_id":76561199083433988,"connected_time":3848000000000,"state":"active","ping":59},{"user_id":383,"name":"The Lady","steam_id":76561198029895809,"connected_time":3033000000000,"state":"active","ping":74},{"user_id":375,"name":"Pilaarius","steam_id":76561198120273212,"connected_time":3822000000000,"state":"active","ping":94},{"user_id":411,"name":"UpsetPuppy11","steam_id":76561199060288033,"connected_time":642000000000,"state":"active","ping":77},{"user_id":403,"name":"blank","steam_id":76561198805181599,"connected_time":955000000000,"state":"active","ping":70},{"user_id":410,"name":"Knösta","steam_id":76561198143422139,"connected_time":672000000000,"state":"active","ping":110},{"user_id":386,"name":"Davido01","steam_id":76561198089406245,"connected_time":2446000000000,"state":"active","ping":63},{"user_id":396,"name":"Mandastik","steam_id":76561199058102308,"connected_time":1336000000000,"state":"active","ping":61},{"user_id":419,"name":"Coda","steam_id":76561198250946954,"connected_time":61000000000,"state":"active","ping":114},{"user_id":360,"name":"Vershal Smershal","steam_id":76561198116223995,"connected_time":4818000000000,"state":"active","ping":61},{"user_id":406,"name":"8 Ball","steam_id":76561197960988736,"connected_time":910000000000,"state":"active","ping":60},{"user_id":347,"name":"Rarky","steam_id":76561198054398642,"connected_time":5666000000000,"state":"active","ping":49},{"user_id":417,"name":"FoOzTV","steam_id":76561197998636728,"connected_time":204000000000,"state":"active","ping":57},{"user_id":415,"name":"purpel gargamel","steam_id":76561199001989795,"connected_time":316000000000,"state":"active","ping":78},{"user_id":418,"name":"Meterious","steam_id":76561198262354374,"connected_time":137000000000,"state":"active","ping":75}]},{"server_id":309,"name":"Uncletopia | Frankfurt | 4 | All Maps","name_short":"frk-4","host":"frk-1.de.uncletopia.com","port":27045,"enabled":true,"region":"eu","cc":"de","latitude":50.110924,"longitude":8.682127,"reserved":0,"last_update":"0001-01-01T00:00:00Z","name_a2s":"Uncletopia | Frankfurt | 4 | All Maps","protocol":17,"map":"pl_snowycoast","folder":"tf","game":"Team Fortress","app_id":440,"player_count":24,"max_players":24,"Bots":0,"server_type":"Dedicated","server_os":"Linux","password":true,"vac":true,"version":"7961495","steam_id":85568392924504275,"keywords":["nocrits","nodmgspread","payload","uncletopia"],"game_id":440,"stv_port":27046,"stv_name":"Uncletopia | Frankfurt | 4 | All Maps | STV","players":[{"user_id":274,"name":"pride from despair","steam_id":76561198280507478,"connected_time":158000000000,"state":"active","ping":59},{"user_id":210,"name":"commander Doc","steam_id":76561199389114520,"connected_time":3692000000000,"state":"active","ping":153},{"user_id":277,"name":"Qdarks","steam_id":76561198013391340,"connected_time":98000000000,"state":"active","ping":140},{"user_id":272,"name":"estrogen addict","steam_id":76561198163615254,"connected_time":214000000000,"state":"active","ping":59},{"user_id":242,"name":"★poyo★","steam_id":76561198150078959,"connected_time":2280000000000,"state":"active","ping":74},{"user_id":234,"name":"Spinya","steam_id":76561198086653667,"connected_time":2710000000000,"state":"active","ping":62},{"user_id":270,"name":"post-nuke jerma","steam_id":76561198094268619,"connected_time":486000000000,"state":"active","ping":66},{"user_id":275,"name":"pip","steam_id":76561198074275684,"connected_time":153000000000,"state":"active","ping":60},{"user_id":258,"name":"Predrag218","steam_id":76561199242439630,"connected_time":975000000000,"state":"active","ping":113},{"user_id":213,"name":"Enjoyer","steam_id":76561198147399855,"connected_time":3648000000000,"state":"active","ping":110},{"user_id":252,"name":"Windows Vista Cruiser","steam_id":76561198064102233,"connected_time":1041000000000,"state":"active","ping":63},{"user_id":248,"name":"I sell exotic parrots","steam_id":76561199192434258,"connected_time":1334000000000,"state":"active","ping":79},{"user_id":251,"name":"NitPig","steam_id":76561198212991935,"connected_time":1236000000000,"state":"active","ping":113},{"user_id":250,"name":"HayLeX","steam_id":76561198130997343,"connected_time":1285000000000,"state":"active","ping":79},{"user_id":259,"name":"Ross from F.R.I.E.N.D.S.","steam_id":76561198008511665,"connected_time":973000000000,"state":"active","ping":58},{"user_id":262,"name":"Cataleptic","steam_id":76561197997966949,"connected_time":910000000000,"state":"active","ping":74},{"user_id":235,"name":"DudeoftheRock","steam_id":76561198059401865,"connected_time":2702000000000,"state":"active","ping":62},{"user_id":236,"name":"TR Dropper","steam_id":76561198161519416,"connected_time":2671000000000,"state":"active","ping":85},{"user_id":265,"name":"Mza28","steam_id":76561198873993324,"connected_time":898000000000,"state":"active","ping":64},{"user_id":266,"name":"Fan","steam_id":76561198338715287,"connected_time":891000000000,"state":"active","ping":70},{"user_id":245,"name":"tone","steam_id":76561197975301462,"connected_time":1695000000000,"state":"active","ping":76},{"user_id":278,"name":"Saucisse","steam_id":76561198119955969,"connected_time":78000000000,"state":"active","ping":60},{"user_id":279,"name":"why rum gone","steam_id":76561198158484784,"connected_time":74000000000,"state":"active","ping":67},{"user_id":267,"name":"Laru","steam_id":76561197998838438,"connected_time":857000000000,"state":"active","ping":89}]},{"server_id":310,"name":"Uncletopia | Frankfurt | 5 | All Maps","name_short":"frk-5","host":"frk-1.de.uncletopia.com","port":27055,"enabled":true,"region":"eu","cc":"de","latitude":50.110924,"longitude":8.682127,"reserved":0,"last_update":"0001-01-01T00:00:00Z","name_a2s":"Uncletopia | Frankfurt | 5 | All Maps","protocol":17,"map":"pl_snowycoast","folder":"tf","game":"Team Fortress","app_id":440,"player_count":24,"max_players":24,"Bots":0,"server_type":"Dedicated","server_os":"Linux","password":true,"vac":true,"version":"7961495","steam_id":85568392924504277,"keywords":["nocrits","nodmgspread","payload","uncletopia"],"game_id":440,"stv_port":27056,"stv_name":"Uncletopia | Frankfurt | 5 | All Maps | STV","players":[{"user_id":902,"name":"Macro","steam_id":76561199442846226,"connected_time":674000000000,"state":"active","ping":171},{"user_id":870,"name":"BoPoe","steam_id":76561198093333882,"connected_time":2025000000000,"state":"active","ping":106},{"user_id":893,"name":"plicalxealex","steam_id":76561199374854946,"connected_time":1196000000000,"state":"active","ping":89},{"user_id":860,"name":"Woad Raider","steam_id":76561198215485788,"connected_time":2600000000000,"state":"active","ping":68},{"user_id":872,"name":"sork","steam_id":76561198082446459,"connected_time":2004000000000,"state":"active","ping":63},{"user_id":873,"name":"Kroksnoken","steam_id":76561198058806647,"connected_time":1996000000000,"state":"active","ping":73},{"user_id":853,"name":"CarrotFlowers","steam_id":76561198154714698,"connected_time":3612000000000,"state":"active","ping":52},{"user_id":747,"name":"misterwondo","steam_id":76561198187934110,"connected_time":9210000000000,"state":"active","ping":67},{"user_id":897,"name":"SecretWalrus","steam_id":76561198012484939,"connected_time":887000000000,"state":"active","ping":52},{"user_id":885,"name":"glue gunner","steam_id":76561198330025106,"connected_time":1539000000000,"state":"active","ping":45},{"user_id":889,"name":"K→daz","steam_id":76561198096294931,"connected_time":1386000000000,"state":"active","ping":54},{"user_id":894,"name":"Noodle","steam_id":76561198306486695,"connected_time":1169000000000,"state":"active","ping":59},{"user_id":876,"name":"BROKEN_MIC","steam_id":76561198310031791,"connected_time":1896000000000,"state":"active","ping":71},{"user_id":890,"name":"TaKina","steam_id":76561198062977164,"connected_time":1385000000000,"state":"active","ping":66},{"user_id":901,"name":"herr_p","steam_id":76561198033072222,"connected_time":703000000000,"state":"active","ping":60},{"user_id":892,"name":"jayc","steam_id":76561198079200985,"connected_time":1322000000000,"state":"active","ping":60},{"user_id":903,"name":"dima_gorgon","steam_id":76561198205824409,"connected_time":669000000000,"state":"active","ping":62},{"user_id":895,"name":"Mangolier","steam_id":76561198009733653,"connected_time":1146000000000,"state":"active","ping":69},{"user_id":899,"name":"W","steam_id":76561199501358967,"connected_time":769000000000,"state":"active","ping":61},{"user_id":886,"name":"váza","steam_id":76561198384577448,"connected_time":1495000000000,"state":"active","ping":52},{"user_id":881,"name":"Sappin'","steam_id":76561198107054587,"connected_time":1783000000000,"state":"active","ping":56},{"user_id":898,"name":"Alegz","steam_id":76561198287810139,"connected_time":851000000000,"state":"active","ping":76},{"user_id":896,"name":"Diane","steam_id":76561197981149859,"connected_time":993000000000,"state":"active","ping":69},{"user_id":904,"name":"viddy","steam_id":76561198004383856,"connected_time":549000000000,"state":"active","ping":82}]},{"server_id":311,"name":"Uncletopia | Frankfurt | 6 | All Maps","name_short":"frk-6","host":"frk-1.de.uncletopia.com","port":27065,"enabled":true,"region":"eu","cc":"de","latitude":50.110924,"longitude":8.682127,"reserved":0,"last_update":"0001-01-01T00:00:00Z","name_a2s":"Uncletopia | Frankfurt | 6 | All Maps","protocol":17,"map":"cp_dustbowl","folder":"tf","game":"Team Fortress","app_id":440,"player_count":0,"max_players":24,"Bots":0,"server_type":"Dedicated","server_os":"Linux","password":true,"vac":true,"version":"7961495","steam_id":85568392924504278,"keywords":["cp","nocrits","nodmgspread","uncletopia"],"game_id":440,"stv_port":27066,"stv_name":"Uncletopia | Frankfurt | 6 | All Maps | STV","players":null},{"server_id":23,"name":"Uncletopia | Frankfurt | 7 | Stopwatch","name_short":"frk-7","host":"frk-1.de.uncletopia.com","port":27075,"enabled":true,"region":"eu","cc":"de","latitude":50.110924,"longitude":8.682127,"reserved":0,"last_update":"0001-01-01T00:00:00Z","name_a2s":"Uncletopia | Frankfurt | 7 | Stopwatch","protocol":17,"map":"workshop/pl_vigil_rc10.ugc1266210012","folder":"tf","game":"Team Fortress","app_id":440,"player_count":0,"max_players":24,"Bots":0,"server_type":"Dedicated","server_os":"Linux","password":true,"vac":true,"version":"7961495","steam_id":85568392924742827,"keywords":["nocrits","nodmgspread","payload","uncletopia"],"game_id":440,"stv_port":27076,"stv_name":"Uncletopia | Frankfurt | 7 | Stopwatch | STV","players":null},{"server_id":24,"name":"Uncletopia | Frankfurt | 8 | Community","name_short":"frk-8","host":"frk-1.de.uncletopia.com","port":27085,"enabled":true,"region":"eu","cc":"de","latitude":50.110924,"longitude":8.682127,"reserved":0,"last_update":"0001-01-01T00:00:00Z","name_a2s":"Uncletopia | Frankfurt | 8 | Community","protocol":17,"map":"workshop/koth_kemptown_rc1.ugc767410655","folder":"tf","game":"Team Fortress","app_id":440,"player_count":0,"max_players":24,"Bots":0,"server_type":"Dedicated","server_os":"Linux","password":true,"vac":true,"version":"7961495","steam_id":85568392924742828,"keywords":["cp","nocrits","nodmgspread","uncletopia"],"game_id":440,"stv_port":27086,"stv_name":"Uncletopia | Frankfurt | 8 | Community | STV","players":null},{"server_id":202,"name":"Uncletopia | Hong Kong | 1 | All Maps","name_short":"hgk-1","host":"hgk-1.hk.uncletopia.com","port":27015,"enabled":true,"region":"asia","cc":"hk","latitude":22.302711,"longitude":114.177216,"reserved":0,"last_update":"0001-01-01T00:00:00Z","name_a2s":"Uncletopia | Hong Kong | 1 | All Maps","protocol":17,"map":"koth_highpass","folder":"tf","game":"Team Fortress","app_id":440,"player_count":0,"max_players":24,"Bots":0,"server_type":"Dedicated","server_os":"Linux","password":true,"vac":true,"version":"7961495","steam_id":85568392924494504,"keywords":["cp","nocrits","nodmgspread","uncletopia"],"game_id":440,"stv_port":27016,"stv_name":"Uncletopia | Hong Kong | 1 | All Maps | STV","players":null},{"server_id":1,"name":"Uncletopia | Los Angeles | 1 | All Maps","name_short":"lax-1","host":"lax-1.us.uncletopia.com","port":27015,"enabled":true,"region":"us-west","cc":"us","latitude":33.94279,"longitude":-118.41004,"reserved":0,"last_update":"0001-01-01T00:00:00Z","name_a2s":"Uncletopia | Los Angeles | 1 | All Maps","protocol":17,"map":"koth_lakeside_final","folder":"tf","game":"Team Fortress","app_id":440,"player_count":0,"max_players":24,"Bots":0,"server_type":"Dedicated","server_os":"Linux","password":true,"vac":true,"version":"7961495","steam_id":85568392924469991,"keywords":["cp","nocrits","nodmgspread","uncletopia"],"game_id":440,"stv_port":27016,"stv_name":"Uncletopia | Los Angeles | 1 | All Maps | STV","players":null},{"server_id":112,"name":"Uncletopia | Los Angeles | 2 | All Maps","name_short":"lax-2","host":"lax-1.us.uncletopia.com","port":27025,"enabled":true,"region":"us-west","cc":"us","latitude":33.94279,"longitude":-118.41004,"reserved":0,"last_update":"0001-01-01T00:00:00Z","name_a2s":"Uncletopia | Los Angeles | 2 | All Maps","protocol":17,"map":"koth_lazarus","folder":"tf","game":"Team Fortress","app_id":440,"player_count":0,"max_players":24,"Bots":0,"server_type":"Dedicated","server_os":"Linux","password":true,"vac":true,"version":"7961495","steam_id":85568392924469992,"keywords":["cp","nocrits","nodmgspread","uncletopia"],"game_id":440,"stv_port":27026,"stv_name":"Uncletopia | Los Angeles | 2 | All Maps | STV","players":null},{"server_id":324,"name":"Uncletopia | Los Angeles | 3 | All Maps","name_short":"lax-3","host":"lax-1.us.uncletopia.com","port":27035,"enabled":true,"region":"us-west","cc":"us","latitude":33.94279,"longitude":-118.41004,"reserved":0,"last_update":"0001-01-01T00:00:00Z","name_a2s":"Uncletopia | Los Angeles | 3 | All Maps","protocol":17,"map":"cp_dustbowl","folder":"tf","game":"Team Fortress","app_id":440,"player_count":0,"max_players":24,"Bots":0,"server_type":"Dedicated","server_os":"Linux","password":true,"vac":true,"version":"7961495","steam_id":85568392924510198,"keywords":["cp","nocrits","nodmgspread","uncletopia"],"game_id":440,"stv_port":27036,"stv_name":"Uncletopia | Los Angeles | 3 | All Maps | STV","players":null},{"server_id":25,"name":"Uncletopia | Los Angeles | 4 | Stopwatch","name_short":"lax-4","host":"lax-1.us.uncletopia.com","port":27045,"enabled":true,"region":"us-west","cc":"us","latitude":33.94279,"longitude":-118.41004,"reserved":0,"last_update":"0001-01-01T00:00:00Z","name_a2s":"Uncletopia | Los Angeles | 4 | Stopwatch","protocol":17,"map":"workshop/cp_reckoner_rc6.ugc674719999","folder":"tf","game":"Team Fortress","app_id":440,"player_count":0,"max_players":24,"Bots":0,"server_type":"Dedicated","server_os":"Linux","password":true,"vac":true,"version":"7961495","steam_id":85568392924510199,"keywords":["cp","nocrits","nodmgspread","uncletopia"],"game_id":440,"stv_port":27046,"stv_name":"Uncletopia | Los Angeles | 4 | Stopwatch | STV","players":null},{"server_id":11,"name":"Uncletopia | London | 1 | All Maps","name_short":"lon-1","host":"lon-1.uk.uncletopia.com","port":27015,"enabled":true,"region":"eu","cc":"gb","latitude":51.509865,"longitude":-0.118092,"reserved":0,"last_update":"0001-01-01T00:00:00Z","name_a2s":"Uncletopia | London | 1 | All Maps","protocol":17,"map":"pl_upward","folder":"tf","game":"Team Fortress","app_id":440,"player_count":24,"max_players":24,"Bots":0,"server_type":"Dedicated","server_os":"Linux","password":true,"vac":true,"version":"7961495","steam_id":85568392924367362,"keywords":["nocrits","nodmgspread","payload","uncletopia"],"game_id":440,"stv_port":27016,"stv_name":"Uncletopia | London | 1 | All Maps | STV","players":[{"user_id":582,"name":"swatton","steam_id":76561198875537106,"connected_time":2158000000000,"state":"active","ping":60},{"user_id":605,"name":"KLAMA  ❤","steam_id":76561198351549661,"connected_time":942000000000,"state":"active","ping":77},{"user_id":588,"name":"marvi444","steam_id":76561198431534139,"connected_time":1745000000000,"state":"active","ping":59},{"user_id":602,"name":"gibb (based)","steam_id":76561198074097655,"connected_time":1142000000000,"state":"active","ping":60},{"user_id":589,"name":"THE SPIRIT","steam_id":76561198170744597,"connected_time":1744000000000,"state":"active","ping":72},{"user_id":596,"name":"Voks_","steam_id":76561198159687785,"connected_time":1571000000000,"state":"active","ping":69},{"user_id":604,"name":"fénix","steam_id":76561198083199151,"connected_time":1018000000000,"state":"active","ping":58},{"user_id":595,"name":"Corn Readyx","steam_id":76561198192185825,"connected_time":1597000000000,"state":"active","ping":78},{"user_id":620,"name":"Eric Catman","steam_id":76561198802117294,"connected_time":214000000000,"state":"active","ping":61},{"user_id":597,"name":"TL071 op-amp","steam_id":76561198397024973,"connected_time":1559000000000,"state":"active","ping":34},{"user_id":571,"name":"[CiC] FU2Max","steam_id":76561197960282327,"connected_time":2826000000000,"state":"active","ping":33},{"user_id":587,"name":"AI | Davidoscki","steam_id":76561198129166046,"connected_time":1765000000000,"state":"active","ping":109},{"user_id":617,"name":"Dougie","steam_id":76561198079567499,"connected_time":482000000000,"state":"active","ping":50},{"user_id":618,"name":"Yuval","steam_id":76561198241802390,"connected_time":402000000000,"state":"active","ping":115},{"user_id":592,"name":"gamerkiddo","steam_id":76561198047380360,"connected_time":1712000000000,"state":"active","ping":45},{"user_id":621,"name":"RomAnjentululiantiarion","steam_id":76561198161417211,"connected_time":136000000000,"state":"active","ping":101},{"user_id":536,"name":"FJADL","steam_id":76561198237008214,"connected_time":5956000000000,"state":"active","ping":75},{"user_id":610,"name":"IDREEESH","steam_id":76561198865991687,"connected_time":651000000000,"state":"active","ping":149},{"user_id":601,"name":"Plith","steam_id":76561198027499887,"connected_time":1482000000000,"state":"active","ping":37},{"user_id":584,"name":"Kahvi","steam_id":76561198723244199,"connected_time":2152000000000,"state":"active","ping":89},{"user_id":615,"name":"Gibbo","steam_id":76561198021814576,"connected_time":531000000000,"state":"active","ping":44},{"user_id":600,"name":"Haha?","steam_id":76561198056882245,"connected_time":1504000000000,"state":"active","ping":43},{"user_id":619,"name":"golfmastr","steam_id":76561198993144124,"connected_time":344000000000,"state":"active","ping":60},{"user_id":613,"name":"AbuMshMsh","steam_id":76561198291184871,"connected_time":639000000000,"state":"active","ping":133}]},{"server_id":114,"name":"Uncletopia | London | 2 | All Maps","name_short":"lon-2","host":"lon-1.uk.uncletopia.com","port":27025,"enabled":true,"region":"eu","cc":"gb","latitude":51.509865,"longitude":-0.118092,"reserved":0,"last_update":"0001-01-01T00:00:00Z","name_a2s":"Uncletopia | London | 2 | All Maps","protocol":17,"map":"koth_highpass","folder":"tf","game":"Team Fortress","app_id":440,"player_count":23,"max_players":24,"Bots":0,"server_type":"Dedicated","server_os":"Linux","password":true,"vac":true,"version":"7961495","steam_id":85568392924470941,"keywords":["cp","nocrits","nodmgspread","uncletopia"],"game_id":440,"stv_port":27026,"stv_name":"Uncletopia | London | 2 | All Maps | STV","players":[{"user_id":263,"name":"ThatSiegeKid","steam_id":76561198368037656,"connected_time":1356000000000,"state":"active","ping":42},{"user_id":274,"name":"Rizz Training Order","steam_id":76561198164877219,"connected_time":701000000000,"state":"active","ping":38},{"user_id":285,"name":"Esquiloz","steam_id":76561198075645336,"connected_time":286000000000,"state":"active","ping":76},{"user_id":242,"name":"Vi100 Dol7","steam_id":76561198118137461,"connected_time":2587000000000,"state":"active","ping":75},{"user_id":276,"name":"CallMeUnoriginal","steam_id":76561198977528294,"connected_time":678000000000,"state":"active","ping":43},{"user_id":284,"name":"LiterallyRyanGosling","steam_id":76561199017856691,"connected_time":437000000000,"state":"active","ping":54},{"user_id":266,"name":"Prof. Flintlock","steam_id":76561198085962299,"connected_time":1100000000000,"state":"active","ping":75},{"user_id":272,"name":"sex haver","steam_id":76561198798892497,"connected_time":761000000000,"state":"active","ping":55},{"user_id":247,"name":"KUPOOOO","steam_id":76561198088963031,"connected_time":2574000000000,"state":"active","ping":71},{"user_id":232,"name":"Quartermistress","steam_id":76561198140199123,"connected_time":3770000000000,"state":"active","ping":44},{"user_id":278,"name":"icymelon","steam_id":76561198072239175,"connected_time":623000000000,"state":"active","ping":39},{"user_id":290,"name":"Lowqualitybeans","steam_id":76561198069405114,"connected_time":49000000000,"state":"active","ping":62},{"user_id":222,"name":"abra-kablam","steam_id":76561198195857751,"connected_time":4538000000000,"state":"active","ping":73},{"user_id":248,"name":"The_Jaystone","steam_id":76561198126280691,"connected_time":2520000000000,"state":"active","ping":34},{"user_id":289,"name":"Dishhhh","steam_id":76561197992816831,"connected_time":91000000000,"state":"active","ping":67},{"user_id":259,"name":"Big Benn","steam_id":76561199024168373,"connected_time":1491000000000,"state":"active","ping":124},{"user_id":271,"name":"herbal tea","steam_id":76561197980736364,"connected_time":845000000000,"state":"active","ping":87},{"user_id":231,"name":"Vanilla Autismotron","steam_id":76561198278604277,"connected_time":3880000000000,"state":"active","ping":52},{"user_id":287,"name":"CONAH","steam_id":76561198227685876,"connected_time":228000000000,"state":"active","ping":60},{"user_id":283,"name":"comic_sans","steam_id":76561198845309519,"connected_time":552000000000,"state":"active","ping":83},{"user_id":262,"name":"tsubonyan★","steam_id":76561198120653445,"connected_time":1403000000000,"state":"active","ping":65},{"user_id":281,"name":"Ransu","steam_id":76561198211750823,"connected_time":593000000000,"state":"active","ping":78},{"user_id":282,"name":"Gorgeous George","steam_id":76561198144256544,"connected_time":589000000000,"state":"active","ping":46}]},{"server_id":320,"name":"Uncletopia | London | 3 | All Maps","name_short":"lon-3","host":"lon-1.uk.uncletopia.com","port":27035,"enabled":true,"region":"eu","cc":"gb","latitude":51.509865,"longitude":-0.118092,"reserved":0,"last_update":"0001-01-01T00:00:00Z","name_a2s":"Uncletopia | London | 3 | All Maps","protocol":17,"map":"cp_dustbowl","folder":"tf","game":"Team Fortress","app_id":440,"player_count":19,"max_players":24,"Bots":0,"server_type":"Dedicated","server_os":"Linux","password":true,"vac":true,"version":"7961495","steam_id":85568392924510192,"keywords":["cp","nocrits","nodmgspread","uncletopia"],"game_id":440,"stv_port":27036,"stv_name":"Uncletopia | London | 3 | All Maps | STV","players":[{"user_id":552,"name":"James","steam_id":76561198168882012,"connected_time":254000000000,"state":"active","ping":52},{"user_id":535,"name":"giclure :;","steam_id":76561197986362828,"connected_time":1874000000000,"state":"active","ping":101},{"user_id":553,"name":"Frust","steam_id":76561198009785922,"connected_time":112000000000,"state":"active","ping":107},{"user_id":554,"name":"(:","steam_id":76561198080638046,"connected_time":101000000000,"state":"active","ping":75},{"user_id":542,"name":"Rad","steam_id":76561199001560866,"connected_time":1330000000000,"state":"active","ping":67},{"user_id":550,"name":"Jethro Tull","steam_id":76561199034041634,"connected_time":536000000000,"state":"active","ping":55},{"user_id":549,"name":"cl_skinnyboi 1","steam_id":76561198042864708,"connected_time":658000000000,"state":"active","ping":40},{"user_id":539,"name":"relishwolf","steam_id":76561198871093929,"connected_time":1626000000000,"state":"active","ping":52},{"user_id":555,"name":"no...","steam_id":76561198184577023,"connected_time":82000000000,"state":"active","ping":43},{"user_id":506,"name":"Spinosaurus","steam_id":76561199086481600,"connected_time":3734000000000,"state":"active","ping":67},{"user_id":556,"name":"...","steam_id":76561198060812291,"connected_time":76000000000,"state":"active","ping":114},{"user_id":557,"name":"armadillo","steam_id":76561198324656652,"connected_time":49000000000,"state":"active","ping":51},{"user_id":558,"name":"Boki","steam_id":76561198044553351,"connected_time":49000000000,"state":"active","ping":75},{"user_id":509,"name":"finbar","steam_id":76561198056812396,"connected_time":3647000000000,"state":"active","ping":83},{"user_id":559,"name":"Indomitable Truck-sama","steam_id":76561198826861582,"connected_time":17000000000,"state":"spawning","ping":53},{"user_id":515,"name":"Yali_Ekstein","steam_id":76561199147884934,"connected_time":3488000000000,"state":"active","ping":107},{"user_id":538,"name":"Mr.Shpee","steam_id":76561198158701474,"connected_time":1811000000000,"state":"active","ping":85},{"user_id":541,"name":"Supercoxylac","steam_id":76561198376300138,"connected_time":1478000000000,"state":"active","ping":70},{"user_id":520,"name":"Truxy Trux","steam_id":76561198147762046,"connected_time":3333000000000,"state":"active","ping":89}]},{"server_id":321,"name":"Uncletopia | London | 4 | All Maps","name_short":"lon-4","host":"lon-1.uk.uncletopia.com","port":27045,"enabled":true,"region":"eu","cc":"gb","latitude":51.509865,"longitude":-0.118092,"reserved":0,"last_update":"0001-01-01T00:00:00Z","name_a2s":"Uncletopia | London | 4 | All Maps","protocol":17,"map":"cp_altitude","folder":"tf","game":"Team Fortress","app_id":440,"player_count":21,"max_players":24,"Bots":0,"server_type":"Dedicated","server_os":"Linux","password":true,"vac":true,"version":"7961495","steam_id":85568392924510193,"keywords":["cp","nocrits","nodmgspread","uncletopia"],"game_id":440,"stv_port":27046,"stv_name":"Uncletopia | London | 4 | All Maps | STV","players":[{"user_id":458,"name":"Flank","steam_id":76561198098731156,"connected_time":444000000000,"state":"active","ping":66},{"user_id":449,"name":"=flashpoint=","steam_id":76561197976774456,"connected_time":1385000000000,"state":"active","ping":47},{"user_id":370,"name":"ODanial","steam_id":76561198034854402,"connected_time":7136000000000,"state":"active","ping":71},{"user_id":461,"name":"louisblue2805","steam_id":76561199487364750,"connected_time":173000000000,"state":"active","ping":63},{"user_id":460,"name":"Doritoshredder","steam_id":76561198826710752,"connected_time":326000000000,"state":"active","ping":105},{"user_id":457,"name":"bingus dingus","steam_id":76561199015507244,"connected_time":503000000000,"state":"active","ping":64},{"user_id":395,"name":"papa Sloath","steam_id":76561198046382160,"connected_time":5610000000000,"state":"active","ping":51},{"user_id":440,"name":"JayK","steam_id":76561198046277492,"connected_time":2047000000000,"state":"active","ping":73},{"user_id":453,"name":"rummy","steam_id":76561197997573379,"connected_time":814000000000,"state":"active","ping":46},{"user_id":462,"name":"Kiers","steam_id":76561198834266801,"connected_time":172000000000,"state":"active","ping":69},{"user_id":463,"name":"Cum consumer","steam_id":76561199172356488,"connected_time":103000000000,"state":"active","ping":105},{"user_id":464,"name":"mr.resetti","steam_id":76561198974520642,"connected_time":93000000000,"state":"active","ping":73},{"user_id":450,"name":"Elix","steam_id":76561199072306920,"connected_time":1350000000000,"state":"active","ping":119},{"user_id":465,"name":"CyberMat","steam_id":76561198043598646,"connected_time":56000000000,"state":"active","ping":77},{"user_id":390,"name":"Your honor Freebird was playing","steam_id":76561198017513012,"connected_time":6033000000000,"state":"active","ping":54},{"user_id":445,"name":"EverNoob@Shlomo","steam_id":76561198046077783,"connected_time":1518000000000,"state":"active","ping":61},{"user_id":436,"name":"Asfreild","steam_id":76561198055901120,"connected_time":2391000000000,"state":"active","ping":75},{"user_id":454,"name":"szmen","steam_id":76561198072569764,"connected_time":570000000000,"state":"active","ping":89},{"user_id":448,"name":"McAtka","steam_id":76561198019759329,"connected_time":1409000000000,"state":"active","ping":60},{"user_id":430,"name":"Chish n' Fips","steam_id":76561198012300440,"connected_time":2984000000000,"state":"active","ping":48},{"user_id":364,"name":"çodar","steam_id":76561198235518444,"connected_time":7872000000000,"state":"active","ping":40}]},{"server_id":21,"name":"Uncletopia | London | 5 | All Maps","name_short":"lon-5","host":"lon-1.uk.uncletopia.com","port":27055,"enabled":true,"region":"eu","cc":"gb","latitude":51.509865,"longitude":-0.118092,"reserved":0,"last_update":"0001-01-01T00:00:00Z","name_a2s":"Uncletopia | London | 5 | All Maps","protocol":17,"map":"cp_dustbowl","folder":"tf","game":"Team Fortress","app_id":440,"player_count":24,"max_players":24,"Bots":0,"server_type":"Dedicated","server_os":"Linux","password":true,"vac":true,"version":"7961495","steam_id":85568392924742829,"keywords":["cp","nocrits","nodmgspread","uncletopia"],"game_id":440,"stv_port":27056,"stv_name":"Uncletopia | London | 5 | All Maps | STV","players":[{"user_id":141,"name":"DirtierBurigo","steam_id":76561198014083678,"connected_time":688000000000,"state":"active","ping":83},{"user_id":128,"name":"that fat croc from donkey kong","steam_id":76561198159172495,"connected_time":1941000000000,"state":"active","ping":78},{"user_id":140,"name":"Lun4tix","steam_id":76561198089476884,"connected_time":862000000000,"state":"active","ping":49},{"user_id":85,"name":"Oak","steam_id":76561198067315672,"connected_time":5647000000000,"state":"active","ping":47},{"user_id":138,"name":"Fancy Raccoon","steam_id":76561198176331663,"connected_time":998000000000,"state":"active","ping":71},{"user_id":115,"name":"Sonnakai","steam_id":76561198051688749,"connected_time":2465000000000,"state":"active","ping":45},{"user_id":123,"name":"ғÉire","steam_id":76561199174322517,"connected_time":2216000000000,"state":"active","ping":50},{"user_id":21,"name":"W","steam_id":76561198273623211,"connected_time":7616000000000,"state":"active","ping":87},{"user_id":129,"name":"de6s","steam_id":76561199223240505,"connected_time":1767000000000,"state":"active","ping":136},{"user_id":107,"name":"ottergauze","steam_id":76561198050523315,"connected_time":3343000000000,"state":"active","ping":55},{"user_id":116,"name":"Archebalda","steam_id":76561198038536279,"connected_time":2463000000000,"state":"active","ping":89},{"user_id":108,"name":"orange","steam_id":76561198153181940,"connected_time":3183000000000,"state":"active","ping":52},{"user_id":133,"name":"oil rig","steam_id":76561198868220002,"connected_time":1199000000000,"state":"active","ping":58},{"user_id":117,"name":"Tort","steam_id":76561198329646769,"connected_time":2447000000000,"state":"active","ping":52},{"user_id":111,"name":"Ruizzie","steam_id":76561197971371603,"connected_time":2695000000000,"state":"active","ping":62},{"user_id":132,"name":"please do not the cat","steam_id":76561198089003514,"connected_time":1214000000000,"state":"active","ping":50},{"user_id":139,"name":"The legendery balls","steam_id":76561199139344747,"connected_time":967000000000,"state":"active","ping":101},{"user_id":93,"name":"irritable vowel syndrome","steam_id":76561198117033273,"connected_time":5111000000000,"state":"active","ping":48},{"user_id":109,"name":"Xavi","steam_id":76561198337783795,"connected_time":3103000000000,"state":"active","ping":121},{"user_id":120,"name":"✚ moltoBene","steam_id":76561198260850479,"connected_time":2381000000000,"state":"active","ping":62},{"user_id":142,"name":"داعـڤـيد","steam_id":76561198199927785,"connected_time":679000000000,"state":"active","ping":68},{"user_id":127,"name":"god_guy","steam_id":76561198113343665,"connected_time":2071000000000,"state":"active","ping":91},{"user_id":48,"name":"GooPig","steam_id":76561198032810579,"connected_time":6974000000000,"state":"active","ping":45},{"user_id":102,"name":"Registered Sex Offender","steam_id":76561198178869441,"connected_time":4220000000000,"state":"active","ping":54}]},{"server_id":22,"name":"Uncletopia | London | 6 | All Maps","name_short":"lon-6","host":"lon-1.uk.uncletopia.com","port":27065,"enabled":true,"region":"eu","cc":"gb","latitude":51.509865,"longitude":-0.118092,"reserved":0,"last_update":"0001-01-01T00:00:00Z","name_a2s":"Uncletopia | London | 6 | All Maps","protocol":17,"map":"pl_badwater","folder":"tf","game":"Team Fortress","app_id":440,"player_count":6,"max_players":24,"Bots":0,"server_type":"Dedicated","server_os":"Linux","password":true,"vac":true,"version":"7961495","steam_id":85568392924742830,"keywords":["nocrits","nodmgspread","payload","uncletopia"],"game_id":440,"stv_port":27066,"stv_name":"Uncletopia | London | 6 | All Maps | STV","players":[{"user_id":18,"name":"Vic Rattlehead","steam_id":76561199036837091,"connected_time":3385000000000,"state":"active","ping":83},{"user_id":19,"name":"Moon","steam_id":76561198808108594,"connected_time":3277000000000,"state":"spawning","ping":79},{"user_id":21,"name":"erykdoors","steam_id":76561199491483189,"connected_time":1723000000000,"state":"active","ping":79},{"user_id":22,"name":"Ganasti","steam_id":76561198382925185,"connected_time":1190000000000,"state":"active","ping":82},{"user_id":26,"name":"Inky (she/her)","steam_id":76561198334042273,"connected_time":798000000000,"state":"active","ping":54},{"user_id":27,"name":"Drift7114","steam_id":76561199044419505,"connected_time":603000000000,"state":"active","ping":75}]},{"server_id":40,"name":"Uncletopia | London | 7 | Stopwatch","name_short":"lon-7","host":"lon-1.uk.uncletopia.com","port":27075,"enabled":true,"region":"eu","cc":"gb","latitude":51.509865,"longitude":-0.118092,"reserved":0,"last_update":"0001-01-01T00:00:00Z","name_a2s":"Uncletopia | London | 7 | Stopwatch","protocol":17,"map":"workshop/cp_reckoner_rc6.ugc674719999","folder":"tf","game":"Team Fortress","app_id":440,"player_count":0,"max_players":24,"Bots":0,"server_type":"Dedicated","server_os":"Linux","password":true,"vac":true,"version":"7961495","steam_id":85568392924964314,"keywords":["cp","nocrits","nodmgspread","uncletopia"],"game_id":440,"stv_port":27076,"stv_name":"Uncletopia | London | 7 | Stopwatch | STV","players":null},{"server_id":41,"name":"Uncletopia | London | 8 | Community","name_short":"lon-8","host":"lon-1.uk.uncletopia.com","port":27085,"enabled":true,"region":"eu","cc":"gb","latitude":51.509865,"longitude":-0.118092,"reserved":0,"last_update":"0001-01-01T00:00:00Z","name_a2s":"Uncletopia | London | 8 | Community","protocol":17,"map":"workshop/pl_phoenix_b4a.ugc2969509359","folder":"tf","game":"Team Fortress","app_id":440,"player_count":0,"max_players":24,"Bots":0,"server_type":"Dedicated","server_os":"Linux","password":true,"vac":true,"version":"7961495","steam_id":85568392924964315,"keywords":["nocrits","nodmgspread","payload","uncletopia"],"game_id":440,"stv_port":27086,"stv_name":"Uncletopia | London | 8 | Community | STV","players":null},{"server_id":300,"name":"Uncletopia | Montréal | 1 | One Thousand Uncles","name_short":"mtl-1","host":"mtl-1.ca.uncletopia.com","port":27015,"enabled":true,"region":"us-east","cc":"ca","latitude":45.50889,"longitude":-73.56167,"reserved":0,"last_update":"0001-01-01T00:00:00Z","name_a2s":"Uncletopia | Montréal | 1 | One Thousand Uncles","protocol":17,"map":"pl_pier","folder":"tf","game":"Team Fortress","app_id":440,"player_count":25,"max_players":32,"Bots":20,"server_type":"Dedicated","server_os":"Linux","password":true,"vac":true,"version":"7961495","steam_id":85568392924500087,"keywords":["alltalk","bots","danepve","increased_maxplayers","norespawntime","payload","uncletopia"],"game_id":440,"stv_port":0,"stv_name":"","players":[{"user_id":203,"name":"Herman Bavinck","steam_id":76561197993190216,"connected_time":3334000000000,"state":"active","ping":58},{"user_id":229,"name":"princess fern \u003c3333","steam_id":76561198881792140,"connected_time":748000000000,"state":"active","ping":73},{"user_id":204,"name":"Miss Steelheart","steam_id":76561198132562365,"connected_time":3329000000000,"state":"active","ping":136},{"user_id":206,"name":"space paranoids","steam_id":76561198085010959,"connected_time":2490000000000,"state":"active","ping":77},{"user_id":230,"name":"Femboy Gaming","steam_id":76561199382783363,"connected_time":584000000000,"state":"active","ping":88}]},{"server_id":301,"name":"Uncletopia | Montréal | 2 | One Thousand Uncles","name_short":"mtl-2","host":"mtl-1.ca.uncletopia.com","port":27025,"enabled":true,"region":"us-east","cc":"ca","latitude":45.50889,"longitude":-73.56167,"reserved":0,"last_update":"0001-01-01T00:00:00Z","name_a2s":"Uncletopia | Montréal | 2 | One Thousand Uncles","protocol":17,"map":"cp_mossrock","folder":"tf","game":"Team Fortress","app_id":440,"player_count":0,"max_players":32,"Bots":0,"server_type":"Dedicated","server_os":"Linux","password":true,"vac":true,"version":"7961495","steam_id":85568392924500088,"keywords":["alltalk","cp","danepve","increased_maxplayers","norespawntime","uncletopia"],"game_id":440,"stv_port":0,"stv_name":"","players":null},{"server_id":302,"name":"Uncletopia | Montréal | 3 | One Thousand Uncles","name_short":"mtl-3","host":"mtl-1.ca.uncletopia.com","port":27035,"enabled":true,"region":"us-east","cc":"ca","latitude":45.50889,"longitude":-73.56167,"reserved":0,"last_update":"0001-01-01T00:00:00Z","name_a2s":"Uncletopia | Montréal | 3 | One Thousand Uncles","protocol":17,"map":"pl_pier","folder":"tf","game":"Team Fortress","app_id":440,"player_count":0,"max_players":32,"Bots":0,"server_type":"Dedicated","server_os":"Linux","password":true,"vac":true,"version":"7961495","steam_id":85568392924500089,"keywords":["alltalk","danepve","increased_maxplayers","norespawntime","payload","uncletopia"],"game_id":440,"stv_port":0,"stv_name":"","players":null},{"server_id":13,"name":"Uncletopia | New York City | 1 | All Maps","name_short":"nyc-1","host":"nyc-1.us.uncletopia.com","port":27015,"enabled":true,"region":"us-east","cc":"us","latitude":40.73061,"longitude":-73.93524,"reserved":0,"last_update":"0001-01-01T00:00:00Z","name_a2s":"Uncletopia | New York City | 1 | All Maps","protocol":17,"map":"cp_mercenarypark","folder":"tf","game":"Team Fortress","app_id":440,"player_count":24,"max_players":24,"Bots":0,"server_type":"Dedicated","server_os":"Linux","password":true,"vac":true,"version":"7961495","steam_id":85568392924469993,"keywords":["cp","nocrits","nodmgspread","uncletopia"],"game_id":440,"stv_port":27016,"stv_name":"Uncletopia | New York City | 1 | All Maps | STV","players":[{"user_id":214,"name":"CuSO4","steam_id":76561199278147589,"connected_time":625000000000,"state":"active","ping":53},{"user_id":178,"name":"Drake the Pixel","steam_id":76561198131824401,"connected_time":3970000000000,"state":"active","ping":36},{"user_id":221,"name":"1080 HD 2014","steam_id":76561198085044565,"connected_time":102000000000,"state":"active","ping":95},{"user_id":180,"name":"The Notorious RBG","steam_id":76561198014275148,"connected_time":3688000000000,"state":"active","ping":61},{"user_id":182,"name":"Valen","steam_id":76561198142031999,"connected_time":3558000000000,"state":"active","ping":82},{"user_id":218,"name":"Tlaloc","steam_id":76561198375215983,"connected_time":255000000000,"state":"active","ping":116},{"user_id":198,"name":"Lost CS2 player","steam_id":76561198892387723,"connected_time":2013000000000,"state":"active","ping":62},{"user_id":212,"name":"Bunni","steam_id":76561198065169997,"connected_time":837000000000,"state":"active","ping":78},{"user_id":188,"name":"cavemanDv","steam_id":76561198111927196,"connected_time":3204000000000,"state":"active","ping":79},{"user_id":217,"name":"BFro","steam_id":76561198102758681,"connected_time":269000000000,"state":"active","ping":64},{"user_id":204,"name":"mostly ham","steam_id":76561199479937232,"connected_time":1354000000000,"state":"active","ping":70},{"user_id":167,"name":"Nerrrd_","steam_id":76561198870129960,"connected_time":4476000000000,"state":"active","ping":40},{"user_id":168,"name":"zzzz","steam_id":76561198310495200,"connected_time":4444000000000,"state":"active","ping":61},{"user_id":216,"name":"Fuzzele","steam_id":76561199199532696,"connected_time":359000000000,"state":"active","ping":90},{"user_id":222,"name":"Kaestal","steam_id":76561198033174157,"connected_time":45000000000,"state":"spawning","ping":90},{"user_id":196,"name":"Harry S. Truman","steam_id":76561197993339757,"connected_time":2320000000000,"state":"active","ping":57},{"user_id":190,"name":"Markus Velafi","steam_id":76561198063193924,"connected_time":3176000000000,"state":"active","ping":51},{"user_id":210,"name":"Draco6257","steam_id":76561199147322448,"connected_time":999000000000,"state":"active","ping":30},{"user_id":211,"name":"A_Happy_Fellow","steam_id":76561199229475610,"connected_time":924000000000,"state":"active","ping":110},{"user_id":213,"name":"Tinkleberry McScrooge","steam_id":76561199077190523,"connected_time":758000000000,"state":"active","ping":47},{"user_id":156,"name":"The Undead Knight","steam_id":76561198010654500,"connected_time":4695000000000,"state":"active","ping":87},{"user_id":66,"name":"ThatGamingKiwi","steam_id":76561199170522237,"connected_time":12714000000000,"state":"active","ping":81},{"user_id":208,"name":"Search117","steam_id":76561198021696780,"connected_time":1099000000000,"state":"active","ping":51},{"user_id":203,"name":"Some Guy","steam_id":76561198289377848,"connected_time":1532000000000,"state":"active","ping":50}]},{"server_id":14,"name":"Uncletopia | New York City | 2 | All Maps","name_short":"nyc-2","host":"nyc-1.us.uncletopia.com","port":27025,"enabled":true,"region":"us-east","cc":"us","latitude":40.73061,"longitude":-73.93524,"reserved":0,"last_update":"0001-01-01T00:00:00Z","name_a2s":"Uncletopia | New York City | 2 | All Maps","protocol":17,"map":"cp_snakewater_final1","folder":"tf","game":"Team Fortress","app_id":440,"player_count":24,"max_players":24,"Bots":0,"server_type":"Dedicated","server_os":"Linux","password":true,"vac":true,"version":"7961495","steam_id":85568392924469994,"keywords":["cp","nocrits","nodmgspread","uncletopia"],"game_id":440,"stv_port":27026,"stv_name":"Uncletopia | New York City | 2 | All Maps | STV","players":[{"user_id":21,"name":"Coop","steam_id":76561198042839356,"connected_time":3306000000000,"state":"active","ping":66},{"user_id":50,"name":":o","steam_id":76561198964101426,"connected_time":744000000000,"state":"active","ping":43},{"user_id":23,"name":"Dr.StrangeGlove","steam_id":76561198286114229,"connected_time":2314000000000,"state":"active","ping":74},{"user_id":24,"name":"CatGirlPipe","steam_id":76561198042485924,"connected_time":2028000000000,"state":"active","ping":82},{"user_id":25,"name":"ballspider","steam_id":76561198084578847,"connected_time":2018000000000,"state":"active","ping":71},{"user_id":26,"name":"El Topadora","steam_id":76561198068683174,"connected_time":2015000000000,"state":"active","ping":136},{"user_id":27,"name":"bones!?!?","steam_id":76561198084646266,"connected_time":2005000000000,"state":"active","ping":93},{"user_id":59,"name":"king dedede","steam_id":76561198965562679,"connected_time":76000000000,"state":"active","ping":71},{"user_id":40,"name":"Berlioz","steam_id":76561198040532757,"connected_time":970000000000,"state":"active","ping":86},{"user_id":61,"name":"Chirunomo","steam_id":76561197963956138,"connected_time":37000000000,"state":"active","ping":115},{"user_id":33,"name":"PinyaVI","steam_id":76561198813760694,"connected_time":1340000000000,"state":"active","ping":56},{"user_id":60,"name":"peanut butter","steam_id":76561198117839474,"connected_time":66000000000,"state":"active","ping":60},{"user_id":57,"name":"Walmart Employee","steam_id":76561198840373909,"connected_time":142000000000,"state":"active","ping":79},{"user_id":52,"name":"❋Pfc. BFS","steam_id":76561198326359972,"connected_time":627000000000,"state":"active","ping":57},{"user_id":43,"name":"Dokki","steam_id":76561198355935693,"connected_time":937000000000,"state":"active","ping":63},{"user_id":55,"name":"Madame Meow Meow","steam_id":76561198111399111,"connected_time":379000000000,"state":"active","ping":66},{"user_id":45,"name":"Ginger Jesus","steam_id":76561198052386458,"connected_time":869000000000,"state":"active","ping":46},{"user_id":46,"name":"Caleb","steam_id":76561198002641282,"connected_time":845000000000,"state":"active","ping":65},{"user_id":47,"name":"Izerfun","steam_id":76561197977227320,"connected_time":844000000000,"state":"active","ping":57},{"user_id":48,"name":"Wafflehead","steam_id":76561198053539741,"connected_time":793000000000,"state":"active","ping":56},{"user_id":56,"name":"atomicbomb2708","steam_id":76561199105691887,"connected_time":227000000000,"state":"active","ping":52},{"user_id":62,"name":"canadian birds","steam_id":76561198059466588,"connected_time":15000000000,"state":"spawning","ping":61},{"user_id":53,"name":"Skyblade64","steam_id":76561198042177790,"connected_time":588000000000,"state":"active","ping":94},{"user_id":58,"name":"foil eater","steam_id":76561198827648455,"connected_time":132000000000,"state":"active","ping":75}]},{"server_id":15,"name":"Uncletopia | New York City | 3 | Stopwatch","name_short":"nyc-3","host":"nyc-1.us.uncletopia.com","port":27035,"enabled":true,"region":"us-east","cc":"us","latitude":40.73061,"longitude":-73.93524,"reserved":0,"last_update":"0001-01-01T00:00:00Z","name_a2s":"Uncletopia | New York City | 3 | Stopwatch","protocol":17,"map":"workshop/koth_bagel_rc6.ugc2514036946","folder":"tf","game":"Team Fortress","app_id":440,"player_count":0,"max_players":24,"Bots":0,"server_type":"Dedicated","server_os":"Linux","password":true,"vac":true,"version":"7961495","steam_id":85568392924742820,"keywords":["cp","nocrits","nodmgspread","uncletopia"],"game_id":440,"stv_port":27036,"stv_name":"Uncletopia | New York City | 3 | Stopwatch | STV","players":null},{"server_id":16,"name":"Uncletopia | New York City | 4 | Community","name_short":"nyc-4","host":"nyc-1.us.uncletopia.com","port":27045,"enabled":true,"region":"us-east","cc":"us","latitude":40.73061,"longitude":-73.93524,"reserved":0,"last_update":"0001-01-01T00:00:00Z","name_a2s":"Uncletopia | New York City | 4 | Community","protocol":17,"map":"workshop/koth_ashville_final.ugc2130459942","folder":"tf","game":"Team Fortress","app_id":440,"player_count":0,"max_players":24,"Bots":0,"server_type":"Dedicated","server_os":"Linux","password":true,"vac":true,"version":"7961495","steam_id":85568392924742821,"keywords":["cp","nocrits","nodmgspread","uncletopia"],"game_id":440,"stv_port":27046,"stv_name":"Uncletopia | New York City | 4 | Community | STV","players":null},{"server_id":142,"name":"Uncletopia | São Paulo | 1 | All Maps","name_short":"sao-1","host":"sao-1.br.uncletopia.com","port":27015,"enabled":true,"region":"sa","cc":"br","latitude":-23.533773,"longitude":-46.62529,"reserved":0,"last_update":"0001-01-01T00:00:00Z","name_a2s":"Uncletopia | São Paulo | 1 | All Maps","protocol":17,"map":"cp_mountainlab","folder":"tf","game":"Team Fortress","app_id":440,"player_count":0,"max_players":24,"Bots":0,"server_type":"Dedicated","server_os":"Linux","password":true,"vac":true,"version":"7961495","steam_id":85568392924469996,"keywords":["cp","nocrits","nodmgspread","uncletopia"],"game_id":440,"stv_port":27016,"stv_name":"Uncletopia | São Paulo | 1 | All Maps | STV","players":null},{"server_id":143,"name":"Uncletopia | São Paulo | 2 | Community","name_short":"sao-2","host":"sao-2.br.uncletopia.com","port":27015,"enabled":true,"region":"sa","cc":"br","latitude":-23.533773,"longitude":-46.62529,"reserved":0,"last_update":"0001-01-01T00:00:00Z","name_a2s":"Uncletopia | São Paulo | 2 | Community","protocol":17,"map":"workshop/koth_slaughter_rc1.ugc1712845210","folder":"tf","game":"Team Fortress","app_id":440,"player_count":0,"max_players":24,"Bots":0,"server_type":"Dedicated","server_os":"Linux","password":true,"vac":true,"version":"7961495","steam_id":85568392924485349,"keywords":["cp","nocrits","nodmgspread","uncletopia"],"game_id":440,"stv_port":27016,"stv_name":"Uncletopia | São Paulo | 2 | Community | STV","players":null},{"server_id":7,"name":"Uncletopia | Seattle | 1 | All Maps","name_short":"sea-1","host":"sea-1.us.uncletopia.com","port":27015,"enabled":true,"region":"us-west","cc":"us","latitude":47.608013,"longitude":-122.33517,"reserved":0,"last_update":"0001-01-01T00:00:00Z","name_a2s":"Uncletopia | Seattle | 1 | All Maps","protocol":17,"map":"pl_borneo","folder":"tf","game":"Team Fortress","app_id":440,"player_count":25,"max_players":24,"Bots":0,"server_type":"Dedicated","server_os":"Linux","password":true,"vac":true,"version":"7961495","steam_id":85568392924469997,"keywords":["nocrits","nodmgspread","payload","uncletopia"],"game_id":440,"stv_port":27016,"stv_name":"Uncletopia | Seattle | 1 | All Maps | STV","players":[{"user_id":373,"name":"november","steam_id":76561198042748172,"connected_time":2390000000000,"state":"active","ping":91},{"user_id":374,"name":"Greskrendtregk","steam_id":76561197969553142,"connected_time":2368000000000,"state":"active","ping":52},{"user_id":332,"name":"pjrock101","steam_id":76561198070616561,"connected_time":4120000000000,"state":"active","ping":60},{"user_id":352,"name":"Shitty Pilot","steam_id":76561198042723469,"connected_time":3277000000000,"state":"active","ping":108},{"user_id":376,"name":"Hazel :3","steam_id":76561199247095754,"connected_time":1980000000000,"state":"active","ping":76},{"user_id":409,"name":"Wavelengths","steam_id":76561197997621320,"connected_time":736000000000,"state":"active","ping":74},{"user_id":403,"name":"Cheezbeargur","steam_id":76561198164702899,"connected_time":1288000000000,"state":"active","ping":70},{"user_id":305,"name":"SO RETRO","steam_id":76561198846344452,"connected_time":5854000000000,"state":"active","ping":76},{"user_id":333,"name":"Blitzy","steam_id":76561198149472890,"connected_time":4107000000000,"state":"active","ping":66},{"user_id":351,"name":"rAnch","steam_id":76561198024562587,"connected_time":3290000000000,"state":"active","ping":88},{"user_id":334,"name":"🅜🅔🅔🅚🅢🅣🅔\ufffd\ufffd\ufffd","steam_id":76561197999748343,"connected_time":4104000000000,"state":"active","ping":90},{"user_id":406,"name":"DUKE","steam_id":76561199058944087,"connected_time":1206000000000,"state":"active","ping":54},{"user_id":343,"name":"CropFarmer","steam_id":76561198173712581,"connected_time":3648000000000,"state":"active","ping":80},{"user_id":408,"name":"Shit (REAL)","steam_id":76561198206490352,"connected_time":1029000000000,"state":"active","ping":74},{"user_id":345,"name":"killswitch","steam_id":76561198213385439,"connected_time":3641000000000,"state":"active","ping":70},{"user_id":346,"name":"♥ur :3 medic gf♥ (51ref/hr)","steam_id":76561198816778484,"connected_time":3591000000000,"state":"active","ping":94},{"user_id":407,"name":"dust | it/she","steam_id":76561198045218909,"connected_time":1171000000000,"state":"active","ping":38},{"user_id":401,"name":"ed","steam_id":76561198080475712,"connected_time":1300000000000,"state":"active","ping":61},{"user_id":393,"name":"Shrimps","steam_id":76561198983016709,"connected_time":1359000000000,"state":"active","ping":58},{"user_id":360,"name":"Arkell","steam_id":76561198135884882,"connected_time":2971000000000,"state":"active","ping":46},{"user_id":410,"name":"Dog","steam_id":76561198041841128,"connected_time":704000000000,"state":"active","ping":75},{"user_id":372,"name":"The Coal Connoisseur","steam_id":76561198149061447,"connected_time":2408000000000,"state":"active","ping":60},{"user_id":289,"name":"the keebler","steam_id":76561199486326945,"connected_time":8276000000000,"state":"active","ping":121},{"user_id":405,"name":"Mitsuba","steam_id":76561198034175095,"connected_time":1276000000000,"state":"active","ping":136},{"user_id":379,"name":"Whimsy!","steam_id":76561197989578836,"connected_time":1657000000000,"state":"active","ping":71}]},{"server_id":119,"name":"Uncletopia | Seattle | 2 | All Maps","name_short":"sea-2","host":"sea-1.us.uncletopia.com","port":27025,"enabled":true,"region":"us-west","cc":"us","latitude":47.608013,"longitude":-122.33517,"reserved":0,"last_update":"0001-01-01T00:00:00Z","name_a2s":"Uncletopia | Seattle | 2 | All Maps","protocol":17,"map":"pl_badwater","folder":"tf","game":"Team Fortress","app_id":440,"player_count":6,"max_players":24,"Bots":0,"server_type":"Dedicated","server_os":"Linux","password":true,"vac":true,"version":"7961495","steam_id":85568392924469998,"keywords":["nocrits","nodmgspread","payload","uncletopia"],"game_id":440,"stv_port":27026,"stv_name":"Uncletopia | Seattle | 2 | All Maps | STV","players":[{"user_id":21,"name":"MCman","steam_id":76561198412110305,"connected_time":272000000000,"state":"active","ping":81},{"user_id":22,"name":"Dox","steam_id":76561198240339332,"connected_time":36000000000,"state":"active","ping":86},{"user_id":15,"name":"VideoJamer","steam_id":76561199033729724,"connected_time":1631000000000,"state":"active","ping":211},{"user_id":7,"name":"stir-fried human tonsils","steam_id":76561198312126442,"connected_time":2710000000000,"state":"active","ping":39},{"user_id":8,"name":"Bobletoob","steam_id":76561199184464900,"connected_time":2602000000000,"state":"active","ping":88},{"user_id":9,"name":"Dogg wader","steam_id":76561199090314340,"connected_time":2511000000000,"state":"active","ping":65}]},{"server_id":406,"name":"Uncletopia | Seattle | 3 | Stopwatch","name_short":"sea-3","host":"sea-1.us.uncletopia.com","port":27035,"enabled":true,"region":"us-west","cc":"us","latitude":47.608013,"longitude":-122.33517,"reserved":0,"last_update":"0001-01-01T00:00:00Z","name_a2s":"Uncletopia | Seattle | 3 | Stopwatch","protocol":17,"map":"cp_gullywash_final1","folder":"tf","game":"Team Fortress","app_id":440,"player_count":0,"max_players":24,"Bots":0,"server_type":"Dedicated","server_os":"Linux","password":true,"vac":true,"version":"7961495","steam_id":85568392924515217,"keywords":["cp","nocrits","nodmgspread","uncletopia"],"game_id":440,"stv_port":27036,"stv_name":"Uncletopia | Seattle | 3 | Stopwatch | STV","players":null},{"server_id":17,"name":"Uncletopia | San Francisco | 1 | All Maps","name_short":"sfo-1","host":"sfo-1.us.uncletopia.com","port":27015,"enabled":true,"region":"us-west","cc":"us","latitude":37.77397,"longitude":-122.4313,"reserved":0,"last_update":"0001-01-01T00:00:00Z","name_a2s":"Uncletopia | San Francisco | 1 | All Maps","protocol":17,"map":"pl_swiftwater_final1","folder":"tf","game":"Team Fortress","app_id":440,"player_count":0,"max_players":24,"Bots":0,"server_type":"Dedicated","server_os":"Linux","password":true,"vac":true,"version":"7961495","steam_id":85568392924469999,"keywords":["nocrits","nodmgspread","payload","uncletopia"],"game_id":440,"stv_port":27016,"stv_name":"Uncletopia | San Francisco | 1 | All Maps | STV","players":null},{"server_id":18,"name":"Uncletopia | San Francisco | 2 | All Maps","name_short":"sfo-2","host":"sfo-1.us.uncletopia.com","port":27025,"enabled":true,"region":"us-west","cc":"us","latitude":37.77397,"longitude":-122.4313,"reserved":0,"last_update":"0001-01-01T00:00:00Z","name_a2s":"Uncletopia | San Francisco | 2 | All Maps","protocol":17,"map":"cp_sunshine","folder":"tf","game":"Team Fortress","app_id":440,"player_count":0,"max_players":24,"Bots":0,"server_type":"Dedicated","server_os":"Linux","password":true,"vac":true,"version":"7961495","steam_id":85568392924470000,"keywords":["cp","nocrits","nodmgspread","uncletopia"],"game_id":440,"stv_port":27026,"stv_name":"Uncletopia | San Francisco | 2 | All Maps | STV","players":null},{"server_id":19,"name":"Uncletopia | San Francisco | 3 | Stopwatch","name_short":"sfo-3","host":"sfo-1.us.uncletopia.com","port":27035,"enabled":true,"region":"us-west","cc":"us","latitude":37.77397,"longitude":-122.4313,"reserved":0,"last_update":"0001-01-01T00:00:00Z","name_a2s":"Uncletopia | San Francisco | 3 | Stopwatch","protocol":17,"map":"workshop/koth_clearcut_b15.ugc2107050255","folder":"tf","game":"Team Fortress","app_id":440,"player_count":0,"max_players":24,"Bots":0,"server_type":"Dedicated","server_os":"Linux","password":true,"vac":true,"version":"7961495","steam_id":85568392924742824,"keywords":["cp","nocrits","nodmgspread","uncletopia"],"game_id":440,"stv_port":27036,"stv_name":"Uncletopia | San Francisco | 3 | Stopwatch | STV","players":null},{"server_id":20,"name":"Uncletopia | San Francisco | 4 | Community","name_short":"sfo-4","host":"sfo-1.us.uncletopia.com","port":27045,"enabled":true,"region":"us-west","cc":"us","latitude":37.77397,"longitude":-122.4313,"reserved":0,"last_update":"0001-01-01T00:00:00Z","name_a2s":"Uncletopia | San Francisco | 4 | Community","protocol":17,"map":"workshop/cp_reckoner_rc6.ugc674719999","folder":"tf","game":"Team Fortress","app_id":440,"player_count":0,"max_players":24,"Bots":0,"server_type":"Dedicated","server_os":"Linux","password":true,"vac":true,"version":"7961495","steam_id":85568392924742826,"keywords":["cp","nocrits","nodmgspread","uncletopia"],"game_id":440,"stv_port":27046,"stv_name":"Uncletopia | San Francisco | 4 | Community | STV","players":null},{"server_id":141,"name":"Uncletopia | Sydney | 1 | All Maps","name_short":"syd-1","host":"syd-1.au.uncletopia.com","port":27015,"enabled":true,"region":"au","cc":"au","latitude":-33.865143,"longitude":151.2099,"reserved":0,"last_update":"0001-01-01T00:00:00Z","name_a2s":"Uncletopia | Sydney | 1 | All Maps","protocol":17,"map":"cp_process_final","folder":"tf","game":"Team Fortress","app_id":440,"player_count":2,"max_players":24,"Bots":0,"server_type":"Dedicated","server_os":"Linux","password":true,"vac":true,"version":"7961495","steam_id":85568392924470001,"keywords":["cp","nocrits","nodmgspread","uncletopia"],"game_id":440,"stv_port":27016,"stv_name":"Uncletopia | Sydney | 1 | All Maps | STV","players":[{"user_id":3,"name":"Ļą Δantə","steam_id":76561198078344149,"connected_time":1299000000000,"state":"active","ping":369},{"user_id":4,"name":"Badkitty","steam_id":76561199245159804,"connected_time":1293000000000,"state":"active","ping":387}]},{"server_id":123,"name":"Uncletopia | Sydney | 2 | All Maps","name_short":"syd-2","host":"syd-1.au.uncletopia.com","port":27025,"enabled":true,"region":"au","cc":"au","latitude":-33.865143,"longitude":151.2099,"reserved":0,"last_update":"0001-01-01T00:00:00Z","name_a2s":"Uncletopia | Sydney | 2 | All Maps","protocol":17,"map":"cp_mercenarypark","folder":"tf","game":"Team Fortress","app_id":440,"player_count":0,"max_players":24,"Bots":0,"server_type":"Dedicated","server_os":"Linux","password":true,"vac":true,"version":"7961495","steam_id":85568392924470002,"keywords":["cp","nocrits","nodmgspread","uncletopia"],"game_id":440,"stv_port":27026,"stv_name":"Uncletopia | Sydney | 2 | All Maps | STV","players":null},{"server_id":395,"name":"Uncletopia | Sydney | 3 | All Maps","name_short":"syd-3","host":"syd-1.au.uncletopia.com","port":27035,"enabled":true,"region":"au","cc":"au","latitude":-33.865143,"longitude":151.2099,"reserved":0,"last_update":"0001-01-01T00:00:00Z","name_a2s":"Uncletopia | Sydney | 3 | All Maps","protocol":17,"map":"koth_brazil","folder":"tf","game":"Team Fortress","app_id":440,"player_count":0,"max_players":24,"Bots":0,"server_type":"Dedicated","server_os":"Linux","password":true,"vac":true,"version":"7961495","steam_id":85568392925194467,"keywords":["cp","nocrits","nodmgspread","uncletopia"],"game_id":440,"stv_port":27036,"stv_name":"Uncletopia | Sydney | 3 | All Maps | STV","players":null},{"server_id":396,"name":"Uncletopia | Sydney | 4 | All Maps","name_short":"syd-4","host":"syd-1.au.uncletopia.com","port":27045,"enabled":true,"region":"au","cc":"au","latitude":-33.865143,"longitude":151.2099,"reserved":0,"last_update":"0001-01-01T00:00:00Z","name_a2s":"Uncletopia | Sydney | 4 | All Maps","protocol":17,"map":"cp_standin_final","folder":"tf","game":"Team Fortress","app_id":440,"player_count":0,"max_players":24,"Bots":0,"server_type":"Dedicated","server_os":"Linux","password":true,"vac":true,"version":"7961495","steam_id":85568392925397958,"keywords":["cp","nocrits","nodmgspread","uncletopia"],"game_id":440,"stv_port":27046,"stv_name":"Uncletopia | Sydney | 4 | All Maps | STV","players":null},{"server_id":58,"name":"Uncletopia | Sydney | 5 | Stopwatch","name_short":"syd-5","host":"syd-1.au.uncletopia.com","port":27055,"enabled":true,"region":"au","cc":"au","latitude":-33.865143,"longitude":151.2099,"reserved":0,"last_update":"0001-01-01T00:00:00Z","name_a2s":"Uncletopia | Sydney | 5 | Stopwatch","protocol":17,"map":"koth_highpass","folder":"tf","game":"Team Fortress","app_id":440,"player_count":0,"max_players":24,"Bots":0,"server_type":"Dedicated","server_os":"Linux","password":true,"vac":true,"version":"7961495","steam_id":85568392925397959,"keywords":["cp","nocrits","nodmgspread","uncletopia"],"game_id":440,"stv_port":27056,"stv_name":"Uncletopia | Sydney | 5 | Stopwatch | STV","players":null},{"server_id":59,"name":"Uncletopia | Sydney | 6 | Community","name_short":"syd-6","host":"syd-1.au.uncletopia.com","port":27065,"enabled":true,"region":"au","cc":"au","latitude":-33.865143,"longitude":151.2099,"reserved":0,"last_update":"0001-01-01T00:00:00Z","name_a2s":"Uncletopia | Sydney | 6 | Community","protocol":17,"map":"workshop/koth_soot_final1.ugc2969540689","folder":"tf","game":"Team Fortress","app_id":440,"player_count":0,"max_players":24,"Bots":0,"server_type":"Dedicated","server_os":"Linux","password":true,"vac":true,"version":"7961495","steam_id":85568392925397960,"keywords":["cp","nocrits","nodmgspread","uncletopia"],"game_id":440,"stv_port":27066,"stv_name":"Uncletopia | Sydney | 6 | Community | STV","players":null},{"server_id":49,"name":"Uncletopia | Warsaw | 1 | One Thousand Uncles","name_short":"waw-1","host":"waw-1.pl.uncletopia.com","port":27015,"enabled":true,"region":"eu","cc":"pl","latitude":52.2297,"longitude":21.017532,"reserved":0,"last_update":"0001-01-01T00:00:00Z","name_a2s":"Uncletopia | Warsaw | 1 | One Thousand Uncles","protocol":17,"map":"pl_hoodoo_final","folder":"tf","game":"Team Fortress","app_id":440,"player_count":25,"max_players":32,"Bots":20,"server_type":"Dedicated","server_os":"Linux","password":true,"vac":true,"version":"7961495","steam_id":85568392925397850,"keywords":["alltalk","bots","danepve","increased_maxplayers","norespawntime","payload","uncletopia"],"game_id":440,"stv_port":0,"stv_name":"","players":[{"user_id":204,"name":"DevFish","steam_id":76561199010456751,"connected_time":571000000000,"state":"active","ping":66},{"user_id":156,"name":"Dell \"Vermineer\" LaFontant","steam_id":76561198371872022,"connected_time":2966000000000,"state":"active","ping":101},{"user_id":206,"name":"mehmet.efe.yildirim05","steam_id":76561199507983975,"connected_time":507000000000,"state":"active","ping":114},{"user_id":208,"name":"pavel_mkd","steam_id":76561199088118112,"connected_time":161000000000,"state":"active","ping":92},{"user_id":209,"name":"Dante","steam_id":76561198981609622,"connected_time":155000000000,"state":"active","ping":92}]},{"server_id":50,"name":"Uncletopia | Warsaw | 2 | One Thousand Uncles","name_short":"waw-2","host":"waw-1.pl.uncletopia.com","port":27025,"enabled":true,"region":"eu","cc":"pl","latitude":52.2297,"longitude":21.017532,"reserved":0,"last_update":"0001-01-01T00:00:00Z","name_a2s":"Uncletopia | Warsaw | 2 | One Thousand Uncles","protocol":17,"map":"cp_mercenarypark","folder":"tf","game":"Team Fortress","app_id":440,"player_count":0,"max_players":32,"Bots":0,"server_type":"Dedicated","server_os":"Linux","password":true,"vac":true,"version":"7961495","steam_id":85568392925397851,"keywords":["alltalk","cp","danepve","increased_maxplayers","norespawntime","uncletopia"],"game_id":440,"stv_port":0,"stv_name":"","players":null},{"server_id":51,"name":"Uncletopia | Warsaw | 3 | All Maps","name_short":"waw-3","host":"waw-1.pl.uncletopia.com","port":27035,"enabled":true,"region":"eu","cc":"pl","latitude":52.2297,"longitude":21.017532,"reserved":0,"last_update":"0001-01-01T00:00:00Z","name_a2s":"Uncletopia | Warsaw | 3 | All Maps","protocol":17,"map":"koth_viaduct","folder":"tf","game":"Team Fortress","app_id":440,"player_count":0,"max_players":24,"Bots":0,"server_type":"Dedicated","server_os":"Linux","password":true,"vac":true,"version":"7961495","steam_id":85568392925397852,"keywords":["cp","nocrits","nodmgspread","uncletopia"],"game_id":440,"stv_port":27036,"stv_name":"Uncletopia | Warsaw | 3 | All Maps | STV","players":null},{"server_id":52,"name":"Uncletopia | Warsaw | 4 | All Maps","name_short":"waw-4","host":"waw-1.pl.uncletopia.com","port":27045,"enabled":true,"region":"eu","cc":"pl","latitude":52.2297,"longitude":21.017532,"reserved":0,"last_update":"0001-01-01T00:00:00Z","name_a2s":"Uncletopia | Warsaw | 4 | All Maps","protocol":17,"map":"pl_swiftwater_final1","folder":"tf","game":"Team Fortress","app_id":440,"player_count":9,"max_players":24,"Bots":0,"server_type":"Dedicated","server_os":"Linux","password":true,"vac":true,"version":"7961495","steam_id":85568392925397853,"keywords":["nocrits","nodmgspread","payload","uncletopia"],"game_id":440,"stv_port":27046,"stv_name":"Uncletopia | Warsaw | 4 | All Maps | STV","players":[{"user_id":333,"name":"pavel_mkd","steam_id":76561199088118112,"connected_time":165000000000,"state":"connecting","ping":0},{"user_id":329,"name":"Nanna","steam_id":76561199052659275,"connected_time":591000000000,"state":"active","ping":75},{"user_id":312,"name":"monke","steam_id":76561198255280632,"connected_time":2097000000000,"state":"active","ping":82},{"user_id":326,"name":"German Prick","steam_id":76561198181410637,"connected_time":945000000000,"state":"active","ping":70},{"user_id":330,"name":"✪ m_br3","steam_id":76561198044981990,"connected_time":368000000000,"state":"active","ping":43},{"user_id":328,"name":"Mr consistent rockets","steam_id":76561198132922827,"connected_time":735000000000,"state":"active","ping":62},{"user_id":331,"name":"Baba Foss","steam_id":76561198002302019,"connected_time":347000000000,"state":"active","ping":85},{"user_id":332,"name":"Grumtsior","steam_id":76561198043563111,"connected_time":344000000000,"state":"active","ping":37},{"user_id":287,"name":"niandits","steam_id":76561198419798900,"connected_time":3905000000000,"state":"active","ping":138}]},{"server_id":53,"name":"Uncletopia | Warsaw | 5 | Stopwatch","name_short":"waw-5","host":"waw-1.pl.uncletopia.com","port":27055,"enabled":true,"region":"eu","cc":"pl","latitude":52.2297,"longitude":21.017532,"reserved":0,"last_update":"0001-01-01T00:00:00Z","name_a2s":"Uncletopia | Warsaw | 5 | Stopwatch","protocol":17,"map":"koth_lakeside_final","folder":"tf","game":"Team Fortress","app_id":440,"player_count":0,"max_players":24,"Bots":0,"server_type":"Dedicated","server_os":"Linux","password":true,"vac":true,"version":"7961495","steam_id":85568392925397854,"keywords":["cp","nocrits","nodmgspread","uncletopia"],"game_id":440,"stv_port":27056,"stv_name":"Uncletopia | Warsaw | 5 | Stopwatch | STV","players":null},{"server_id":54,"name":"Uncletopia | Warsaw | 6 | Community","name_short":"waw-6","host":"waw-1.pl.uncletopia.com","port":27065,"enabled":true,"region":"eu","cc":"pl","latitude":52.2297,"longitude":21.017532,"reserved":0,"last_update":"0001-01-01T00:00:00Z","name_a2s":"Uncletopia | Warsaw | 6 | Community","protocol":17,"map":"workshop/koth_bagel_rc6.ugc2514036946","folder":"tf","game":"Team Fortress","app_id":440,"player_count":0,"max_players":24,"Bots":0,"server_type":"Dedicated","server_os":"Linux","password":true,"vac":true,"version":"7961495","steam_id":85568392925397856,"keywords":["cp","nocrits","nodmgspread","uncletopia"],"game_id":440,"stv_port":27066,"stv_name":"Uncletopia | Warsaw | 6 | Community | STV","players":null}]}