{"status":true,"message":"","result":[{"server_id":9,"name":"Uncletopia | Atlanta | 1 | All Maps","name_short":"atl-1","host":"atl-1.us.uncletopia.com","port":27015,"enabled":true,"region":"us-east","cc":"us","latitude":33.753746,"longitude":-84.38633,"reserved":0,"last_update":"0001-01-01T00:00:00Z","name_a2s":"Uncletopia | Atlanta | 1 | All Maps","protocol":17,"map":"pl_borneo","folder":"tf","game":"Team Fortress","app_id":440,"player_count":24,"max_players":24,"Bots":0,"server_type":"Dedicated","server_os":"Linux","password":true,"vac":true,"version":"7757534","steam_id":85568392924469982,"keywords":["nocrits","nodmgspread","payload","uncletopia"],"game_id":440,"stv_port":27016,"stv_name":"Uncletopia | Atlanta | 1 | All Maps | STV","players":[{"user_id":179,"name":"goober","steam_id":76561198943598378,"connected_time":3177000000000,"state":"active","ping":58},{"user_id":119,"name":"hunterbunney (TRUE BUT REAL)","steam_id":76561198070672899,"connected_time":8237000000000,"state":"active","ping":44},{"user_id":205,"name":"RED1 | Le4n!!!","steam_id":76561198045522596,"connected_time":874000000000,"state":"active","ping":69},{"user_id":197,"name":"BLU1 | Pango","steam_id":76561198069811545,"connected_time":1788000000000,"state":"active","ping":48},{"user_id":134,"name":"RED1 | Avo","steam_id":76561197993340494,"connected_time":6842000000000,"state":"active","ping":59},{"user_id":147,"name":"✯Agent Æ120✯","steam_id":76561198202370363,"connected_time":4972000000000,"state":"active","ping":73},{"user_id":130,"name":"Messy_","steam_id":76561199095580664,"connected_time":7264000000000,"state":"active","ping":122},{"user_id":184,"name":"cheeks","steam_id":76561197993371179,"connected_time":2981000000000,"state":"active","ping":57},{"user_id":181,"name":"Manly Emerald","steam_id":76561198245838476,"connected_time":3129000000000,"state":"active","ping":75},{"user_id":190,"name":"ash","steam_id":76561198127890645,"connected_time":2648000000000,"state":"active","ping":71},{"user_id":200,"name":"RED1 | icyy","steam_id":76561198968001329,"connected_time":1292000000000,"state":"active","ping":45},{"user_id":174,"name":"Caoticaos","steam_id":76561198114800227,"connected_time":3802000000000,"state":"active","ping":126},{"user_id":194,"name":"ʕ•ᴥ•ʔ the bear","steam_id":76561197989591976,"connected_time":2362000000000,"state":"active","ping":85},{"user_id":199,"name":"Bottom Trans Cowgirl","steam_id":76561198304239680,"connected_time":1303000000000,"state":"active","ping":74},{"user_id":208,"name":"CivilWarMike","steam_id":76561198141188839,"connected_time":257000000000,"state":"active","ping":78},{"user_id":192,"name":"ATL1 | Bandicario","steam_id":76561198432036026,"connected_time":2490000000000,"state":"active","ping":56},{"user_id":48,"name":"RED1 | eish","steam_id":76561198089463603,"connected_time":15098000000000,"state":"active","ping":119},{"user_id":142,"name":"stink","steam_id":76561198099318923,"connected_time":5918000000000,"state":"active","ping":75},{"user_id":183,"name":"Monky duh luppy","steam_id":76561198035410427,"connected_time":3070000000000,"state":"active","ping":103},{"user_id":203,"name":"zero","steam_id":76561198113096772,"connected_time":1009000000000,"state":"active","ping":175},{"user_id":210,"name":"BLU1 | Flint","steam_id":76561198066547582,"connected_time":36000000000,"state":"active","ping":117},{"user_id":207,"name":"tf2 is life","steam_id":76561198384098648,"connected_time":554000000000,"state":"active","ping":64},{"user_id":206,"name":"Bip","steam_id":76561199022962204,"connected_time":838000000000,"state":"active","ping":67},{"user_id":202,"name":"Yukon Cornelius","steam_id":76561198261512781,"connected_time":1046000000000,"state":"active","ping":54}]},{"server_id":400,"name":"Uncletopia | Atlanta | 3 | Community","name_short":"atl-3","host":"atl-1.us.uncletopia.com","port":27035,"enabled":true,"region":"us-east","cc":"us","latitude":33.753746,"longitude":-84.38633,"reserved":0,"last_update":"0001-01-01T00:00:00Z","name_a2s":"Uncletopia | Atlanta | 3 | Community","protocol":17,"map":"workshop/rd_asteroid_redux_b1.ugc2154902912","folder":"tf","game":"Team Fortress","app_id":440,"player_count":20,"max_players":24,"Bots":0,"server_type":"Dedicated","server_os":"Linux","password":true,"vac":true,"version":"7757534","steam_id":85568392924515187,"keywords":["beta","nocrits","nodmgspread","rd","uncletopia"],"game_id":440,"stv_port":27036,"stv_name":"Uncletopia | Atlanta | 3 | Community | STV","players":[{"user_id":109,"name":"Red","steam_id":76561198031865869,"connected_time":578000000000,"state":"active","ping":66},{"user_id":86,"name":"Galo","steam_id":76561198068029761,"connected_time":3171000000000,"state":"active","ping":68},{"user_id":110,"name":"Pornelius Hubert","steam_id":76561198186128723,"connected_time":567000000000,"state":"active","ping":82},{"user_id":29,"name":"GuyGuy","steam_id":76561198237817232,"connected_time":5843000000000,"state":"active","ping":92},{"user_id":123,"name":"FUSION","steam_id":76561197972659738,"connected_time":35000000000,"state":"active","ping":60},{"user_id":99,"name":"Cyruktez","steam_id":76561198115876488,"connected_time":1266000000000,"state":"active","ping":68},{"user_id":119,"name":"Shrimpy Gumbo","steam_id":76561198371079378,"connected_time":78000000000,"state":"active","ping":114},{"user_id":23,"name":"\u003c blank \u003e","steam_id":76561198257139257,"connected_time":5992000000000,"state":"active","ping":114},{"user_id":24,"name":"player","steam_id":76561198191881433,"connected_time":5980000000000,"state":"active","ping":115},{"user_id":111,"name":"username","steam_id":76561198130826890,"connected_time":421000000000,"state":"active","ping":65},{"user_id":70,"name":"SnowBro","steam_id":76561198035661766,"connected_time":3811000000000,"state":"active","ping":87},{"user_id":71,"name":"killjolt","steam_id":76561198874271790,"connected_time":3807000000000,"state":"active","ping":102},{"user_id":72,"name":"DarrakG","steam_id":76561199000514087,"connected_time":3806000000000,"state":"active","ping":85},{"user_id":124,"name":"Emma","steam_id":76561198318093783,"connected_time":8000000000,"state":"spawning","ping":119},{"user_id":89,"name":"HammerHead","steam_id":76561197975668646,"connected_time":2935000000000,"state":"active","ping":75},{"user_id":117,"name":"Doober","steam_id":76561198056661095,"connected_time":129000000000,"state":"active","ping":76},{"user_id":59,"name":"Ness","steam_id":76561198059091340,"connected_time":4737000000000,"state":"active","ping":55},{"user_id":104,"name":"Arti","steam_id":76561198062478505,"connected_time":1028000000000,"state":"active","ping":69},{"user_id":73,"name":"Weeb_tard","steam_id":76561198220027748,"connected_time":3806000000000,"state":"active","ping":106},{"user_id":57,"name":"Ralman Noodles","steam_id":76561198085528542,"connected_time":4814000000000,"state":"active","ping":85}]},{"server_id":401,"name":"Uncletopia | Atlanta | 4 | No Payload","name_short":"atl-4","host":"atl-1.us.uncletopia.com","port":27045,"enabled":true,"region":"us-east","cc":"us","latitude":33.753746,"longitude":-84.38633,"reserved":0,"last_update":"0001-01-01T00:00:00Z","name_a2s":"","protocol":0,"map":"","folder":"","game":"","app_id":0,"player_count":0,"max_players":0,"Bots":0,"server_type":"","server_os":"","password":false,"vac":false,"version":"","steam_id":0,"keywords":null,"game_id":0,"stv_port":0,"stv_name":"","players":null},{"server_id":2,"name":"Uncletopia | Chicago | 1 | All Maps","name_short":"chi-1","host":"chi-1.us.uncletopia.com","port":27015,"enabled":true,"region":"us-central","cc":"us","latitude":41.881832,"longitude":-87.62318,"reserved":0,"last_update":"0001-01-01T00:00:00Z","name_a2s":"Uncletopia | Chicago | 1 | All Maps","protocol":17,"map":"cp_sunshine","folder":"tf","game":"Team Fortress","app_id":440,"player_count":24,"max_players":24,"Bots":0,"server_type":"Dedicated","server_os":"Linux","password":true,"vac":true,"version":"7757534","steam_id":85568392924469984,"keywords":["cp","nocrits","nodmgspread","uncletopia"],"game_id":440,"stv_port":27016,"stv_name":"Uncletopia | Chicago | 1 | All Maps | STV","players":[{"user_id":753,"name":"AER0.exe","steam_id":76561198062940197,"connected_time":1499000000000,"state":"active","ping":61},{"user_id":767,"name":"DigitalTheProto","steam_id":76561198380873323,"connected_time":340000000000,"state":"active","ping":47},{"user_id":731,"name":"Speedy","steam_id":76561198080761661,"connected_time":4273000000000,"state":"active","ping":81},{"user_id":761,"name":"hej","steam_id":76561197996366940,"connected_time":838000000000,"state":"active","ping":60},{"user_id":747,"name":"StarManMatt","steam_id":76561198125513574,"connected_time":1545000000000,"state":"active","ping":86},{"user_id":710,"name":"YungChefMingus","steam_id":76561198087122048,"connected_time":6331000000000,"state":"active","ping":42},{"user_id":739,"name":"Astoriae!","steam_id":76561199090168858,"connected_time":2666000000000,"state":"active","ping":75},{"user_id":741,"name":"No Telefrag Plz","steam_id":76561198113931312,"connected_time":2500000000000,"state":"active","ping":70},{"user_id":763,"name":"Sir Iasis","steam_id":76561198035666760,"connected_time":593000000000,"state":"active","ping":57},{"user_id":764,"name":"Murgatroyd","steam_id":76561198077350331,"connected_time":587000000000,"state":"active","ping":98},{"user_id":746,"name":"chicanery","steam_id":76561198081654907,"connected_time":1559000000000,"state":"active","ping":68},{"user_id":748,"name":"TheIronFluff","steam_id":76561197961122533,"connected_time":1542000000000,"state":"active","ping":78},{"user_id":749,"name":"Snom","steam_id":76561198333827920,"connected_time":1541000000000,"state":"active","ping":133},{"user_id":757,"name":"Spygie","steam_id":76561198218573049,"connected_time":1264000000000,"state":"active","ping":60},{"user_id":765,"name":"Gabinator32","steam_id":76561198872467183,"connected_time":513000000000,"state":"active","ping":51},{"user_id":742,"name":"Kapitan Bomba","steam_id":76561199102087660,"connected_time":2059000000000,"state":"active","ping":62},{"user_id":750,"name":"Smet19","steam_id":76561198118455606,"connected_time":1538000000000,"state":"active","ping":60},{"user_id":762,"name":"MedRed™ #IATAH","steam_id":76561198002962970,"connected_time":645000000000,"state":"active","ping":96},{"user_id":766,"name":"brainrot","steam_id":76561198274596714,"connected_time":501000000000,"state":"active","ping":44},{"user_id":752,"name":"sour^potatochip","steam_id":76561199001902394,"connected_time":1511000000000,"state":"active","ping":99},{"user_id":760,"name":"threethree","steam_id":76561198177354155,"connected_time":932000000000,"state":"active","ping":55},{"user_id":734,"name":".JIFF","steam_id":76561198045181760,"connected_time":3214000000000,"state":"active","ping":60},{"user_id":733,"name":"eloressa","steam_id":76561198120330867,"connected_time":3998000000000,"state":"active","ping":52},{"user_id":738,"name":"Ademar","steam_id":76561199391802581,"connected_time":3003000000000,"state":"active","ping":58}]},{"server_id":106,"name":"Uncletopia | Chicago | 2 | All Maps","name_short":"chi-2","host":"chi-1.us.uncletopia.com","port":27025,"enabled":true,"region":"us-central","cc":"us","latitude":41.881832,"longitude":-87.62318,"reserved":0,"last_update":"0001-01-01T00:00:00Z","name_a2s":"Uncletopia | Chicago | 2 | All Maps","protocol":17,"map":"koth_viaduct","folder":"tf","game":"Team Fortress","app_id":440,"player_count":18,"max_players":24,"Bots":0,"server_type":"Dedicated","server_os":"Linux","password":true,"vac":true,"version":"7757534","steam_id":85568392924469985,"keywords":["cp","nocrits","nodmgspread","uncletopia"],"game_id":440,"stv_port":27026,"stv_name":"Uncletopia | Chicago | 2 | All Maps | STV","players":[{"user_id":615,"name":"Gimlet","steam_id":76561198197168697,"connected_time":1376000000000,"state":"active","ping":108},{"user_id":613,"name":"PotatoIsUs","steam_id":76561198241109482,"connected_time":1422000000000,"state":"active","ping":75},{"user_id":636,"name":"Outer","steam_id":76561199121781498,"connected_time":79000000000,"state":"active","ping":90},{"user_id":637,"name":"Cheesethepuffman","steam_id":76561198010962104,"connected_time":51000000000,"state":"active","ping":92},{"user_id":632,"name":"Kipernicus","steam_id":76561197998180212,"connected_time":983000000000,"state":"active","ping":55},{"user_id":610,"name":"Fraggerman222.02","steam_id":76561198091855057,"connected_time":1438000000000,"state":"active","ping":78},{"user_id":638,"name":"MrHoesMad","steam_id":76561198799232698,"connected_time":23000000000,"state":"active","ping":48},{"user_id":618,"name":"Inevitable","steam_id":76561198210050169,"connected_time":1305000000000,"state":"active","ping":62},{"user_id":619,"name":"Jevenau","steam_id":76561198100642817,"connected_time":1297000000000,"state":"active","ping":61},{"user_id":629,"name":"SPIRE_FAN","steam_id":76561198001486573,"connected_time":1117000000000,"state":"active","ping":68},{"user_id":622,"name":"Stangobama","steam_id":76561198125791121,"connected_time":1279000000000,"state":"active","ping":68},{"user_id":624,"name":"ash monte","steam_id":76561198382343820,"connected_time":1222000000000,"state":"active","ping":57},{"user_id":625,"name":"Bad Medic Buddy","steam_id":76561198093222632,"connected_time":1207000000000,"state":"active","ping":92},{"user_id":599,"name":"faze pantalla","steam_id":76561198250215734,"connected_time":3010000000000,"state":"active","ping":67},{"user_id":600,"name":"faze waadden","steam_id":76561198325569425,"connected_time":3004000000000,"state":"active","ping":58},{"user_id":541,"name":"starfungus","steam_id":76561198158312789,"connected_time":9389000000000,"state":"active","ping":88},{"user_id":628,"name":"TruBluHue","steam_id":76561198294389079,"connected_time":1142000000000,"state":"active","ping":64}]},{"server_id":402,"name":"Uncletopia | Chicago | 3 | All Maps","name_short":"chi-3","host":"chi-1.us.uncletopia.com","port":27035,"enabled":true,"region":"us-central","cc":"us","latitude":41.881832,"longitude":-87.62318,"reserved":0,"last_update":"0001-01-01T00:00:00Z","name_a2s":"Uncletopia | Chicago | 3 | All Maps","protocol":17,"map":"cp_egypt_final","folder":"tf","game":"Team Fortress","app_id":440,"player_count":24,"max_players":24,"Bots":0,"server_type":"Dedicated","server_os":"Linux","password":true,"vac":true,"version":"7757534","steam_id":85568392924515191,"keywords":["cp","nocrits","nodmgspread","uncletopia"],"game_id":440,"stv_port":27036,"stv_name":"Uncletopia | Chicago | 3 | All Maps | STV","players":[{"user_id":349,"name":"snus lord","steam_id":76561197996568635,"connected_time":3357000000000,"state":"active","ping":43},{"user_id":369,"name":"Kuddly Kay (She/Her)","steam_id":76561198353432576,"connected_time":2651000000000,"state":"active","ping":120},{"user_id":384,"name":"crabapples","steam_id":76561198075818655,"connected_time":656000000000,"state":"active","ping":57},{"user_id":391,"name":"gaylittlemouse","steam_id":76561198819562111,"connected_time":178000000000,"state":"active","ping":68},{"user_id":371,"name":"truck freak [euclid]","steam_id":76561198062712676,"connected_time":2417000000000,"state":"active","ping":99},{"user_id":401,"name":"joyeuxnoelle","steam_id":76561198062423120,"connected_time":89000000000,"state":"active","ping":73},{"user_id":390,"name":"StellarSkylark","steam_id":76561198031338034,"connected_time":276000000000,"state":"active","ping":67},{"user_id":392,"name":"loser","steam_id":76561198171507451,"connected_time":153000000000,"state":"active","ping":90},{"user_id":375,"name":"haydensity","steam_id":76561198000626558,"connected_time":1835000000000,"state":"active","ping":60},{"user_id":393,"name":"hattyville","steam_id":76561198300727403,"connected_time":141000000000,"state":"active","ping":74},{"user_id":403,"name":"Dieu-Sama","steam_id":76561198002075862,"connected_time":76000000000,"state":"active","ping":77},{"user_id":395,"name":"a crazy hobo","steam_id":76561198289650060,"connected_time":133000000000,"state":"active","ping":89},{"user_id":396,"name":"Buttons :)","steam_id":76561198139478534,"connected_time":128000000000,"state":"active","ping":102},{"user_id":397,"name":"papersamurai","steam_id":76561198313608698,"connected_time":121000000000,"state":"active","ping":52},{"user_id":376,"name":"Rornir","steam_id":76561198081829615,"connected_time":1815000000000,"state":"active","ping":30},{"user_id":359,"name":"King Sans","steam_id":76561198294198517,"connected_time":2919000000000,"state":"active","ping":62},{"user_id":399,"name":"ansoonii","steam_id":76561198092494136,"connected_time":120000000000,"state":"active","ping":60},{"user_id":404,"name":"Geogeo","steam_id":76561198091567973,"connected_time":4000000000,"state":"spawning","ping":76},{"user_id":362,"name":"Frost","steam_id":76561198953970191,"connected_time":2882000000000,"state":"active","ping":68},{"user_id":400,"name":"Randy \"the Man\" Johnson","steam_id":76561198039124445,"connected_time":109000000000,"state":"active","ping":90},{"user_id":363,"name":"Luke_in_Training","steam_id":76561198180891187,"connected_time":2879000000000,"state":"active","ping":71},{"user_id":336,"name":"SuperFresh","steam_id":76561198200723198,"connected_time":4472000000000,"state":"active","ping":43},{"user_id":388,"name":"hud_saytext_time 0","steam_id":76561198010327228,"connected_time":486000000000,"state":"active","ping":168},{"user_id":370,"name":"UWBW","steam_id":76561198007524241,"connected_time":2638000000000,"state":"active","ping":69}]},{"server_id":403,"name":"Uncletopia | Chicago | 4 | All Maps","name_short":"chi-4","host":"chi-1.us.uncletopia.com","port":27045,"enabled":true,"region":"us-central","cc":"us","latitude":41.881832,"longitude":-87.62318,"reserved":0,"last_update":"0001-01-01T00:00:00Z","name_a2s":"Uncletopia | Chicago | 4 | All Maps","protocol":17,"map":"pl_upward","folder":"tf","game":"Team Fortress","app_id":440,"player_count":24,"max_players":24,"Bots":0,"server_type":"Dedicated","server_os":"Linux","password":true,"vac":true,"version":"7757534","steam_id":85568392924515193,"keywords":["nocrits","nodmgspread","payload","uncletopia"],"game_id":440,"stv_port":27046,"stv_name":"Uncletopia | Chicago | 4 | All Maps | STV","players":[{"user_id":341,"name":"f0xh0le 0ne","steam_id":76561199471269566,"connected_time":8733000000000,"state":"active","ping":72},{"user_id":412,"name":"Stargriefer190","steam_id":76561198996425356,"connected_time":3562000000000,"state":"active","ping":91},{"user_id":446,"name":"Baka!⑨⑨⑨⑨","steam_id":76561198152948254,"connected_time":1642000000000,"state":"active","ping":68},{"user_id":430,"name":"Circle","steam_id":76561198146955811,"connected_time":2461000000000,"state":"active","ping":106},{"user_id":426,"name":"Space Cops","steam_id":76561198032414253,"connected_time":2691000000000,"state":"active","ping":53},{"user_id":448,"name":"Zalafrizon","steam_id":76561198354513978,"connected_time":1620000000000,"state":"active","ping":96},{"user_id":416,"name":"Watatsuki no Yorihime","steam_id":76561198063315650,"connected_time":3456000000000,"state":"active","ping":75},{"user_id":449,"name":"moo","steam_id":76561198080279641,"connected_time":1616000000000,"state":"active","ping":58},{"user_id":439,"name":"Carpicious","steam_id":76561198426619665,"connected_time":2225000000000,"state":"active","ping":102},{"user_id":463,"name":"fried sasuages","steam_id":76561198319442494,"connected_time":427000000000,"state":"active","ping":109},{"user_id":459,"name":"Dumpy","steam_id":76561198067167895,"connected_time":837000000000,"state":"active","ping":73},{"user_id":444,"name":"Baz","steam_id":76561197965032027,"connected_time":1784000000000,"state":"active","ping":86},{"user_id":450,"name":"Señor_Awesome","steam_id":76561197995206768,"connected_time":1604000000000,"state":"active","ping":96},{"user_id":451,"name":"SD","steam_id":76561198217410988,"connected_time":1602000000000,"state":"active","ping":105},{"user_id":456,"name":"Snake","steam_id":76561197994894487,"connected_time":1353000000000,"state":"active","ping":91},{"user_id":435,"name":"Athaz","steam_id":76561198296557673,"connected_time":2390000000000,"state":"active","ping":66},{"user_id":464,"name":"TheAntiSocialButterfly","steam_id":76561198045505509,"connected_time":293000000000,"state":"active","ping":60},{"user_id":465,"name":"totalhipstercrusher","steam_id":76561198061738700,"connected_time":156000000000,"state":"active","ping":109},{"user_id":340,"name":"kangaroo wife","steam_id":76561198040455711,"connected_time":8735000000000,"state":"active","ping":95},{"user_id":460,"name":"goggyrina","steam_id":76561198428033086,"connected_time":691000000000,"state":"active","ping":45},{"user_id":417,"name":"the goop","steam_id":76561198312153623,"connected_time":3422000000000,"state":"active","ping":65},{"user_id":454,"name":"Anxiety","steam_id":76561198365627687,"connected_time":1587000000000,"state":"active","ping":125},{"user_id":455,"name":"Wso1123","steam_id":76561198048040111,"connected_time":1582000000000,"state":"active","ping":70},{"user_id":438,"name":"PopeSquidly ３９","steam_id":76561198054010377,"connected_time":2367000000000,"state":"active","ping":60}]},{"server_id":36,"name":"Uncletopia | Chicago | 5 | All Maps","name_short":"chi-5","host":"chi-2.us.uncletopia.com","port":27015,"enabled":true,"region":"us-central","cc":"us","latitude":41.881832,"longitude":-87.62318,"reserved":0,"last_update":"0001-01-01T00:00:00Z","name_a2s":"Uncletopia | Chicago | 5 | All Maps","protocol":17,"map":"pl_pier","folder":"tf","game":"Team Fortress","app_id":440,"player_count":24,"max_players":24,"Bots":0,"server_type":"Dedicated","server_os":"Linux","password":true,"vac":true,"version":"7757534","steam_id":85568392924866362,"keywords":["nocrits","nodmgspread","payload","uncletopia"],"game_id":440,"stv_port":27016,"stv_name":"Uncletopia | Chicago | 5 | All Maps | STV","players":[{"user_id":544,"name":"C papi","steam_id":76561198027779564,"connected_time":610000000000,"state":"active","ping":52},{"user_id":536,"name":"johnny depp","steam_id":76561198161199653,"connected_time":1818000000000,"state":"active","ping":64},{"user_id":477,"name":"AJones97","steam_id":76561198028973438,"connected_time":6098000000000,"state":"active","ping":69},{"user_id":532,"name":"Semyr","steam_id":76561198125655939,"connected_time":1968000000000,"state":"active","ping":62},{"user_id":545,"name":"Vladikr1","steam_id":76561198401495362,"connected_time":367000000000,"state":"active","ping":79},{"user_id":548,"name":"deskmedic","steam_id":76561198295640486,"connected_time":275000000000,"state":"active","ping":101},{"user_id":515,"name":"gamer girl looking for a bf","steam_id":76561198279901162,"connected_time":3226000000000,"state":"active","ping":73},{"user_id":546,"name":"TTV/Clawster98","steam_id":76561198345458783,"connected_time":336000000000,"state":"active","ping":67},{"user_id":533,"name":"Ducktator","steam_id":76561198102343726,"connected_time":1944000000000,"state":"active","ping":86},{"user_id":538,"name":"NovaSc6ut","steam_id":76561198277163301,"connected_time":1574000000000,"state":"active","ping":69},{"user_id":553,"name":"Funky_Town","steam_id":76561198068105712,"connected_time":132000000000,"state":"active","ping":118},{"user_id":543,"name":"SkyJett","steam_id":76561198040719249,"connected_time":1367000000000,"state":"active","ping":51},{"user_id":502,"name":"NeverAcedIt (Pinnacle -\u003e Pit)","steam_id":76561198406671743,"connected_time":4024000000000,"state":"active","ping":98},{"user_id":537,"name":"Dennis Rodman","steam_id":76561198880396651,"connected_time":1784000000000,"state":"active","ping":88},{"user_id":459,"name":"trappy (showered)","steam_id":76561198402801140,"connected_time":8198000000000,"state":"active","ping":65},{"user_id":539,"name":"Sanamsam1","steam_id":76561198051890899,"connected_time":1529000000000,"state":"active","ping":61},{"user_id":420,"name":"WHATISYOURNAME","steam_id":76561198342560783,"connected_time":10228000000000,"state":"active","ping":119},{"user_id":541,"name":"Terry Bogard's beefin 12 inch","steam_id":76561198371133385,"connected_time":1406000000000,"state":"active","ping":85},{"user_id":551,"name":"MiniMadd","steam_id":76561198227045112,"connected_time":210000000000,"state":"active","ping":93},{"user_id":433,"name":"Angry Ginger","steam_id":76561198256929349,"connected_time":9348000000000,"state":"active","ping":56},{"user_id":514,"name":"Regi","steam_id":76561198271508598,"connected_time":3420000000000,"state":"active","ping":58},{"user_id":552,"name":"joelthetroll","steam_id":76561198026605788,"connected_time":199000000000,"state":"active","ping":76},{"user_id":491,"name":"Rad Dog","steam_id":76561198300703000,"connected_time":5279000000000,"state":"active","ping":70},{"user_id":506,"name":"FlexFan420","steam_id":76561198322663988,"connected_time":3812000000000,"state":"active","ping":65}]},{"server_id":37,"name":"Uncletopia | Chicago | 6 | All Maps","name_short":"chi-6","host":"chi-2.us.uncletopia.com","port":27025,"enabled":true,"region":"us-central","cc":"us","latitude":41.881832,"longitude":-87.62318,"reserved":0,"last_update":"0001-01-01T00:00:00Z","name_a2s":"Uncletopia | Chicago | 6 | All Maps","protocol":17,"map":"pl_badwater","folder":"tf","game":"Team Fortress","app_id":440,"player_count":24,"max_players":24,"Bots":0,"server_type":"Dedicated","server_os":"Linux","password":true,"vac":true,"version":"7757534","steam_id":85568392924866363,"keywords":["nocrits","nodmgspread","payload","uncletopia"],"game_id":440,"stv_port":27026,"stv_name":"Uncletopia | Chicago | 6 | All Maps | STV","players":[{"user_id":341,"name":"gaming elliptical","steam_id":76561198013456569,"connected_time":21193000000000,"state":"active","ping":46},{"user_id":609,"name":"LilDreamer","steam_id":76561198804054102,"connected_time":1144000000000,"state":"active","ping":45},{"user_id":500,"name":"flappyflap2","steam_id":76561198285048973,"connected_time":10240000000000,"state":"active","ping":60},{"user_id":602,"name":"plorbo","steam_id":76561198138002733,"connected_time":1376000000000,"state":"active","ping":64},{"user_id":570,"name":"❤ Ashley ❤","steam_id":76561198056428303,"connected_time":4212000000000,"state":"active","ping":103},{"user_id":593,"name":"Exio","steam_id":76561198218639325,"connected_time":2952000000000,"state":"active","ping":134},{"user_id":572,"name":"howtobepker","steam_id":76561198115053865,"connected_time":4056000000000,"state":"active","ping":114},{"user_id":564,"name":"linus","steam_id":76561198106196691,"connected_time":4997000000000,"state":"active","ping":60},{"user_id":589,"name":"smelly boy james(he stinkin)","steam_id":76561197997006216,"connected_time":3205000000000,"state":"active","ping":58},{"user_id":595,"name":"BillButtLicker69","steam_id":76561198070119268,"connected_time":2852000000000,"state":"active","ping":116},{"user_id":601,"name":"WitheringLeo","steam_id":76561198046722918,"connected_time":1455000000000,"state":"active","ping":78},{"user_id":571,"name":"self sufficient kitten","steam_id":76561197960592612,"connected_time":4200000000000,"state":"active","ping":105},{"user_id":509,"name":"DREW PEACOCK","steam_id":76561198065057392,"connected_time":9375000000000,"state":"active","ping":82},{"user_id":607,"name":"Adawnby","steam_id":76561198103057295,"connected_time":1236000000000,"state":"active","ping":81},{"user_id":574,"name":"Snoopy","steam_id":76561198273735974,"connected_time":3842000000000,"state":"active","ping":97},{"user_id":613,"name":"young sheldon","steam_id":76561198380018244,"connected_time":462000000000,"state":"active","ping":78},{"user_id":561,"name":"iceman","steam_id":76561198135397441,"connected_time":5305000000000,"state":"active","ping":78},{"user_id":605,"name":"gabagool","steam_id":76561198012131766,"connected_time":1299000000000,"state":"active","ping":53},{"user_id":575,"name":"Mina's Ninas","steam_id":76561198046502179,"connected_time":3824000000000,"state":"active","ping":96},{"user_id":598,"name":"OldRavensFan","steam_id":76561198043919562,"connected_time":2524000000000,"state":"active","ping":72},{"user_id":562,"name":"Brisk","steam_id":76561198129769783,"connected_time":5012000000000,"state":"active","ping":82},{"user_id":612,"name":"VendoTendo","steam_id":76561198135058035,"connected_time":529000000000,"state":"active","ping":91},{"user_id":610,"name":"loganismissing","steam_id":76561199245565071,"connected_time":1084000000000,"state":"active","ping":53},{"user_id":615,"name":"sweaterfan","steam_id":76561199389567214,"connected_time":298000000000,"state":"active","ping":87}]},{"server_id":38,"name":"Uncletopia | Chicago | 7 | Stopwatch Beta","name_short":"chi-7","host":"chi-2.us.uncletopia.com","port":27035,"enabled":true,"region":"us-central","cc":"us","latitude":41.881832,"longitude":-87.62318,"reserved":0,"last_update":"0001-01-01T00:00:00Z","name_a2s":"Uncletopia | Chicago | 7 | Stopwatch Beta","protocol":17,"map":"workshop/pl_barnblitz_pro7.ugc582280235","folder":"tf","game":"Team Fortress","app_id":440,"player_count":0,"max_players":24,"Bots":0,"server_type":"Dedicated","server_os":"Linux","password":true,"vac":true,"version":"7757534","steam_id":85568392924866364,"keywords":["nocrits","nodmgspread","payload","uncletopia"],"game_id":440,"stv_port":27036,"stv_name":"Uncletopia | Chicago | 7 | Stopwatch Beta | STV","players":null},{"server_id":39,"name":"Uncletopia | Chicago | 8 | Community","name_short":"chi-8","host":"chi-2.us.uncletopia.com","port":27045,"enabled":true,"region":"us-central","cc":"us","latitude":41.881832,"longitude":-87.62318,"reserved":0,"last_update":"0001-01-01T00:00:00Z","name_a2s":"Uncletopia | Chicago | 8 | Community","protocol":17,"map":"workshop/pl_barnblitz_pro7.ugc582280235","folder":"tf","game":"Team Fortress","app_id":440,"player_count":24,"max_players":24,"Bots":0,"server_type":"Dedicated","server_os":"Linux","password":true,"vac":true,"version":"7757534","steam_id":85568392924866365,"keywords":["nocrits","nodmgspread","payload","uncletopia"],"game_id":440,"stv_port":27046,"stv_name":"Uncletopia | Chicago | 8 | Community | STV","players":[{"user_id":392,"name":"Chain Smokin Penises","steam_id":76561198054024359,"connected_time":2318000000000,"state":"active","ping":51},{"user_id":415,"name":"good morning people","steam_id":76561198293673616,"connected_time":13000000000,"state":"spawning","ping":145},{"user_id":394,"name":"milkmana","steam_id":76561198068583958,"connected_time":1623000000000,"state":"active","ping":47},{"user_id":397,"name":"Milky Luggage","steam_id":76561198433728893,"connected_time":1511000000000,"state":"active","ping":61},{"user_id":331,"name":"his flatulence","steam_id":76561198799404824,"connected_time":5721000000000,"state":"active","ping":72},{"user_id":405,"name":"Glory","steam_id":76561198013975080,"connected_time":1346000000000,"state":"active","ping":72},{"user_id":346,"name":"Nefarious","steam_id":76561198127243490,"connected_time":4504000000000,"state":"active","ping":89},{"user_id":390,"name":"t.tv/FamilyGuyFunnyMoments277","steam_id":76561198416047580,"connected_time":2445000000000,"state":"active","ping":90},{"user_id":374,"name":"jujuisthegoat","steam_id":76561198889420299,"connected_time":3135000000000,"state":"active","ping":87},{"user_id":406,"name":"NETTASTINI","steam_id":76561199135904313,"connected_time":1324000000000,"state":"active","ping":86},{"user_id":370,"name":"24 oz. Ocean Spray Craisins","steam_id":76561198209208644,"connected_time":3297000000000,"state":"active","ping":77},{"user_id":388,"name":"chumimimimimi","steam_id":76561199018531137,"connected_time":2611000000000,"state":"active","ping":74},{"user_id":407,"name":"Blades_87","steam_id":76561198150870338,"connected_time":1270000000000,"state":"active","ping":47},{"user_id":377,"name":"Censure","steam_id":76561198850891374,"connected_time":2976000000000,"state":"active","ping":68},{"user_id":360,"name":"booty gremlin","steam_id":76561198044546534,"connected_time":4140000000000,"state":"active","ping":69},{"user_id":378,"name":"HOOVASTREETCRIP","steam_id":76561198111368786,"connected_time":2970000000000,"state":"active","ping":77},{"user_id":393,"name":"Jatt","steam_id":76561198822011219,"connected_time":2026000000000,"state":"active","ping":82},{"user_id":410,"name":"lavender","steam_id":76561199069518286,"connected_time":1140000000000,"state":"active","ping":104},{"user_id":379,"name":"Blitzy","steam_id":76561198149472890,"connected_time":2967000000000,"state":"active","ping":75},{"user_id":297,"name":"eBay","steam_id":76561198061214569,"connected_time":7044000000000,"state":"active","ping":98},{"user_id":409,"name":"Cooldogjoe","steam_id":76561198105543698,"connected_time":1187000000000,"state":"active","ping":57},{"user_id":381,"name":"ratie","steam_id":76561198059399661,"connected_time":2963000000000,"state":"active","ping":87},{"user_id":382,"name":"HaphazardHazel","steam_id":76561198316812693,"connected_time":2935000000000,"state":"active","ping":91},{"user_id":413,"name":"psy","steam_id":76561198013195018,"connected_time":362000000000,"state":"active","ping":79}]},{"server_id":8,"name":"Uncletopia | Dallas | 1 | All Maps","name_short":"dal-1","host":"dal-1.us.uncletopia.com","port":27015,"enabled":true,"region":"us-central","cc":"us","latitude":32.779167,"longitude":-96.80889,"reserved":0,"last_update":"0001-01-01T00:00:00Z","name_a2s":"Uncletopia | Dallas | 1 | All Maps","protocol":17,"map":"cp_dustbowl","folder":"tf","game":"Team Fortress","app_id":440,"player_count":14,"max_players":24,"Bots":0,"server_type":"Dedicated","server_os":"Linux","password":true,"vac":true,"version":"7757534","steam_id":85568392924469986,"keywords":["cp","nocrits","nodmgspread","uncletopia"],"game_id":440,"stv_port":27016,"stv_name":"Uncletopia | Dallas | 1 | All Maps | STV","players":[{"user_id":521,"name":"Eeshton","steam_id":76561198018309077,"connected_time":961000000000,"state":"active","ping":60},{"user_id":518,"name":"Bullwinkle J. Moose","steam_id":76561198075977196,"connected_time":1588000000000,"state":"active","ping":53},{"user_id":464,"name":"Spazz","steam_id":76561198036167494,"connected_time":6041000000000,"state":"active","ping":49},{"user_id":520,"name":"god approaches","steam_id":76561198081617990,"connected_time":1407000000000,"state":"active","ping":90},{"user_id":537,"name":"Vilhelm","steam_id":76561198811818518,"connected_time":21000000000,"state":"active","ping":83},{"user_id":525,"name":"Garbo","steam_id":76561198192120869,"connected_time":669000000000,"state":"active","ping":44},{"user_id":486,"name":"iluvtoust","steam_id":76561198869269207,"connected_time":4542000000000,"state":"active","ping":45},{"user_id":507,"name":"Leapinglionz11","steam_id":76561199216740065,"connected_time":1837000000000,"state":"active","ping":102},{"user_id":538,"name":"RaixaR","steam_id":76561198025289430,"connected_time":19000000000,"state":"active","ping":123},{"user_id":531,"name":"Mother Cucker","steam_id":76561198121926605,"connected_time":619000000000,"state":"active","ping":85},{"user_id":533,"name":"A Fruit","steam_id":76561198951830050,"connected_time":60000000000,"state":"active","ping":31},{"user_id":513,"name":"+","steam_id":76561198262422184,"connected_time":1797000000000,"state":"active","ping":49},{"user_id":522,"name":"Stapler","steam_id":76561198099295077,"connected_time":699000000000,"state":"active","ping":79},{"user_id":534,"name":"tj3002rocks","steam_id":76561199017921546,"connected_time":56000000000,"state":"spawning","ping":55}]},{"server_id":108,"name":"Uncletopia | Dallas | 2 | All Maps","name_short":"dal-2","host":"dal-1.us.uncletopia.com","port":27025,"enabled":true,"region":"us-central","cc":"us","latitude":32.779167,"longitude":-96.80889,"reserved":0,"last_update":"0001-01-01T00:00:00Z","name_a2s":"Uncletopia | Dallas | 2 | All Maps","protocol":17,"map":"cp_sunshine","folder":"tf","game":"Team Fortress","app_id":440,"player_count":24,"max_players":24,"Bots":0,"server_type":"Dedicated","server_os":"Linux","password":true,"vac":true,"version":"7757534","steam_id":85568392924469988,"keywords":["cp","nocrits","nodmgspread","uncletopia"],"game_id":440,"stv_port":27026,"stv_name":"Uncletopia | Dallas | 2 | All Maps | STV","players":[{"user_id":696,"name":"5yt","steam_id":76561198041643833,"connected_time":2399000000000,"state":"active","ping":67},{"user_id":690,"name":"DrBenjas","steam_id":76561198345883103,"connected_time":3543000000000,"state":"active","ping":104},{"user_id":637,"name":"Ferguson","steam_id":76561198121349387,"connected_time":5761000000000,"state":"active","ping":56},{"user_id":675,"name":"ArmaViviente","steam_id":76561198084098079,"connected_time":4083000000000,"state":"active","ping":85},{"user_id":698,"name":"Lezabel","steam_id":76561198970753261,"connected_time":2352000000000,"state":"active","ping":67},{"user_id":711,"name":"Samrizo el Chorizo","steam_id":76561198009838162,"connected_time":1218000000000,"state":"active","ping":85},{"user_id":717,"name":"Mailman","steam_id":76561198090675970,"connected_time":877000000000,"state":"active","ping":56},{"user_id":679,"name":"MrGuff","steam_id":76561198368322486,"connected_time":3983000000000,"state":"active","ping":82},{"user_id":695,"name":"Jasmine Rice","steam_id":76561198163163590,"connected_time":3365000000000,"state":"active","ping":61},{"user_id":648,"name":"gamers aren't real","steam_id":76561198113748347,"connected_time":5461000000000,"state":"active","ping":65},{"user_id":721,"name":"Dank Ghost","steam_id":76561198400690889,"connected_time":510000000000,"state":"active","ping":90},{"user_id":723,"name":"Thatguy_1029","steam_id":76561199232419803,"connected_time":329000000000,"state":"active","ping":121},{"user_id":726,"name":"the door heavy","steam_id":76561199033233448,"connected_time":53000000000,"state":"active","ping":83},{"user_id":706,"name":"Loginname","steam_id":76561198067006157,"connected_time":2063000000000,"state":"active","ping":76},{"user_id":719,"name":"Legit_Jaxer","steam_id":76561198172234053,"connected_time":760000000000,"state":"active","ping":87},{"user_id":703,"name":"Toothless the Dragon","steam_id":76561198013678063,"connected_time":2288000000000,"state":"active","ping":79},{"user_id":688,"name":"Memestealer","steam_id":76561198955791613,"connected_time":3841000000000,"state":"active","ping":87},{"user_id":725,"name":"heimdall","steam_id":76561198069380992,"connected_time":187000000000,"state":"active","ping":66},{"user_id":704,"name":"Mantis","steam_id":76561198027786661,"connected_time":2278000000000,"state":"active","ping":75},{"user_id":619,"name":"Mellou","steam_id":76561198212048740,"connected_time":7708000000000,"state":"active","ping":51},{"user_id":714,"name":"MrLeftTurn","steam_id":76561198856743969,"connected_time":922000000000,"state":"active","ping":146},{"user_id":718,"name":"cheetaz","steam_id":76561198224614084,"connected_time":818000000000,"state":"active","ping":90},{"user_id":705,"name":"☭","steam_id":76561198138444785,"connected_time":2278000000000,"state":"active","ping":86},{"user_id":720,"name":"CSharp","steam_id":76561199185191710,"connected_time":685000000000,"state":"active","ping":143}]},{"server_id":5,"name":"Uncletopia | Frankfurt | 1 | All Maps","name_short":"frk-1","host":"frk-1.de.uncletopia.com","port":27015,"enabled":true,"region":"eu","cc":"de","latitude":50.110924,"longitude":8.682127,"reserved":0,"last_update":"0001-01-01T00:00:00Z","name_a2s":"Uncletopia | Frankfurt | 1 | All Maps","protocol":17,"map":"koth_highpass","folder":"tf","game":"Team Fortress","app_id":440,"player_count":0,"max_players":24,"Bots":0,"server_type":"Dedicated","server_os":"Linux","password":true,"vac":true,"version":"7757534","steam_id":85568392924469989,"keywords":["cp","nocrits","nodmgspread","uncletopia"],"game_id":440,"stv_port":27016,"stv_name":"Uncletopia | Frankfurt | 1 | All Maps | STV","players":null},{"server_id":110,"name":"Uncletopia | Frankfurt | 2 | All Maps","name_short":"frk-2","host":"frk-1.de.uncletopia.com","port":27025,"enabled":true,"region":"eu","cc":"de","latitude":50.110924,"longitude":8.682127,"reserved":0,"last_update":"0001-01-01T00:00:00Z","name_a2s":"Uncletopia | Frankfurt | 2 | All Maps","protocol":17,"map":"koth_lakeside_final","folder":"tf","game":"Team Fortress","app_id":440,"player_count":0,"max_players":24,"Bots":0,"server_type":"Dedicated","server_os":"Linux","password":true,"vac":true,"version":"7757534","steam_id":85568392924469990,"keywords":["cp","nocrits","nodmgspread","uncletopia"],"game_id":440,"stv_port":27026,"stv_name":"Uncletopia | Frankfurt | 2 | All Maps | STV","players":null},{"server_id":308,"name":"Uncletopia | Frankfurt | 3 | All Maps","name_short":"frk-3","host":"frk-1.de.uncletopia.com","port":27035,"enabled":true,"region":"eu","cc":"de","latitude":50.110924,"longitude":8.682127,"reserved":0,"last_update":"0001-01-01T00:00:00Z","name_a2s":"Uncletopia | Frankfurt | 3 | All Maps","protocol":17,"map":"pl_swiftwater_final1","folder":"tf","game":"Team Fortress","app_id":440,"player_count":0,"max_players":24,"Bots":0,"server_type":"Dedicated","server_os":"Linux","password":true,"vac":true,"version":"7757534","steam_id":85568392924504274,"keywords":["nocrits","nodmgspread","payload","uncletopia"],"game_id":440,"stv_port":27036,"stv_name":"Uncletopia | Frankfurt | 3 | All Maps | STV","players":null},{"server_id":309,"name":"Uncletopia | Frankfurt | 4 | All Maps","name_short":"frk-4","host":"frk-1.de.uncletopia.com","port":27045,"enabled":true,"region":"eu","cc":"de","latitude":50.110924,"longitude":8.682127,"reserved":0,"last_update":"0001-01-01T00:00:00Z","name_a2s":"Uncletopia | Frankfurt | 4 | All Maps","protocol":17,"map":"pl_swiftwater_final1","folder":"tf","game":"Team Fortress","app_id":440,"player_count":0,"max_players":24,"Bots":0,"server_type":"Dedicated","server_os":"Linux","password":true,"vac":true,"version":"7757534","steam_id":85568392924504275,"keywords":["nocrits","nodmgspread","payload","uncletopia"],"game_id":440,"stv_port":27046,"stv_name":"Uncletopia | Frankfurt | 4 | All Maps | STV","players":null},{"server_id":310,"name":"Uncletopia | Frankfurt | 5 | All Maps","name_short":"frk-5","host":"frk-1.de.uncletopia.com","port":27055,"enabled":true,"region":"eu","cc":"de","latitude":50.110924,"longitude":8.682127,"reserved":0,"last_update":"0001-01-01T00:00:00Z","name_a2s":"Uncletopia | Frankfurt | 5 | All Maps","protocol":17,"map":"pl_borneo","folder":"tf","game":"Team Fortress","app_id":440,"player_count":0,"max_players":24,"Bots":0,"server_type":"Dedicated","server_os":"Linux","password":true,"vac":true,"version":"7757534","steam_id":85568392924504277,"keywords":["nocrits","nodmgspread","payload","uncletopia"],"game_id":440,"stv_port":27056,"stv_name":"Uncletopia | Frankfurt | 5 | All Maps | STV","players":null},{"server_id":311,"name":"Uncletopia | Frankfurt | 6 | All Maps","name_short":"frk-6","host":"frk-1.de.uncletopia.com","port":27065,"enabled":true,"region":"eu","cc":"de","latitude":50.110924,"longitude":8.682127,"reserved":0,"last_update":"0001-01-01T00:00:00Z","name_a2s":"Uncletopia | Frankfurt | 6 | All Maps","protocol":17,"map":"koth_highpass","folder":"tf","game":"Team Fortress","app_id":440,"player_count":0,"max_players":24,"Bots":0,"server_type":"Dedicated","server_os":"Linux","password":true,"vac":true,"version":"7757534","steam_id":85568392924504278,"keywords":["cp","nocrits","nodmgspread","uncletopia"],"game_id":440,"stv_port":27066,"stv_name":"Uncletopia | Frankfurt | 6 | All Maps | STV","players":null},{"server_id":23,"name":"Uncletopia | Frankfurt | 7 | Stopwatch Beta","name_short":"frk-7","host":"frk-1.de.uncletopia.com","port":27075,"enabled":true,"region":"eu","cc":"de","latitude":50.110924,"longitude":8.682127,"reserved":0,"last_update":"0001-01-01T00:00:00Z","name_a2s":"Uncletopia | Frankfurt | 7 | Stopwatch Beta","protocol":17,"map":"pl_frontier_final","folder":"tf","game":"Team Fortress","app_id":440,"player_count":0,"max_players":24,"Bots":0,"server_type":"Dedicated","server_os":"Linux","password":true,"vac":true,"version":"7757534","steam_id":85568392924742827,"keywords":["nocrits","nodmgspread","payload","uncletopia"],"game_id":440,"stv_port":27076,"stv_name":"Uncletopia | Frankfurt | 7 | Stopwatch Beta | STV","players":null},{"server_id":24,"name":"Uncletopia | Frankfurt | 8 | Community","name_short":"frk-8","host":"frk-1.de.uncletopia.com","port":27085,"enabled":true,"region":"eu","cc":"de","latitude":50.110924,"longitude":8.682127,"reserved":0,"last_update":"0001-01-01T00:00:00Z","name_a2s":"Uncletopia | Frankfurt | 8 | Community","protocol":17,"map":"workshop/koth_kemptown_rc1.ugc767410655","folder":"tf","game":"Team Fortress","app_id":440,"player_count":0,"max_players":24,"Bots":0,"server_type":"Dedicated","server_os":"Linux","password":true,"vac":true,"version":"7757534","steam_id":85568392924742828,"keywords":["cp","nocrits","nodmgspread","uncletopia"],"game_id":440,"stv_port":27086,"stv_name":"Uncletopia | Frankfurt | 8 | Community | STV","players":null},{"server_id":202,"name":"Uncletopia | Hong Kong | 1 | All Maps","name_short":"hgk-1","host":"hgk-1.hk.uncletopia.com","port":27015,"enabled":true,"region":"asia","cc":"hk","latitude":22.302711,"longitude":114.177216,"reserved":0,"last_update":"0001-01-01T00:00:00Z","name_a2s":"Uncletopia | Hong Kong | 1 | All Maps","protocol":17,"map":"plr_hightower","folder":"tf","game":"Team Fortress","app_id":440,"player_count":2,"max_players":24,"Bots":0,"server_type":"Dedicated","server_os":"Linux","password":true,"vac":true,"version":"7757534","steam_id":85568392924494504,"keywords":["nocrits","nodmgspread","payload","uncletopia"],"game_id":440,"stv_port":27016,"stv_name":"Uncletopia | Hong Kong | 1 | All Maps | STV","players":[{"user_id":10,"name":"Eat your grass","steam_id":76561198120553035,"connected_time":352000000000,"state":"active","ping":60},{"user_id":9,"name":"P","steam_id":76561198304514505,"connected_time":496000000000,"state":"active","ping":76}]},{"server_id":1,"name":"Uncletopia | Los Angeles | 1 | All Maps","name_short":"lax-1","host":"lax-1.us.uncletopia.com","port":27015,"enabled":true,"region":"us-west","cc":"us","latitude":33.94279,"longitude":-118.41004,"reserved":0,"last_update":"0001-01-01T00:00:00Z","name_a2s":"Uncletopia | Los Angeles | 1 | All Maps","protocol":17,"map":"cp_sunshine","folder":"tf","game":"Team Fortress","app_id":440,"player_count":24,"max_players":24,"Bots":0,"server_type":"Dedicated","server_os":"Linux","password":true,"vac":true,"version":"7757534","steam_id":85568392924469991,"keywords":["cp","nocrits","nodmgspread","uncletopia"],"game_id":440,"stv_port":27016,"stv_name":"Uncletopia | Los Angeles | 1 | All Maps | STV","players":[{"user_id":221,"name":"esdot","steam_id":76561198836178527,"connected_time":434000000000,"state":"active","ping":73},{"user_id":192,"name":"rmbl","steam_id":76561198150137369,"connected_time":2386000000000,"state":"active","ping":52},{"user_id":210,"name":"Dauntless Duelist","steam_id":76561198025056018,"connected_time":1032000000000,"state":"active","ping":73},{"user_id":196,"name":"cup","steam_id":76561198121245586,"connected_time":1966000000000,"state":"active","ping":91},{"user_id":185,"name":"Chafn","steam_id":76561197969386702,"connected_time":2886000000000,"state":"active","ping":57},{"user_id":187,"name":"Captain Dynamite","steam_id":76561198030053034,"connected_time":2796000000000,"state":"active","ping":61},{"user_id":207,"name":"Lord Scrubling","steam_id":76561198263744445,"connected_time":1272000000000,"state":"active","ping":74},{"user_id":170,"name":"spot","steam_id":76561198151135298,"connected_time":4450000000000,"state":"active","ping":42},{"user_id":222,"name":"Mr Pissman","steam_id":76561199164566583,"connected_time":336000000000,"state":"active","ping":63},{"user_id":224,"name":"June","steam_id":76561198141803658,"connected_time":233000000000,"state":"active","ping":47},{"user_id":182,"name":"AmyPercent","steam_id":76561198071896932,"connected_time":3427000000000,"state":"active","ping":86},{"user_id":206,"name":"crimson","steam_id":76561198018725934,"connected_time":1316000000000,"state":"active","ping":61},{"user_id":219,"name":"EduardoLopez2005","steam_id":76561198188481309,"connected_time":731000000000,"state":"active","ping":63},{"user_id":188,"name":"Reem0h","steam_id":76561198169848690,"connected_time":2773000000000,"state":"active","ping":113},{"user_id":119,"name":"Guavaz!","steam_id":76561198282290924,"connected_time":8787000000000,"state":"active","ping":45},{"user_id":212,"name":"Frontier Psychiatrist","steam_id":76561198038689088,"connected_time":994000000000,"state":"active","ping":114},{"user_id":213,"name":"Red Vox enjoyer","steam_id":76561198803732690,"connected_time":976000000000,"state":"active","ping":55},{"user_id":203,"name":"JG Wentworth","steam_id":76561198025012508,"connected_time":1555000000000,"state":"active","ping":41},{"user_id":217,"name":"squid game","steam_id":76561199248960166,"connected_time":806000000000,"state":"active","ping":71},{"user_id":220,"name":"vanillain","steam_id":76561198058617608,"connected_time":705000000000,"state":"active","ping":60},{"user_id":181,"name":"PyroTechno","steam_id":76561198060929872,"connected_time":3835000000000,"state":"active","ping":106},{"user_id":223,"name":"Hifamon","steam_id":76561199095124147,"connected_time":299000000000,"state":"active","ping":87},{"user_id":202,"name":"p9 squash","steam_id":76561198150281353,"connected_time":1623000000000,"state":"active","ping":88},{"user_id":100,"name":"garry","steam_id":76561199091007559,"connected_time":9654000000000,"state":"active","ping":60}]},{"server_id":112,"name":"Uncletopia | Los Angeles | 2 | All Maps","name_short":"lax-2","host":"lax-1.us.uncletopia.com","port":27025,"enabled":true,"region":"us-west","cc":"us","latitude":33.94279,"longitude":-118.41004,"reserved":0,"last_update":"0001-01-01T00:00:00Z","name_a2s":"Uncletopia | Los Angeles | 2 | All Maps","protocol":17,"map":"cp_altitude","folder":"tf","game":"Team Fortress","app_id":440,"player_count":0,"max_players":24,"Bots":0,"server_type":"Dedicated","server_os":"Linux","password":true,"vac":true,"version":"7757534","steam_id":85568392924469992,"keywords":["cp","nocrits","nodmgspread","uncletopia"],"game_id":440,"stv_port":27026,"stv_name":"Uncletopia | Los Angeles | 2 | All Maps | STV","players":null},{"server_id":324,"name":"Uncletopia | Los Angeles | 3 | All Maps","name_short":"lax-3","host":"lax-1.us.uncletopia.com","port":27035,"enabled":true,"region":"us-west","cc":"us","latitude":33.94279,"longitude":-118.41004,"reserved":0,"last_update":"0001-01-01T00:00:00Z","name_a2s":"Uncletopia | Los Angeles | 3 | All Maps","protocol":17,"map":"cp_dustbowl","folder":"tf","game":"Team Fortress","app_id":440,"player_count":0,"max_players":24,"Bots":0,"server_type":"Dedicated","server_os":"Linux","password":true,"vac":true,"version":"7757534","steam_id":85568392924510198,"keywords":["cp","nocrits","nodmgspread","uncletopia"],"game_id":440,"stv_port":27036,"stv_name":"Uncletopia | Los Angeles | 3 | All Maps | STV","players":null},{"server_id":25,"name":"Uncletopia | Los Angeles | 4 | Stopwatch Beta","name_short":"lax-4","host":"lax-1.us.uncletopia.com","port":27045,"enabled":true,"region":"us-west","cc":"us","latitude":33.94279,"longitude":-118.41004,"reserved":0,"last_update":"0001-01-01T00:00:00Z","name_a2s":"Uncletopia | Los Angeles | 4 | Stopwatch Beta","protocol":17,"map":"pl_frontier_final","folder":"tf","game":"Team Fortress","app_id":440,"player_count":0,"max_players":24,"Bots":0,"server_type":"Dedicated","server_os":"Linux","password":true,"vac":true,"version":"7757534","steam_id":85568392924510199,"keywords":["nocrits","nodmgspread","payload","uncletopia"],"game_id":440,"stv_port":27046,"stv_name":"Uncletopia | Los Angeles | 4 | Stopwatch Beta | STV","players":null},{"server_id":11,"name":"Uncletopia | London | 1 | All Maps","name_short":"lon-1","host":"lon-1.uk.uncletopia.com","port":27015,"enabled":true,"region":"eu","cc":"gb","latitude":51.509865,"longitude":-0.118092,"reserved":0,"last_update":"0001-01-01T00:00:00Z","name_a2s":"Uncletopia | London | 1 | All Maps","protocol":17,"map":"koth_highpass","folder":"tf","game":"Team Fortress","app_id":440,"player_count":0,"max_players":24,"Bots":0,"server_type":"Dedicated","server_os":"Linux","password":true,"vac":true,"version":"7757534","steam_id":85568392924367362,"keywords":["cp","nocrits","nodmgspread","uncletopia"],"game_id":440,"stv_port":27016,"stv_name":"Uncletopia | London | 1 | All Maps | STV","players":null},{"server_id":114,"name":"Uncletopia | London | 2 | All Maps","name_short":"lon-2","host":"lon-1.uk.uncletopia.com","port":27025,"enabled":true,"region":"eu","cc":"gb","latitude":51.509865,"longitude":-0.118092,"reserved":0,"last_update":"0001-01-01T00:00:00Z","name_a2s":"Uncletopia | London | 2 | All Maps","protocol":17,"map":"pl_barnblitz","folder":"tf","game":"Team Fortress","app_id":440,"player_count":0,"max_players":24,"Bots":0,"server_type":"Dedicated","server_os":"Linux","password":true,"vac":true,"version":"7757534","steam_id":85568392924470941,"keywords":["nocrits","nodmgspread","payload","uncletopia"],"game_id":440,"stv_port":27026,"stv_name":"Uncletopia | London | 2 | All Maps | STV","players":null},{"server_id":320,"name":"Uncletopia | London | 3 | All Maps","name_short":"lon-3","host":"lon-1.uk.uncletopia.com","port":27035,"enabled":true,"region":"eu","cc":"gb","latitude":51.509865,"longitude":-0.118092,"reserved":0,"last_update":"0001-01-01T00:00:00Z","name_a2s":"Uncletopia | London | 3 | All Maps","protocol":17,"map":"koth_cascade","folder":"tf","game":"Team Fortress","app_id":440,"player_count":0,"max_players":24,"Bots":0,"server_type":"Dedicated","server_os":"Linux","password":true,"vac":true,"version":"7757534","steam_id":85568392924510192,"keywords":["cp","nocrits","nodmgspread","uncletopia"],"game_id":440,"stv_port":27036,"stv_name":"Uncletopia | London | 3 | All Maps | STV","players":null},{"server_id":321,"name":"Uncletopia | London | 4 | All Maps","name_short":"lon-4","host":"lon-1.uk.uncletopia.com","port":27045,"enabled":true,"region":"eu","cc":"gb","latitude":51.509865,"longitude":-0.118092,"reserved":0,"last_update":"0001-01-01T00:00:00Z","name_a2s":"Uncletopia | London | 4 | All Maps","protocol":17,"map":"pl_badwater","folder":"tf","game":"Team Fortress","app_id":440,"player_count":0,"max_players":24,"Bots":0,"server_type":"Dedicated","server_os":"Linux","password":true,"vac":true,"version":"7757534","steam_id":85568392924510193,"keywords":["nocrits","nodmgspread","payload","uncletopia"],"game_id":440,"stv_port":27046,"stv_name":"Uncletopia | London | 4 | All Maps | STV","players":null},{"server_id":21,"name":"Uncletopia | London | 5 | All Maps","name_short":"lon-5","host":"lon-1.uk.uncletopia.com","port":27055,"enabled":true,"region":"eu","cc":"gb","latitude":51.509865,"longitude":-0.118092,"reserved":0,"last_update":"0001-01-01T00:00:00Z","name_a2s":"Uncletopia | London | 5 | All Maps","protocol":17,"map":"cp_mountainlab","folder":"tf","game":"Team Fortress","app_id":440,"player_count":0,"max_players":24,"Bots":0,"server_type":"Dedicated","server_os":"Linux","password":true,"vac":true,"version":"7757534","steam_id":85568392924742829,"keywords":["cp","nocrits","nodmgspread","uncletopia"],"game_id":440,"stv_port":27056,"stv_name":"Uncletopia | London | 5 | All Maps | STV","players":null},{"server_id":22,"name":"Uncletopia | London | 6 | All Maps","name_short":"lon-6","host":"lon-1.uk.uncletopia.com","port":27065,"enabled":true,"region":"eu","cc":"gb","latitude":51.509865,"longitude":-0.118092,"reserved":0,"last_update":"0001-01-01T00:00:00Z","name_a2s":"Uncletopia | London | 6 | All Maps","protocol":17,"map":"pl_badwater","folder":"tf","game":"Team Fortress","app_id":440,"player_count":15,"max_players":24,"Bots":0,"server_type":"Dedicated","server_os":"Linux","password":true,"vac":true,"version":"7757534","steam_id":85568392924742830,"keywords":["nocrits","nodmgspread","payload","uncletopia"],"game_id":440,"stv_port":27066,"stv_name":"Uncletopia | London | 6 | All Maps | STV","players":[{"user_id":618,"name":"joecalmatt","steam_id":76561198172552015,"connected_time":6649000000000,"state":"active","ping":43},{"user_id":662,"name":"Shlongulator","steam_id":76561198149779201,"connected_time":4483000000000,"state":"active","ping":54},{"user_id":677,"name":"Kai","steam_id":76561198800004578,"connected_time":3247000000000,"state":"active","ping":45},{"user_id":713,"name":"U1F","steam_id":76561198053700703,"connected_time":233000000000,"state":"active","ping":57},{"user_id":693,"name":"Johnny Cockroach","steam_id":76561198049648277,"connected_time":1806000000000,"state":"active","ping":109},{"user_id":700,"name":"Труп Володя","steam_id":76561198035718457,"connected_time":1318000000000,"state":"active","ping":91},{"user_id":711,"name":"Arkainiel Silver","steam_id":76561198188302519,"connected_time":523000000000,"state":"active","ping":60},{"user_id":704,"name":"cupofwater","steam_id":76561198044000478,"connected_time":864000000000,"state":"active","ping":115},{"user_id":705,"name":"Kacey","steam_id":76561198017063317,"connected_time":860000000000,"state":"active","ping":130},{"user_id":640,"name":"Ikal","steam_id":76561198344244939,"connected_time":5774000000000,"state":"active","ping":58},{"user_id":706,"name":"Laceri","steam_id":76561198084877928,"connected_time":847000000000,"state":"active","ping":79},{"user_id":648,"name":"Why Always","steam_id":76561198121220262,"connected_time":5220000000000,"state":"active","ping":65},{"user_id":708,"name":"Ember The Femboy","steam_id":76561198139630565,"connected_time":816000000000,"state":"active","ping":52},{"user_id":709,"name":"Drdarlekzzz","steam_id":76561198160141785,"connected_time":781000000000,"state":"active","ping":31},{"user_id":699,"name":"badrobot","steam_id":76561198322878356,"connected_time":1477000000000,"state":"active","ping":109}]},{"server_id":40,"name":"Uncletopia | London | 7 | No Payload","name_short":"lon-7","host":"lon-1.uk.uncletopia.com","port":27075,"enabled":true,"region":"eu","cc":"gb","latitude":51.509865,"longitude":-0.118092,"reserved":0,"last_update":"0001-01-01T00:00:00Z","name_a2s":"Uncletopia | London | 7 | No Payload","protocol":17,"map":"koth_badlands","folder":"tf","game":"Team Fortress","app_id":440,"player_count":0,"max_players":24,"Bots":0,"server_type":"Dedicated","server_os":"Linux","password":true,"vac":true,"version":"7757534","steam_id":85568392924964314,"keywords":["cp","nocrits","nodmgspread","uncletopia"],"game_id":440,"stv_port":27076,"stv_name":"Uncletopia | London | 7 | No Payload | STV","players":null},{"server_id":41,"name":"Uncletopia | London | 8 | Community","name_short":"lon-8","host":"lon-1.uk.uncletopia.com","port":27085,"enabled":true,"region":"eu","cc":"gb","latitude":51.509865,"longitude":-0.118092,"reserved":0,"last_update":"0001-01-01T00:00:00Z","name_a2s":"Uncletopia | London | 8 | Community","protocol":17,"map":"workshop/koth_slaughter_rc1.ugc1712845210","folder":"tf","game":"Team Fortress","app_id":440,"player_count":0,"max_players":24,"Bots":0,"server_type":"Dedicated","server_os":"Linux","password":true,"vac":true,"version":"7757534","steam_id":85568392924964315,"keywords":["cp","nocrits","nodmgspread","uncletopia"],"game_id":440,"stv_port":27086,"stv_name":"Uncletopia | London | 8 | Community | STV","players":null},{"server_id":300,"name":"Uncletopia | Montréal | 1 | All Maps","name_short":"mtl-1","host":"mtl-1.ca.uncletopia.com","port":27015,"enabled":true,"region":"us-east","cc":"ca","latitude":45.50889,"longitude":-73.56167,"reserved":0,"last_update":"0001-01-01T00:00:00Z","name_a2s":"Uncletopia | Montréal | 1 | All Maps","protocol":17,"map":"pl_snowycoast","folder":"tf","game":"Team Fortress","app_id":440,"player_count":0,"max_players":24,"Bots":0,"server_type":"Dedicated","server_os":"Linux","password":true,"vac":true,"version":"7757534","steam_id":85568392924500087,"keywords":["nocrits","nodmgspread","payload","uncletopia"],"game_id":440,"stv_port":27016,"stv_name":"Uncletopia | Montréal | 1 | All Maps | STV","players":null},{"server_id":301,"name":"Uncletopia | Montréal | 2 | All Maps","name_short":"mtl-2","host":"mtl-1.ca.uncletopia.com","port":27025,"enabled":true,"region":"us-east","cc":"ca","latitude":45.50889,"longitude":-73.56167,"reserved":0,"last_update":"0001-01-01T00:00:00Z","name_a2s":"Uncletopia | Montréal | 2 | All Maps","protocol":17,"map":"pl_barnblitz","folder":"tf","game":"Team Fortress","app_id":440,"player_count":0,"max_players":24,"Bots":0,"server_type":"Dedicated","server_os":"Linux","password":true,"vac":true,"version":"7757534","steam_id":85568392924500088,"keywords":["nocrits","nodmgspread","payload","uncletopia"],"game_id":440,"stv_port":27026,"stv_name":"Uncletopia | Montréal | 2 | All Maps | STV","players":null},{"server_id":302,"name":"Uncletopia | Montréal | 3 | All Maps","name_short":"mtl-3","host":"mtl-1.ca.uncletopia.com","port":27035,"enabled":true,"region":"us-east","cc":"ca","latitude":45.50889,"longitude":-73.56167,"reserved":0,"last_update":"0001-01-01T00:00:00Z","name_a2s":"Uncletopia | Montréal | 3 | All Maps","protocol":17,"map":"koth_cascade","folder":"tf","game":"Team Fortress","app_id":440,"player_count":0,"max_players":24,"Bots":0,"server_type":"Dedicated","server_os":"Linux","password":true,"vac":true,"version":"7757534","steam_id":85568392924500089,"keywords":["cp","nocrits","nodmgspread","uncletopia"],"game_id":440,"stv_port":27036,"stv_name":"Uncletopia | Montréal | 3 | All Maps | STV","players":null},{"server_id":303,"name":"Uncletopia | Montréal | 4 | No Payload","name_short":"mtl-4","host":"mtl-1.ca.uncletopia.com","port":27045,"enabled":true,"region":"us-east","cc":"ca","latitude":45.50889,"longitude":-73.56167,"reserved":0,"last_update":"0001-01-01T00:00:00Z","name_a2s":"Uncletopia | Montréal | 4 | No Payload","protocol":17,"map":"pl_borneo","folder":"tf","game":"Team Fortress","app_id":440,"player_count":0,"max_players":24,"Bots":0,"server_type":"Dedicated","server_os":"Linux","password":true,"vac":true,"version":"7757534","steam_id":85568392924500090,"keywords":["nocrits","nodmgspread","payload","uncletopia"],"game_id":440,"stv_port":27046,"stv_name":"Uncletopia | Montréal | 4 | No Payload | STV","players":null},{"server_id":13,"name":"Uncletopia | New York City | 1 | All Maps","name_short":"nyc-1","host":"nyc-1.us.uncletopia.com","port":27015,"enabled":true,"region":"us-east","cc":"us","latitude":40.73061,"longitude":-73.93524,"reserved":0,"last_update":"0001-01-01T00:00:00Z","name_a2s":"Uncletopia | New York City | 1 | All Maps","protocol":17,"map":"pl_upward","folder":"tf","game":"Team Fortress","app_id":440,"player_count":24,"max_players":24,"Bots":0,"server_type":"Dedicated","server_os":"Linux","password":true,"vac":true,"version":"7757534","steam_id":85568392924469993,"keywords":["nocrits","nodmgspread","payload","uncletopia"],"game_id":440,"stv_port":27016,"stv_name":"Uncletopia | New York City | 1 | All Maps | STV","players":[{"user_id":676,"name":"yougotsauled","steam_id":76561198880754695,"connected_time":684000000000,"state":"active","ping":50},{"user_id":651,"name":"deepwoken","steam_id":76561198055439054,"connected_time":2664000000000,"state":"active","ping":66},{"user_id":674,"name":"Lord of The Lockerroom","steam_id":76561198025975003,"connected_time":699000000000,"state":"active","ping":78},{"user_id":665,"name":"Oddjob","steam_id":76561198976160793,"connected_time":1108000000000,"state":"active","ping":61},{"user_id":548,"name":"Subway Fan","steam_id":76561198336372790,"connected_time":10740000000000,"state":"active","ping":32},{"user_id":661,"name":"Luis wid a mic","steam_id":76561198349570006,"connected_time":1955000000000,"state":"active","ping":33},{"user_id":670,"name":"Cyndi","steam_id":76561198049565564,"connected_time":806000000000,"state":"active","ping":67},{"user_id":675,"name":"Tyrone","steam_id":76561198189429665,"connected_time":697000000000,"state":"active","ping":83},{"user_id":677,"name":"Almonicus","steam_id":76561198044401351,"connected_time":602000000000,"state":"active","ping":80},{"user_id":678,"name":"bikerkid207","steam_id":76561198390782783,"connected_time":301000000000,"state":"active","ping":56},{"user_id":644,"name":"Pancake","steam_id":76561198212039509,"connected_time":2899000000000,"state":"active","ping":77},{"user_id":681,"name":"googy doogy","steam_id":76561199025852100,"connected_time":6000000000,"state":"spawning","ping":29},{"user_id":673,"name":"CapnKris22","steam_id":76561198049010994,"connected_time":706000000000,"state":"active","ping":61},{"user_id":657,"name":"sellout","steam_id":76561198125158706,"connected_time":2245000000000,"state":"active","ping":123},{"user_id":652,"name":"murpyh","steam_id":76561198147428820,"connected_time":2650000000000,"state":"active","ping":55},{"user_id":666,"name":"aversa","steam_id":76561198840460101,"connected_time":1099000000000,"state":"active","ping":104},{"user_id":647,"name":"Garrmactad","steam_id":76561198152205651,"connected_time":2814000000000,"state":"active","ping":90},{"user_id":648,"name":"kazumi","steam_id":76561199066670400,"connected_time":2812000000000,"state":"active","ping":125},{"user_id":635,"name":"flaca","steam_id":76561199349244576,"connected_time":3487000000000,"state":"active","ping":96},{"user_id":630,"name":"Atomic Waffles","steam_id":76561197970935570,"connected_time":4407000000000,"state":"active","ping":91},{"user_id":668,"name":"Aunty Frazzle","steam_id":76561198145596626,"connected_time":1027000000000,"state":"active","ping":130},{"user_id":614,"name":"Poyo Boyo","steam_id":76561198010201227,"connected_time":5013000000000,"state":"active","ping":88},{"user_id":656,"name":"nohatbeyond","steam_id":76561198055211132,"connected_time":2308000000000,"state":"active","ping":57},{"user_id":680,"name":"sandvichgame","steam_id":76561199106118824,"connected_time":118000000000,"state":"active","ping":112}]},{"server_id":14,"name":"Uncletopia | New York City | 2 | All Maps","name_short":"nyc-2","host":"nyc-1.us.uncletopia.com","port":27025,"enabled":true,"region":"us-east","cc":"us","latitude":40.73061,"longitude":-73.93524,"reserved":0,"last_update":"0001-01-01T00:00:00Z","name_a2s":"Uncletopia | New York City | 2 | All Maps","protocol":17,"map":"cp_sunshine","folder":"tf","game":"Team Fortress","app_id":440,"player_count":22,"max_players":24,"Bots":0,"server_type":"Dedicated","server_os":"Linux","password":true,"vac":true,"version":"7757534","steam_id":85568392924469994,"keywords":["cp","nocrits","nodmgspread","uncletopia"],"game_id":440,"stv_port":27026,"stv_name":"Uncletopia | New York City | 2 | All Maps | STV","players":[{"user_id":718,"name":"wally","steam_id":76561198027450079,"connected_time":222000000000,"state":"active","ping":47},{"user_id":705,"name":"nut","steam_id":76561198395577807,"connected_time":683000000000,"state":"active","ping":31},{"user_id":719,"name":"AverageRundownJoe.ttv","steam_id":76561198059359620,"connected_time":184000000000,"state":"active","ping":82},{"user_id":717,"name":"you flaming idiots","steam_id":76561198105515914,"connected_time":241000000000,"state":"active","ping":134},{"user_id":663,"name":"StrangeSaus","steam_id":76561198147790758,"connected_time":1674000000000,"state":"active","ping":58},{"user_id":706,"name":"All Tomorrow's Parties","steam_id":76561197995936212,"connected_time":677000000000,"state":"active","ping":73},{"user_id":626,"name":"3713biggest:bug:FEAR:IT","steam_id":76561198126386686,"connected_time":2490000000000,"state":"active","ping":70},{"user_id":716,"name":"somied","steam_id":76561198148357768,"connected_time":259000000000,"state":"active","ping":57},{"user_id":715,"name":"lanoc","steam_id":76561198055415367,"connected_time":288000000000,"state":"active","ping":70},{"user_id":720,"name":"ArnoldPaulmerFan87","steam_id":76561199089263972,"connected_time":172000000000,"state":"active","ping":124},{"user_id":578,"name":"A Puppy","steam_id":76561198828184456,"connected_time":3830000000000,"state":"active","ping":49},{"user_id":709,"name":"uzr","steam_id":76561198799343084,"connected_time":460000000000,"state":"active","ping":119},{"user_id":547,"name":"ballsack gaming","steam_id":76561198117839474,"connected_time":5148000000000,"state":"active","ping":62},{"user_id":721,"name":"Neato Burrito","steam_id":76561198250033944,"connected_time":171000000000,"state":"active","ping":62},{"user_id":629,"name":"Farseer Ulwithy","steam_id":76561197965179245,"connected_time":2459000000000,"state":"active","ping":117},{"user_id":710,"name":"0","steam_id":76561197961095970,"connected_time":448000000000,"state":"active","ping":60},{"user_id":712,"name":"DazzlingMaggot","steam_id":76561197972716928,"connected_time":387000000000,"state":"active","ping":69},{"user_id":713,"name":"rollback prices","steam_id":76561198000564263,"connected_time":320000000000,"state":"active","ping":71},{"user_id":580,"name":"Guts","steam_id":76561198075849852,"connected_time":3744000000000,"state":"active","ping":74},{"user_id":722,"name":"*****setget","steam_id":76561198118824188,"connected_time":153000000000,"state":"active","ping":120},{"user_id":714,"name":"Keroro","steam_id":76561198075106705,"connected_time":319000000000,"state":"active","ping":55},{"user_id":545,"name":"hashmap","steam_id":76561198043794014,"connected_time":5233000000000,"state":"active","ping":62}]},{"server_id":15,"name":"Uncletopia | New York City | 3 | Stopwatch Beta","name_short":"nyc-3","host":"nyc-1.us.uncletopia.com","port":27035,"enabled":true,"region":"us-east","cc":"us","latitude":40.73061,"longitude":-73.93524,"reserved":0,"last_update":"0001-01-01T00:00:00Z","name_a2s":"Uncletopia | New York City | 3 | Stopwatch Beta","protocol":17,"map":"pl_swiftwater_final1","folder":"tf","game":"Team Fortress","app_id":440,"player_count":0,"max_players":24,"Bots":0,"server_type":"Dedicated","server_os":"Linux","password":true,"vac":true,"version":"7757534","steam_id":85568392924742820,"keywords":["nocrits","nodmgspread","payload","uncletopia"],"game_id":440,"stv_port":27036,"stv_name":"Uncletopia | New York City | 3 | Stopwatch Beta | STV","players":null},{"server_id":16,"name":"Uncletopia | New York City | 4 | Community","name_short":"nyc-4","host":"nyc-1.us.uncletopia.com","port":27045,"enabled":true,"region":"us-east","cc":"us","latitude":40.73061,"longitude":-73.93524,"reserved":0,"last_update":"0001-01-01T00:00:00Z","name_a2s":"Uncletopia | New York City | 4 | Community","protocol":17,"map":"workshop/pl_cactuscanyon_redux_rc4b.ugc2579644293","folder":"tf","game":"Team Fortress","app_id":440,"player_count":22,"max_players":24,"Bots":0,"server_type":"Dedicated","server_os":"Linux","password":true,"vac":true,"version":"7757534","steam_id":85568392924742821,"keywords":["nocrits","nodmgspread","payload","uncletopia"],"game_id":440,"stv_port":27046,"stv_name":"Uncletopia | New York City | 4 | Community | STV","players":[{"user_id":241,"name":"Epha","steam_id":76561198079379951,"connected_time":1519000000000,"state":"active","ping":72},{"user_id":238,"name":"Gubbington","steam_id":76561198959381302,"connected_time":1691000000000,"state":"active","ping":69},{"user_id":251,"name":"Rx Auntie","steam_id":76561198051618393,"connected_time":531000000000,"state":"active","ping":45},{"user_id":247,"name":"ShitWagon","steam_id":76561198984067733,"connected_time":931000000000,"state":"active","ping":75},{"user_id":248,"name":"Your Local Jester","steam_id":76561199120223717,"connected_time":820000000000,"state":"active","ping":68},{"user_id":257,"name":"DJ Flop","steam_id":76561198063956560,"connected_time":330000000000,"state":"active","ping":116},{"user_id":249,"name":"walterfishing_17","steam_id":76561198976904099,"connected_time":731000000000,"state":"active","ping":76},{"user_id":250,"name":"♔ Regular Tetragon","steam_id":76561198040366189,"connected_time":647000000000,"state":"active","ping":82},{"user_id":232,"name":"Dr.Long","steam_id":76561198930316713,"connected_time":1982000000000,"state":"active","ping":83},{"user_id":224,"name":"Vitzenhauzer","steam_id":76561198116449787,"connected_time":3081000000000,"state":"active","ping":51},{"user_id":252,"name":"Caretnose","steam_id":76561198021762583,"connected_time":487000000000,"state":"active","ping":73},{"user_id":214,"name":"Silverio","steam_id":76561197999425381,"connected_time":4375000000000,"state":"active","ping":59},{"user_id":253,"name":"ColeTheGuide","steam_id":76561198102062139,"connected_time":406000000000,"state":"active","ping":80},{"user_id":254,"name":"Saint!","steam_id":76561198150438871,"connected_time":397000000000,"state":"active","ping":70},{"user_id":259,"name":"Evan","steam_id":76561198081165364,"connected_time":243000000000,"state":"active","ping":59},{"user_id":258,"name":"GrummBlumm","steam_id":76561198243035656,"connected_time":294000000000,"state":"active","ping":67},{"user_id":260,"name":"Gram Tokers Count Doinkula","steam_id":76561198112811565,"connected_time":213000000000,"state":"active","ping":59},{"user_id":261,"name":"Neo Kabuto","steam_id":76561197998339185,"connected_time":189000000000,"state":"active","ping":84},{"user_id":263,"name":"Purp","steam_id":76561198044559535,"connected_time":139000000000,"state":"active","ping":69},{"user_id":265,"name":"Phat Cat","steam_id":76561198123017274,"connected_time":62000000000,"state":"active","ping":38},{"user_id":266,"name":"PageBoiSkull","steam_id":76561198237353578,"connected_time":28000000000,"state":"active","ping":133}]},{"server_id":142,"name":"Uncletopia | São Paulo | 1 | All Maps","name_short":"sao-1","host":"sao-1.br.uncletopia.com","port":27015,"enabled":true,"region":"sa","cc":"br","latitude":-23.533773,"longitude":-46.62529,"reserved":0,"last_update":"0001-01-01T00:00:00Z","name_a2s":"Uncletopia | São Paulo | 1 | All Maps","protocol":17,"map":"koth_viaduct","folder":"tf","game":"Team Fortress","app_id":440,"player_count":0,"max_players":24,"Bots":0,"server_type":"Dedicated","server_os":"Linux","password":true,"vac":true,"version":"7757534","steam_id":85568392924469996,"keywords":["cp","nocrits","nodmgspread","uncletopia"],"game_id":440,"stv_port":27016,"stv_name":"Uncletopia | São Paulo | 1 | All Maps | STV","players":null},{"server_id":143,"name":"Uncletopia | São Paulo | 2 | All Maps","name_short":"sao-2","host":"sao-2.br.uncletopia.com","port":27015,"enabled":true,"region":"sa","cc":"br","latitude":-23.533773,"longitude":-46.62529,"reserved":0,"last_update":"0001-01-01T00:00:00Z","name_a2s":"Uncletopia | São Paulo | 2 | All Maps","protocol":17,"map":"cp_snakewater_final1","folder":"tf","game":"Team Fortress","app_id":440,"player_count":0,"max_players":24,"Bots":0,"server_type":"Dedicated","server_os":"Linux","password":true,"vac":true,"version":"7757534","steam_id":85568392924485349,"keywords":["cp","nocrits","nodmgspread","uncletopia"],"game_id":440,"stv_port":27016,"stv_name":"Uncletopia | São Paulo | 2 | All Maps | STV","players":null},{"server_id":7,"name":"Uncletopia | Seattle | 1 | All Maps","name_short":"sea-1","host":"sea-1.us.uncletopia.com","port":27015,"enabled":true,"region":"us-west","cc":"us","latitude":47.608013,"longitude":-122.33517,"reserved":0,"last_update":"0001-01-01T00:00:00Z","name_a2s":"Uncletopia | Seattle | 1 | All Maps","protocol":17,"map":"pl_borneo","folder":"tf","game":"Team Fortress","app_id":440,"player_count":24,"max_players":24,"Bots":0,"server_type":"Dedicated","server_os":"Linux","password":true,"vac":true,"version":"7757534","steam_id":85568392924469997,"keywords":["nocrits","nodmgspread","payload","uncletopia"],"game_id":440,"stv_port":27016,"stv_name":"Uncletopia | Seattle | 1 | All Maps | STV","players":[{"user_id":636,"name":"rat gets the cheese","steam_id":76561198031234032,"connected_time":1807000000000,"state":"active","ping":107},{"user_id":617,"name":"Saint Pablo","steam_id":76561198083300159,"connected_time":3693000000000,"state":"active","ping":72},{"user_id":662,"name":"shiadyne","steam_id":76561198271939793,"connected_time":339000000000,"state":"active","ping":45},{"user_id":643,"name":"Sad Sapling","steam_id":76561198075612150,"connected_time":1479000000000,"state":"active","ping":82},{"user_id":623,"name":"bbbbb","steam_id":76561198095480838,"connected_time":2602000000000,"state":"active","ping":46},{"user_id":648,"name":"Level 99 Mudcrab","steam_id":76561198077452771,"connected_time":1128000000000,"state":"active","ping":59},{"user_id":661,"name":"Sniff","steam_id":76561198010270922,"connected_time":504000000000,"state":"active","ping":43},{"user_id":659,"name":"T4NNEr","steam_id":76561198266327817,"connected_time":520000000000,"state":"active","ping":34},{"user_id":656,"name":"Zozbieta","steam_id":76561198010336265,"connected_time":920000000000,"state":"active","ping":116},{"user_id":638,"name":"Aardappel","steam_id":76561198030894676,"connected_time":1794000000000,"state":"active","ping":71},{"user_id":614,"name":"Arsonist Goose","steam_id":76561198147441830,"connected_time":3956000000000,"state":"active","ping":73},{"user_id":608,"name":"Fh","steam_id":76561198000903511,"connected_time":4415000000000,"state":"active","ping":62},{"user_id":651,"name":"Robert E.T.","steam_id":76561197986439371,"connected_time":1080000000000,"state":"active","ping":55},{"user_id":573,"name":"[TrC] Dackstrus","steam_id":76561197973518509,"connected_time":5831000000000,"state":"active","ping":62},{"user_id":641,"name":"the bandit","steam_id":76561199158540950,"connected_time":1738000000000,"state":"active","ping":67},{"user_id":645,"name":"〣dust〣 -she/her-","steam_id":76561198045218909,"connected_time":1380000000000,"state":"active","ping":41},{"user_id":650,"name":"Bester","steam_id":76561198167729584,"connected_time":1100000000000,"state":"active","ping":86},{"user_id":653,"name":"bimbofication","steam_id":76561198290315229,"connected_time":955000000000,"state":"active","ping":75},{"user_id":660,"name":"Kuma","steam_id":76561199100813140,"connected_time":520000000000,"state":"active","ping":89},{"user_id":624,"name":"cybercat","steam_id":76561199120774107,"connected_time":2503000000000,"state":"active","ping":77},{"user_id":559,"name":"Mignyanne :3","steam_id":76561198048754056,"connected_time":8044000000000,"state":"active","ping":66},{"user_id":581,"name":"[TrC] Nosy","steam_id":76561197978859310,"connected_time":5476000000000,"state":"active","ping":59},{"user_id":634,"name":"getting railed to Oingo Boingo","steam_id":76561198797611732,"connected_time":1902000000000,"state":"active","ping":67},{"user_id":635,"name":"shane","steam_id":76561198060491451,"connected_time":1902000000000,"state":"active","ping":114}]},{"server_id":119,"name":"Uncletopia | Seattle | 2 | All Maps","name_short":"sea-2","host":"sea-1.us.uncletopia.com","port":27025,"enabled":true,"region":"us-west","cc":"us","latitude":47.608013,"longitude":-122.33517,"reserved":0,"last_update":"0001-01-01T00:00:00Z","name_a2s":"Uncletopia | Seattle | 2 | All Maps","protocol":17,"map":"pl_upward","folder":"tf","game":"Team Fortress","app_id":440,"player_count":24,"max_players":24,"Bots":0,"server_type":"Dedicated","server_os":"Linux","password":true,"vac":true,"version":"7757534","steam_id":85568392924469998,"keywords":["nocrits","nodmgspread","payload","uncletopia"],"game_id":440,"stv_port":27026,"stv_name":"Uncletopia | Seattle | 2 | All Maps | STV","players":[{"user_id":414,"name":"SlimeHead47","steam_id":76561198116107566,"connected_time":1815000000000,"state":"active","ping":47},{"user_id":420,"name":"Jettzky","steam_id":76561198305540151,"connected_time":1616000000000,"state":"active","ping":66},{"user_id":423,"name":"STrong Bomber","steam_id":76561198805051139,"connected_time":1379000000000,"state":"active","ping":49},{"user_id":405,"name":"Vetresol","steam_id":76561198174828486,"connected_time":2396000000000,"state":"active","ping":50},{"user_id":373,"name":"[GUT] RiDiK®","steam_id":76561197969756446,"connected_time":4753000000000,"state":"active","ping":87},{"user_id":338,"name":"Geight","steam_id":76561197991645292,"connected_time":7197000000000,"state":"active","ping":55},{"user_id":411,"name":"AmiableNebula","steam_id":76561198094306627,"connected_time":1881000000000,"state":"active","ping":78},{"user_id":407,"name":"[DATS➡] Sugar Meowth","steam_id":76561197995251793,"connected_time":2164000000000,"state":"active","ping":45},{"user_id":419,"name":"pizzaguy4","steam_id":76561198058821622,"connected_time":1640000000000,"state":"active","ping":91},{"user_id":402,"name":"Perhaps","steam_id":76561198086953456,"connected_time":3121000000000,"state":"active","ping":56},{"user_id":427,"name":"Strength!!","steam_id":76561198001241984,"connected_time":930000000000,"state":"active","ping":52},{"user_id":421,"name":"Merach","steam_id":76561197994544587,"connected_time":1595000000000,"state":"active","ping":47},{"user_id":424,"name":"Blind","steam_id":76561198986055111,"connected_time":1312000000000,"state":"active","ping":51},{"user_id":360,"name":"Stranger Danger","steam_id":76561198115242460,"connected_time":6008000000000,"state":"active","ping":45},{"user_id":425,"name":"PINGAS DISPENSER™","steam_id":76561198014868070,"connected_time":1293000000000,"state":"active","ping":77},{"user_id":417,"name":"autumnal.messenger","steam_id":76561199345816635,"connected_time":1711000000000,"state":"active","ping":55},{"user_id":362,"name":"MCman","steam_id":76561198412110305,"connected_time":5933000000000,"state":"active","ping":81},{"user_id":399,"name":"Zenix","steam_id":76561198261817732,"connected_time":3255000000000,"state":"active","ping":92},{"user_id":422,"name":"Hotsaucebauce","steam_id":76561199070938363,"connected_time":1582000000000,"state":"active","ping":89},{"user_id":392,"name":"Arkus","steam_id":76561199092478198,"connected_time":3466000000000,"state":"active","ping":55},{"user_id":403,"name":"wheresgeorge","steam_id":76561198986281248,"connected_time":3117000000000,"state":"active","ping":135},{"user_id":418,"name":"Kay Z1014","steam_id":76561198374228296,"connected_time":1686000000000,"state":"active","ping":64},{"user_id":401,"name":"Socialism Enjoyer","steam_id":76561197991817974,"connected_time":3240000000000,"state":"active","ping":69},{"user_id":413,"name":"Algibruh","steam_id":76561199221599415,"connected_time":1829000000000,"state":"active","ping":54}]},{"server_id":406,"name":"Uncletopia | Seattle | 3 | Stopwatch Beta","name_short":"sea-3","host":"sea-1.us.uncletopia.com","port":27035,"enabled":true,"region":"us-west","cc":"us","latitude":47.608013,"longitude":-122.33517,"reserved":0,"last_update":"0001-01-01T00:00:00Z","name_a2s":"Uncletopia | Seattle | 3 | Stopwatch Beta","protocol":17,"map":"pl_barnblitz","folder":"tf","game":"Team Fortress","app_id":440,"player_count":0,"max_players":24,"Bots":0,"server_type":"Dedicated","server_os":"Linux","password":true,"vac":true,"version":"7757534","steam_id":85568392924515217,"keywords":["nocrits","nodmgspread","payload","uncletopia"],"game_id":440,"stv_port":27036,"stv_name":"Uncletopia | Seattle | 3 | Stopwatch Beta | STV","players":null},{"server_id":17,"name":"Uncletopia | San Francisco | 1 | All Maps","name_short":"sfo-1","host":"sfo-1.us.uncletopia.com","port":27015,"enabled":true,"region":"us-west","cc":"us","latitude":37.77397,"longitude":-122.4313,"reserved":0,"last_update":"0001-01-01T00:00:00Z","name_a2s":"Uncletopia | San Francisco | 1 | All Maps","protocol":17,"map":"pl_swiftwater_final1","folder":"tf","game":"Team Fortress","app_id":440,"player_count":24,"max_players":24,"Bots":0,"server_type":"Dedicated","server_os":"Linux","password":true,"vac":true,"version":"7757534","steam_id":85568392924469999,"keywords":["nocrits","nodmgspread","payload","uncletopia"],"game_id":440,"stv_port":27016,"stv_name":"Uncletopia | San Francisco | 1 | All Maps | STV","players":[{"user_id":586,"name":"ThisBeeSparta18","steam_id":76561198174023582,"connected_time":782000000000,"state":"active","ping":124},{"user_id":556,"name":"xx_.zeroskullldogg_.xxXD","steam_id":76561198825658971,"connected_time":2476000000000,"state":"active","ping":61},{"user_id":544,"name":"North","steam_id":76561199173696836,"connected_time":3648000000000,"state":"active","ping":85},{"user_id":587,"name":"Saulce","steam_id":76561198066142119,"connected_time":743000000000,"state":"active","ping":66},{"user_id":575,"name":"Bomki","steam_id":76561198132925059,"connected_time":1245000000000,"state":"active","ping":109},{"user_id":588,"name":"Mom","steam_id":76561198207936000,"connected_time":710000000000,"state":"active","ping":44},{"user_id":589,"name":"Rakk","steam_id":76561198855176174,"connected_time":694000000000,"state":"active","ping":60},{"user_id":590,"name":"TheTruthOfTheCessationOfDukkha","steam_id":76561198214370515,"connected_time":592000000000,"state":"active","ping":118},{"user_id":602,"name":"pumba","steam_id":76561198207881077,"connected_time":197000000000,"state":"active","ping":80},{"user_id":585,"name":"Pyrotek⁴","steam_id":76561198072747672,"connected_time":808000000000,"state":"active","ping":50},{"user_id":592,"name":"Gerald","steam_id":76561199084426801,"connected_time":506000000000,"state":"active","ping":85},{"user_id":593,"name":"en.wikipedia.org/wiki/Nae_Nae","steam_id":76561198418288939,"connected_time":480000000000,"state":"active","ping":59},{"user_id":578,"name":"watchfull","steam_id":76561198433266742,"connected_time":1233000000000,"state":"active","ping":77},{"user_id":555,"name":"Mott","steam_id":76561198055890707,"connected_time":2487000000000,"state":"active","ping":134},{"user_id":514,"name":"Punkitt","steam_id":76561198051433443,"connected_time":5282000000000,"state":"active","ping":72},{"user_id":594,"name":"Vinny","steam_id":76561198136979133,"connected_time":461000000000,"state":"active","ping":63},{"user_id":595,"name":"Chris P. Wiener","steam_id":76561198168808551,"connected_time":460000000000,"state":"active","ping":81},{"user_id":596,"name":"[chef] iron","steam_id":76561197970888616,"connected_time":421000000000,"state":"active","ping":101},{"user_id":597,"name":"lag","steam_id":76561197963872739,"connected_time":380000000000,"state":"active","ping":37},{"user_id":598,"name":"Danny Fentanyl","steam_id":76561197970791798,"connected_time":376000000000,"state":"active","ping":59},{"user_id":599,"name":"仙女头子于谦","steam_id":76561199031075505,"connected_time":365000000000,"state":"active","ping":127},{"user_id":600,"name":"Bismofunyuns","steam_id":76561198154206862,"connected_time":327000000000,"state":"active","ping":58},{"user_id":550,"name":"Heavy","steam_id":76561198437794740,"connected_time":3457000000000,"state":"active","ping":84},{"user_id":601,"name":"Red Angry Bird","steam_id":76561198204896231,"connected_time":275000000000,"state":"active","ping":85}]},{"server_id":18,"name":"Uncletopia | San Francisco | 2 | All Maps","name_short":"sfo-2","host":"sfo-1.us.uncletopia.com","port":27025,"enabled":true,"region":"us-west","cc":"us","latitude":37.77397,"longitude":-122.4313,"reserved":0,"last_update":"0001-01-01T00:00:00Z","name_a2s":"Uncletopia | San Francisco | 2 | All Maps","protocol":17,"map":"koth_highpass","folder":"tf","game":"Team Fortress","app_id":440,"player_count":22,"max_players":24,"Bots":0,"server_type":"Dedicated","server_os":"Linux","password":true,"vac":true,"version":"7757534","steam_id":85568392924470000,"keywords":["cp","nocrits","nodmgspread","uncletopia"],"game_id":440,"stv_port":27026,"stv_name":"Uncletopia | San Francisco | 2 | All Maps | STV","players":[{"user_id":90,"name":"⛧","steam_id":76561198021308963,"connected_time":2014000000000,"state":"active","ping":75},{"user_id":102,"name":"Barack Obama Gaming","steam_id":76561198129242016,"connected_time":382000000000,"state":"active","ping":67},{"user_id":89,"name":"Risky","steam_id":76561198231029328,"connected_time":2047000000000,"state":"active","ping":41},{"user_id":97,"name":"Gordon Ramsay.","steam_id":76561199167165627,"connected_time":760000000000,"state":"active","ping":71},{"user_id":96,"name":"samsculz","steam_id":76561199454623450,"connected_time":1213000000000,"state":"active","ping":83},{"user_id":107,"name":"Wallewii","steam_id":76561198312178063,"connected_time":131000000000,"state":"active","ping":61},{"user_id":100,"name":"Zorlovo","steam_id":76561198006443283,"connected_time":557000000000,"state":"active","ping":96},{"user_id":103,"name":"EatSomeBEES","steam_id":76561198047334307,"connected_time":296000000000,"state":"active","ping":70},{"user_id":104,"name":"Excalibrine","steam_id":76561198129312118,"connected_time":247000000000,"state":"active","ping":55},{"user_id":60,"name":"GJDon","steam_id":76561199026755019,"connected_time":3202000000000,"state":"active","ping":103},{"user_id":105,"name":"Local","steam_id":76561198170915102,"connected_time":180000000000,"state":"active","ping":85},{"user_id":106,"name":"oil 2","steam_id":76561198278426327,"connected_time":170000000000,"state":"active","ping":63},{"user_id":108,"name":"WholesomeChungus2013","steam_id":76561198276948399,"connected_time":115000000000,"state":"active","ping":66},{"user_id":109,"name":"Tritastic","steam_id":76561198186959662,"connected_time":99000000000,"state":"active","ping":69},{"user_id":111,"name":"Ruby","steam_id":76561198953084101,"connected_time":83000000000,"state":"active","ping":79},{"user_id":112,"name":"Flubby","steam_id":76561198356273263,"connected_time":76000000000,"state":"active","ping":62},{"user_id":113,"name":"Beary Adorable","steam_id":76561198023815802,"connected_time":68000000000,"state":"active","ping":71},{"user_id":67,"name":"Vegasx702s","steam_id":76561198799772874,"connected_time":3008000000000,"state":"active","ping":84},{"user_id":68,"name":"Luigiminer8","steam_id":76561198803438732,"connected_time":3002000000000,"state":"active","ping":65},{"user_id":114,"name":"hoOmIN","steam_id":76561198334947079,"connected_time":51000000000,"state":"active","ping":47},{"user_id":84,"name":"goldhed","steam_id":76561198051751133,"connected_time":2416000000000,"state":"active","ping":70},{"user_id":115,"name":"HiddenEgg","steam_id":76561199045105518,"connected_time":3000000000,"state":"spawning","ping":56}]},{"server_id":19,"name":"Uncletopia | San Francisco | 3 | Stopwatch Beta","name_short":"sfo-3","host":"sfo-1.us.uncletopia.com","port":27035,"enabled":true,"region":"us-west","cc":"us","latitude":37.77397,"longitude":-122.4313,"reserved":0,"last_update":"0001-01-01T00:00:00Z","name_a2s":"Uncletopia | San Francisco | 3 | Stopwatch Beta","protocol":17,"map":"pl_borneo","folder":"tf","game":"Team Fortress","app_id":440,"player_count":0,"max_players":24,"Bots":0,"server_type":"Dedicated","server_os":"Linux","password":true,"vac":true,"version":"7757534","steam_id":85568392924742824,"keywords":["nocrits","nodmgspread","payload","uncletopia"],"game_id":440,"stv_port":27036,"stv_name":"Uncletopia | San Francisco | 3 | Stopwatch Beta | STV","players":null},{"server_id":20,"name":"Uncletopia | San Francisco | 4 | Community","name_short":"sfo-4","host":"sfo-1.us.uncletopia.com","port":27045,"enabled":true,"region":"us-west","cc":"us","latitude":37.77397,"longitude":-122.4313,"reserved":0,"last_update":"0001-01-01T00:00:00Z","name_a2s":"Uncletopia | San Francisco | 4 | Community","protocol":17,"map":"workshop/pl_shoreleave_rc1.ugc1238849347","folder":"tf","game":"Team Fortress","app_id":440,"player_count":0,"max_players":24,"Bots":0,"server_type":"Dedicated","server_os":"Linux","password":true,"vac":true,"version":"7757534","steam_id":85568392924742826,"keywords":["nocrits","nodmgspread","payload","uncletopia"],"game_id":440,"stv_port":27046,"stv_name":"Uncletopia | San Francisco | 4 | Community | STV","players":null},{"server_id":141,"name":"Uncletopia | Sydney | 1 | All Maps","name_short":"syd-1","host":"syd-1.au.uncletopia.com","port":27015,"enabled":true,"region":"au","cc":"au","latitude":-33.865143,"longitude":151.2099,"reserved":0,"last_update":"0001-01-01T00:00:00Z","name_a2s":"Uncletopia | Sydney | 1 | All Maps","protocol":17,"map":"cp_process_final","folder":"tf","game":"Team Fortress","app_id":440,"player_count":20,"max_players":24,"Bots":0,"server_type":"Dedicated","server_os":"Linux","password":true,"vac":true,"version":"7757534","steam_id":85568392924470001,"keywords":["cp","nocrits","nodmgspread","uncletopia"],"game_id":440,"stv_port":27016,"stv_name":"Uncletopia | Sydney | 1 | All Maps | STV","players":[{"user_id":168,"name":"AzureFox","steam_id":76561198108179408,"connected_time":727000000000,"state":"active","ping":86},{"user_id":175,"name":"Blitzz","steam_id":76561198828548568,"connected_time":370000000000,"state":"active","ping":74},{"user_id":177,"name":"skidmark2000","steam_id":76561198446126519,"connected_time":338000000000,"state":"active","ping":40},{"user_id":123,"name":"Radio","steam_id":76561199436707447,"connected_time":4504000000000,"state":"active","ping":54},{"user_id":180,"name":"quasi","steam_id":76561198282589938,"connected_time":115000000000,"state":"active","ping":85},{"user_id":165,"name":"Eugene (built different)","steam_id":76561198079108027,"connected_time":1336000000000,"state":"active","ping":56},{"user_id":127,"name":"ׄ","steam_id":76561199375656301,"connected_time":4382000000000,"state":"active","ping":71},{"user_id":169,"name":"TW_light2022","steam_id":76561199393566784,"connected_time":703000000000,"state":"active","ping":63},{"user_id":181,"name":"Pew pew pew!","steam_id":76561198004120277,"connected_time":75000000000,"state":"active","ping":39},{"user_id":160,"name":"Lancer","steam_id":76561198122813810,"connected_time":1968000000000,"state":"active","ping":92},{"user_id":148,"name":"dinxie","steam_id":76561199448765541,"connected_time":2876000000000,"state":"active","ping":67},{"user_id":141,"name":"sydney sydney","steam_id":76561199057568663,"connected_time":3323000000000,"state":"active","ping":55},{"user_id":174,"name":"cimpact","steam_id":76561198452258917,"connected_time":471000000000,"state":"active","ping":136},{"user_id":147,"name":"Dr Barry Mundy PhD","steam_id":76561198034512686,"connected_time":2966000000000,"state":"active","ping":46},{"user_id":167,"name":"lemur","steam_id":76561198278239170,"connected_time":1309000000000,"state":"active","ping":87},{"user_id":71,"name":"normans on sabbatical honey","steam_id":76561198082423230,"connected_time":8026000000000,"state":"active","ping":76},{"user_id":150,"name":"lofty","steam_id":76561198380588357,"connected_time":2759000000000,"state":"active","ping":68},{"user_id":109,"name":"seiran","steam_id":76561198880907232,"connected_time":5365000000000,"state":"active","ping":98},{"user_id":153,"name":"DoctorW42 | YT","steam_id":76561198344614812,"connected_time":2672000000000,"state":"active","ping":99},{"user_id":157,"name":"shrivel","steam_id":76561198129577552,"connected_time":2464000000000,"state":"active","ping":80}]},{"server_id":123,"name":"Uncletopia | Sydney | 2 | All Maps","name_short":"syd-2","host":"syd-1.au.uncletopia.com","port":27025,"enabled":true,"region":"au","cc":"au","latitude":-33.865143,"longitude":151.2099,"reserved":0,"last_update":"0001-01-01T00:00:00Z","name_a2s":"Uncletopia | Sydney | 2 | All Maps","protocol":17,"map":"cp_dustbowl","folder":"tf","game":"Team Fortress","app_id":440,"player_count":20,"max_players":24,"Bots":0,"server_type":"Dedicated","server_os":"Linux","password":true,"vac":true,"version":"7757534","steam_id":85568392924470002,"keywords":["cp","nocrits","nodmgspread","uncletopia"],"game_id":440,"stv_port":27026,"stv_name":"Uncletopia | Sydney | 2 | All Maps | STV","players":[{"user_id":41,"name":"banan enjoyer","steam_id":76561199099769110,"connected_time":5479000000000,"state":"active","ping":56},{"user_id":103,"name":"bleacj","steam_id":76561198854614195,"connected_time":45000000000,"state":"active","ping":88},{"user_id":44,"name":"Gregory","steam_id":76561199028542666,"connected_time":5236000000000,"state":"active","ping":41},{"user_id":94,"name":"heavenlyhell","steam_id":76561198838615070,"connected_time":875000000000,"state":"active","ping":55},{"user_id":88,"name":"Optometrist Prime","steam_id":76561198340730741,"connected_time":1246000000000,"state":"active","ping":58},{"user_id":102,"name":"Lychee","steam_id":76561198072845816,"connected_time":109000000000,"state":"active","ping":63},{"user_id":97,"name":"Jandal","steam_id":76561198982058787,"connected_time":383000000000,"state":"active","ping":62},{"user_id":100,"name":"frostproto","steam_id":76561198911697195,"connected_time":207000000000,"state":"active","ping":95},{"user_id":64,"name":"Meihronias","steam_id":76561199163845108,"connected_time":2417000000000,"state":"active","ping":67},{"user_id":101,"name":"Chevauchée","steam_id":76561198031293430,"connected_time":185000000000,"state":"active","ping":90},{"user_id":104,"name":"burn and pillage","steam_id":76561198310550094,"connected_time":25000000000,"state":"active","ping":50},{"user_id":28,"name":"banan consumer","steam_id":76561199446773766,"connected_time":7593000000000,"state":"active","ping":89},{"user_id":69,"name":"scout tf2","steam_id":76561198251386932,"connected_time":2201000000000,"state":"active","ping":71},{"user_id":67,"name":"Nutty Sandvich","steam_id":76561198089548531,"connected_time":2272000000000,"state":"active","ping":100},{"user_id":58,"name":"Canyon","steam_id":76561198233329500,"connected_time":3209000000000,"state":"active","ping":83},{"user_id":68,"name":"JayTheLlamaKing","steam_id":76561198836354249,"connected_time":2270000000000,"state":"active","ping":66},{"user_id":77,"name":"RignoSturr","steam_id":76561199147245314,"connected_time":1945000000000,"state":"active","ping":60},{"user_id":73,"name":"a loaf of bread","steam_id":76561198206424961,"connected_time":2097000000000,"state":"active","ping":66},{"user_id":75,"name":"NoHopeamine","steam_id":76561198112519685,"connected_time":2027000000000,"state":"active","ping":65},{"user_id":81,"name":"snooty123","steam_id":76561199055258276,"connected_time":1704000000000,"state":"active","ping":47}]},{"server_id":395,"name":"Uncletopia | Sydney | 3 | All Maps","name_short":"syd-3","host":"syd-1.au.uncletopia.com","port":27035,"enabled":true,"region":"au","cc":"au","latitude":-33.865143,"longitude":151.2099,"reserved":0,"last_update":"0001-01-01T00:00:00Z","name_a2s":"Uncletopia | Sydney | 3 | All Maps","protocol":17,"map":"pl_barnblitz","folder":"tf","game":"Team Fortress","app_id":440,"player_count":0,"max_players":24,"Bots":0,"server_type":"Dedicated","server_os":"Linux","password":true,"vac":true,"version":"7757534","steam_id":85568392925194467,"keywords":["nocrits","nodmgspread","payload","uncletopia"],"game_id":440,"stv_port":27036,"stv_name":"Uncletopia | Sydney | 3 | All Maps | STV","players":null},{"server_id":396,"name":"Uncletopia | Sydney | 4 | All Maps","name_short":"syd-4","host":"syd-1.au.uncletopia.com","port":27045,"enabled":true,"region":"au","cc":"au","latitude":-33.865143,"longitude":151.2099,"reserved":0,"last_update":"0001-01-01T00:00:00Z","name_a2s":"Uncletopia | Sydney | 4 | All Maps","protocol":17,"map":"koth_lakeside_final","folder":"tf","game":"Team Fortress","app_id":440,"player_count":0,"max_players":24,"Bots":0,"server_type":"Dedicated","server_os":"Linux","password":true,"vac":true,"version":"7757534","steam_id":85568392925397958,"keywords":["cp","nocrits","nodmgspread","uncletopia"],"game_id":440,"stv_port":27046,"stv_name":"Uncletopia | Sydney | 4 | All Maps | STV","players":null},{"server_id":58,"name":"Uncletopia | Sydney | 5 | Stopwatch Beta","name_short":"syd-5","host":"syd-1.au.uncletopia.com","port":27055,"enabled":true,"region":"au","cc":"au","latitude":-33.865143,"longitude":151.2099,"reserved":0,"last_update":"0001-01-01T00:00:00Z","name_a2s":"Uncletopia | Sydney | 5 | Stopwatch Beta","protocol":17,"map":"koth_highpass","folder":"tf","game":"Team Fortress","app_id":440,"player_count":0,"max_players":24,"Bots":0,"server_type":"Dedicated","server_os":"Linux","password":true,"vac":true,"version":"7757534","steam_id":85568392925397959,"keywords":["cp","nocrits","nodmgspread","uncletopia"],"game_id":440,"stv_port":27056,"stv_name":"Uncletopia | Sydney | 5 | Stopwatch Beta | STV","players":null},{"server_id":59,"name":"Uncletopia | Sydney | 6 | Community","name_short":"syd-6","host":"syd-1.au.uncletopia.com","port":27065,"enabled":true,"region":"au","cc":"au","latitude":-33.865143,"longitude":151.2099,"reserved":0,"last_update":"0001-01-01T00:00:00Z","name_a2s":"Uncletopia | Sydney | 6 | Community","protocol":17,"map":"workshop/koth_synthetic_rc6a.ugc1549817316","folder":"tf","game":"Team Fortress","app_id":440,"player_count":0,"max_players":24,"Bots":0,"server_type":"Dedicated","server_os":"Linux","password":true,"vac":true,"version":"7757534","steam_id":85568392925397960,"keywords":["cp","nocrits","nodmgspread","uncletopia"],"game_id":440,"stv_port":27066,"stv_name":"Uncletopia | Sydney | 6 | Community | STV","players":null},{"server_id":49,"name":"Uncletopia | Warsaw | 1 | All Maps","name_short":"waw-1","host":"waw-1.pl.uncletopia.com","port":27015,"enabled":true,"region":"eu","cc":"pl","latitude":52.2297,"longitude":21.017532,"reserved":0,"last_update":"0001-01-01T00:00:00Z","name_a2s":"","protocol":0,"map":"","folder":"","game":"","app_id":0,"player_count":0,"max_players":0,"Bots":0,"server_type":"","server_os":"","password":false,"vac":false,"version":"","steam_id":0,"keywords":null,"game_id":0,"stv_port":0,"stv_name":"","players":null},{"server_id":50,"name":"Uncletopia | Warsaw | 2 | All Maps","name_short":"waw-2","host":"waw-1.pl.uncletopia.com","port":27025,"enabled":true,"region":"eu","cc":"pl","latitude":52.2297,"longitude":21.017532,"reserved":0,"last_update":"0001-01-01T00:00:00Z","name_a2s":"Uncletopia | Warsaw | 2 | All Maps","protocol":17,"map":"koth_highpass","folder":"tf","game":"Team Fortress","app_id":440,"player_count":0,"max_players":24,"Bots":0,"server_type":"Dedicated","server_os":"Linux","password":true,"vac":true,"version":"7757534","steam_id":85568392925397851,"keywords":["cp","nocrits","nodmgspread","uncletopia"],"game_id":440,"stv_port":27026,"stv_name":"Uncletopia | Warsaw | 2 | All Maps | STV","players":null},{"server_id":51,"name":"Uncletopia | Warsaw | 3 | All Maps","name_short":"waw-3","host":"waw-1.pl.uncletopia.com","port":27035,"enabled":true,"region":"eu","cc":"pl","latitude":52.2297,"longitude":21.017532,"reserved":0,"last_update":"0001-01-01T00:00:00Z","name_a2s":"Uncletopia | Warsaw | 3 | All Maps","protocol":17,"map":"pl_pier","folder":"tf","game":"Team Fortress","app_id":440,"player_count":0,"max_players":24,"Bots":0,"server_type":"Dedicated","server_os":"Linux","password":true,"vac":true,"version":"7757534","steam_id":85568392925397852,"keywords":["nocrits","nodmgspread","payload","uncletopia"],"game_id":440,"stv_port":27036,"stv_name":"Uncletopia | Warsaw | 3 | All Maps | STV","players":null},{"server_id":52,"name":"Uncletopia | Warsaw | 4 | All Maps","name_short":"waw-4","host":"waw-1.pl.uncletopia.com","port":27045,"enabled":true,"region":"eu","cc":"pl","latitude":52.2297,"longitude":21.017532,"reserved":0,"last_update":"0001-01-01T00:00:00Z","name_a2s":"Uncletopia | Warsaw | 4 | All Maps","protocol":17,"map":"koth_cascade","folder":"tf","game":"Team Fortress","app_id":440,"player_count":0,"max_players":24,"Bots":0,"server_type":"Dedicated","server_os":"Linux","password":true,"vac":true,"version":"7757534","steam_id":85568392925397853,"keywords":["cp","nocrits","nodmgspread","uncletopia"],"game_id":440,"stv_port":27046,"stv_name":"Uncletopia | Warsaw | 4 | All Maps | STV","players":null},{"server_id":53,"name":"Uncletopia | Warsaw | 5 | Stopwatch Beta","name_short":"waw-5","host":"waw-1.pl.uncletopia.com","port":27055,"enabled":true,"region":"eu","cc":"pl","latitude":52.2297,"longitude":21.017532,"reserved":0,"last_update":"0001-01-01T00:00:00Z","name_a2s":"Uncletopia | Warsaw | 5 | Stopwatch Beta","protocol":17,"map":"pl_barnblitz","folder":"tf","game":"Team Fortress","app_id":440,"player_count":0,"max_players":24,"Bots":0,"server_type":"Dedicated","server_os":"Linux","password":true,"vac":true,"version":"7757534","steam_id":85568392925397854,"keywords":["nocrits","nodmgspread","payload","uncletopia"],"game_id":440,"stv_port":27056,"stv_name":"Uncletopia | Warsaw | 5 | Stopwatch Beta | STV","players":null},{"server_id":54,"name":"Uncletopia | Warsaw | 6 | Community","name_short":"waw-6","host":"waw-1.pl.uncletopia.com","port":27065,"enabled":true,"region":"eu","cc":"pl","latitude":52.2297,"longitude":21.017532,"reserved":0,"last_update":"0001-01-01T00:00:00Z","name_a2s":"Uncletopia | Warsaw | 6 | Community","protocol":17,"map":"workshop/cp_overgrown_rc7b.ugc503939302","folder":"tf","game":"Team Fortress","app_id":440,"player_count":0,"max_players":24,"Bots":0,"server_type":"Dedicated","server_os":"Linux","password":true,"vac":true,"version":"7757534","steam_id":85568392925397856,"keywords":["cp","nocrits","nodmgspread","uncletopia"],"game_id":440,"stv_port":27066,"stv_name":"Uncletopia | Warsaw | 6 | Community | STV","players":null}]}