{"status":true,"message":"","result":[{"server_id":9,"name":"Uncletopia | Atlanta | 1 | All Maps","name_short":"atl-1","host":"atl-1.us.uncletopia.com","port":27015,"enabled":true,"region":"us-east","cc":"us","latitude":33.753746,"longitude":-84.38633,"reserved":0,"last_update":"0001-01-01T00:00:00Z","name_a2s":"Uncletopia | Atlanta | 1 | All Maps","protocol":17,"map":"ctf_2fort","folder":"tf","game":"Team Fortress","app_id":440,"player_count":19,"max_players":24,"Bots":0,"server_type":"Dedicated","server_os":"Linux","password":true,"vac":true,"version":"7932396","steam_id":85568392924469982,"keywords":["ctf","gravity","nocrits","nodmgspread","uncletopia"],"game_id":440,"stv_port":27016,"stv_name":"Uncletopia | Atlanta | 1 | All Maps | STV","players":[{"user_id":250,"name":"IZISOO","steam_id":76561198970380577,"connected_time":217000000000,"state":"active","ping":91},{"user_id":246,"name":"OttotheTomato","steam_id":76561198272610597,"connected_time":298000000000,"state":"active","ping":87},{"user_id":251,"name":"comet sooicidy","steam_id":76561198025173479,"connected_time":216000000000,"state":"active","ping":92},{"user_id":252,"name":"Huey","steam_id":76561198972816386,"connected_time":215000000000,"state":"active","ping":100},{"user_id":255,"name":"10KO!","steam_id":76561199134895220,"connected_time":67000000000,"state":"active","ping":83},{"user_id":253,"name":"Zeta","steam_id":76561198178693059,"connected_time":149000000000,"state":"active","ping":75},{"user_id":203,"name":"FinnGator","steam_id":76561198241766488,"connected_time":1663000000000,"state":"active","ping":89},{"user_id":231,"name":"Infantryfilms","steam_id":76561199304068543,"connected_time":744000000000,"state":"active","ping":143},{"user_id":204,"name":"à¼˜ â‹†ËšðŸŽ§Caffeineâ˜•*Ë–Â°","steam_id":76561199259309294,"connected_time":1559000000000,"state":"active","ping":96},{"user_id":205,"name":"Belmore","steam_id":76561198009355231,"connected_time":1513000000000,"state":"active","ping":119},{"user_id":254,"name":"hxui3506","steam_id":76561199148162329,"connected_time":119000000000,"state":"active","ping":127},{"user_id":211,"name":"chesterwnimitz","steam_id":76561198062664377,"connected_time":1170000000000,"state":"active","ping":115},{"user_id":256,"name":"mdharsy","steam_id":76561198065831053,"connected_time":49000000000,"state":"active","ping":104},{"user_id":248,"name":"Galaxy_42","steam_id":76561198845514831,"connected_time":256000000000,"state":"active","ping":64},{"user_id":242,"name":"FOrce of nature","steam_id":76561198390522839,"connected_time":410000000000,"state":"active","ping":99},{"user_id":257,"name":"HAT-WEARINGâ„¢ Maggot Gamer Cat","steam_id":76561197973992705,"connected_time":23000000000,"state":"spawning","ping":139},{"user_id":258,"name":"Golurk with some bitches","steam_id":76561198085888959,"connected_time":21000000000,"state":"spawning","ping":51},{"user_id":219,"name":"Gary Budussy","steam_id":76561197969793969,"connected_time":1067000000000,"state":"active","ping":77},{"user_id":227,"name":"bdlance","steam_id":76561198218846360,"connected_time":889000000000,"state":"active","ping":70}]},{"server_id":104,"name":"Uncletopia | Atlanta | 2 | All Maps","name_short":"atl-2","host":"atl-1.us.uncletopia.com","port":27025,"enabled":true,"region":"us-east","cc":"us","latitude":33.753746,"longitude":-84.38633,"reserved":0,"last_update":"0001-01-01T00:00:00Z","name_a2s":"Uncletopia | Atlanta | 2 | All Maps","protocol":17,"map":"koth_viaduct","folder":"tf","game":"Team Fortress","app_id":440,"player_count":0,"max_players":24,"Bots":0,"server_type":"Dedicated","server_os":"Linux","password":true,"vac":true,"version":"7932396","steam_id":85568392924469983,"keywords":["cp","nocrits","nodmgspread","uncletopia"],"game_id":440,"stv_port":27026,"stv_name":"Uncletopia | Atlanta | 2 | All Maps | STV","players":null},{"server_id":400,"name":"Uncletopia | Atlanta | 3 | Community","name_short":"atl-3","host":"atl-1.us.uncletopia.com","port":27035,"enabled":true,"region":"us-east","cc":"us","latitude":33.753746,"longitude":-84.38633,"reserved":0,"last_update":"0001-01-01T00:00:00Z","name_a2s":"Uncletopia | Atlanta | 3 | Community","protocol":17,"map":"workshop/cp_logjam_rc12.ugc454812035","folder":"tf","game":"Team Fortress","app_id":440,"player_count":0,"max_players":24,"Bots":0,"server_type":"Dedicated","server_os":"Linux","password":true,"vac":true,"version":"7932396","steam_id":85568392924515187,"keywords":["cp","nocrits","nodmgspread","uncletopia"],"game_id":440,"stv_port":27036,"stv_name":"Uncletopia | Atlanta | 3 | Community | STV","players":null},{"server_id":401,"name":"Uncletopia | Atlanta | 4 | No Payload","name_short":"atl-4","host":"atl-1.us.uncletopia.com","port":27045,"enabled":true,"region":"us-east","cc":"us","latitude":33.753746,"longitude":-84.38633,"reserved":0,"last_update":"0001-01-01T00:00:00Z","name_a2s":"","protocol":0,"map":"","folder":"","game":"","app_id":0,"player_count":0,"max_players":0,"Bots":0,"server_type":"","server_os":"","password":false,"vac":false,"version":"","steam_id":0,"keywords":null,"game_id":0,"stv_port":0,"stv_name":"","players":null},{"server_id":2,"name":"Uncletopia | Chicago | 1 | All Maps","name_short":"chi-1","host":"chi-1.us.uncletopia.com","port":27015,"enabled":true,"region":"us-central","cc":"us","latitude":41.881832,"longitude":-87.62318,"reserved":0,"last_update":"0001-01-01T00:00:00Z","name_a2s":"Uncletopia | Chicago | 1 | All Maps","protocol":17,"map":"pl_barnblitz","folder":"tf","game":"Team Fortress","app_id":440,"player_count":24,"max_players":24,"Bots":0,"server_type":"Dedicated","server_os":"Linux","password":true,"vac":true,"version":"7932396","steam_id":85568392924469984,"keywords":["nocrits","nodmgspread","payload","uncletopia"],"game_id":440,"stv_port":27016,"stv_name":"Uncletopia | Chicago | 1 | All Maps | STV","players":[{"user_id":436,"name":"--_Cook_--","steam_id":76561198080855748,"connected_time":1072000000000,"state":"active","ping":45},{"user_id":412,"name":"JohnnyGitGud","steam_id":76561198401455467,"connected_time":1968000000000,"state":"active","ping":111},{"user_id":443,"name":"real","steam_id":76561199030879048,"connected_time":297000000000,"state":"active","ping":56},{"user_id":427,"name":"Shame","steam_id":76561198100490994,"connected_time":1636000000000,"state":"active","ping":74},{"user_id":440,"name":"Mehman big/balls","steam_id":76561199020244051,"connected_time":650000000000,"state":"active","ping":94},{"user_id":419,"name":"KBoneski â™¡","steam_id":76561198307409065,"connected_time":1852000000000,"state":"active","ping":96},{"user_id":426,"name":"chiarraz","steam_id":76561198277439571,"connected_time":1649000000000,"state":"active","ping":78},{"user_id":438,"name":"Sugahu17S","steam_id":76561198799403828,"connected_time":945000000000,"state":"active","ping":53},{"user_id":428,"name":"the one true chubster","steam_id":76561198038358134,"connected_time":1632000000000,"state":"active","ping":92},{"user_id":414,"name":"buttfuck larry","steam_id":76561198123356212,"connected_time":1929000000000,"state":"active","ping":73},{"user_id":435,"name":"AzuriousAlex","steam_id":76561198158026405,"connected_time":1492000000000,"state":"active","ping":83},{"user_id":439,"name":"PepperMayoSalt","steam_id":76561198280570522,"connected_time":945000000000,"state":"active","ping":66},{"user_id":383,"name":"Trotsky Gaming","steam_id":76561199101638460,"connected_time":5198000000000,"state":"active","ping":65},{"user_id":418,"name":"Icaras","steam_id":76561198416724843,"connected_time":1873000000000,"state":"active","ping":132},{"user_id":446,"name":"pogo","steam_id":76561198148913461,"connected_time":19000000000,"state":"active","ping":62},{"user_id":411,"name":"freyja","steam_id":76561198249206656,"connected_time":2210000000000,"state":"active","ping":69},{"user_id":405,"name":"PokÃ©","steam_id":76561198100167641,"connected_time":2903000000000,"state":"active","ping":58},{"user_id":431,"name":"colon three and lowercase c","steam_id":76561198392539722,"connected_time":1604000000000,"state":"active","ping":79},{"user_id":354,"name":"BIDEN BLAST","steam_id":76561198107343544,"connected_time":7281000000000,"state":"active","ping":90},{"user_id":445,"name":"coffee","steam_id":76561198239286750,"connected_time":276000000000,"state":"active","ping":68},{"user_id":437,"name":"Craig Isonychia","steam_id":76561198272013678,"connected_time":1069000000000,"state":"active","ping":73},{"user_id":441,"name":"V!CT!M","steam_id":76561198962721502,"connected_time":546000000000,"state":"active","ping":82},{"user_id":433,"name":"Raptortastic","steam_id":76561198105613110,"connected_time":1578000000000,"state":"active","ping":48},{"user_id":403,"name":"Gigglesâ„¢","steam_id":76561198058708019,"connected_time":3364000000000,"state":"active","ping":57}]},{"server_id":106,"name":"Uncletopia | Chicago | 2 | All Maps","name_short":"chi-2","host":"chi-1.us.uncletopia.com","port":27025,"enabled":true,"region":"us-central","cc":"us","latitude":41.881832,"longitude":-87.62318,"reserved":0,"last_update":"0001-01-01T00:00:00Z","name_a2s":"Uncletopia | Chicago | 2 | All Maps","protocol":17,"map":"pl_badwater","folder":"tf","game":"Team Fortress","app_id":440,"player_count":22,"max_players":24,"Bots":0,"server_type":"Dedicated","server_os":"Linux","password":true,"vac":true,"version":"7932396","steam_id":85568392924469985,"keywords":["nocrits","nodmgspread","payload","uncletopia"],"game_id":440,"stv_port":27026,"stv_name":"Uncletopia | Chicago | 2 | All Maps | STV","players":[{"user_id":644,"name":"demoknight tf2","steam_id":76561198070393998,"connected_time":366000000000,"state":"active","ping":69},{"user_id":623,"name":"Mail Delivery","steam_id":76561198290046318,"connected_time":889000000000,"state":"active","ping":63},{"user_id":641,"name":"nav","steam_id":76561198872608266,"connected_time":499000000000,"state":"active","ping":79},{"user_id":556,"name":"Mario","steam_id":76561198321794277,"connected_time":4681000000000,"state":"active","ping":55},{"user_id":625,"name":"lolgamer247","steam_id":76561198974645534,"connected_time":841000000000,"state":"active","ping":100},{"user_id":628,"name":"shittystripper","steam_id":76561198101012071,"connected_time":745000000000,"state":"active","ping":144},{"user_id":646,"name":"April","steam_id":76561198170239750,"connected_time":5000000000,"state":"spawning","ping":72},{"user_id":635,"name":"Salmon Destroyer 9000","steam_id":76561198065826749,"connected_time":590000000000,"state":"active","ping":78},{"user_id":619,"name":"Mecha","steam_id":76561198014927379,"connected_time":1467000000000,"state":"active","ping":71},{"user_id":629,"name":"Mr. Call You Back","steam_id":76561198025172811,"connected_time":690000000000,"state":"active","ping":53},{"user_id":608,"name":"Sheets","steam_id":76561198182088207,"connected_time":2270000000000,"state":"active","ping":51},{"user_id":630,"name":"ZoeLikesTrees","steam_id":76561198080784636,"connected_time":656000000000,"state":"active","ping":134},{"user_id":631,"name":"Oberon","steam_id":76561199360964272,"connected_time":652000000000,"state":"active","ping":95},{"user_id":569,"name":"Cheesi","steam_id":76561199417190840,"connected_time":4156000000000,"state":"spawning","ping":134},{"user_id":633,"name":"JackAttacks143","steam_id":76561198971889483,"connected_time":632000000000,"state":"active","ping":75},{"user_id":645,"name":"Lindes","steam_id":76561198132472867,"connected_time":291000000000,"state":"active","ping":103},{"user_id":636,"name":"Steve Greentop","steam_id":76561198119426892,"connected_time":551000000000,"state":"active","ping":62},{"user_id":637,"name":"T9 Raincool","steam_id":76561198042953645,"connected_time":547000000000,"state":"active","ping":69},{"user_id":618,"name":"Mr.Government","steam_id":76561199076891158,"connected_time":1574000000000,"state":"active","ping":67},{"user_id":639,"name":"Spring Beans","steam_id":76561197978546259,"connected_time":535000000000,"state":"active","ping":54},{"user_id":640,"name":"GreekGoat_Coffee","steam_id":76561198129331088,"connected_time":535000000000,"state":"active","ping":45},{"user_id":598,"name":"BetoelAff es","steam_id":76561198377842585,"connected_time":3097000000000,"state":"active","ping":150}]},{"server_id":402,"name":"Uncletopia | Chicago | 3 | All Maps","name_short":"chi-3","host":"chi-1.us.uncletopia.com","port":27035,"enabled":true,"region":"us-central","cc":"us","latitude":41.881832,"longitude":-87.62318,"reserved":0,"last_update":"0001-01-01T00:00:00Z","name_a2s":"Uncletopia | Chicago | 3 | All Maps","protocol":17,"map":"pl_swiftwater_final1","folder":"tf","game":"Team Fortress","app_id":440,"player_count":24,"max_players":24,"Bots":0,"server_type":"Dedicated","server_os":"Linux","password":true,"vac":true,"version":"7932396","steam_id":85568392924515191,"keywords":["nocrits","nodmgspread","payload","uncletopia"],"game_id":440,"stv_port":27036,"stv_name":"Uncletopia | Chicago | 3 | All Maps | STV","players":[{"user_id":416,"name":"Soupman_Official","steam_id":76561198314308732,"connected_time":2061000000000,"state":"active","ping":43},{"user_id":397,"name":"Ockulus","steam_id":76561199069638460,"connected_time":3279000000000,"state":"active","ping":106},{"user_id":424,"name":"Wiscipline","steam_id":76561198019206178,"connected_time":888000000000,"state":"active","ping":75},{"user_id":421,"name":"juicy j","steam_id":76561198043497451,"connected_time":961000000000,"state":"active","ping":46},{"user_id":365,"name":"Makina","steam_id":76561198057475567,"connected_time":5369000000000,"state":"active","ping":69},{"user_id":411,"name":"LProduct","steam_id":76561199442139670,"connected_time":2384000000000,"state":"active","ping":107},{"user_id":428,"name":"Bread Baker","steam_id":76561198185335103,"connected_time":31000000000,"state":"active","ping":50},{"user_id":353,"name":"l4d2 marshall","steam_id":76561198042570322,"connected_time":6254000000000,"state":"active","ping":57},{"user_id":414,"name":"Orakcaj","steam_id":76561198080563935,"connected_time":2303000000000,"state":"active","ping":39},{"user_id":425,"name":"Fl4mingo","steam_id":76561198025601344,"connected_time":546000000000,"state":"active","ping":60},{"user_id":426,"name":"eat Pant","steam_id":76561197974965536,"connected_time":515000000000,"state":"active","ping":59},{"user_id":419,"name":"RiverEgg","steam_id":76561198888913405,"connected_time":1042000000000,"state":"active","ping":49},{"user_id":398,"name":"OddBread","steam_id":76561198339301792,"connected_time":3169000000000,"state":"active","ping":51},{"user_id":377,"name":"Pizza","steam_id":76561198118748364,"connected_time":4464000000000,"state":"active","ping":75},{"user_id":399,"name":"totoro","steam_id":76561198210420871,"connected_time":3164000000000,"state":"active","ping":45},{"user_id":427,"name":"k3ramb1t","steam_id":76561198097880352,"connected_time":395000000000,"state":"active","ping":75},{"user_id":392,"name":"Zombiehunter11","steam_id":76561198237517830,"connected_time":3409000000000,"state":"active","ping":77},{"user_id":363,"name":"bluebird","steam_id":76561198065219155,"connected_time":5843000000000,"state":"active","ping":45},{"user_id":422,"name":"Bandit","steam_id":76561198285889962,"connected_time":936000000000,"state":"active","ping":73},{"user_id":383,"name":"LToschi","steam_id":76561198124099320,"connected_time":4036000000000,"state":"active","ping":67},{"user_id":360,"name":"A Very Confused Gentleman","steam_id":76561198051686391,"connected_time":6187000000000,"state":"active","ping":57},{"user_id":415,"name":"Kindagoodplayer","steam_id":76561198814625843,"connected_time":2212000000000,"state":"active","ping":74},{"user_id":401,"name":"Lots0","steam_id":76561198043143145,"connected_time":3112000000000,"state":"active","ping":91},{"user_id":423,"name":"Amadeus","steam_id":76561198160047173,"connected_time":936000000000,"state":"active","ping":90}]},{"server_id":403,"name":"Uncletopia | Chicago | 4 | All Maps","name_short":"chi-4","host":"chi-1.us.uncletopia.com","port":27045,"enabled":true,"region":"us-central","cc":"us","latitude":41.881832,"longitude":-87.62318,"reserved":0,"last_update":"0001-01-01T00:00:00Z","name_a2s":"Uncletopia | Chicago | 4 | All Maps","protocol":17,"map":"pl_upward","folder":"tf","game":"Team Fortress","app_id":440,"player_count":24,"max_players":24,"Bots":0,"server_type":"Dedicated","server_os":"Linux","password":true,"vac":true,"version":"7932396","steam_id":85568392924515193,"keywords":["nocrits","nodmgspread","payload","uncletopia"],"game_id":440,"stv_port":27046,"stv_name":"Uncletopia | Chicago | 4 | All Maps | STV","players":[{"user_id":638,"name":"its all so clear to me now","steam_id":76561198072179483,"connected_time":265000000000,"state":"active","ping":90},{"user_id":645,"name":"An Erect Penis :)","steam_id":76561198086477485,"connected_time":54000000000,"state":"active","ping":42},{"user_id":639,"name":"Abaddon","steam_id":76561198030992243,"connected_time":228000000000,"state":"active","ping":67},{"user_id":593,"name":"Evil little man","steam_id":76561198311053471,"connected_time":2866000000000,"state":"active","ping":76},{"user_id":621,"name":"jimmyfnaf172198yay","steam_id":76561198311446636,"connected_time":1871000000000,"state":"active","ping":57},{"user_id":631,"name":"Firenew","steam_id":76561199057241801,"connected_time":1431000000000,"state":"active","ping":75},{"user_id":616,"name":"day 1 no tren","steam_id":76561199246237446,"connected_time":2549000000000,"state":"active","ping":63},{"user_id":595,"name":"eipi","steam_id":76561199084492097,"connected_time":2829000000000,"state":"active","ping":96},{"user_id":551,"name":"Melon","steam_id":76561198041266286,"connected_time":5901000000000,"state":"active","ping":89},{"user_id":636,"name":"6t26j","steam_id":76561198278282836,"connected_time":460000000000,"state":"active","ping":50},{"user_id":640,"name":"Random","steam_id":76561198318879454,"connected_time":211000000000,"state":"active","ping":61},{"user_id":624,"name":"blank","steam_id":76561198105529673,"connected_time":1813000000000,"state":"active","ping":102},{"user_id":625,"name":"lost in spaaaaace","steam_id":76561199085974120,"connected_time":1779000000000,"state":"active","ping":72},{"user_id":641,"name":"bushman","steam_id":76561197996548146,"connected_time":208000000000,"state":"active","ping":60},{"user_id":642,"name":"10KO!","steam_id":76561199134895220,"connected_time":201000000000,"state":"active","ping":75},{"user_id":626,"name":"Nungel","steam_id":76561198272961376,"connected_time":1771000000000,"state":"active","ping":84},{"user_id":585,"name":"Elias","steam_id":76561198106431732,"connected_time":3561000000000,"state":"active","ping":55},{"user_id":643,"name":"Ta5K","steam_id":76561198939558155,"connected_time":151000000000,"state":"active","ping":44},{"user_id":617,"name":"TommoSFMO","steam_id":76561198855070608,"connected_time":2398000000000,"state":"active","ping":82},{"user_id":628,"name":"GIGAHAXX","steam_id":76561197993714726,"connected_time":1756000000000,"state":"active","ping":63},{"user_id":644,"name":"Sanic_Bum","steam_id":76561198094179822,"connected_time":110000000000,"state":"active","ping":60},{"user_id":587,"name":"joe","steam_id":76561199389283507,"connected_time":3430000000000,"state":"active","ping":78},{"user_id":610,"name":"Brian","steam_id":76561198077756206,"connected_time":2647000000000,"state":"active","ping":132},{"user_id":646,"name":"slugnuts?","steam_id":76561198142129648,"connected_time":43000000000,"state":"active","ping":71}]},{"server_id":36,"name":"Uncletopia | Chicago | 5 | All Maps","name_short":"chi-5","host":"chi-2.us.uncletopia.com","port":27015,"enabled":true,"region":"us-central","cc":"us","latitude":41.881832,"longitude":-87.62318,"reserved":0,"last_update":"0001-01-01T00:00:00Z","name_a2s":"Uncletopia | Chicago | 5 | All Maps","protocol":17,"map":"cp_5gorge","folder":"tf","game":"Team Fortress","app_id":440,"player_count":24,"max_players":24,"Bots":0,"server_type":"Dedicated","server_os":"Linux","password":true,"vac":true,"version":"7932396","steam_id":85568392924866362,"keywords":["cp","nocrits","nodmgspread","uncletopia"],"game_id":440,"stv_port":27016,"stv_name":"Uncletopia | Chicago | 5 | All Maps | STV","players":[{"user_id":302,"name":"Î²light","steam_id":76561198811130843,"connected_time":1155000000000,"state":"active","ping":71},{"user_id":314,"name":"Furious George","steam_id":76561198405111646,"connected_time":57000000000,"state":"active","ping":84},{"user_id":280,"name":"we're so back","steam_id":76561198058485742,"connected_time":3036000000000,"state":"active","ping":69},{"user_id":298,"name":"jrdoran","steam_id":76561197984753094,"connected_time":1309000000000,"state":"active","ping":60},{"user_id":291,"name":"Kaiju","steam_id":76561198035703156,"connected_time":1995000000000,"state":"active","ping":57},{"user_id":308,"name":"?pengin","steam_id":76561198254236408,"connected_time":694000000000,"state":"active","ping":82},{"user_id":292,"name":"Tank Chili","steam_id":76561198161183031,"connected_time":1990000000000,"state":"active","ping":81},{"user_id":241,"name":"SoldMyKidneyForCollege","steam_id":76561198096329559,"connected_time":5791000000000,"state":"active","ping":89},{"user_id":312,"name":"HAT-WEARINGâ„¢ Maggot Gamer Cat","steam_id":76561197973992705,"connected_time":91000000000,"state":"active","ping":109},{"user_id":319,"name":"hxui3506","steam_id":76561199148162329,"connected_time":29000000000,"state":"active","ping":99},{"user_id":304,"name":"astutenewt6031","steam_id":76561198153928532,"connected_time":891000000000,"state":"active","ping":75},{"user_id":299,"name":"scrapheap","steam_id":76561198202407087,"connected_time":1285000000000,"state":"active","ping":75},{"user_id":315,"name":"Skele","steam_id":76561198154574280,"connected_time":50000000000,"state":"active","ping":55},{"user_id":273,"name":"Mugenman88","steam_id":76561198041261388,"connected_time":3314000000000,"state":"active","ping":67},{"user_id":277,"name":"WastefulTrash","steam_id":76561198119003597,"connected_time":3127000000000,"state":"active","ping":64},{"user_id":301,"name":"loreson","steam_id":76561198179567291,"connected_time":1241000000000,"state":"active","ping":105},{"user_id":316,"name":"à¼˜ â‹†ËšðŸŽ§Caffeineâ˜•*Ë–Â°","steam_id":76561199259309294,"connected_time":50000000000,"state":"spawning","ping":49},{"user_id":318,"name":"Belmore","steam_id":76561198009355231,"connected_time":40000000000,"state":"active","ping":114},{"user_id":313,"name":"Wagemage","steam_id":76561198013625580,"connected_time":83000000000,"state":"active","ping":60},{"user_id":317,"name":"Hydroxianchaos","steam_id":76561198043786828,"connected_time":44000000000,"state":"active","ping":63},{"user_id":320,"name":"brains","steam_id":76561198197388678,"connected_time":20000000000,"state":"active","ping":90},{"user_id":309,"name":"chiswola","steam_id":76561198046920142,"connected_time":633000000000,"state":"active","ping":83},{"user_id":287,"name":"Torrensz64(But weezer)","steam_id":76561198239036482,"connected_time":2931000000000,"state":"active","ping":49},{"user_id":310,"name":"Yogeerts","steam_id":76561198005121419,"connected_time":374000000000,"state":"active","ping":70}]},{"server_id":37,"name":"Uncletopia | Chicago | 6 | All Maps","name_short":"chi-6","host":"chi-2.us.uncletopia.com","port":27025,"enabled":true,"region":"us-central","cc":"us","latitude":41.881832,"longitude":-87.62318,"reserved":0,"last_update":"0001-01-01T00:00:00Z","name_a2s":"Uncletopia | Chicago | 6 | All Maps","protocol":17,"map":"pl_pier","folder":"tf","game":"Team Fortress","app_id":440,"player_count":18,"max_players":24,"Bots":0,"server_type":"Dedicated","server_os":"Linux","password":true,"vac":true,"version":"7932396","steam_id":85568392924866363,"keywords":["nocrits","nodmgspread","payload","uncletopia"],"game_id":440,"stv_port":27026,"stv_name":"Uncletopia | Chicago | 6 | All Maps | STV","players":[{"user_id":308,"name":"Opera GF","steam_id":76561198347660282,"connected_time":20000000000,"state":"spawning","ping":111},{"user_id":309,"name":"www.fraps.com","steam_id":76561198070923665,"connected_time":10000000000,"state":"active","ping":87},{"user_id":306,"name":"The Witchfinder General","steam_id":76561199113662942,"connected_time":71000000000,"state":"active","ping":84},{"user_id":310,"name":"Margo_Rae","steam_id":76561198035046430,"connected_time":2000000000,"state":"spawning","ping":63},{"user_id":297,"name":"jarrettconsult","steam_id":76561198249998262,"connected_time":661000000000,"state":"active","ping":75},{"user_id":280,"name":"Penis Scout 2","steam_id":76561198801467075,"connected_time":1450000000000,"state":"active","ping":70},{"user_id":304,"name":"Heathcliff","steam_id":76561198044288534,"connected_time":205000000000,"state":"active","ping":85},{"user_id":230,"name":"Weeb","steam_id":76561198333568146,"connected_time":5796000000000,"state":"active","ping":76},{"user_id":288,"name":"puppy :3","steam_id":76561198011196264,"connected_time":1182000000000,"state":"active","ping":45},{"user_id":259,"name":"RyInc","steam_id":76561198874261643,"connected_time":3314000000000,"state":"active","ping":44},{"user_id":305,"name":"gaelaspuru","steam_id":76561198838235696,"connected_time":126000000000,"state":"active","ping":55},{"user_id":298,"name":"stupid ape","steam_id":76561198350027075,"connected_time":583000000000,"state":"active","ping":49},{"user_id":300,"name":"The Lesser Hero","steam_id":76561199103340928,"connected_time":559000000000,"state":"active","ping":83},{"user_id":287,"name":"Skelly Bones","steam_id":76561198060728416,"connected_time":1222000000000,"state":"active","ping":75},{"user_id":284,"name":"Muad'Dib","steam_id":76561198031071019,"connected_time":1387000000000,"state":"active","ping":48},{"user_id":273,"name":"Chernov","steam_id":76561198014463424,"connected_time":1861000000000,"state":"active","ping":60},{"user_id":291,"name":"crumpsycodger","steam_id":76561197972601902,"connected_time":1090000000000,"state":"active","ping":83},{"user_id":239,"name":"cuddleslut","steam_id":76561198325865082,"connected_time":4994000000000,"state":"active","ping":74}]},{"server_id":38,"name":"Uncletopia | Chicago | 7 | Stopwatch Beta","name_short":"chi-7","host":"chi-2.us.uncletopia.com","port":27035,"enabled":true,"region":"us-central","cc":"us","latitude":41.881832,"longitude":-87.62318,"reserved":0,"last_update":"0001-01-01T00:00:00Z","name_a2s":"Uncletopia | Chicago | 7 | Stopwatch Beta","protocol":17,"map":"pl_upward","folder":"tf","game":"Team Fortress","app_id":440,"player_count":0,"max_players":24,"Bots":0,"server_type":"Dedicated","server_os":"Linux","password":true,"vac":true,"version":"7932396","steam_id":85568392924866364,"keywords":["nocrits","nodmgspread","payload","uncletopia"],"game_id":440,"stv_port":27036,"stv_name":"Uncletopia | Chicago | 7 | Stopwatch Beta | STV","players":null},{"server_id":39,"name":"Uncletopia | Chicago | 8 | Community","name_short":"chi-8","host":"chi-2.us.uncletopia.com","port":27045,"enabled":true,"region":"us-central","cc":"us","latitude":41.881832,"longitude":-87.62318,"reserved":0,"last_update":"0001-01-01T00:00:00Z","name_a2s":"Uncletopia | Chicago | 8 | Community","protocol":17,"map":"workshop/cp_mannbase_rc2a.ugc1900737467","folder":"tf","game":"Team Fortress","app_id":440,"player_count":24,"max_players":24,"Bots":0,"server_type":"Dedicated","server_os":"Linux","password":true,"vac":true,"version":"7932396","steam_id":85568392924866365,"keywords":["cp","nocrits","nodmgspread","uncletopia"],"game_id":440,"stv_port":27046,"stv_name":"Uncletopia | Chicago | 8 | Community | STV","players":[{"user_id":186,"name":"lemon","steam_id":76561198329179651,"connected_time":1790000000000,"state":"active","ping":141},{"user_id":214,"name":"jesus-osama-christ-chan","steam_id":76561199202821492,"connected_time":412000000000,"state":"active","ping":201},{"user_id":215,"name":"PinguEnjoyer6","steam_id":76561199186723516,"connected_time":378000000000,"state":"active","ping":100},{"user_id":210,"name":"realhedgehog2082","steam_id":76561198168931330,"connected_time":518000000000,"state":"active","ping":75},{"user_id":141,"name":"Dog Goggles","steam_id":76561197995233692,"connected_time":5397000000000,"state":"active","ping":83},{"user_id":218,"name":"Denzel \"rock my cock\" Crocker","steam_id":76561198042441320,"connected_time":235000000000,"state":"active","ping":45},{"user_id":211,"name":"Goofy Goober","steam_id":76561198065361279,"connected_time":493000000000,"state":"active","ping":76},{"user_id":115,"name":"Skeleton Hotel","steam_id":76561198041704727,"connected_time":6587000000000,"state":"active","ping":51},{"user_id":203,"name":"pabbott123110","steam_id":76561199231739796,"connected_time":885000000000,"state":"active","ping":90},{"user_id":204,"name":"MacxNxCheese80","steam_id":76561198923725480,"connected_time":875000000000,"state":"active","ping":86},{"user_id":212,"name":"BarrowBaron","steam_id":76561198013633236,"connected_time":473000000000,"state":"active","ping":84},{"user_id":217,"name":"Frogninja","steam_id":76561198051418374,"connected_time":292000000000,"state":"active","ping":98},{"user_id":166,"name":"HarryjusttHarry","steam_id":76561198982810452,"connected_time":3162000000000,"state":"active","ping":78},{"user_id":199,"name":"Neco-Arc","steam_id":76561198196211121,"connected_time":1325000000000,"state":"active","ping":82},{"user_id":219,"name":"Nickel","steam_id":76561198088128140,"connected_time":232000000000,"state":"active","ping":54},{"user_id":220,"name":"Crow","steam_id":76561198274977209,"connected_time":219000000000,"state":"active","ping":61},{"user_id":189,"name":"[TSG] Turner's Chocolate Milk","steam_id":76561198058963288,"connected_time":1730000000000,"state":"active","ping":69},{"user_id":200,"name":"TheSquirrelofHuscurl","steam_id":76561198073379623,"connected_time":1304000000000,"state":"active","ping":81},{"user_id":221,"name":"Tockbird","steam_id":76561199437964594,"connected_time":197000000000,"state":"active","ping":109},{"user_id":131,"name":"Cheetose Intolerant","steam_id":76561198013399809,"connected_time":5976000000000,"state":"active","ping":85},{"user_id":201,"name":"why the wig?","steam_id":76561199084109885,"connected_time":1273000000000,"state":"active","ping":77},{"user_id":222,"name":"Gator_man","steam_id":76561198404885008,"connected_time":127000000000,"state":"active","ping":56},{"user_id":188,"name":"Yapple Dapple","steam_id":76561198082422815,"connected_time":1752000000000,"state":"active","ping":78},{"user_id":223,"name":"GravyPouch","steam_id":76561198067539038,"connected_time":103000000000,"state":"active","ping":63}]},{"server_id":8,"name":"Uncletopia | Dallas | 1 | All Maps","name_short":"dal-1","host":"dal-1.us.uncletopia.com","port":27015,"enabled":true,"region":"us-central","cc":"us","latitude":32.779167,"longitude":-96.80889,"reserved":0,"last_update":"0001-01-01T00:00:00Z","name_a2s":"Uncletopia | Dallas | 1 | All Maps","protocol":17,"map":"cp_dustbowl","folder":"tf","game":"Team Fortress","app_id":440,"player_count":24,"max_players":24,"Bots":0,"server_type":"Dedicated","server_os":"Linux","password":true,"vac":true,"version":"7932396","steam_id":85568392924469986,"keywords":["cp","nocrits","nodmgspread","uncletopia"],"game_id":440,"stv_port":27016,"stv_name":"Uncletopia | Dallas | 1 | All Maps | STV","players":[{"user_id":555,"name":"Cliffigriff","steam_id":76561198121924499,"connected_time":702000000000,"state":"active","ping":60},{"user_id":544,"name":"novu","steam_id":76561198886997024,"connected_time":1871000000000,"state":"active","ping":103},{"user_id":559,"name":"dnaak","steam_id":76561197960489193,"connected_time":411000000000,"state":"active","ping":63},{"user_id":489,"name":"Greg Boberton 2012","steam_id":76561198983566026,"connected_time":5466000000000,"state":"active","ping":87},{"user_id":538,"name":"Smug","steam_id":76561198448205229,"connected_time":2240000000000,"state":"active","ping":71},{"user_id":560,"name":"elyina","steam_id":76561198035310295,"connected_time":377000000000,"state":"active","ping":66},{"user_id":551,"name":"Lord jellyfish","steam_id":76561198099255487,"connected_time":894000000000,"state":"active","ping":82},{"user_id":548,"name":"Gamerfan64","steam_id":76561198801410962,"connected_time":1238000000000,"state":"active","ping":40},{"user_id":495,"name":"Ghetto Smosh Fan","steam_id":76561198097272509,"connected_time":4902000000000,"state":"active","ping":50},{"user_id":553,"name":"Matty the Baby Sloth","steam_id":76561198130993937,"connected_time":775000000000,"state":"active","ping":88},{"user_id":542,"name":"Bacon","steam_id":76561199078407152,"connected_time":1988000000000,"state":"active","ping":80},{"user_id":513,"name":"mkl","steam_id":76561197986401685,"connected_time":3586000000000,"state":"active","ping":60},{"user_id":564,"name":"IZISOO","steam_id":76561198970380577,"connected_time":76000000000,"state":"active","ping":70},{"user_id":558,"name":"Lucky","steam_id":76561198418262145,"connected_time":451000000000,"state":"active","ping":129},{"user_id":524,"name":"irritable vowel syndrome","steam_id":76561198117033273,"connected_time":2687000000000,"state":"active","ping":164},{"user_id":517,"name":"D.E.O","steam_id":76561198096992957,"connected_time":3140000000000,"state":"active","ping":125},{"user_id":547,"name":"NOT Susie Deltarune (not real)","steam_id":76561199007365488,"connected_time":1315000000000,"state":"active","ping":72},{"user_id":563,"name":"errant","steam_id":76561197961758410,"connected_time":254000000000,"state":"active","ping":34},{"user_id":536,"name":"cypherzero","steam_id":76561199182960322,"connected_time":2480000000000,"state":"active","ping":53},{"user_id":480,"name":"stupid haver 2","steam_id":76561198044443985,"connected_time":5606000000000,"state":"active","ping":54},{"user_id":534,"name":"Snoopy","steam_id":76561198273735974,"connected_time":2533000000000,"state":"active","ping":75},{"user_id":526,"name":"Weerk","steam_id":76561199209543551,"connected_time":2664000000000,"state":"active","ping":93},{"user_id":501,"name":"the_thug_shaker","steam_id":76561199014716093,"connected_time":4558000000000,"state":"active","ping":98},{"user_id":546,"name":"spiderguy","steam_id":76561198412074955,"connected_time":1649000000000,"state":"active","ping":61}]},{"server_id":108,"name":"Uncletopia | Dallas | 2 | All Maps","name_short":"dal-2","host":"dal-1.us.uncletopia.com","port":27025,"enabled":true,"region":"us-central","cc":"us","latitude":32.779167,"longitude":-96.80889,"reserved":0,"last_update":"0001-01-01T00:00:00Z","name_a2s":"Uncletopia | Dallas | 2 | All Maps","protocol":17,"map":"cp_powerhouse","folder":"tf","game":"Team Fortress","app_id":440,"player_count":24,"max_players":24,"Bots":0,"server_type":"Dedicated","server_os":"Linux","password":true,"vac":true,"version":"7932396","steam_id":85568392924469988,"keywords":["cp","nocrits","nodmgspread","uncletopia"],"game_id":440,"stv_port":27026,"stv_name":"Uncletopia | Dallas | 2 | All Maps | STV","players":[{"user_id":535,"name":"[]{}#^*+=","steam_id":76561198127039453,"connected_time":414000000000,"state":"active","ping":67},{"user_id":520,"name":"fernando","steam_id":76561198142586591,"connected_time":1898000000000,"state":"active","ping":60},{"user_id":545,"name":"smittenkittenmittens","steam_id":76561198130900442,"connected_time":189000000000,"state":"active","ping":131},{"user_id":475,"name":"Dr.Doc","steam_id":76561198981911429,"connected_time":4870000000000,"state":"active","ping":72},{"user_id":534,"name":"adolf tickler","steam_id":76561198163120788,"connected_time":443000000000,"state":"active","ping":74},{"user_id":529,"name":"Kosmo","steam_id":76561198079015843,"connected_time":715000000000,"state":"active","ping":59},{"user_id":548,"name":"xuiuxãƒ„","steam_id":76561198448049145,"connected_time":77000000000,"state":"active","ping":56},{"user_id":528,"name":"Genius Meme","steam_id":76561198162911254,"connected_time":854000000000,"state":"active","ping":85},{"user_id":492,"name":"Stryder","steam_id":76561199387418697,"connected_time":4028000000000,"state":"active","ping":105},{"user_id":543,"name":"Merpling","steam_id":76561198048272047,"connected_time":231000000000,"state":"active","ping":102},{"user_id":546,"name":"Shipmunk","steam_id":76561198063062670,"connected_time":165000000000,"state":"active","ping":82},{"user_id":506,"name":"SizableChap","steam_id":76561199148162904,"connected_time":2297000000000,"state":"active","ping":63},{"user_id":547,"name":"Champtiago25","steam_id":76561199244312774,"connected_time":162000000000,"state":"active","ping":66},{"user_id":487,"name":"tacofever","steam_id":76561198010966507,"connected_time":4406000000000,"state":"active","ping":76},{"user_id":539,"name":"Peakey The Bard","steam_id":76561198196607831,"connected_time":339000000000,"state":"active","ping":157},{"user_id":444,"name":"notweN giF","steam_id":76561198064255155,"connected_time":6556000000000,"state":"active","ping":69},{"user_id":494,"name":"lil homie gay ass","steam_id":76561198044804626,"connected_time":3975000000000,"state":"active","ping":58},{"user_id":477,"name":"SirDapperBirb","steam_id":76561198978305181,"connected_time":4859000000000,"state":"active","ping":91},{"user_id":540,"name":"eggzy","steam_id":76561198085439508,"connected_time":337000000000,"state":"active","ping":61},{"user_id":513,"name":"Sup m8","steam_id":76561198081659121,"connected_time":2093000000000,"state":"active","ping":33},{"user_id":456,"name":"Acolyte Of Pain","steam_id":76561198143094194,"connected_time":5554000000000,"state":"active","ping":97},{"user_id":541,"name":"Acro","steam_id":76561198092451804,"connected_time":305000000000,"state":"active","ping":61},{"user_id":527,"name":"Poor Drunk Scot","steam_id":76561199465805056,"connected_time":971000000000,"state":"active","ping":75},{"user_id":542,"name":"antoniov00gaming","steam_id":76561198364632073,"connected_time":299000000000,"state":"active","ping":81}]},{"server_id":5,"name":"Uncletopia | Frankfurt | 1 | All Maps","name_short":"frk-1","host":"frk-1.de.uncletopia.com","port":27015,"enabled":true,"region":"eu","cc":"de","latitude":50.110924,"longitude":8.682127,"reserved":0,"last_update":"0001-01-01T00:00:00Z","name_a2s":"Uncletopia | Frankfurt | 1 | All Maps","protocol":17,"map":"koth_highpass","folder":"tf","game":"Team Fortress","app_id":440,"player_count":0,"max_players":24,"Bots":0,"server_type":"Dedicated","server_os":"Linux","password":true,"vac":true,"version":"7932396","steam_id":85568392924469989,"keywords":["cp","nocrits","nodmgspread","uncletopia"],"game_id":440,"stv_port":27016,"stv_name":"Uncletopia | Frankfurt | 1 | All Maps | STV","players":null},{"server_id":110,"name":"Uncletopia | Frankfurt | 2 | All Maps","name_short":"frk-2","host":"frk-1.de.uncletopia.com","port":27025,"enabled":true,"region":"eu","cc":"de","latitude":50.110924,"longitude":8.682127,"reserved":0,"last_update":"0001-01-01T00:00:00Z","name_a2s":"Uncletopia | Frankfurt | 2 | All Maps","protocol":17,"map":"koth_lakeside_final","folder":"tf","game":"Team Fortress","app_id":440,"player_count":0,"max_players":24,"Bots":0,"server_type":"Dedicated","server_os":"Linux","password":true,"vac":true,"version":"7932396","steam_id":85568392924469990,"keywords":["cp","nocrits","nodmgspread","uncletopia"],"game_id":440,"stv_port":27026,"stv_name":"Uncletopia | Frankfurt | 2 | All Maps | STV","players":null},{"server_id":308,"name":"Uncletopia | Frankfurt | 3 | All Maps","name_short":"frk-3","host":"frk-1.de.uncletopia.com","port":27035,"enabled":true,"region":"eu","cc":"de","latitude":50.110924,"longitude":8.682127,"reserved":0,"last_update":"0001-01-01T00:00:00Z","name_a2s":"Uncletopia | Frankfurt | 3 | All Maps","protocol":17,"map":"ctf_2fort","folder":"tf","game":"Team Fortress","app_id":440,"player_count":0,"max_players":24,"Bots":0,"server_type":"Dedicated","server_os":"Linux","password":true,"vac":true,"version":"7932396","steam_id":85568392924504274,"keywords":["ctf","nocrits","nodmgspread","uncletopia"],"game_id":440,"stv_port":27036,"stv_name":"Uncletopia | Frankfurt | 3 | All Maps | STV","players":null},{"server_id":309,"name":"Uncletopia | Frankfurt | 4 | All Maps","name_short":"frk-4","host":"frk-1.de.uncletopia.com","port":27045,"enabled":true,"region":"eu","cc":"de","latitude":50.110924,"longitude":8.682127,"reserved":0,"last_update":"0001-01-01T00:00:00Z","name_a2s":"Uncletopia | Frankfurt | 4 | All Maps","protocol":17,"map":"cp_mountainlab","folder":"tf","game":"Team Fortress","app_id":440,"player_count":0,"max_players":24,"Bots":0,"server_type":"Dedicated","server_os":"Linux","password":true,"vac":true,"version":"7932396","steam_id":85568392924504275,"keywords":["cp","nocrits","nodmgspread","uncletopia"],"game_id":440,"stv_port":27046,"stv_name":"Uncletopia | Frankfurt | 4 | All Maps | STV","players":null},{"server_id":310,"name":"Uncletopia | Frankfurt | 5 | All Maps","name_short":"frk-5","host":"frk-1.de.uncletopia.com","port":27055,"enabled":true,"region":"eu","cc":"de","latitude":50.110924,"longitude":8.682127,"reserved":0,"last_update":"0001-01-01T00:00:00Z","name_a2s":"Uncletopia | Frankfurt | 5 | All Maps","protocol":17,"map":"pl_goldrush","folder":"tf","game":"Team Fortress","app_id":440,"player_count":4,"max_players":24,"Bots":0,"server_type":"Dedicated","server_os":"Linux","password":true,"vac":true,"version":"7932396","steam_id":85568392924504277,"keywords":["nocrits","nodmgspread","payload","uncletopia"],"game_id":440,"stv_port":27056,"stv_name":"Uncletopia | Frankfurt | 5 | All Maps | STV","players":[{"user_id":858,"name":"nakedpee","steam_id":76561198064345980,"connected_time":1615000000000,"state":"active","ping":62},{"user_id":857,"name":"Genesis","steam_id":76561198999652040,"connected_time":2232000000000,"state":"active","ping":44},{"user_id":862,"name":"Rimx","steam_id":76561198053034840,"connected_time":1136000000000,"state":"active","ping":86},{"user_id":863,"name":"Toasty5050","steam_id":76561198073540881,"connected_time":1124000000000,"state":"active","ping":34}]},{"server_id":311,"name":"Uncletopia | Frankfurt | 6 | All Maps","name_short":"frk-6","host":"frk-1.de.uncletopia.com","port":27065,"enabled":true,"region":"eu","cc":"de","latitude":50.110924,"longitude":8.682127,"reserved":0,"last_update":"0001-01-01T00:00:00Z","name_a2s":"Uncletopia | Frankfurt | 6 | All Maps","protocol":17,"map":"pl_pier","folder":"tf","game":"Team Fortress","app_id":440,"player_count":1,"max_players":24,"Bots":0,"server_type":"Dedicated","server_os":"Linux","password":true,"vac":true,"version":"7932396","steam_id":85568392924504278,"keywords":["nocrits","nodmgspread","payload","uncletopia"],"game_id":440,"stv_port":27066,"stv_name":"Uncletopia | Frankfurt | 6 | All Maps | STV","players":[{"user_id":128,"name":"Ink in veins","steam_id":76561199082262091,"connected_time":766000000000,"state":"active","ping":68}]},{"server_id":23,"name":"Uncletopia | Frankfurt | 7 | Stopwatch Beta","name_short":"frk-7","host":"frk-1.de.uncletopia.com","port":27075,"enabled":true,"region":"eu","cc":"de","latitude":50.110924,"longitude":8.682127,"reserved":0,"last_update":"0001-01-01T00:00:00Z","name_a2s":"Uncletopia | Frankfurt | 7 | Stopwatch Beta","protocol":17,"map":"workshop/koth_ramjam_rc1.ugc459778887","folder":"tf","game":"Team Fortress","app_id":440,"player_count":0,"max_players":24,"Bots":0,"server_type":"Dedicated","server_os":"Linux","password":true,"vac":true,"version":"7932396","steam_id":85568392924742827,"keywords":["cp","nocrits","nodmgspread","uncletopia"],"game_id":440,"stv_port":27076,"stv_name":"Uncletopia | Frankfurt | 7 | Stopwatch Beta | STV","players":null},{"server_id":24,"name":"Uncletopia | Frankfurt | 8 | Community","name_short":"frk-8","host":"frk-1.de.uncletopia.com","port":27085,"enabled":true,"region":"eu","cc":"de","latitude":50.110924,"longitude":8.682127,"reserved":0,"last_update":"0001-01-01T00:00:00Z","name_a2s":"Uncletopia | Frankfurt | 8 | Community","protocol":17,"map":"workshop/koth_ramjam_rc1.ugc459778887","folder":"tf","game":"Team Fortress","app_id":440,"player_count":0,"max_players":24,"Bots":0,"server_type":"Dedicated","server_os":"Linux","password":true,"vac":true,"version":"7932396","steam_id":85568392924742828,"keywords":["cp","nocrits","nodmgspread","uncletopia"],"game_id":440,"stv_port":27086,"stv_name":"Uncletopia | Frankfurt | 8 | Community | STV","players":null},{"server_id":202,"name":"Uncletopia | Hong Kong | 1 | All Maps","name_short":"hgk-1","host":"hgk-1.hk.uncletopia.com","port":27015,"enabled":true,"region":"asia","cc":"hk","latitude":22.302711,"longitude":114.177216,"reserved":0,"last_update":"0001-01-01T00:00:00Z","name_a2s":"Uncletopia | Hong Kong | 1 | All Maps","protocol":17,"map":"cp_altitude","folder":"tf","game":"Team Fortress","app_id":440,"player_count":0,"max_players":24,"Bots":0,"server_type":"Dedicated","server_os":"Linux","password":true,"vac":true,"version":"7932396","steam_id":85568392924494504,"keywords":["cp","nocrits","nodmgspread","uncletopia"],"game_id":440,"stv_port":27016,"stv_name":"Uncletopia | Hong Kong | 1 | All Maps | STV","players":null},{"server_id":1,"name":"Uncletopia | Los Angeles | 1 | All Maps","name_short":"lax-1","host":"lax-1.us.uncletopia.com","port":27015,"enabled":true,"region":"us-west","cc":"us","latitude":33.94279,"longitude":-118.41004,"reserved":0,"last_update":"0001-01-01T00:00:00Z","name_a2s":"Uncletopia | Los Angeles | 1 | All Maps","protocol":17,"map":"pl_badwater","folder":"tf","game":"Team Fortress","app_id":440,"player_count":24,"max_players":24,"Bots":0,"server_type":"Dedicated","server_os":"Linux","password":true,"vac":true,"version":"7932396","steam_id":85568392924469991,"keywords":["nocrits","nodmgspread","payload","uncletopia"],"game_id":440,"stv_port":27016,"stv_name":"Uncletopia | Los Angeles | 1 | All Maps | STV","players":[{"user_id":376,"name":"Stolas \u003c3","steam_id":76561198835430280,"connected_time":3934000000000,"state":"active","ping":72},{"user_id":405,"name":"Redkiller","steam_id":76561199453655288,"connected_time":2090000000000,"state":"active","ping":125},{"user_id":424,"name":"Goth Spy Boyfriend","steam_id":76561198104086771,"connected_time":88000000000,"state":"active","ping":44},{"user_id":420,"name":"ULTRASUPERLATEBRAKING","steam_id":76561198236109724,"connected_time":423000000000,"state":"active","ping":48},{"user_id":383,"name":"Nez","steam_id":76561197963109059,"connected_time":3750000000000,"state":"active","ping":64},{"user_id":422,"name":"Zeta","steam_id":76561198178693059,"connected_time":182000000000,"state":"active","ping":102},{"user_id":408,"name":"Pines","steam_id":76561199024146278,"connected_time":2017000000000,"state":"active","ping":64},{"user_id":349,"name":"Shush","steam_id":76561198123902813,"connected_time":6428000000000,"state":"active","ping":130},{"user_id":409,"name":"Cheeseburglar","steam_id":76561198880267007,"connected_time":1958000000000,"state":"active","ping":57},{"user_id":390,"name":"Misfit","steam_id":76561198044561021,"connected_time":3654000000000,"state":"active","ping":67},{"user_id":415,"name":"jayzak24","steam_id":76561198354267509,"connected_time":1271000000000,"state":"active","ping":48},{"user_id":334,"name":"xypage","steam_id":76561198050587775,"connected_time":8230000000000,"state":"active","ping":59},{"user_id":400,"name":"Valfour","steam_id":76561197995997680,"connected_time":2837000000000,"state":"active","ping":48},{"user_id":397,"name":"coolbust carti","steam_id":76561198065384345,"connected_time":3341000000000,"state":"active","ping":54},{"user_id":395,"name":"Metalogic","steam_id":76561198049469629,"connected_time":3418000000000,"state":"active","ping":87},{"user_id":423,"name":"â™¡a femboyâ™¡","steam_id":76561199212971864,"connected_time":164000000000,"state":"active","ping":109},{"user_id":388,"name":"scamchez","steam_id":76561198447562701,"connected_time":3713000000000,"state":"active","ping":64},{"user_id":404,"name":"MrKatz","steam_id":76561199062879180,"connected_time":2310000000000,"state":"active","ping":52},{"user_id":417,"name":"sora","steam_id":76561198094256973,"connected_time":1257000000000,"state":"active","ping":59},{"user_id":419,"name":"McDonald","steam_id":76561199028533497,"connected_time":1212000000000,"state":"active","ping":47},{"user_id":403,"name":"soulless cop (thug shaker)","steam_id":76561198150535873,"connected_time":2652000000000,"state":"active","ping":83},{"user_id":392,"name":"Chunk Stuffer","steam_id":76561198856508573,"connected_time":3619000000000,"state":"active","ping":72},{"user_id":410,"name":"d4ngerd4n","steam_id":76561198043758735,"connected_time":1938000000000,"state":"active","ping":61},{"user_id":418,"name":"Evanb","steam_id":76561198042057792,"connected_time":1256000000000,"state":"active","ping":68}]},{"server_id":112,"name":"Uncletopia | Los Angeles | 2 | All Maps","name_short":"lax-2","host":"lax-1.us.uncletopia.com","port":27025,"enabled":true,"region":"us-west","cc":"us","latitude":33.94279,"longitude":-118.41004,"reserved":0,"last_update":"0001-01-01T00:00:00Z","name_a2s":"Uncletopia | Los Angeles | 2 | All Maps","protocol":17,"map":"pl_barnblitz","folder":"tf","game":"Team Fortress","app_id":440,"player_count":24,"max_players":24,"Bots":0,"server_type":"Dedicated","server_os":"Linux","password":true,"vac":true,"version":"7932396","steam_id":85568392924469992,"keywords":["nocrits","nodmgspread","payload","uncletopia"],"game_id":440,"stv_port":27026,"stv_name":"Uncletopia | Los Angeles | 2 | All Maps | STV","players":[{"user_id":230,"name":"Obama","steam_id":76561198194065283,"connected_time":486000000000,"state":"active","ping":45},{"user_id":183,"name":"xXCallOfDoodyQuikScopeMaster34X","steam_id":76561198067232540,"connected_time":6091000000000,"state":"active","ping":113},{"user_id":224,"name":"isucktoomuch****","steam_id":76561198075165369,"connected_time":1195000000000,"state":"active","ping":66},{"user_id":178,"name":"jodie.blend","steam_id":76561198140701807,"connected_time":6321000000000,"state":"active","ping":78},{"user_id":227,"name":"gadisboss","steam_id":76561198301704975,"connected_time":1100000000000,"state":"active","ping":67},{"user_id":226,"name":"The Benefactor","steam_id":76561198307247913,"connected_time":1178000000000,"state":"active","ping":48},{"user_id":205,"name":"Â¿skitt1eS?","steam_id":76561198330093211,"connected_time":4572000000000,"state":"active","ping":89},{"user_id":209,"name":"skao","steam_id":76561198133360797,"connected_time":4246000000000,"state":"active","ping":57},{"user_id":185,"name":"Cinnifox","steam_id":76561198068773971,"connected_time":5835000000000,"state":"active","ping":87},{"user_id":169,"name":"[El Fail] MR.BadassMCLee","steam_id":76561198043787818,"connected_time":6600000000000,"state":"active","ping":95},{"user_id":159,"name":"DarkMewMew","steam_id":76561199471715552,"connected_time":8023000000000,"state":"active","ping":68},{"user_id":192,"name":"breakfast","steam_id":76561198043712978,"connected_time":5493000000000,"state":"active","ping":61},{"user_id":231,"name":"Eloi","steam_id":76561198081193565,"connected_time":242000000000,"state":"active","ping":104},{"user_id":210,"name":"el wokismo","steam_id":76561198058617608,"connected_time":4213000000000,"state":"active","ping":49},{"user_id":211,"name":"Grim","steam_id":76561198016978310,"connected_time":4168000000000,"state":"active","ping":74},{"user_id":217,"name":"Daz","steam_id":76561198041431938,"connected_time":2724000000000,"state":"active","ping":73},{"user_id":229,"name":"YoZiggy","steam_id":76561198192485274,"connected_time":1073000000000,"state":"active","ping":44},{"user_id":136,"name":"Dav","steam_id":76561198116862395,"connected_time":9194000000000,"state":"active","ping":87},{"user_id":216,"name":"A UsedNom","steam_id":76561198402832756,"connected_time":2932000000000,"state":"active","ping":58},{"user_id":137,"name":"Adalbern","steam_id":76561197991785034,"connected_time":9169000000000,"state":"active","ping":76},{"user_id":207,"name":"Out Like a Light","steam_id":76561198410957728,"connected_time":4489000000000,"state":"active","ping":104},{"user_id":197,"name":"Erce","steam_id":76561198183481573,"connected_time":5005000000000,"state":"active","ping":106},{"user_id":208,"name":"god's silliest puppygirl","steam_id":76561198128164970,"connected_time":4488000000000,"state":"active","ping":50},{"user_id":220,"name":"Mediocre Lobster","steam_id":76561198131201321,"connected_time":2056000000000,"state":"active","ping":62}]},{"server_id":324,"name":"Uncletopia | Los Angeles | 3 | All Maps","name_short":"lax-3","host":"lax-1.us.uncletopia.com","port":27035,"enabled":true,"region":"us-west","cc":"us","latitude":33.94279,"longitude":-118.41004,"reserved":0,"last_update":"0001-01-01T00:00:00Z","name_a2s":"Uncletopia | Los Angeles | 3 | All Maps","protocol":17,"map":"koth_brazil","folder":"tf","game":"Team Fortress","app_id":440,"player_count":0,"max_players":24,"Bots":0,"server_type":"Dedicated","server_os":"Linux","password":true,"vac":true,"version":"7932396","steam_id":85568392924510198,"keywords":["cp","nocrits","nodmgspread","uncletopia"],"game_id":440,"stv_port":27036,"stv_name":"Uncletopia | Los Angeles | 3 | All Maps | STV","players":null},{"server_id":25,"name":"Uncletopia | Los Angeles | 4 | Stopwatch Beta","name_short":"lax-4","host":"lax-1.us.uncletopia.com","port":27045,"enabled":true,"region":"us-west","cc":"us","latitude":33.94279,"longitude":-118.41004,"reserved":0,"last_update":"0001-01-01T00:00:00Z","name_a2s":"Uncletopia | Los Angeles | 4 | Stopwatch Beta","protocol":17,"map":"pl_swiftwater_final1","folder":"tf","game":"Team Fortress","app_id":440,"player_count":0,"max_players":24,"Bots":0,"server_type":"Dedicated","server_os":"Linux","password":true,"vac":true,"version":"7932396","steam_id":85568392924510199,"keywords":["nocrits","nodmgspread","payload","uncletopia"],"game_id":440,"stv_port":27046,"stv_name":"Uncletopia | Los Angeles | 4 | Stopwatch Beta | STV","players":null},{"server_id":11,"name":"Uncletopia | London | 1 | All Maps","name_short":"lon-1","host":"lon-1.uk.uncletopia.com","port":27015,"enabled":true,"region":"eu","cc":"gb","latitude":51.509865,"longitude":-0.118092,"reserved":0,"last_update":"0001-01-01T00:00:00Z","name_a2s":"Uncletopia | London | 1 | All Maps","protocol":17,"map":"pl_goldrush","folder":"tf","game":"Team Fortress","app_id":440,"player_count":24,"max_players":24,"Bots":0,"server_type":"Dedicated","server_os":"Linux","password":true,"vac":true,"version":"7932396","steam_id":85568392924367362,"keywords":["nocrits","nodmgspread","payload","uncletopia"],"game_id":440,"stv_port":27016,"stv_name":"Uncletopia | London | 1 | All Maps | STV","players":[{"user_id":865,"name":"teddy","steam_id":76561198007436837,"connected_time":2529000000000,"state":"active","ping":37},{"user_id":879,"name":"brian.dahlmann","steam_id":76561198360431651,"connected_time":558000000000,"state":"active","ping":149},{"user_id":878,"name":"Dakeyras","steam_id":76561198057069564,"connected_time":575000000000,"state":"active","ping":99},{"user_id":795,"name":"Aroo","steam_id":76561198132601368,"connected_time":6098000000000,"state":"active","ping":78},{"user_id":875,"name":"I'm so very sad","steam_id":76561198147173457,"connected_time":618000000000,"state":"active","ping":77},{"user_id":852,"name":"Finn","steam_id":76561198179960193,"connected_time":3124000000000,"state":"active","ping":45},{"user_id":793,"name":"Grillem Dafoe","steam_id":76561198306874574,"connected_time":6207000000000,"state":"active","ping":64},{"user_id":885,"name":"peace of sheet","steam_id":76561197997323419,"connected_time":383000000000,"state":"active","ping":83},{"user_id":870,"name":"Mr_Pulse_","steam_id":76561198095001602,"connected_time":2018000000000,"state":"active","ping":101},{"user_id":876,"name":"Doctor Marijuana","steam_id":76561198288289879,"connected_time":607000000000,"state":"active","ping":48},{"user_id":847,"name":"Woman (Real)","steam_id":76561199151823932,"connected_time":3472000000000,"state":"active","ping":88},{"user_id":860,"name":"2BCD","steam_id":76561198178254946,"connected_time":2555000000000,"state":"active","ping":66},{"user_id":888,"name":"Cherry","steam_id":76561198150841824,"connected_time":359000000000,"state":"active","ping":61},{"user_id":824,"name":"SpacePig","steam_id":76561198044662873,"connected_time":4930000000000,"state":"active","ping":99},{"user_id":871,"name":"Snake-chan","steam_id":76561199044755854,"connected_time":1847000000000,"state":"active","ping":70},{"user_id":874,"name":"DarkSoulBG24","steam_id":76561198273701478,"connected_time":1174000000000,"state":"active","ping":85},{"user_id":873,"name":"Rizz","steam_id":76561198192135953,"connected_time":1320000000000,"state":"active","ping":80},{"user_id":872,"name":"snowycaost","steam_id":76561198346638308,"connected_time":1836000000000,"state":"active","ping":51},{"user_id":881,"name":"Krefa12","steam_id":76561198268375393,"connected_time":545000000000,"state":"active","ping":97},{"user_id":753,"name":"CuJIA_TPAHCJIuTA","steam_id":76561198149654361,"connected_time":8040000000000,"state":"active","ping":73},{"user_id":889,"name":"Dr Smeggman","steam_id":76561197966614845,"connected_time":129000000000,"state":"active","ping":40},{"user_id":868,"name":"Hivel","steam_id":76561198151390773,"connected_time":2353000000000,"state":"active","ping":96},{"user_id":853,"name":"sarii â˜†","steam_id":76561199155102111,"connected_time":3024000000000,"state":"active","ping":82},{"user_id":849,"name":"nvs","steam_id":76561198120668070,"connected_time":3423000000000,"state":"active","ping":70}]},{"server_id":114,"name":"Uncletopia | London | 2 | All Maps","name_short":"lon-2","host":"lon-1.uk.uncletopia.com","port":27025,"enabled":true,"region":"eu","cc":"gb","latitude":51.509865,"longitude":-0.118092,"reserved":0,"last_update":"0001-01-01T00:00:00Z","name_a2s":"Uncletopia | London | 2 | All Maps","protocol":17,"map":"pl_borneo","folder":"tf","game":"Team Fortress","app_id":440,"player_count":20,"max_players":24,"Bots":0,"server_type":"Dedicated","server_os":"Linux","password":true,"vac":true,"version":"7932396","steam_id":85568392924470941,"keywords":["nocrits","nodmgspread","payload","uncletopia"],"game_id":440,"stv_port":27026,"stv_name":"Uncletopia | London | 2 | All Maps | STV","players":[{"user_id":726,"name":"Mr. Luigi","steam_id":76561198167312951,"connected_time":70000000000,"state":"active","ping":40},{"user_id":650,"name":"Cabbch","steam_id":76561198045955679,"connected_time":6172000000000,"state":"active","ping":45},{"user_id":709,"name":"Dr.Frog","steam_id":76561198008113369,"connected_time":1734000000000,"state":"active","ping":160},{"user_id":647,"name":"Bajas","steam_id":76561198179339326,"connected_time":6265000000000,"state":"active","ping":85},{"user_id":727,"name":"Dr. Jabbinton","steam_id":76561198180007387,"connected_time":40000000000,"state":"spawning","ping":45},{"user_id":728,"name":"My left foot itches","steam_id":76561198078411001,"connected_time":9000000000,"state":"spawning","ping":96},{"user_id":708,"name":"acskama","steam_id":76561198136743845,"connected_time":1861000000000,"state":"active","ping":75},{"user_id":671,"name":"SuperSkrull","steam_id":76561198035695823,"connected_time":4973000000000,"state":"active","ping":51},{"user_id":711,"name":"Pingu","steam_id":76561198074477219,"connected_time":1471000000000,"state":"active","ping":50},{"user_id":724,"name":"Halal Goku","steam_id":76561198161822358,"connected_time":289000000000,"state":"active","ping":63},{"user_id":710,"name":"Pink â€","steam_id":76561198972047944,"connected_time":1726000000000,"state":"active","ping":51},{"user_id":695,"name":"rÃ¡k","steam_id":76561198175114914,"connected_time":2951000000000,"state":"active","ping":75},{"user_id":722,"name":"Economic crisis","steam_id":76561198063562843,"connected_time":458000000000,"state":"active","ping":70},{"user_id":681,"name":"Mi Manchi","steam_id":76561198171573129,"connected_time":3627000000000,"state":"active","ping":60},{"user_id":725,"name":"Zylon","steam_id":76561198073269221,"connected_time":152000000000,"state":"active","ping":57},{"user_id":642,"name":"Just Navlis","steam_id":76561198090479609,"connected_time":6778000000000,"state":"active","ping":53},{"user_id":631,"name":"xavier","steam_id":76561198076494034,"connected_time":7228000000000,"state":"active","ping":48},{"user_id":608,"name":"Vershal Smershal","steam_id":76561198116223995,"connected_time":8938000000000,"state":"active","ping":56},{"user_id":707,"name":"Nils","steam_id":76561198254882979,"connected_time":1924000000000,"state":"active","ping":62},{"user_id":717,"name":"Janner","steam_id":76561198127045282,"connected_time":915000000000,"state":"active","ping":44}]},{"server_id":320,"name":"Uncletopia | London | 3 | All Maps","name_short":"lon-3","host":"lon-1.uk.uncletopia.com","port":27035,"enabled":true,"region":"eu","cc":"gb","latitude":51.509865,"longitude":-0.118092,"reserved":0,"last_update":"0001-01-01T00:00:00Z","name_a2s":"Uncletopia | London | 3 | All Maps","protocol":17,"map":"pl_borneo","folder":"tf","game":"Team Fortress","app_id":440,"player_count":19,"max_players":24,"Bots":0,"server_type":"Dedicated","server_os":"Linux","password":true,"vac":true,"version":"7932396","steam_id":85568392924510192,"keywords":["nocrits","nodmgspread","payload","uncletopia"],"game_id":440,"stv_port":27036,"stv_name":"Uncletopia | London | 3 | All Maps | STV","players":[{"user_id":674,"name":"The Big J","steam_id":76561198158202901,"connected_time":175000000000,"state":"active","ping":60},{"user_id":672,"name":"mex :3","steam_id":76561198091083324,"connected_time":202000000000,"state":"active","ping":68},{"user_id":650,"name":"Kaz","steam_id":76561198044844041,"connected_time":1147000000000,"state":"active","ping":79},{"user_id":675,"name":"VideoJames","steam_id":76561197970114051,"connected_time":174000000000,"state":"active","ping":44},{"user_id":644,"name":"fence_","steam_id":76561198150386379,"connected_time":1886000000000,"state":"active","ping":42},{"user_id":676,"name":"Accident","steam_id":76561198037232641,"connected_time":127000000000,"state":"active","ping":62},{"user_id":627,"name":"Juliderkek","steam_id":76561198962270674,"connected_time":3935000000000,"state":"active","ping":94},{"user_id":578,"name":"keepflatandenjoy","steam_id":76561198976062150,"connected_time":6398000000000,"state":"active","ping":53},{"user_id":678,"name":"V","steam_id":76561198123238801,"connected_time":66000000000,"state":"active","ping":45},{"user_id":649,"name":"mr mufasi","steam_id":76561198068453867,"connected_time":1430000000000,"state":"active","ping":54},{"user_id":625,"name":"I am drinking lemon gin","steam_id":76561198091736413,"connected_time":4245000000000,"state":"active","ping":45},{"user_id":647,"name":"Grey","steam_id":76561198187190267,"connected_time":1819000000000,"state":"active","ping":45},{"user_id":618,"name":"John Noob","steam_id":76561197999170026,"connected_time":4543000000000,"state":"active","ping":79},{"user_id":653,"name":"Xipheria","steam_id":76561198077414706,"connected_time":873000000000,"state":"active","ping":72},{"user_id":598,"name":"James","steam_id":76561198168882012,"connected_time":5902000000000,"state":"active","ping":53},{"user_id":655,"name":"I am drinking whiskey cola","steam_id":76561198018491455,"connected_time":726000000000,"state":"active","ping":48},{"user_id":608,"name":"chipy","steam_id":76561198195627067,"connected_time":5307000000000,"state":"active","ping":87},{"user_id":643,"name":"Barnabas Gamez Castro","steam_id":76561197994036615,"connected_time":1993000000000,"state":"active","ping":64},{"user_id":657,"name":"Saul Goodman","steam_id":76561199164987448,"connected_time":681000000000,"state":"active","ping":85}]},{"server_id":321,"name":"Uncletopia | London | 4 | All Maps","name_short":"lon-4","host":"lon-1.uk.uncletopia.com","port":27045,"enabled":true,"region":"eu","cc":"gb","latitude":51.509865,"longitude":-0.118092,"reserved":0,"last_update":"0001-01-01T00:00:00Z","name_a2s":"Uncletopia | London | 4 | All Maps","protocol":17,"map":"pl_badwater","folder":"tf","game":"Team Fortress","app_id":440,"player_count":23,"max_players":24,"Bots":0,"server_type":"Dedicated","server_os":"Linux","password":true,"vac":true,"version":"7932396","steam_id":85568392924510193,"keywords":["nocrits","nodmgspread","payload","uncletopia"],"game_id":440,"stv_port":27046,"stv_name":"Uncletopia | London | 4 | All Maps | STV","players":[{"user_id":322,"name":"Adopted?","steam_id":76561198118667043,"connected_time":3407000000000,"state":"active","ping":44},{"user_id":348,"name":"Creature from the piss drawer","steam_id":76561198055949151,"connected_time":2873000000000,"state":"active","ping":42},{"user_id":387,"name":"â˜­TheDevilsEyeâ˜­","steam_id":76561198017379398,"connected_time":764000000000,"state":"active","ping":82},{"user_id":320,"name":"Alienketchup","steam_id":76561197970585162,"connected_time":3493000000000,"state":"active","ping":75},{"user_id":324,"name":"DigyB","steam_id":76561198014442345,"connected_time":3313000000000,"state":"active","ping":56},{"user_id":392,"name":"I Don't Know","steam_id":76561198841011430,"connected_time":429000000000,"state":"active","ping":72},{"user_id":368,"name":"ScaryTree","steam_id":76561199384362833,"connected_time":1387000000000,"state":"active","ping":59},{"user_id":325,"name":"funee monkee","steam_id":76561198350140807,"connected_time":3311000000000,"state":"active","ping":75},{"user_id":388,"name":"Regi","steam_id":76561199059431636,"connected_time":745000000000,"state":"active","ping":144},{"user_id":327,"name":"el piano","steam_id":76561198030155915,"connected_time":3300000000000,"state":"active","ping":65},{"user_id":231,"name":"Yuzu","steam_id":76561198121694613,"connected_time":10723000000000,"state":"active","ping":47},{"user_id":370,"name":"Unusual Spycrab","steam_id":76561198164397570,"connected_time":1354000000000,"state":"active","ping":48},{"user_id":371,"name":"akakez","steam_id":76561198095432821,"connected_time":1328000000000,"state":"active","ping":113},{"user_id":383,"name":"D0kai","steam_id":76561198389271720,"connected_time":887000000000,"state":"active","ping":51},{"user_id":373,"name":"Dr. Ludwig","steam_id":76561198269672107,"connected_time":1306000000000,"state":"active","ping":53},{"user_id":395,"name":"thats a big problem","steam_id":76561198080310253,"connected_time":14000000000,"state":"spawning","ping":45},{"user_id":379,"name":"BlobsOfWax","steam_id":76561198041752402,"connected_time":1096000000000,"state":"active","ping":40},{"user_id":234,"name":"Well, off to hang myself","steam_id":76561198053374944,"connected_time":10704000000000,"state":"active","ping":67},{"user_id":378,"name":"HayLeX","steam_id":76561198130997343,"connected_time":1105000000000,"state":"active","ping":84},{"user_id":359,"name":"Steen","steam_id":76561198122992510,"connected_time":2113000000000,"state":"active","ping":56},{"user_id":380,"name":"Lightboom","steam_id":76561198104645103,"connected_time":1064000000000,"state":"active","ping":96},{"user_id":389,"name":"etc","steam_id":76561197998394797,"connected_time":696000000000,"state":"active","ping":54},{"user_id":394,"name":"86","steam_id":76561199084186097,"connected_time":103000000000,"state":"active","ping":43}]},{"server_id":21,"name":"Uncletopia | London | 5 | All Maps","name_short":"lon-5","host":"lon-1.uk.uncletopia.com","port":27055,"enabled":true,"region":"eu","cc":"gb","latitude":51.509865,"longitude":-0.118092,"reserved":0,"last_update":"0001-01-01T00:00:00Z","name_a2s":"Uncletopia | London | 5 | All Maps","protocol":17,"map":"cp_altitude","folder":"tf","game":"Team Fortress","app_id":440,"player_count":15,"max_players":24,"Bots":0,"server_type":"Dedicated","server_os":"Linux","password":true,"vac":true,"version":"7932396","steam_id":85568392924742829,"keywords":["cp","nocrits","nodmgspread","uncletopia"],"game_id":440,"stv_port":27056,"stv_name":"Uncletopia | London | 5 | All Maps | STV","players":[{"user_id":740,"name":"Klunkerino","steam_id":76561197971081655,"connected_time":435000000000,"state":"active","ping":69},{"user_id":736,"name":"Mateumt","steam_id":76561198101669791,"connected_time":1124000000000,"state":"active","ping":74},{"user_id":742,"name":"Mr. Enjoy da money","steam_id":76561198152681460,"connected_time":402000000000,"state":"active","ping":75},{"user_id":751,"name":"Toa LightMakuta","steam_id":76561198212178104,"connected_time":117000000000,"state":"active","ping":67},{"user_id":694,"name":"Mamaki","steam_id":76561198799617313,"connected_time":6094000000000,"state":"active","ping":84},{"user_id":741,"name":"dotdotdot","steam_id":76561198057628751,"connected_time":433000000000,"state":"active","ping":59},{"user_id":638,"name":"Weebot00","steam_id":76561199479204459,"connected_time":10557000000000,"state":"active","ping":59},{"user_id":725,"name":"fshfkr","steam_id":76561198095979282,"connected_time":1677000000000,"state":"active","ping":32},{"user_id":746,"name":"TylowStar","steam_id":76561198357107806,"connected_time":173000000000,"state":"active","ping":50},{"user_id":698,"name":"Kabachok Aeronavt","steam_id":76561198123659806,"connected_time":5241000000000,"state":"active","ping":94},{"user_id":716,"name":"Kkikok","steam_id":76561198055767709,"connected_time":2561000000000,"state":"active","ping":76},{"user_id":702,"name":"Bacon Whisperer","steam_id":76561198342781924,"connected_time":4737000000000,"state":"active","ping":93},{"user_id":739,"name":"DragonLord","steam_id":76561198074279225,"connected_time":558000000000,"state":"active","ping":46},{"user_id":703,"name":"Falxo","steam_id":76561198025717005,"connected_time":4736000000000,"state":"active","ping":55},{"user_id":674,"name":"Faustino","steam_id":76561198061771785,"connected_time":8118000000000,"state":"active","ping":82}]},{"server_id":22,"name":"Uncletopia | London | 6 | All Maps","name_short":"lon-6","host":"lon-1.uk.uncletopia.com","port":27065,"enabled":true,"region":"eu","cc":"gb","latitude":51.509865,"longitude":-0.118092,"reserved":0,"last_update":"0001-01-01T00:00:00Z","name_a2s":"Uncletopia | London | 6 | All Maps","protocol":17,"map":"pl_upward","folder":"tf","game":"Team Fortress","app_id":440,"player_count":24,"max_players":24,"Bots":0,"server_type":"Dedicated","server_os":"Linux","password":true,"vac":true,"version":"7932396","steam_id":85568392924742830,"keywords":["nocrits","nodmgspread","payload","uncletopia"],"game_id":440,"stv_port":27066,"stv_name":"Uncletopia | London | 6 | All Maps | STV","players":[{"user_id":457,"name":"Bobbeldibob","steam_id":76561198256796473,"connected_time":5697000000000,"state":"active","ping":70},{"user_id":476,"name":"dopamine enjoyer","steam_id":76561198140591983,"connected_time":4102000000000,"state":"active","ping":105},{"user_id":417,"name":"mohemmedmokhter2005","steam_id":76561199197650506,"connected_time":9585000000000,"state":"active","ping":116},{"user_id":513,"name":"pyrolations","steam_id":76561198315371425,"connected_time":823000000000,"state":"active","ping":53},{"user_id":509,"name":"astigmatic","steam_id":76561199103959197,"connected_time":1263000000000,"state":"active","ping":97},{"user_id":467,"name":"froglids","steam_id":76561198045466919,"connected_time":5158000000000,"state":"active","ping":69},{"user_id":522,"name":"swallowed 10 pennies please hel","steam_id":76561198055816412,"connected_time":126000000000,"state":"active","ping":47},{"user_id":507,"name":"Larry Penus","steam_id":76561198207546233,"connected_time":1584000000000,"state":"active","ping":45},{"user_id":443,"name":"Master Of Noob","steam_id":76561198217926783,"connected_time":6908000000000,"state":"active","ping":81},{"user_id":404,"name":"Ewelinka Zniszczenia","steam_id":76561198307374456,"connected_time":9848000000000,"state":"active","ping":81},{"user_id":508,"name":"Anri Okita's Massive Milkers","steam_id":76561199186352720,"connected_time":1570000000000,"state":"active","ping":60},{"user_id":460,"name":"tm`","steam_id":76561197993580412,"connected_time":5573000000000,"state":"active","ping":70},{"user_id":486,"name":"hallu","steam_id":76561198198581079,"connected_time":3624000000000,"state":"active","ping":79},{"user_id":511,"name":"STiNGHAN","steam_id":76561198023989090,"connected_time":1014000000000,"state":"active","ping":91},{"user_id":520,"name":"please do not the cat","steam_id":76561198089003514,"connected_time":326000000000,"state":"active","ping":50},{"user_id":512,"name":"èª°ã‹ãŒè¦‹ã¦ã„ã‚‹","steam_id":76561198834913692,"connected_time":1004000000000,"state":"active","ping":75},{"user_id":514,"name":"cuddles \u003c3","steam_id":76561198805181599,"connected_time":816000000000,"state":"active","ping":58},{"user_id":463,"name":"Valen","steam_id":76561198049614521,"connected_time":5558000000000,"state":"active","ping":75},{"user_id":505,"name":"The Lady","steam_id":76561198029895809,"connected_time":1703000000000,"state":"active","ping":90},{"user_id":518,"name":"leeloo","steam_id":76561199256962353,"connected_time":628000000000,"state":"active","ping":81},{"user_id":523,"name":"t0ast","steam_id":76561198141722573,"connected_time":82000000000,"state":"active","ping":31},{"user_id":519,"name":"avenje","steam_id":76561198155824845,"connected_time":357000000000,"state":"active","ping":73},{"user_id":510,"name":"Mario Moretti [BR]","steam_id":76561198179299606,"connected_time":1055000000000,"state":"active","ping":107},{"user_id":493,"name":"Snowmotion","steam_id":76561198075022454,"connected_time":2282000000000,"state":"active","ping":65}]},{"server_id":40,"name":"Uncletopia | London | 7 | No Payload","name_short":"lon-7","host":"lon-1.uk.uncletopia.com","port":27075,"enabled":true,"region":"eu","cc":"gb","latitude":51.509865,"longitude":-0.118092,"reserved":0,"last_update":"0001-01-01T00:00:00Z","name_a2s":"Uncletopia | London | 7 | No Payload","protocol":17,"map":"koth_viaduct","folder":"tf","game":"Team Fortress","app_id":440,"player_count":21,"max_players":24,"Bots":0,"server_type":"Dedicated","server_os":"Linux","password":true,"vac":true,"version":"7932396","steam_id":85568392924964314,"keywords":["cp","nocrits","nodmgspread","uncletopia"],"game_id":440,"stv_port":27076,"stv_name":"Uncletopia | London | 7 | No Payload | STV","players":[{"user_id":383,"name":"Lempii","steam_id":76561198433507634,"connected_time":1521000000000,"state":"active","ping":94},{"user_id":396,"name":"strangedeath","steam_id":76561198154159297,"connected_time":83000000000,"state":"active","ping":146},{"user_id":395,"name":"Herb","steam_id":76561198205266944,"connected_time":151000000000,"state":"active","ping":44},{"user_id":392,"name":"SiegeBreaker42","steam_id":76561198444723217,"connected_time":873000000000,"state":"active","ping":134},{"user_id":394,"name":"Percula","steam_id":76561197980103022,"connected_time":294000000000,"state":"active","ping":56},{"user_id":393,"name":"Xanshi","steam_id":76561198152392309,"connected_time":772000000000,"state":"active","ping":49},{"user_id":378,"name":"Gentlemann of Scotland","steam_id":76561198073941805,"connected_time":1919000000000,"state":"active","ping":56},{"user_id":397,"name":"ulackhate","steam_id":76561198869437637,"connected_time":59000000000,"state":"active","ping":171},{"user_id":384,"name":"Mr. Mackey","steam_id":76561199077027954,"connected_time":1488000000000,"state":"active","ping":150},{"user_id":398,"name":"Breaking Enigma","steam_id":76561198027033926,"connected_time":34000000000,"state":"active","ping":45},{"user_id":385,"name":"\u003cJACK\u003e","steam_id":76561198090405664,"connected_time":1475000000000,"state":"active","ping":46},{"user_id":386,"name":"Rook","steam_id":76561197995204779,"connected_time":1444000000000,"state":"active","ping":44},{"user_id":376,"name":"Husk","steam_id":76561198271808519,"connected_time":1996000000000,"state":"active","ping":59},{"user_id":377,"name":"matty","steam_id":76561198131577097,"connected_time":1993000000000,"state":"active","ping":50},{"user_id":358,"name":"pizzaboob","steam_id":76561198097507847,"connected_time":2936000000000,"state":"active","ping":86},{"user_id":380,"name":"HetNet","steam_id":76561198207584963,"connected_time":1764000000000,"state":"active","ping":74},{"user_id":360,"name":"Cheshireycat","steam_id":76561198067204908,"connected_time":2930000000000,"state":"active","ping":56},{"user_id":361,"name":"Nyhde","steam_id":76561198012771416,"connected_time":2927000000000,"state":"active","ping":83},{"user_id":381,"name":"Tin","steam_id":76561198022201818,"connected_time":1763000000000,"state":"active","ping":46},{"user_id":387,"name":"TheEventGuy","steam_id":76561197972797744,"connected_time":1436000000000,"state":"active","ping":66},{"user_id":388,"name":"ðŸ’ŽFAMOUSðŸ’Ž","steam_id":76561198130021194,"connected_time":1367000000000,"state":"active","ping":91}]},{"server_id":41,"name":"Uncletopia | London | 8 | Community","name_short":"lon-8","host":"lon-1.uk.uncletopia.com","port":27085,"enabled":true,"region":"eu","cc":"gb","latitude":51.509865,"longitude":-0.118092,"reserved":0,"last_update":"0001-01-01T00:00:00Z","name_a2s":"Uncletopia | London | 8 | Community","protocol":17,"map":"workshop/pl_badwater_pro_v12.ugc2142942074","folder":"tf","game":"Team Fortress","app_id":440,"player_count":7,"max_players":24,"Bots":0,"server_type":"Dedicated","server_os":"Linux","password":true,"vac":true,"version":"7932396","steam_id":85568392924964315,"keywords":["nocrits","nodmgspread","payload","uncletopia"],"game_id":440,"stv_port":27086,"stv_name":"Uncletopia | London | 8 | Community | STV","players":[{"user_id":39,"name":"Spirlz","steam_id":76561198366717871,"connected_time":2093000000000,"state":"active","ping":46},{"user_id":31,"name":"Wattsit","steam_id":76561198250015476,"connected_time":4169000000000,"state":"active","ping":97},{"user_id":32,"name":"Hubble","steam_id":76561198329002678,"connected_time":4149000000000,"state":"active","ping":43},{"user_id":33,"name":"ComradeFloppy","steam_id":76561198295671740,"connected_time":4126000000000,"state":"active","ping":36},{"user_id":42,"name":"Ixsus\u003c3","steam_id":76561198094756869,"connected_time":467000000000,"state":"active","ping":74},{"user_id":43,"name":"hedon/","steam_id":76561198249832770,"connected_time":91000000000,"state":"active","ping":42},{"user_id":44,"name":"Earthyburt","steam_id":76561198274964268,"connected_time":59000000000,"state":"active","ping":146}]},{"server_id":300,"name":"Uncletopia | MontrÃ©al | 1 | All Maps","name_short":"mtl-1","host":"mtl-1.ca.uncletopia.com","port":27015,"enabled":true,"region":"us-east","cc":"ca","latitude":45.50889,"longitude":-73.56167,"reserved":0,"last_update":"0001-01-01T00:00:00Z","name_a2s":"Uncletopia | MontrÃ©al | 1 | All Maps","protocol":17,"map":"pl_barnblitz","folder":"tf","game":"Team Fortress","app_id":440,"player_count":0,"max_players":24,"Bots":0,"server_type":"Dedicated","server_os":"Linux","password":true,"vac":true,"version":"7932396","steam_id":85568392924500087,"keywords":["nocrits","nodmgspread","payload","uncletopia"],"game_id":440,"stv_port":27016,"stv_name":"Uncletopia | MontrÃ©al | 1 | All Maps | STV","players":null},{"server_id":301,"name":"Uncletopia | MontrÃ©al | 2 | All Maps","name_short":"mtl-2","host":"mtl-1.ca.uncletopia.com","port":27025,"enabled":true,"region":"us-east","cc":"ca","latitude":45.50889,"longitude":-73.56167,"reserved":0,"last_update":"0001-01-01T00:00:00Z","name_a2s":"Uncletopia | MontrÃ©al | 2 | All Maps","protocol":17,"map":"cp_process_final","folder":"tf","game":"Team Fortress","app_id":440,"player_count":5,"max_players":24,"Bots":0,"server_type":"Dedicated","server_os":"Linux","password":true,"vac":true,"version":"7932396","steam_id":85568392924500088,"keywords":["cp","nocrits","nodmgspread","uncletopia"],"game_id":440,"stv_port":27026,"stv_name":"Uncletopia | MontrÃ©al | 2 | All Maps | STV","players":[{"user_id":8,"name":"lolzfrdawin21","steam_id":76561199006665979,"connected_time":2659000000000,"state":"active","ping":75},{"user_id":9,"name":"DrDan64","steam_id":76561199013363718,"connected_time":2482000000000,"state":"active","ping":73},{"user_id":10,"name":"sway sunnay","steam_id":76561198308817394,"connected_time":2399000000000,"state":"active","ping":72},{"user_id":11,"name":"cool beans","steam_id":76561198321591685,"connected_time":2385000000000,"state":"active","ping":90},{"user_id":16,"name":"gideon nav my beloved","steam_id":76561198259092181,"connected_time":174000000000,"state":"active","ping":41}]},{"server_id":302,"name":"Uncletopia | MontrÃ©al | 3 | All Maps","name_short":"mtl-3","host":"mtl-1.ca.uncletopia.com","port":27035,"enabled":true,"region":"us-east","cc":"ca","latitude":45.50889,"longitude":-73.56167,"reserved":0,"last_update":"0001-01-01T00:00:00Z","name_a2s":"Uncletopia | MontrÃ©al | 3 | All Maps","protocol":17,"map":"cp_mountainlab","folder":"tf","game":"Team Fortress","app_id":440,"player_count":0,"max_players":24,"Bots":0,"server_type":"Dedicated","server_os":"Linux","password":true,"vac":true,"version":"7932396","steam_id":85568392924500089,"keywords":["cp","nocrits","nodmgspread","uncletopia"],"game_id":440,"stv_port":27036,"stv_name":"Uncletopia | MontrÃ©al | 3 | All Maps | STV","players":null},{"server_id":303,"name":"Uncletopia | MontrÃ©al | 4 | No Payload","name_short":"mtl-4","host":"mtl-1.ca.uncletopia.com","port":27045,"enabled":true,"region":"us-east","cc":"ca","latitude":45.50889,"longitude":-73.56167,"reserved":0,"last_update":"0001-01-01T00:00:00Z","name_a2s":"Uncletopia | MontrÃ©al | 4 | No Payload","protocol":17,"map":"cp_snakewater_final1","folder":"tf","game":"Team Fortress","app_id":440,"player_count":0,"max_players":24,"Bots":0,"server_type":"Dedicated","server_os":"Linux","password":true,"vac":true,"version":"7932396","steam_id":85568392924500090,"keywords":["cp","nocrits","nodmgspread","uncletopia"],"game_id":440,"stv_port":27046,"stv_name":"Uncletopia | MontrÃ©al | 4 | No Payload | STV","players":null},{"server_id":13,"name":"Uncletopia | New York City | 1 | All Maps","name_short":"nyc-1","host":"nyc-1.us.uncletopia.com","port":27015,"enabled":true,"region":"us-east","cc":"us","latitude":40.73061,"longitude":-73.93524,"reserved":0,"last_update":"0001-01-01T00:00:00Z","name_a2s":"Uncletopia | New York City | 1 | All Maps","protocol":17,"map":"pl_snowycoast","folder":"tf","game":"Team Fortress","app_id":440,"player_count":21,"max_players":24,"Bots":0,"server_type":"Dedicated","server_os":"Linux","password":true,"vac":true,"version":"7932396","steam_id":85568392924469993,"keywords":["nocrits","nodmgspread","payload","uncletopia"],"game_id":440,"stv_port":27016,"stv_name":"Uncletopia | New York City | 1 | All Maps | STV","players":[{"user_id":416,"name":"wahooka","steam_id":76561197981211922,"connected_time":1961000000000,"state":"active","ping":54},{"user_id":443,"name":"boe jiden","steam_id":76561198041048289,"connected_time":816000000000,"state":"active","ping":41},{"user_id":428,"name":"ReGaBe","steam_id":76561198126005470,"connected_time":1427000000000,"state":"active","ping":75},{"user_id":426,"name":"Sunshine","steam_id":76561198085837469,"connected_time":1513000000000,"state":"active","ping":75},{"user_id":427,"name":"thefrozenphantomofjustice","steam_id":76561198984086011,"connected_time":1435000000000,"state":"active","ping":89},{"user_id":429,"name":"Oddjob","steam_id":76561198976160793,"connected_time":1417000000000,"state":"active","ping":66},{"user_id":431,"name":"Paladin","steam_id":76561198047617528,"connected_time":1400000000000,"state":"active","ping":76},{"user_id":435,"name":"D","steam_id":76561198292908619,"connected_time":1197000000000,"state":"active","ping":68},{"user_id":434,"name":"ColecoCat","steam_id":76561199404293117,"connected_time":1301000000000,"state":"active","ping":70},{"user_id":425,"name":"Ghost Modern Warfare 2 (2022)","steam_id":76561198116295334,"connected_time":1629000000000,"state":"active","ping":56},{"user_id":436,"name":"LumberJackie","steam_id":76561198891268561,"connected_time":1196000000000,"state":"active","ping":70},{"user_id":444,"name":"malon milk","steam_id":76561198042558913,"connected_time":810000000000,"state":"active","ping":57},{"user_id":438,"name":"gemstone_frenzy","steam_id":76561198093821680,"connected_time":1038000000000,"state":"active","ping":69},{"user_id":439,"name":"Father of The Year","steam_id":76561198208743000,"connected_time":945000000000,"state":"active","ping":61},{"user_id":442,"name":"Robo Boss","steam_id":76561199067098696,"connected_time":905000000000,"state":"active","ping":88},{"user_id":454,"name":"Myn","steam_id":76561198055438857,"connected_time":65000000000,"state":"active","ping":68},{"user_id":452,"name":"Black Guy (REAL)","steam_id":76561199093824429,"connected_time":558000000000,"state":"active","ping":93},{"user_id":448,"name":"Dullahan","steam_id":76561198119668908,"connected_time":662000000000,"state":"active","ping":107},{"user_id":449,"name":"GreenApples","steam_id":76561198120559543,"connected_time":653000000000,"state":"active","ping":117},{"user_id":453,"name":"Sarah D she\\her","steam_id":76561199376578224,"connected_time":541000000000,"state":"active","ping":115},{"user_id":451,"name":"Xx_gam3rberg_xX","steam_id":76561199035781025,"connected_time":648000000000,"state":"active","ping":70}]},{"server_id":14,"name":"Uncletopia | New York City | 2 | All Maps","name_short":"nyc-2","host":"nyc-1.us.uncletopia.com","port":27025,"enabled":true,"region":"us-east","cc":"us","latitude":40.73061,"longitude":-73.93524,"reserved":0,"last_update":"0001-01-01T00:00:00Z","name_a2s":"Uncletopia | New York City | 2 | All Maps","protocol":17,"map":"pl_borneo","folder":"tf","game":"Team Fortress","app_id":440,"player_count":24,"max_players":24,"Bots":0,"server_type":"Dedicated","server_os":"Linux","password":true,"vac":true,"version":"7932396","steam_id":85568392924469994,"keywords":["nocrits","nodmgspread","payload","uncletopia"],"game_id":440,"stv_port":27026,"stv_name":"Uncletopia | New York City | 2 | All Maps | STV","players":[{"user_id":569,"name":"AlcoholicDad454","steam_id":76561198157414556,"connected_time":840000000000,"state":"active","ping":92},{"user_id":568,"name":"Bostonstapler","steam_id":76561197996334971,"connected_time":945000000000,"state":"active","ping":77},{"user_id":535,"name":"glue sniffer","steam_id":76561198044689778,"connected_time":2715000000000,"state":"active","ping":46},{"user_id":551,"name":"extra purple","steam_id":76561198044344111,"connected_time":1574000000000,"state":"active","ping":47},{"user_id":564,"name":"the_willy12","steam_id":76561199145029672,"connected_time":1133000000000,"state":"active","ping":68},{"user_id":577,"name":"PK","steam_id":76561198368722500,"connected_time":425000000000,"state":"active","ping":68},{"user_id":578,"name":"cl_showpaws 1","steam_id":76561198160455073,"connected_time":158000000000,"state":"active","ping":92},{"user_id":573,"name":"2x4 =)","steam_id":76561198971497888,"connected_time":509000000000,"state":"active","ping":71},{"user_id":542,"name":"Draco6257","steam_id":76561199147322448,"connected_time":2428000000000,"state":"active","ping":29},{"user_id":554,"name":"The premium licking experience","steam_id":76561199213456232,"connected_time":1523000000000,"state":"active","ping":118},{"user_id":561,"name":"Ozald","steam_id":76561199092019322,"connected_time":1288000000000,"state":"active","ping":67},{"user_id":529,"name":"Bootes","steam_id":76561197968255551,"connected_time":2996000000000,"state":"active","ping":51},{"user_id":545,"name":"eish","steam_id":76561198089463603,"connected_time":1904000000000,"state":"active","ping":130},{"user_id":516,"name":"Moonkey","steam_id":76561199013741389,"connected_time":3819000000000,"state":"active","ping":45},{"user_id":556,"name":"CS 2","steam_id":76561198972902040,"connected_time":1512000000000,"state":"active","ping":148},{"user_id":572,"name":"Phil Collins","steam_id":76561198068868644,"connected_time":518000000000,"state":"active","ping":111},{"user_id":570,"name":"Mr. Durian","steam_id":76561198093813212,"connected_time":570000000000,"state":"active","ping":66},{"user_id":580,"name":"SneakyJayMLP","steam_id":76561198969565685,"connected_time":36000000000,"state":"active","ping":70},{"user_id":576,"name":"Ruby Gillman","steam_id":76561198366299848,"connected_time":439000000000,"state":"active","ping":81},{"user_id":581,"name":"Tf2isafungame","steam_id":76561199070031623,"connected_time":6000000000,"state":"spawning","ping":60},{"user_id":563,"name":"Juggn","steam_id":76561199023743672,"connected_time":1198000000000,"state":"active","ping":61},{"user_id":560,"name":"meat glasses","steam_id":76561198046742645,"connected_time":1333000000000,"state":"active","ping":60},{"user_id":579,"name":"Fredrick","steam_id":76561197981419964,"connected_time":124000000000,"state":"active","ping":53},{"user_id":559,"name":"melvinsaurus56430","steam_id":76561198170276601,"connected_time":1493000000000,"state":"active","ping":114}]},{"server_id":15,"name":"Uncletopia | New York City | 3 | Stopwatch Beta","name_short":"nyc-3","host":"nyc-1.us.uncletopia.com","port":27035,"enabled":true,"region":"us-east","cc":"us","latitude":40.73061,"longitude":-73.93524,"reserved":0,"last_update":"0001-01-01T00:00:00Z","name_a2s":"Uncletopia | New York City | 3 | Stopwatch Beta","protocol":17,"map":"workshop/koth_bagel_rc6.ugc2514036946","folder":"tf","game":"Team Fortress","app_id":440,"player_count":0,"max_players":24,"Bots":0,"server_type":"Dedicated","server_os":"Linux","password":true,"vac":true,"version":"7932396","steam_id":85568392924742820,"keywords":["cp","nocrits","nodmgspread","uncletopia"],"game_id":440,"stv_port":27036,"stv_name":"Uncletopia | New York City | 3 | Stopwatch Beta | STV","players":null},{"server_id":16,"name":"Uncletopia | New York City | 4 | Community","name_short":"nyc-4","host":"nyc-1.us.uncletopia.com","port":27045,"enabled":true,"region":"us-east","cc":"us","latitude":40.73061,"longitude":-73.93524,"reserved":0,"last_update":"0001-01-01T00:00:00Z","name_a2s":"Uncletopia | New York City | 4 | Community","protocol":17,"map":"workshop/koth_ashville_final.ugc2130459942","folder":"tf","game":"Team Fortress","app_id":440,"player_count":0,"max_players":24,"Bots":0,"server_type":"Dedicated","server_os":"Linux","password":true,"vac":true,"version":"7932396","steam_id":85568392924742821,"keywords":["cp","nocrits","nodmgspread","uncletopia"],"game_id":440,"stv_port":27046,"stv_name":"Uncletopia | New York City | 4 | Community | STV","players":null},{"server_id":142,"name":"Uncletopia | SÃ£o Paulo | 1 | All Maps","name_short":"sao-1","host":"sao-1.br.uncletopia.com","port":27015,"enabled":true,"region":"sa","cc":"br","latitude":-23.533773,"longitude":-46.62529,"reserved":0,"last_update":"0001-01-01T00:00:00Z","name_a2s":"Uncletopia | SÃ£o Paulo | 1 | All Maps","protocol":17,"map":"koth_viaduct","folder":"tf","game":"Team Fortress","app_id":440,"player_count":0,"max_players":24,"Bots":0,"server_type":"Dedicated","server_os":"Linux","password":true,"vac":true,"version":"7932396","steam_id":85568392924469996,"keywords":["cp","nocrits","nodmgspread","uncletopia"],"game_id":440,"stv_port":27016,"stv_name":"Uncletopia | SÃ£o Paulo | 1 | All Maps | STV","players":null},{"server_id":143,"name":"Uncletopia | SÃ£o Paulo | 2 | All Maps","name_short":"sao-2","host":"sao-2.br.uncletopia.com","port":27015,"enabled":true,"region":"sa","cc":"br","latitude":-23.533773,"longitude":-46.62529,"reserved":0,"last_update":"0001-01-01T00:00:00Z","name_a2s":"Uncletopia | SÃ£o Paulo | 2 | All Maps","protocol":17,"map":"pl_borneo","folder":"tf","game":"Team Fortress","app_id":440,"player_count":11,"max_players":24,"Bots":0,"server_type":"Dedicated","server_os":"Linux","password":true,"vac":true,"version":"7932396","steam_id":85568392924485349,"keywords":["nocrits","nodmgspread","payload","uncletopia"],"game_id":440,"stv_port":27016,"stv_name":"Uncletopia | SÃ£o Paulo | 2 | All Maps | STV","players":[{"user_id":91,"name":"Songalongamon","steam_id":76561198114565169,"connected_time":469000000000,"state":"active","ping":47},{"user_id":92,"name":"jr_","steam_id":76561198313937899,"connected_time":311000000000,"state":"active","ping":51},{"user_id":74,"name":"mg11a3","steam_id":76561198872798175,"connected_time":1752000000000,"state":"active","ping":45},{"user_id":47,"name":"anaheisenberg","steam_id":76561198304847307,"connected_time":4756000000000,"state":"active","ping":59},{"user_id":93,"name":"Tou_Matt","steam_id":76561198898317327,"connected_time":226000000000,"state":"active","ping":58},{"user_id":64,"name":"iko","steam_id":76561198965538287,"connected_time":2606000000000,"state":"active","ping":51},{"user_id":94,"name":"Tio KillerParty","steam_id":76561198067918814,"connected_time":173000000000,"state":"active","ping":59},{"user_id":55,"name":"vacaloca25","steam_id":76561198082683352,"connected_time":3557000000000,"state":"active","ping":60},{"user_id":56,"name":"Frans","steam_id":76561198207928860,"connected_time":3471000000000,"state":"active","ping":39},{"user_id":57,"name":"Flapjack","steam_id":76561198117916299,"connected_time":3378000000000,"state":"active","ping":48},{"user_id":77,"name":"t1m3*","steam_id":76561198323414954,"connected_time":1484000000000,"state":"active","ping":44}]},{"server_id":7,"name":"Uncletopia | Seattle | 1 | All Maps","name_short":"sea-1","host":"sea-1.us.uncletopia.com","port":27015,"enabled":true,"region":"us-west","cc":"us","latitude":47.608013,"longitude":-122.33517,"reserved":0,"last_update":"0001-01-01T00:00:00Z","name_a2s":"Uncletopia | Seattle | 1 | All Maps","protocol":17,"map":"pl_frontier_final","folder":"tf","game":"Team Fortress","app_id":440,"player_count":24,"max_players":24,"Bots":0,"server_type":"Dedicated","server_os":"Linux","password":true,"vac":true,"version":"7932396","steam_id":85568392924469997,"keywords":["nocrits","nodmgspread","payload","uncletopia"],"game_id":440,"stv_port":27016,"stv_name":"Uncletopia | Seattle | 1 | All Maps | STV","players":[{"user_id":511,"name":"Scut","steam_id":76561198973734291,"connected_time":2114000000000,"state":"active","ping":72},{"user_id":528,"name":"Theory-Y","steam_id":76561198116419931,"connected_time":705000000000,"state":"active","ping":57},{"user_id":466,"name":"Mediarch","steam_id":76561198050765729,"connected_time":5124000000000,"state":"active","ping":57},{"user_id":471,"name":"VerminKing","steam_id":76561198060887391,"connected_time":4262000000000,"state":"active","ping":61},{"user_id":529,"name":"Alltrex","steam_id":76561198202254225,"connected_time":677000000000,"state":"active","ping":46},{"user_id":530,"name":"azureglxy","steam_id":76561198861388315,"connected_time":649000000000,"state":"active","ping":74},{"user_id":524,"name":"K.A.R.M.A.","steam_id":76561198240750142,"connected_time":806000000000,"state":"active","ping":74},{"user_id":516,"name":"parkace","steam_id":76561198079476666,"connected_time":1851000000000,"state":"active","ping":101},{"user_id":525,"name":"Strikerbolt","steam_id":76561199095622897,"connected_time":805000000000,"state":"active","ping":74},{"user_id":512,"name":"Cresty","steam_id":76561199118643461,"connected_time":2112000000000,"state":"active","ping":63},{"user_id":504,"name":"Little Linguine","steam_id":76561198816986370,"connected_time":2261000000000,"state":"active","ping":63},{"user_id":502,"name":"SecurityCamera","steam_id":76561198117266792,"connected_time":2653000000000,"state":"active","ping":91},{"user_id":487,"name":"That1GuyPrivate","steam_id":76561199121501157,"connected_time":3389000000000,"state":"active","ping":90},{"user_id":522,"name":"Tomato","steam_id":76561197996472649,"connected_time":945000000000,"state":"active","ping":119},{"user_id":507,"name":"Yoshimelon","steam_id":76561198253054325,"connected_time":2185000000000,"state":"active","ping":92},{"user_id":514,"name":"Thank Todd","steam_id":76561199417044011,"connected_time":2063000000000,"state":"active","ping":100},{"user_id":523,"name":"Attrition","steam_id":76561197969881916,"connected_time":850000000000,"state":"active","ping":59},{"user_id":510,"name":"Strange","steam_id":76561198310853086,"connected_time":2137000000000,"state":"active","ping":156},{"user_id":480,"name":"Dr. Karl, the AUS Science Guy","steam_id":76561198031278747,"connected_time":3434000000000,"state":"active","ping":51},{"user_id":526,"name":"Ayayayayayahuasca","steam_id":76561199002906056,"connected_time":774000000000,"state":"active","ping":49},{"user_id":513,"name":"Cheezbeargur","steam_id":76561198164702899,"connected_time":2109000000000,"state":"active","ping":73},{"user_id":433,"name":"ZEKKER","steam_id":76561197967968980,"connected_time":8652000000000,"state":"active","ping":55},{"user_id":468,"name":"BigBattleToaster","steam_id":76561199087551431,"connected_time":4765000000000,"state":"active","ping":130},{"user_id":495,"name":"fwoov","steam_id":76561198129166260,"connected_time":3239000000000,"state":"active","ping":83}]},{"server_id":119,"name":"Uncletopia | Seattle | 2 | All Maps","name_short":"sea-2","host":"sea-1.us.uncletopia.com","port":27025,"enabled":true,"region":"us-west","cc":"us","latitude":47.608013,"longitude":-122.33517,"reserved":0,"last_update":"0001-01-01T00:00:00Z","name_a2s":"Uncletopia | Seattle | 2 | All Maps","protocol":17,"map":"koth_harvest_final","folder":"tf","game":"Team Fortress","app_id":440,"player_count":24,"max_players":24,"Bots":0,"server_type":"Dedicated","server_os":"Linux","password":true,"vac":true,"version":"7932396","steam_id":85568392924469998,"keywords":["cp","nocrits","nodmgspread","uncletopia"],"game_id":440,"stv_port":27026,"stv_name":"Uncletopia | Seattle | 2 | All Maps | STV","players":[{"user_id":419,"name":"â™¦Benjiâ™¦","steam_id":76561198313529973,"connected_time":1102000000000,"state":"active","ping":41},{"user_id":436,"name":"Deepfried-Mayonnaise","steam_id":76561198103460235,"connected_time":241000000000,"state":"active","ping":53},{"user_id":420,"name":"MCman","steam_id":76561198412110305,"connected_time":1088000000000,"state":"active","ping":74},{"user_id":429,"name":"losername","steam_id":76561198996656885,"connected_time":989000000000,"state":"active","ping":88},{"user_id":408,"name":"8bitw0rld","steam_id":76561198092788818,"connected_time":1975000000000,"state":"active","ping":51},{"user_id":423,"name":"hestia-sm0ker","steam_id":76561198051881047,"connected_time":1072000000000,"state":"active","ping":78},{"user_id":403,"name":"Walrusto","steam_id":76561198829644616,"connected_time":2152000000000,"state":"active","ping":80},{"user_id":404,"name":"â™¥","steam_id":76561198824691581,"connected_time":2112000000000,"state":"active","ping":92},{"user_id":397,"name":"Mr. Carfox","steam_id":76561198041664428,"connected_time":2338000000000,"state":"active","ping":68},{"user_id":434,"name":"The_RainbowTrout","steam_id":76561199309554436,"connected_time":797000000000,"state":"active","ping":41},{"user_id":438,"name":"Gà¶žMER","steam_id":76561198340389876,"connected_time":96000000000,"state":"active","ping":81},{"user_id":424,"name":"Muralo","steam_id":76561198202160268,"connected_time":1057000000000,"state":"active","ping":52},{"user_id":367,"name":"io_est","steam_id":76561198079538952,"connected_time":5218000000000,"state":"active","ping":51},{"user_id":425,"name":"ThatsQuackers","steam_id":76561199172972873,"connected_time":1035000000000,"state":"active","ping":78},{"user_id":371,"name":"Goat","steam_id":76561198068447650,"connected_time":4985000000000,"state":"active","ping":119},{"user_id":401,"name":"Galmart","steam_id":76561199122036524,"connected_time":2205000000000,"state":"active","ping":129},{"user_id":410,"name":"weed lesbian","steam_id":76561198042263805,"connected_time":1911000000000,"state":"active","ping":49},{"user_id":430,"name":"Otterstream8502","steam_id":76561198343767866,"connected_time":892000000000,"state":"active","ping":56},{"user_id":411,"name":"selvhat","steam_id":76561198114225509,"connected_time":1860000000000,"state":"active","ping":75},{"user_id":433,"name":"MayKaye","steam_id":76561199016092265,"connected_time":826000000000,"state":"active","ping":93},{"user_id":427,"name":"Banzai","steam_id":76561198196503877,"connected_time":1028000000000,"state":"active","ping":52},{"user_id":428,"name":"'TTEBAYO KAWAII SUGOIII OOO \u003e.\u003c","steam_id":76561198990902905,"connected_time":1012000000000,"state":"active","ping":80},{"user_id":439,"name":"Lilith","steam_id":76561198120362654,"connected_time":90000000000,"state":"active","ping":45},{"user_id":415,"name":"chronic water drinker","steam_id":76561198291275012,"connected_time":1722000000000,"state":"active","ping":56}]},{"server_id":406,"name":"Uncletopia | Seattle | 3 | Stopwatch Beta","name_short":"sea-3","host":"sea-1.us.uncletopia.com","port":27035,"enabled":true,"region":"us-west","cc":"us","latitude":47.608013,"longitude":-122.33517,"reserved":0,"last_update":"0001-01-01T00:00:00Z","name_a2s":"Uncletopia | Seattle | 3 | Stopwatch Beta","protocol":17,"map":"pl_upward","folder":"tf","game":"Team Fortress","app_id":440,"player_count":0,"max_players":24,"Bots":0,"server_type":"Dedicated","server_os":"Linux","password":true,"vac":true,"version":"7932396","steam_id":85568392924515217,"keywords":["nocrits","nodmgspread","payload","uncletopia"],"game_id":440,"stv_port":27036,"stv_name":"Uncletopia | Seattle | 3 | Stopwatch Beta | STV","players":null},{"server_id":17,"name":"Uncletopia | San Francisco | 1 | All Maps","name_short":"sfo-1","host":"sfo-1.us.uncletopia.com","port":27015,"enabled":true,"region":"us-west","cc":"us","latitude":37.77397,"longitude":-122.4313,"reserved":0,"last_update":"0001-01-01T00:00:00Z","name_a2s":"Uncletopia | San Francisco | 1 | All Maps","protocol":17,"map":"pl_pier","folder":"tf","game":"Team Fortress","app_id":440,"player_count":24,"max_players":24,"Bots":0,"server_type":"Dedicated","server_os":"Linux","password":true,"vac":true,"version":"7932396","steam_id":85568392924469999,"keywords":["nocrits","nodmgspread","payload","uncletopia"],"game_id":440,"stv_port":27016,"stv_name":"Uncletopia | San Francisco | 1 | All Maps | STV","players":[{"user_id":379,"name":"donutdagger","steam_id":76561199203048300,"connected_time":1023000000000,"state":"active","ping":59},{"user_id":223,"name":"Earl Acton","steam_id":76561198064273772,"connected_time":11701000000000,"state":"active","ping":110},{"user_id":380,"name":"TORN RETINAS","steam_id":76561198033822457,"connected_time":848000000000,"state":"active","ping":74},{"user_id":364,"name":"Sleempreem","steam_id":76561198131987251,"connected_time":1806000000000,"state":"active","ping":49},{"user_id":365,"name":"Krustytoepaste","steam_id":76561198320265524,"connected_time":1722000000000,"state":"active","ping":71},{"user_id":382,"name":"lol","steam_id":76561198026491738,"connected_time":825000000000,"state":"active","ping":60},{"user_id":358,"name":"Fluffy","steam_id":76561198213561811,"connected_time":1988000000000,"state":"active","ping":49},{"user_id":373,"name":"Maid Knight","steam_id":76561198214370515,"connected_time":1181000000000,"state":"active","ping":109},{"user_id":351,"name":"lasky","steam_id":76561198017030029,"connected_time":2425000000000,"state":"active","ping":52},{"user_id":387,"name":"InvaderAlex","steam_id":76561198039232451,"connected_time":338000000000,"state":"active","ping":101},{"user_id":309,"name":"monk mode protocol","steam_id":76561199100342013,"connected_time":6131000000000,"state":"active","ping":53},{"user_id":352,"name":"noellehound","steam_id":76561198108844158,"connected_time":2298000000000,"state":"active","ping":65},{"user_id":370,"name":"PresBidenOfficial","steam_id":76561198030786702,"connected_time":1312000000000,"state":"active","ping":112},{"user_id":388,"name":"s4lmooooooo1301931231","steam_id":76561198055882807,"connected_time":138000000000,"state":"active","ping":69},{"user_id":359,"name":"hotguy6pack","steam_id":76561198881665250,"connected_time":1984000000000,"state":"active","ping":75},{"user_id":389,"name":"quacked!","steam_id":76561198970819395,"connected_time":106000000000,"state":"active","ping":91},{"user_id":375,"name":"LatinRhythms - 4 ref","steam_id":76561198025110751,"connected_time":1146000000000,"state":"active","ping":102},{"user_id":332,"name":"methed up criminal vs baby","steam_id":76561198213385439,"connected_time":3983000000000,"state":"active","ping":87},{"user_id":376,"name":"Stapler","steam_id":76561198099295077,"connected_time":1140000000000,"state":"active","ping":45},{"user_id":203,"name":"lili","steam_id":76561199391478575,"connected_time":13001000000000,"state":"active","ping":84},{"user_id":328,"name":"meow","steam_id":76561198298140571,"connected_time":4376000000000,"state":"active","ping":70},{"user_id":385,"name":"BreadGod","steam_id":76561198050665205,"connected_time":552000000000,"state":"active","ping":108},{"user_id":346,"name":"Thorngot","steam_id":76561198398094468,"connected_time":2986000000000,"state":"active","ping":62},{"user_id":362,"name":"Ike","steam_id":76561198136182766,"connected_time":1939000000000,"state":"active","ping":110}]},{"server_id":18,"name":"Uncletopia | San Francisco | 2 | All Maps","name_short":"sfo-2","host":"sfo-1.us.uncletopia.com","port":27025,"enabled":true,"region":"us-west","cc":"us","latitude":37.77397,"longitude":-122.4313,"reserved":0,"last_update":"0001-01-01T00:00:00Z","name_a2s":"Uncletopia | San Francisco | 2 | All Maps","protocol":17,"map":"pl_pier","folder":"tf","game":"Team Fortress","app_id":440,"player_count":24,"max_players":24,"Bots":0,"server_type":"Dedicated","server_os":"Linux","password":true,"vac":true,"version":"7932396","steam_id":85568392924470000,"keywords":["nocrits","nodmgspread","payload","uncletopia"],"game_id":440,"stv_port":27026,"stv_name":"Uncletopia | San Francisco | 2 | All Maps | STV","players":[{"user_id":183,"name":"Yoyo-Wo","steam_id":76561198880520205,"connected_time":3441000000000,"state":"active","ping":87},{"user_id":228,"name":"Shalom","steam_id":76561198410005222,"connected_time":710000000000,"state":"active","ping":74},{"user_id":229,"name":"Magical.Puffin","steam_id":76561198129039275,"connected_time":671000000000,"state":"active","ping":58},{"user_id":230,"name":"JVKYSL","steam_id":76561199482157711,"connected_time":666000000000,"state":"active","ping":84},{"user_id":184,"name":"sock_vendor","steam_id":76561198059103865,"connected_time":3437000000000,"state":"active","ping":114},{"user_id":213,"name":"soltuno","steam_id":76561198074430565,"connected_time":1809000000000,"state":"active","ping":75},{"user_id":182,"name":"wafflehamster2000","steam_id":76561198849161820,"connected_time":3503000000000,"state":"active","ping":130},{"user_id":224,"name":"megaroboleg","steam_id":76561198844644993,"connected_time":1196000000000,"state":"active","ping":65},{"user_id":238,"name":"Codeine Demon","steam_id":76561198083936090,"connected_time":118000000000,"state":"active","ping":45},{"user_id":237,"name":"Î©_Omega_Î©","steam_id":76561198799639208,"connected_time":212000000000,"state":"active","ping":132},{"user_id":231,"name":"ars110","steam_id":76561198030492435,"connected_time":649000000000,"state":"active","ping":86},{"user_id":212,"name":"InterplanetaryGentlemann","steam_id":76561198146559390,"connected_time":1822000000000,"state":"active","ping":67},{"user_id":239,"name":"Type Three Dabeetus","steam_id":76561198062710038,"connected_time":71000000000,"state":"active","ping":58},{"user_id":222,"name":"goblin","steam_id":76561198051015496,"connected_time":1275000000000,"state":"active","ping":54},{"user_id":236,"name":"green bean","steam_id":76561198113099204,"connected_time":278000000000,"state":"active","ping":31},{"user_id":233,"name":"mrbutter","steam_id":76561198313426539,"connected_time":560000000000,"state":"active","ping":68},{"user_id":205,"name":"DrD","steam_id":76561198067266383,"connected_time":2695000000000,"state":"active","ping":99},{"user_id":226,"name":"Keamy","steam_id":76561199471434875,"connected_time":797000000000,"state":"active","ping":62},{"user_id":220,"name":"Alphaarmy01","steam_id":76561198818913025,"connected_time":1594000000000,"state":"active","ping":115},{"user_id":225,"name":"Fragger Femboy","steam_id":76561198781220345,"connected_time":1170000000000,"state":"active","ping":97},{"user_id":234,"name":"Hubert Paul Flatt","steam_id":76561198137881218,"connected_time":520000000000,"state":"active","ping":71},{"user_id":171,"name":"Tom CrÃºaich","steam_id":76561197999439911,"connected_time":4870000000000,"state":"active","ping":81},{"user_id":201,"name":"HOG RIDER","steam_id":76561198298589502,"connected_time":2938000000000,"state":"active","ping":52},{"user_id":235,"name":"mechanicvirus","steam_id":76561198038161480,"connected_time":518000000000,"state":"active","ping":69}]},{"server_id":19,"name":"Uncletopia | San Francisco | 3 | Stopwatch Beta","name_short":"sfo-3","host":"sfo-1.us.uncletopia.com","port":27035,"enabled":true,"region":"us-west","cc":"us","latitude":37.77397,"longitude":-122.4313,"reserved":0,"last_update":"0001-01-01T00:00:00Z","name_a2s":"Uncletopia | San Francisco | 3 | Stopwatch Beta","protocol":17,"map":"workshop/koth_ramjam_rc1.ugc459778887","folder":"tf","game":"Team Fortress","app_id":440,"player_count":0,"max_players":24,"Bots":0,"server_type":"Dedicated","server_os":"Linux","password":true,"vac":true,"version":"7932396","steam_id":85568392924742824,"keywords":["cp","nocrits","nodmgspread","uncletopia"],"game_id":440,"stv_port":27036,"stv_name":"Uncletopia | San Francisco | 3 | Stopwatch Beta | STV","players":null},{"server_id":20,"name":"Uncletopia | San Francisco | 4 | Community","name_short":"sfo-4","host":"sfo-1.us.uncletopia.com","port":27045,"enabled":true,"region":"us-west","cc":"us","latitude":37.77397,"longitude":-122.4313,"reserved":0,"last_update":"0001-01-01T00:00:00Z","name_a2s":"Uncletopia | San Francisco | 4 | Community","protocol":17,"map":"workshop/koth_ashville_final.ugc2130459942","folder":"tf","game":"Team Fortress","app_id":440,"player_count":3,"max_players":24,"Bots":0,"server_type":"Dedicated","server_os":"Linux","password":true,"vac":true,"version":"7932396","steam_id":85568392924742826,"keywords":["cp","nocrits","nodmgspread","uncletopia"],"game_id":440,"stv_port":27046,"stv_name":"Uncletopia | San Francisco | 4 | Community | STV","players":[{"user_id":20,"name":"Spectre1578","steam_id":76561198953243633,"connected_time":4569000000000,"state":"active","ping":73},{"user_id":33,"name":"Charcoal","steam_id":76561198268638706,"connected_time":138000000000,"state":"active","ping":54},{"user_id":27,"name":"tactical toad","steam_id":76561198309636424,"connected_time":2490000000000,"state":"active","ping":63}]},{"server_id":141,"name":"Uncletopia | Sydney | 1 | All Maps","name_short":"syd-1","host":"syd-1.au.uncletopia.com","port":27015,"enabled":true,"region":"au","cc":"au","latitude":-33.865143,"longitude":151.2099,"reserved":0,"last_update":"0001-01-01T00:00:00Z","name_a2s":"Uncletopia | Sydney | 1 | All Maps","protocol":17,"map":"pl_badwater","folder":"tf","game":"Team Fortress","app_id":440,"player_count":1,"max_players":24,"Bots":0,"server_type":"Dedicated","server_os":"Linux","password":true,"vac":true,"version":"7932396","steam_id":85568392924470001,"keywords":["nocrits","nodmgspread","payload","uncletopia"],"game_id":440,"stv_port":27016,"stv_name":"Uncletopia | Sydney | 1 | All Maps | STV","players":[{"user_id":26,"name":"Medicore69","steam_id":76561199244328624,"connected_time":77000000000,"state":"active","ping":54}]},{"server_id":123,"name":"Uncletopia | Sydney | 2 | All Maps","name_short":"syd-2","host":"syd-1.au.uncletopia.com","port":27025,"enabled":true,"region":"au","cc":"au","latitude":-33.865143,"longitude":151.2099,"reserved":0,"last_update":"0001-01-01T00:00:00Z","name_a2s":"Uncletopia | Sydney | 2 | All Maps","protocol":17,"map":"koth_lakeside_final","folder":"tf","game":"Team Fortress","app_id":440,"player_count":0,"max_players":24,"Bots":0,"server_type":"Dedicated","server_os":"Linux","password":true,"vac":true,"version":"7932396","steam_id":85568392924470002,"keywords":["cp","nocrits","nodmgspread","uncletopia"],"game_id":440,"stv_port":27026,"stv_name":"Uncletopia | Sydney | 2 | All Maps | STV","players":null},{"server_id":395,"name":"Uncletopia | Sydney | 3 | All Maps","name_short":"syd-3","host":"syd-1.au.uncletopia.com","port":27035,"enabled":true,"region":"au","cc":"au","latitude":-33.865143,"longitude":151.2099,"reserved":0,"last_update":"0001-01-01T00:00:00Z","name_a2s":"Uncletopia | Sydney | 3 | All Maps","protocol":17,"map":"pl_upward","folder":"tf","game":"Team Fortress","app_id":440,"player_count":0,"max_players":24,"Bots":0,"server_type":"Dedicated","server_os":"Linux","password":true,"vac":true,"version":"7932396","steam_id":85568392925194467,"keywords":["nocrits","nodmgspread","payload","uncletopia"],"game_id":440,"stv_port":27036,"stv_name":"Uncletopia | Sydney | 3 | All Maps | STV","players":null},{"server_id":396,"name":"Uncletopia | Sydney | 4 | All Maps","name_short":"syd-4","host":"syd-1.au.uncletopia.com","port":27045,"enabled":true,"region":"au","cc":"au","latitude":-33.865143,"longitude":151.2099,"reserved":0,"last_update":"0001-01-01T00:00:00Z","name_a2s":"Uncletopia | Sydney | 4 | All Maps","protocol":17,"map":"pl_pier","folder":"tf","game":"Team Fortress","app_id":440,"player_count":0,"max_players":24,"Bots":0,"server_type":"Dedicated","server_os":"Linux","password":true,"vac":true,"version":"7932396","steam_id":85568392925397958,"keywords":["nocrits","nodmgspread","payload","uncletopia"],"game_id":440,"stv_port":27046,"stv_name":"Uncletopia | Sydney | 4 | All Maps | STV","players":null},{"server_id":58,"name":"Uncletopia | Sydney | 5 | Stopwatch Beta","name_short":"syd-5","host":"syd-1.au.uncletopia.com","port":27055,"enabled":true,"region":"au","cc":"au","latitude":-33.865143,"longitude":151.2099,"reserved":0,"last_update":"0001-01-01T00:00:00Z","name_a2s":"Uncletopia | Sydney | 5 | Stopwatch Beta","protocol":17,"map":"workshop/koth_ashville_final.ugc2130459942","folder":"tf","game":"Team Fortress","app_id":440,"player_count":0,"max_players":24,"Bots":0,"server_type":"Dedicated","server_os":"Linux","password":true,"vac":true,"version":"7932396","steam_id":85568392925397959,"keywords":["cp","nocrits","nodmgspread","uncletopia"],"game_id":440,"stv_port":27056,"stv_name":"Uncletopia | Sydney | 5 | Stopwatch Beta | STV","players":null},{"server_id":59,"name":"Uncletopia | Sydney | 6 | Community","name_short":"syd-6","host":"syd-1.au.uncletopia.com","port":27065,"enabled":true,"region":"au","cc":"au","latitude":-33.865143,"longitude":151.2099,"reserved":0,"last_update":"0001-01-01T00:00:00Z","name_a2s":"Uncletopia | Sydney | 6 | Community","protocol":17,"map":"pl_badwater","folder":"tf","game":"Team Fortress","app_id":440,"player_count":0,"max_players":24,"Bots":0,"server_type":"Dedicated","server_os":"Linux","password":true,"vac":true,"version":"7932396","steam_id":85568392925397960,"keywords":["nocrits","nodmgspread","payload","uncletopia"],"game_id":440,"stv_port":27066,"stv_name":"Uncletopia | Sydney | 6 | Community | STV","players":null},{"server_id":49,"name":"Uncletopia | Warsaw | 1 | All Maps","name_short":"waw-1","host":"waw-1.pl.uncletopia.com","port":27015,"enabled":true,"region":"eu","cc":"pl","latitude":52.2297,"longitude":21.017532,"reserved":0,"last_update":"0001-01-01T00:00:00Z","name_a2s":"","protocol":0,"map":"","folder":"","game":"","app_id":0,"player_count":0,"max_players":0,"Bots":0,"server_type":"","server_os":"","password":false,"vac":false,"version":"","steam_id":0,"keywords":null,"game_id":0,"stv_port":0,"stv_name":"","players":null},{"server_id":50,"name":"Uncletopia | Warsaw | 2 | All Maps","name_short":"waw-2","host":"waw-1.pl.uncletopia.com","port":27025,"enabled":true,"region":"eu","cc":"pl","latitude":52.2297,"longitude":21.017532,"reserved":0,"last_update":"0001-01-01T00:00:00Z","name_a2s":"Uncletopia | Warsaw | 2 | All Maps","protocol":17,"map":"koth_nucleus","folder":"tf","game":"Team Fortress","app_id":440,"player_count":0,"max_players":24,"Bots":0,"server_type":"Dedicated","server_os":"Linux","password":true,"vac":true,"version":"7932396","steam_id":85568392925397851,"keywords":["cp","nocrits","nodmgspread","uncletopia"],"game_id":440,"stv_port":27026,"stv_name":"Uncletopia | Warsaw | 2 | All Maps | STV","players":null},{"server_id":51,"name":"Uncletopia | Warsaw | 3 | All Maps","name_short":"waw-3","host":"waw-1.pl.uncletopia.com","port":27035,"enabled":true,"region":"eu","cc":"pl","latitude":52.2297,"longitude":21.017532,"reserved":0,"last_update":"0001-01-01T00:00:00Z","name_a2s":"Uncletopia | Warsaw | 3 | All Maps","protocol":17,"map":"cp_mountainlab","folder":"tf","game":"Team Fortress","app_id":440,"player_count":0,"max_players":24,"Bots":0,"server_type":"Dedicated","server_os":"Linux","password":true,"vac":true,"version":"7932396","steam_id":85568392925397852,"keywords":["cp","nocrits","nodmgspread","uncletopia"],"game_id":440,"stv_port":27036,"stv_name":"Uncletopia | Warsaw | 3 | All Maps | STV","players":null},{"server_id":52,"name":"Uncletopia | Warsaw | 4 | All Maps","name_short":"waw-4","host":"waw-1.pl.uncletopia.com","port":27045,"enabled":true,"region":"eu","cc":"pl","latitude":52.2297,"longitude":21.017532,"reserved":0,"last_update":"0001-01-01T00:00:00Z","name_a2s":"Uncletopia | Warsaw | 4 | All Maps","protocol":17,"map":"pl_swiftwater_final1","folder":"tf","game":"Team Fortress","app_id":440,"player_count":0,"max_players":24,"Bots":0,"server_type":"Dedicated","server_os":"Linux","password":true,"vac":true,"version":"7932396","steam_id":85568392925397853,"keywords":["nocrits","nodmgspread","payload","uncletopia"],"game_id":440,"stv_port":27046,"stv_name":"Uncletopia | Warsaw | 4 | All Maps | STV","players":null},{"server_id":53,"name":"Uncletopia | Warsaw | 5 | Stopwatch Beta","name_short":"waw-5","host":"waw-1.pl.uncletopia.com","port":27055,"enabled":true,"region":"eu","cc":"pl","latitude":52.2297,"longitude":21.017532,"reserved":0,"last_update":"0001-01-01T00:00:00Z","name_a2s":"Uncletopia | Warsaw | 5 | Stopwatch Beta","protocol":17,"map":"koth_lakeside_final","folder":"tf","game":"Team Fortress","app_id":440,"player_count":0,"max_players":24,"Bots":0,"server_type":"Dedicated","server_os":"Linux","password":true,"vac":true,"version":"7932396","steam_id":85568392925397854,"keywords":["cp","nocrits","nodmgspread","uncletopia"],"game_id":440,"stv_port":27056,"stv_name":"Uncletopia | Warsaw | 5 | Stopwatch Beta | STV","players":null},{"server_id":54,"name":"Uncletopia | Warsaw | 6 | Community","name_short":"waw-6","host":"waw-1.pl.uncletopia.com","port":27065,"enabled":true,"region":"eu","cc":"pl","latitude":52.2297,"longitude":21.017532,"reserved":0,"last_update":"0001-01-01T00:00:00Z","name_a2s":"Uncletopia | Warsaw | 6 | Community","protocol":17,"map":"workshop/koth_ramjam_rc1.ugc459778887","folder":"tf","game":"Team Fortress","app_id":440,"player_count":0,"max_players":24,"Bots":0,"server_type":"Dedicated","server_os":"Linux","password":true,"vac":true,"version":"7932396","steam_id":85568392925397856,"keywords":["cp","nocrits","nodmgspread","uncletopia"],"game_id":440,"stv_port":27066,"stv_name":"Uncletopia | Warsaw | 6 | Community | STV","players":null}]}