{"status":true,"message":"","result":[{"server_id":9,"name":"Uncletopia | Atlanta | 1 | All Maps","name_short":"atl-1","host":"atl-1.us.uncletopia.com","port":27015,"enabled":true,"region":"us-east","cc":"us","latitude":33.753746,"longitude":-84.38633,"reserved":0,"last_update":"0001-01-01T00:00:00Z","name_a2s":"Uncletopia | Atlanta | 1 | All Maps","protocol":17,"map":"koth_cascade","folder":"tf","game":"Team Fortress","app_id":440,"player_count":3,"max_players":24,"Bots":0,"server_type":"Dedicated","server_os":"Linux","password":true,"vac":true,"version":"7961495","steam_id":85568392924469982,"keywords":["cp","nocrits","nodmgspread","uncletopia"],"game_id":440,"stv_port":27016,"stv_name":"Uncletopia | Atlanta | 1 | All Maps | STV","players":null},{"server_id":104,"name":"Uncletopia | Atlanta | 2 | All Maps","name_short":"atl-2","host":"atl-1.us.uncletopia.com","port":27025,"enabled":true,"region":"us-east","cc":"us","latitude":33.753746,"longitude":-84.38633,"reserved":0,"last_update":"0001-01-01T00:00:00Z","name_a2s":"Uncletopia | Atlanta | 2 | All Maps","protocol":17,"map":"pl_swiftwater_final1","folder":"tf","game":"Team Fortress","app_id":440,"player_count":24,"max_players":24,"Bots":0,"server_type":"Dedicated","server_os":"Linux","password":true,"vac":true,"version":"7961495","steam_id":85568392924469983,"keywords":["nocrits","nodmgspread","payload","uncletopia"],"game_id":440,"stv_port":27026,"stv_name":"Uncletopia | Atlanta | 2 | All Maps | STV","players":null},{"server_id":400,"name":"Uncletopia | Atlanta | 3 | Stopwatch","name_short":"atl-3","host":"atl-1.us.uncletopia.com","port":27035,"enabled":true,"region":"us-east","cc":"us","latitude":33.753746,"longitude":-84.38633,"reserved":0,"last_update":"0001-01-01T00:00:00Z","name_a2s":"Uncletopia | Atlanta | 3 | Stopwatch","protocol":17,"map":"cp_process_final","folder":"tf","game":"Team Fortress","app_id":440,"player_count":0,"max_players":24,"Bots":0,"server_type":"Dedicated","server_os":"Linux","password":true,"vac":true,"version":"7961495","steam_id":85568392924515187,"keywords":["cp","nocrits","nodmgspread","uncletopia"],"game_id":440,"stv_port":27036,"stv_name":"Uncletopia | Atlanta | 3 | Stopwatch | STV","players":null},{"server_id":401,"name":"Uncletopia | Atlanta | 4 | Community","name_short":"atl-4","host":"atl-1.us.uncletopia.com","port":27045,"enabled":true,"region":"us-east","cc":"us","latitude":33.753746,"longitude":-84.38633,"reserved":0,"last_update":"0001-01-01T00:00:00Z","name_a2s":"Uncletopia | Atlanta | 4 | Community","protocol":17,"map":"pl_vigil_rc10","folder":"tf","game":"Team Fortress","app_id":440,"player_count":0,"max_players":24,"Bots":0,"server_type":"Dedicated","server_os":"Linux","password":true,"vac":true,"version":"7961495","steam_id":85568392924515188,"keywords":["nocrits","nodmgspread","payload","uncletopia"],"game_id":440,"stv_port":27046,"stv_name":"Uncletopia | Atlanta | 4 | Community | STV","players":null},{"server_id":2,"name":"Uncletopia | Chicago | 1 | All Maps","name_short":"chi-1","host":"chi-1.us.uncletopia.com","port":27015,"enabled":true,"region":"us-central","cc":"us","latitude":41.881832,"longitude":-87.62318,"reserved":0,"last_update":"0001-01-01T00:00:00Z","name_a2s":"Uncletopia | Chicago | 1 | All Maps","protocol":17,"map":"pl_borneo","folder":"tf","game":"Team Fortress","app_id":440,"player_count":23,"max_players":24,"Bots":0,"server_type":"Dedicated","server_os":"Linux","password":true,"vac":true,"version":"7961495","steam_id":85568392924469984,"keywords":["nocrits","nodmgspread","payload","uncletopia"],"game_id":440,"stv_port":27016,"stv_name":"Uncletopia | Chicago | 1 | All Maps | STV","players":[{"user_id":382,"name":"orlando \"eredyn\" arcia","steam_id":76561198868116439,"connected_time":3326000000000,"state":"active","ping":71},{"user_id":424,"name":"papa smerf","steam_id":76561199019665031,"connected_time":1016000000000,"state":"active","ping":52},{"user_id":332,"name":"blob","steam_id":76561198122375328,"connected_time":7152000000000,"state":"active","ping":59},{"user_id":431,"name":"Dalburgh","steam_id":76561198044331017,"connected_time":629000000000,"state":"active","ping":71},{"user_id":427,"name":"Guwop","steam_id":76561197970425737,"connected_time":696000000000,"state":"active","ping":60},{"user_id":426,"name":"leumas","steam_id":76561198240408540,"connected_time":815000000000,"state":"active","ping":59},{"user_id":374,"name":"Blur","steam_id":76561198062314111,"connected_time":5167000000000,"state":"active","ping":74},{"user_id":432,"name":"overload_screeb","steam_id":76561198078633225,"connected_time":394000000000,"state":"active","ping":92},{"user_id":402,"name":"Lamp","steam_id":76561198369922506,"connected_time":2848000000000,"state":"active","ping":62},{"user_id":433,"name":"asfg","steam_id":76561198107931997,"connected_time":178000000000,"state":"active","ping":71},{"user_id":331,"name":"Rex","steam_id":76561198138365053,"connected_time":7278000000000,"state":"active","ping":135},{"user_id":412,"name":"Jamie","steam_id":76561198058840477,"connected_time":1649000000000,"state":"active","ping":99},{"user_id":409,"name":"A Future US Army Soldier","steam_id":76561198008263869,"connected_time":2146000000000,"state":"active","ping":72},{"user_id":434,"name":"Applesauce","steam_id":76561198047011689,"connected_time":64000000000,"state":"active","ping":113},{"user_id":419,"name":"gIBBY","steam_id":76561198080099598,"connected_time":1389000000000,"state":"active","ping":57},{"user_id":435,"name":"Who loves orange soda?","steam_id":76561198059808982,"connected_time":62000000000,"state":"active","ping":60},{"user_id":411,"name":"Lili W.","steam_id":76561199391478575,"connected_time":1652000000000,"state":"active","ping":109},{"user_id":421,"name":"Bee","steam_id":76561198074681324,"connected_time":1175000000000,"state":"active","ping":61},{"user_id":423,"name":"ganchy","steam_id":76561198088384838,"connected_time":1094000000000,"state":"active","ping":73},{"user_id":415,"name":"mn","steam_id":76561198042357436,"connected_time":1552000000000,"state":"active","ping":79},{"user_id":416,"name":"Likeia #Savetf2","steam_id":76561198005214207,"connected_time":1550000000000,"state":"active","ping":67},{"user_id":425,"name":"rivera","steam_id":76561198051058706,"connected_time":878000000000,"state":"active","ping":60},{"user_id":418,"name":"Baby Oil Johnson","steam_id":76561198983866005,"connected_time":1516000000000,"state":"active","ping":75}]},{"server_id":106,"name":"Uncletopia | Chicago | 2 | All Maps","name_short":"chi-2","host":"chi-1.us.uncletopia.com","port":27025,"enabled":true,"region":"us-central","cc":"us","latitude":41.881832,"longitude":-87.62318,"reserved":0,"last_update":"0001-01-01T00:00:00Z","name_a2s":"Uncletopia | Chicago | 2 | All Maps","protocol":17,"map":"pl_badwater","folder":"tf","game":"Team Fortress","app_id":440,"player_count":25,"max_players":24,"Bots":0,"server_type":"Dedicated","server_os":"Linux","password":true,"vac":true,"version":"7961495","steam_id":85568392924469985,"keywords":["nocrits","nodmgspread","payload","uncletopia"],"game_id":440,"stv_port":27026,"stv_name":"Uncletopia | Chicago | 2 | All Maps | STV","players":[{"user_id":540,"name":"Plinko","steam_id":76561197968530638,"connected_time":1591000000000,"state":"active","ping":47},{"user_id":541,"name":"igotmail","steam_id":76561198070631899,"connected_time":1573000000000,"state":"active","ping":61},{"user_id":563,"name":"popfulmail","steam_id":76561198865971290,"connected_time":346000000000,"state":"active","ping":74},{"user_id":543,"name":"Cranial Brain Trauma","steam_id":76561198055876398,"connected_time":1405000000000,"state":"active","ping":53},{"user_id":516,"name":"Kritzburgh","steam_id":76561198149466938,"connected_time":3233000000000,"state":"active","ping":63},{"user_id":535,"name":"Tony Pajamas","steam_id":76561198102299438,"connected_time":1723000000000,"state":"active","ping":57},{"user_id":466,"name":"Mecha","steam_id":76561198014927379,"connected_time":6889000000000,"state":"active","ping":78},{"user_id":542,"name":"JellyParrot","steam_id":76561199190990163,"connected_time":1559000000000,"state":"active","ping":66},{"user_id":549,"name":"5yt LFB","steam_id":76561198041643833,"connected_time":1227000000000,"state":"active","ping":76},{"user_id":554,"name":"hoos","steam_id":76561198045985910,"connected_time":893000000000,"state":"active","ping":72},{"user_id":522,"name":"Arizona Ranger","steam_id":76561199104829802,"connected_time":3164000000000,"state":"active","ping":98},{"user_id":566,"name":"kermitcreeper(ZAZA)","steam_id":76561199222829972,"connected_time":33000000000,"state":"active","ping":45},{"user_id":533,"name":"afroadam","steam_id":76561197993377919,"connected_time":2003000000000,"state":"active","ping":68},{"user_id":561,"name":"RooHanChan","steam_id":76561198118579966,"connected_time":610000000000,"state":"active","ping":85},{"user_id":564,"name":"yeetus meatus","steam_id":76561199204369282,"connected_time":268000000000,"state":"connecting","ping":0},{"user_id":546,"name":"SlurpyTheDog","steam_id":76561198799733154,"connected_time":1250000000000,"state":"active","ping":62},{"user_id":548,"name":"toastman","steam_id":76561198207073088,"connected_time":1243000000000,"state":"active","ping":78},{"user_id":530,"name":"Dr. Ducks","steam_id":76561198116100707,"connected_time":2319000000000,"state":"active","ping":65},{"user_id":459,"name":"FOX News goblin","steam_id":76561198167648580,"connected_time":7327000000000,"state":"active","ping":80},{"user_id":551,"name":"shut up","steam_id":76561198139761609,"connected_time":1210000000000,"state":"active","ping":47},{"user_id":523,"name":"Babymozfather","steam_id":76561199485566302,"connected_time":3123000000000,"state":"active","ping":115},{"user_id":545,"name":"Its_Salty[ST]","steam_id":76561198273978887,"connected_time":1373000000000,"state":"active","ping":64},{"user_id":565,"name":"Satan-2","steam_id":76561199231742764,"connected_time":258000000000,"state":"active","ping":68},{"user_id":552,"name":"D","steam_id":76561198292908619,"connected_time":1210000000000,"state":"active","ping":64},{"user_id":539,"name":"chen","steam_id":76561198064872330,"connected_time":1636000000000,"state":"active","ping":67}]},{"server_id":402,"name":"Uncletopia | Chicago | 3 | All Maps","name_short":"chi-3","host":"chi-1.us.uncletopia.com","port":27035,"enabled":true,"region":"us-central","cc":"us","latitude":41.881832,"longitude":-87.62318,"reserved":0,"last_update":"0001-01-01T00:00:00Z","name_a2s":"Uncletopia | Chicago | 3 | All Maps","protocol":17,"map":"pl_borneo","folder":"tf","game":"Team Fortress","app_id":440,"player_count":24,"max_players":24,"Bots":0,"server_type":"Dedicated","server_os":"Linux","password":true,"vac":true,"version":"7961495","steam_id":85568392924515191,"keywords":["nocrits","nodmgspread","payload","uncletopia"],"game_id":440,"stv_port":27036,"stv_name":"Uncletopia | Chicago | 3 | All Maps | STV","players":[{"user_id":124,"name":"jonathan park","steam_id":76561198133616658,"connected_time":4923000000000,"state":"active","ping":94},{"user_id":185,"name":"Smiles","steam_id":76561198107197973,"connected_time":1381000000000,"state":"active","ping":55},{"user_id":196,"name":"Shady Businessman","steam_id":76561198143855968,"connected_time":502000000000,"state":"active","ping":97},{"user_id":182,"name":"SwaggerEggs","steam_id":76561199057357191,"connected_time":1453000000000,"state":"active","ping":115},{"user_id":194,"name":"d1pp_","steam_id":76561198395577807,"connected_time":1048000000000,"state":"active","ping":60},{"user_id":187,"name":"Shaby_Frost","steam_id":76561198401334563,"connected_time":1360000000000,"state":"active","ping":45},{"user_id":171,"name":"hutty","steam_id":76561198062721414,"connected_time":2642000000000,"state":"active","ping":65},{"user_id":158,"name":"Kxmi","steam_id":76561198192730827,"connected_time":3326000000000,"state":"active","ping":56},{"user_id":181,"name":"benny worm","steam_id":76561198163238434,"connected_time":1471000000000,"state":"active","ping":80},{"user_id":139,"name":"Bussy Bandit","steam_id":76561198034028769,"connected_time":4099000000000,"state":"active","ping":59},{"user_id":183,"name":"LevelRaisin","steam_id":76561198082924440,"connected_time":1433000000000,"state":"active","ping":55},{"user_id":203,"name":"imng","steam_id":76561198014988031,"connected_time":362000000000,"state":"active","ping":74},{"user_id":199,"name":"French Duck","steam_id":76561198373963420,"connected_time":427000000000,"state":"active","ping":100},{"user_id":200,"name":"average manicotti enjoyer","steam_id":76561198059535856,"connected_time":405000000000,"state":"active","ping":77},{"user_id":175,"name":"Masonicle","steam_id":76561198192327657,"connected_time":2613000000000,"state":"active","ping":72},{"user_id":207,"name":"Azohko","steam_id":76561197990341684,"connected_time":94000000000,"state":"active","ping":86},{"user_id":201,"name":"concrete_car","steam_id":76561198388207363,"connected_time":405000000000,"state":"active","ping":79},{"user_id":131,"name":"EIMB KILLER","steam_id":76561198046870291,"connected_time":4788000000000,"state":"active","ping":61},{"user_id":206,"name":"rx papi","steam_id":76561198290269128,"connected_time":201000000000,"state":"active","ping":105},{"user_id":142,"name":"5unny PHD IN HATEOLOGY","steam_id":76561198133111058,"connected_time":3697000000000,"state":"active","ping":74},{"user_id":204,"name":"Snuggel","steam_id":76561198820175156,"connected_time":354000000000,"state":"active","ping":99},{"user_id":205,"name":"Fran√ßois Vi√®te","steam_id":76561198072975518,"connected_time":349000000000,"state":"active","ping":77},{"user_id":188,"name":"averted","steam_id":76561198067784310,"connected_time":1344000000000,"state":"active","ping":72},{"user_id":208,"name":"lorelius hogglefart","steam_id":76561198211781375,"connected_time":35000000000,"state":"active","ping":78}]},{"server_id":403,"name":"Uncletopia | Chicago | 4 | All Maps","name_short":"chi-4","host":"chi-1.us.uncletopia.com","port":27045,"enabled":true,"region":"us-central","cc":"us","latitude":41.881832,"longitude":-87.62318,"reserved":0,"last_update":"0001-01-01T00:00:00Z","name_a2s":"Uncletopia | Chicago | 4 | All Maps","protocol":17,"map":"koth_cascade","folder":"tf","game":"Team Fortress","app_id":440,"player_count":16,"max_players":24,"Bots":0,"server_type":"Dedicated","server_os":"Linux","password":true,"vac":true,"version":"7961495","steam_id":85568392924515193,"keywords":["cp","nocrits","nodmgspread","uncletopia"],"game_id":440,"stv_port":27046,"stv_name":"Uncletopia | Chicago | 4 | All Maps | STV","players":[{"user_id":10,"name":"dragonslayer2004","steam_id":76561199047609261,"connected_time":592000000000,"state":"active","ping":68},{"user_id":11,"name":"ATruePanda #SaveTF2","steam_id":76561198448287701,"connected_time":576000000000,"state":"active","ping":61},{"user_id":16,"name":"mozzie","steam_id":76561198871173972,"connected_time":506000000000,"state":"active","ping":66},{"user_id":17,"name":"YaBoiChipsAhoy","steam_id":76561199056199415,"connected_time":244000000000,"state":"active","ping":71},{"user_id":15,"name":"Kisune","steam_id":76561199368978007,"connected_time":512000000000,"state":"active","ping":59},{"user_id":18,"name":"Aang","steam_id":76561198930535161,"connected_time":162000000000,"state":"active","ping":68},{"user_id":19,"name":"Dr. Hashbrown","steam_id":76561198410780370,"connected_time":146000000000,"state":"active","ping":92},{"user_id":20,"name":"i remember you was cumflated","steam_id":76561198097330521,"connected_time":85000000000,"state":"active","ping":196},{"user_id":21,"name":"matthew.sedam","steam_id":76561198842714794,"connected_time":63000000000,"state":"active","ping":63},{"user_id":23,"name":"BluJay","steam_id":76561198361356969,"connected_time":39000000000,"state":"active","ping":44},{"user_id":24,"name":"SolmonFish","steam_id":76561198942169006,"connected_time":36000000000,"state":"active","ping":75},{"user_id":25,"name":"xfinitycablebox","steam_id":76561198317433700,"connected_time":32000000000,"state":"active","ping":58},{"user_id":26,"name":"harold (R.I.P Rick May)","steam_id":76561199016285746,"connected_time":23000000000,"state":"spawning","ping":76},{"user_id":27,"name":"rjsly","steam_id":76561198036573271,"connected_time":23000000000,"state":"active","ping":89},{"user_id":28,"name":"Egg Guzzler","steam_id":76561199109194893,"connected_time":22000000000,"state":"active","ping":70},{"user_id":29,"name":"Rango","steam_id":76561198104086771,"connected_time":1000000000,"state":"spawning","ping":76}]},{"server_id":36,"name":"Uncletopia | Chicago | 5 | All Maps","name_short":"chi-5","host":"chi-2.us.uncletopia.com","port":27015,"enabled":true,"region":"us-central","cc":"us","latitude":41.881832,"longitude":-87.62318,"reserved":0,"last_update":"0001-01-01T00:00:00Z","name_a2s":"Uncletopia | Chicago | 5 | All Maps","protocol":17,"map":"koth_viaduct","folder":"tf","game":"Team Fortress","app_id":440,"player_count":0,"max_players":24,"Bots":0,"server_type":"Dedicated","server_os":"Linux","password":true,"vac":true,"version":"7961495","steam_id":85568392924866362,"keywords":["cp","nocrits","nodmgspread","uncletopia"],"game_id":440,"stv_port":27016,"stv_name":"Uncletopia | Chicago | 5 | All Maps | STV","players":null},{"server_id":37,"name":"Uncletopia | Chicago | 6 | All Maps","name_short":"chi-6","host":"chi-2.us.uncletopia.com","port":27025,"enabled":true,"region":"us-central","cc":"us","latitude":41.881832,"longitude":-87.62318,"reserved":0,"last_update":"0001-01-01T00:00:00Z","name_a2s":"Uncletopia | Chicago | 6 | All Maps","protocol":17,"map":"koth_cascade","folder":"tf","game":"Team Fortress","app_id":440,"player_count":24,"max_players":24,"Bots":0,"server_type":"Dedicated","server_os":"Linux","password":true,"vac":true,"version":"7961495","steam_id":85568392924866363,"keywords":["cp","nocrits","nodmgspread","uncletopia"],"game_id":440,"stv_port":27026,"stv_name":"Uncletopia | Chicago | 6 | All Maps | STV","players":[{"user_id":259,"name":"GotYourNose","steam_id":76561198803527852,"connected_time":1783000000000,"state":"active","ping":64},{"user_id":287,"name":"udf employee","steam_id":76561198070136952,"connected_time":205000000000,"state":"active","ping":53},{"user_id":285,"name":"Kahootowl69!","steam_id":76561199175190561,"connected_time":260000000000,"state":"active","ping":404},{"user_id":280,"name":"barney","steam_id":76561198166433332,"connected_time":322000000000,"state":"active","ping":102},{"user_id":215,"name":"VixianUwU","steam_id":76561198948815060,"connected_time":5065000000000,"state":"active","ping":83},{"user_id":282,"name":"Communist Cat","steam_id":76561199109586591,"connected_time":303000000000,"state":"active","ping":86},{"user_id":272,"name":"ding dong ding ding dong ding","steam_id":76561198401205345,"connected_time":448000000000,"state":"active","ping":72},{"user_id":248,"name":"A Quiet Fartwell","steam_id":76561198397009880,"connected_time":2459000000000,"state":"active","ping":61},{"user_id":224,"name":"unpronounceable","steam_id":76561198271860748,"connected_time":4426000000000,"state":"active","ping":149},{"user_id":222,"name":"dubspol","steam_id":76561198114845137,"connected_time":4446000000000,"state":"active","ping":73},{"user_id":267,"name":"WitheringLeo","steam_id":76561198046722918,"connected_time":948000000000,"state":"active","ping":88},{"user_id":273,"name":"2004 Honda Civic","steam_id":76561198795636418,"connected_time":419000000000,"state":"active","ping":57},{"user_id":277,"name":"Oogle","steam_id":76561197995351187,"connected_time":344000000000,"state":"active","ping":61},{"user_id":262,"name":"DemonDoesThings","steam_id":76561198845023442,"connected_time":1223000000000,"state":"active","ping":70},{"user_id":141,"name":"ImStillWorking","steam_id":76561199126648834,"connected_time":9770000000000,"state":"active","ping":93},{"user_id":275,"name":"TheSafestFlyingWalrus","steam_id":76561199220308414,"connected_time":364000000000,"state":"active","ping":177},{"user_id":276,"name":"MapleSyzurp","steam_id":76561197984544416,"connected_time":354000000000,"state":"active","ping":62},{"user_id":247,"name":"Gloomy","steam_id":76561198053742522,"connected_time":2566000000000,"state":"active","ping":129},{"user_id":270,"name":"Jasper‚Ñ¢","steam_id":76561198260018463,"connected_time":703000000000,"state":"active","ping":83},{"user_id":281,"name":"twix","steam_id":76561198040912048,"connected_time":320000000000,"state":"active","ping":50},{"user_id":283,"name":"Derrick Rose","steam_id":76561198449527009,"connected_time":290000000000,"state":"active","ping":91},{"user_id":255,"name":"boog","steam_id":76561197993699665,"connected_time":2009000000000,"state":"active","ping":76},{"user_id":284,"name":"murakumo","steam_id":76561198110046630,"connected_time":275000000000,"state":"active","ping":48},{"user_id":286,"name":"Blacksteel387","steam_id":76561198060543196,"connected_time":260000000000,"state":"active","ping":82}]},{"server_id":38,"name":"Uncletopia | Chicago | 7 | Stopwatch","name_short":"chi-7","host":"chi-2.us.uncletopia.com","port":27035,"enabled":true,"region":"us-central","cc":"us","latitude":41.881832,"longitude":-87.62318,"reserved":0,"last_update":"0001-01-01T00:00:00Z","name_a2s":"Uncletopia | Chicago | 7 | Stopwatch","protocol":17,"map":"cp_granary","folder":"tf","game":"Team Fortress","app_id":440,"player_count":0,"max_players":24,"Bots":0,"server_type":"Dedicated","server_os":"Linux","password":true,"vac":true,"version":"7961495","steam_id":85568392924866364,"keywords":["cp","nocrits","nodmgspread","uncletopia"],"game_id":440,"stv_port":27036,"stv_name":"Uncletopia | Chicago | 7 | Stopwatch | STV","players":null},{"server_id":39,"name":"Uncletopia | Chicago | 8 | Community","name_short":"chi-8","host":"chi-2.us.uncletopia.com","port":27045,"enabled":true,"region":"us-central","cc":"us","latitude":41.881832,"longitude":-87.62318,"reserved":0,"last_update":"0001-01-01T00:00:00Z","name_a2s":"Uncletopia | Chicago | 8 | Community","protocol":17,"map":"workshop/koth_slaughter_rc1.ugc1712845210","folder":"tf","game":"Team Fortress","app_id":440,"player_count":0,"max_players":24,"Bots":0,"server_type":"Dedicated","server_os":"Linux","password":true,"vac":true,"version":"7961495","steam_id":85568392924866365,"keywords":["cp","nocrits","nodmgspread","uncletopia"],"game_id":440,"stv_port":27046,"stv_name":"Uncletopia | Chicago | 8 | Community | STV","players":null},{"server_id":8,"name":"Uncletopia | Dallas | 1 | All Maps","name_short":"dal-1","host":"dal-1.us.uncletopia.com","port":27015,"enabled":true,"region":"us-central","cc":"us","latitude":32.779167,"longitude":-96.80889,"reserved":0,"last_update":"0001-01-01T00:00:00Z","name_a2s":"Uncletopia | Dallas | 1 | All Maps","protocol":17,"map":"pl_borneo","folder":"tf","game":"Team Fortress","app_id":440,"player_count":23,"max_players":24,"Bots":0,"server_type":"Dedicated","server_os":"Linux","password":true,"vac":true,"version":"7961495","steam_id":85568392924469986,"keywords":["nocrits","nodmgspread","payload","uncletopia"],"game_id":440,"stv_port":27016,"stv_name":"Uncletopia | Dallas | 1 | All Maps | STV","players":[{"user_id":184,"name":"Cervid√©","steam_id":76561198098579497,"connected_time":3597000000000,"state":"active","ping":101},{"user_id":234,"name":"the master of cats","steam_id":76561198819255576,"connected_time":12000000000,"state":"active","ping":76},{"user_id":176,"name":"BrowniesCake","steam_id":76561198164081149,"connected_time":4516000000000,"state":"active","ping":76},{"user_id":233,"name":"Kaiju","steam_id":76561198035703156,"connected_time":226000000000,"state":"active","ping":56},{"user_id":185,"name":"lucky","steam_id":76561198323426623,"connected_time":3585000000000,"state":"active","ping":98},{"user_id":235,"name":"[chef] iron","steam_id":76561197970888616,"connected_time":2000000000,"state":"spawning","ping":39},{"user_id":232,"name":"Hezxp","steam_id":76561198312931111,"connected_time":307000000000,"state":"active","ping":74},{"user_id":187,"name":"dab","steam_id":76561197997990613,"connected_time":3556000000000,"state":"active","ping":92},{"user_id":228,"name":"ROGUE-PLANET","steam_id":76561198116023052,"connected_time":662000000000,"state":"active","ping":60},{"user_id":214,"name":"fish fingers","steam_id":76561199078516567,"connected_time":1140000000000,"state":"active","ping":125},{"user_id":189,"name":"Rustyorion","steam_id":76561198439186347,"connected_time":3422000000000,"state":"active","ping":108},{"user_id":207,"name":"Bogey","steam_id":76561198096227944,"connected_time":1179000000000,"state":"active","ping":43},{"user_id":194,"name":"flippercurve","steam_id":76561199238295034,"connected_time":2638000000000,"state":"active","ping":69},{"user_id":218,"name":"guy","steam_id":76561198196443262,"connected_time":1061000000000,"state":"active","ping":69},{"user_id":201,"name":"lil homie gay ass","steam_id":76561198044804626,"connected_time":2386000000000,"state":"active","ping":54},{"user_id":222,"name":"webaline  =Ôºæ‚óè ‚ãè ‚óèÔºæ=","steam_id":76561199052450127,"connected_time":895000000000,"state":"active","ping":73},{"user_id":224,"name":"tony","steam_id":76561199085242309,"connected_time":828000000000,"state":"active","ping":87},{"user_id":195,"name":"Boingo","steam_id":76561199086931535,"connected_time":2637000000000,"state":"active","ping":55},{"user_id":229,"name":"Legit_Jaxer","steam_id":76561198172234053,"connected_time":627000000000,"state":"active","ping":109},{"user_id":200,"name":"Shalom","steam_id":76561198410005222,"connected_time":2528000000000,"state":"active","ping":60},{"user_id":159,"name":"flu walrus","steam_id":76561198207940136,"connected_time":6236000000000,"state":"active","ping":49},{"user_id":215,"name":"for eel? on cod? no carp?","steam_id":76561198095121758,"connected_time":1139000000000,"state":"active","ping":81},{"user_id":217,"name":"EmotreX","steam_id":76561198366518989,"connected_time":1113000000000,"state":"active","ping":49}]},{"server_id":108,"name":"Uncletopia | Dallas | 2 | All Maps","name_short":"dal-2","host":"dal-1.us.uncletopia.com","port":27025,"enabled":true,"region":"us-central","cc":"us","latitude":32.779167,"longitude":-96.80889,"reserved":0,"last_update":"0001-01-01T00:00:00Z","name_a2s":"Uncletopia | Dallas | 2 | All Maps","protocol":17,"map":"koth_nucleus","folder":"tf","game":"Team Fortress","app_id":440,"player_count":24,"max_players":24,"Bots":0,"server_type":"Dedicated","server_os":"Linux","password":true,"vac":true,"version":"7961495","steam_id":85568392924469988,"keywords":["cp","nocrits","nodmgspread","uncletopia"],"game_id":440,"stv_port":27026,"stv_name":"Uncletopia | Dallas | 2 | All Maps | STV","players":[{"user_id":16,"name":"Sup m8","steam_id":76561198081659121,"connected_time":2697000000000,"state":"active","ping":59},{"user_id":48,"name":"Pixelated Pussy","steam_id":76561198002511088,"connected_time":1075000000000,"state":"active","ping":80},{"user_id":57,"name":"mkl","steam_id":76561197986401685,"connected_time":180000000000,"state":"active","ping":58},{"user_id":19,"name":"menonamed","steam_id":76561198199564382,"connected_time":2223000000000,"state":"active","ping":87},{"user_id":53,"name":"The World's Softest Sandwich","steam_id":76561198015577707,"connected_time":619000000000,"state":"active","ping":76},{"user_id":22,"name":"I ate all the cheese","steam_id":76561198993205822,"connected_time":1884000000000,"state":"active","ping":75},{"user_id":23,"name":"Fresh Lychee","steam_id":76561198045399559,"connected_time":1882000000000,"state":"active","ping":76},{"user_id":56,"name":"Chica","steam_id":76561198381832158,"connected_time":416000000000,"state":"active","ping":44},{"user_id":58,"name":"zaia","steam_id":76561198197047443,"connected_time":175000000000,"state":"active","ping":101},{"user_id":37,"name":"ConfidentLaptop","steam_id":76561198078591413,"connected_time":1606000000000,"state":"active","ping":86},{"user_id":29,"name":"Sanic","steam_id":76561198083124962,"connected_time":1701000000000,"state":"active","ping":65},{"user_id":30,"name":"deep fried water","steam_id":76561198077272494,"connected_time":1695000000000,"state":"active","ping":75},{"user_id":31,"name":"Bottom Dweller","steam_id":76561198066806674,"connected_time":1688000000000,"state":"active","ping":86},{"user_id":32,"name":"Addy \u003c3","steam_id":76561198045819723,"connected_time":1678000000000,"state":"active","ping":123},{"user_id":51,"name":"Sp√ºkiiTV","steam_id":76561198098281824,"connected_time":663000000000,"state":"active","ping":84},{"user_id":52,"name":"eryn üó∫","steam_id":76561198004433070,"connected_time":662000000000,"state":"active","ping":58},{"user_id":35,"name":"Si1entSn1pa","steam_id":76561198170095479,"connected_time":1671000000000,"state":"active","ping":86},{"user_id":36,"name":"Defragmented","steam_id":76561198854210081,"connected_time":1650000000000,"state":"active","ping":70},{"user_id":55,"name":"schmuck","steam_id":76561198143789773,"connected_time":440000000000,"state":"active","ping":55},{"user_id":40,"name":"artichoke","steam_id":76561198980994364,"connected_time":1551000000000,"state":"active","ping":106},{"user_id":41,"name":"Kamin","steam_id":76561198255299559,"connected_time":1528000000000,"state":"active","ping":69},{"user_id":54,"name":"Brawling Bouse","steam_id":76561198030271278,"connected_time":550000000000,"state":"active","ping":101},{"user_id":43,"name":"rogerofminecraft","steam_id":76561199220257695,"connected_time":1514000000000,"state":"active","ping":158},{"user_id":44,"name":"loot","steam_id":76561198069954956,"connected_time":1491000000000,"state":"active","ping":60}]},{"server_id":404,"name":"Uncletopia | Dallas | 3 | All Maps","name_short":"dal-3","host":"dal-1.us.uncletopia.com","port":27035,"enabled":true,"region":"us-central","cc":"us","latitude":32.779167,"longitude":-96.80889,"reserved":0,"last_update":"0001-01-01T00:00:00Z","name_a2s":"Uncletopia | Dallas | 3 | All Maps","protocol":17,"map":"pl_badwater","folder":"tf","game":"Team Fortress","app_id":440,"player_count":0,"max_players":24,"Bots":0,"server_type":"Dedicated","server_os":"Linux","password":true,"vac":true,"version":"7961495","steam_id":85568392924515219,"keywords":["nocrits","nodmgspread","payload","uncletopia"],"game_id":440,"stv_port":27036,"stv_name":"Uncletopia | Dallas | 3 | All Maps | STV","players":null},{"server_id":405,"name":"Uncletopia | Dallas | 4 | Community","name_short":"dal-4","host":"dal-1.us.uncletopia.com","port":27045,"enabled":true,"region":"us-central","cc":"us","latitude":32.779167,"longitude":-96.80889,"reserved":0,"last_update":"0001-01-01T00:00:00Z","name_a2s":"Uncletopia | Dallas | 4 | Community","protocol":17,"map":"pl_pier","folder":"tf","game":"Team Fortress","app_id":440,"player_count":0,"max_players":24,"Bots":0,"server_type":"Dedicated","server_os":"Linux","password":true,"vac":true,"version":"7961495","steam_id":85568392924515220,"keywords":["nocrits","nodmgspread","payload","uncletopia"],"game_id":440,"stv_port":27046,"stv_name":"Uncletopia | Dallas | 4 | Community | STV","players":null},{"server_id":5,"name":"Uncletopia | Frankfurt | 1 | All Maps","name_short":"frk-1","host":"frk-1.de.uncletopia.com","port":27015,"enabled":true,"region":"eu","cc":"de","latitude":50.110924,"longitude":8.682127,"reserved":0,"last_update":"0001-01-01T00:00:00Z","name_a2s":"Uncletopia | Frankfurt | 1 | All Maps","protocol":17,"map":"cp_snakewater_final1","folder":"tf","game":"Team Fortress","app_id":440,"player_count":21,"max_players":24,"Bots":0,"server_type":"Dedicated","server_os":"Linux","password":true,"vac":true,"version":"7961495","steam_id":85568392924469989,"keywords":["cp","nocrits","nodmgspread","uncletopia"],"game_id":440,"stv_port":27016,"stv_name":"Uncletopia | Frankfurt | 1 | All Maps | STV","players":[{"user_id":381,"name":"jello_hey","steam_id":76561199176327650,"connected_time":81000000000,"state":"active","ping":141},{"user_id":309,"name":"MR BUBBLES","steam_id":76561198019005259,"connected_time":5588000000000,"state":"active","ping":98},{"user_id":374,"name":"meap","steam_id":76561198126639221,"connected_time":567000000000,"state":"active","ping":89},{"user_id":382,"name":"Der Herr Doktor","steam_id":76561198119476089,"connected_time":22000000000,"state":"active","ping":64},{"user_id":318,"name":"n-ski","steam_id":76561198020550849,"connected_time":5365000000000,"state":"active","ping":75},{"user_id":373,"name":"essah","steam_id":76561197985717714,"connected_time":868000000000,"state":"active","ping":78},{"user_id":367,"name":"Megra","steam_id":76561198198504762,"connected_time":1474000000000,"state":"active","ping":101},{"user_id":300,"name":"ozz-man","steam_id":76561198084676522,"connected_time":6772000000000,"state":"active","ping":105},{"user_id":383,"name":"MaTke","steam_id":76561198378170301,"connected_time":3000000000,"state":"spawning","ping":56},{"user_id":363,"name":"Û†Ä°Û†Ä°","steam_id":76561198125381319,"connected_time":1658000000000,"state":"active","ping":45},{"user_id":368,"name":"caramel‚ù§","steam_id":76561198819353867,"connected_time":1368000000000,"state":"active","ping":47},{"user_id":365,"name":"simon","steam_id":76561197960506122,"connected_time":1611000000000,"state":"active","ping":80},{"user_id":366,"name":"Egor Pomidor","steam_id":76561199175688390,"connected_time":1510000000000,"state":"active","ping":75},{"user_id":352,"name":"Rojapokemona","steam_id":76561198179925894,"connected_time":2277000000000,"state":"active","ping":68},{"user_id":378,"name":"Raulca25","steam_id":76561199068256964,"connected_time":281000000000,"state":"active","ping":84},{"user_id":353,"name":"–õ—ã—Å—ã–π –∏–∑ –∫—É—Ö–Ω–∏","steam_id":76561199072741842,"connected_time":2262000000000,"state":"active","ping":81},{"user_id":245,"name":"Jonak","steam_id":76561198080832458,"connected_time":10039000000000,"state":"active","ping":64},{"user_id":370,"name":"Pepegi","steam_id":76561198001230113,"connected_time":1335000000000,"state":"active","ping":71},{"user_id":380,"name":"sex toilet","steam_id":76561198412197820,"connected_time":123000000000,"state":"active","ping":72},{"user_id":320,"name":"–ë—ã–¥–ª–∞ –≤–æ–π","steam_id":76561198041371314,"connected_time":5340000000000,"state":"active","ping":120},{"user_id":379,"name":"Madree","steam_id":76561199443143457,"connected_time":155000000000,"state":"active","ping":105}]},{"server_id":110,"name":"Uncletopia | Frankfurt | 2 | All Maps","name_short":"frk-2","host":"frk-1.de.uncletopia.com","port":27025,"enabled":true,"region":"eu","cc":"de","latitude":50.110924,"longitude":8.682127,"reserved":0,"last_update":"0001-01-01T00:00:00Z","name_a2s":"Uncletopia | Frankfurt | 2 | All Maps","protocol":17,"map":"koth_cascade","folder":"tf","game":"Team Fortress","app_id":440,"player_count":23,"max_players":24,"Bots":0,"server_type":"Dedicated","server_os":"Linux","password":true,"vac":true,"version":"7961495","steam_id":85568392924469990,"keywords":["cp","nocrits","nodmgspread","uncletopia"],"game_id":440,"stv_port":27026,"stv_name":"Uncletopia | Frankfurt | 2 | All Maps | STV","players":[{"user_id":103,"name":"average enjoyer","steam_id":76561198988985546,"connected_time":616000000000,"state":"active","ping":68},{"user_id":41,"name":"SUKRE","steam_id":76561197971417211,"connected_time":4098000000000,"state":"active","ping":74},{"user_id":102,"name":"\u003e\u003c\u003e","steam_id":76561198152392309,"connected_time":674000000000,"state":"active","ping":46},{"user_id":90,"name":"Master Of Noob","steam_id":76561198217926783,"connected_time":1897000000000,"state":"active","ping":67},{"user_id":98,"name":"Qdarks","steam_id":76561198013391340,"connected_time":769000000000,"state":"active","ping":144},{"user_id":100,"name":"AmadStatistician","steam_id":76561198163654770,"connected_time":734000000000,"state":"active","ping":69},{"user_id":78,"name":"—Ä–µnis the menace","steam_id":76561198066103295,"connected_time":2221000000000,"state":"active","ping":82},{"user_id":79,"name":"H0RS3SQU1RT3R","steam_id":76561198100590345,"connected_time":2213000000000,"state":"active","ping":105},{"user_id":49,"name":"niandits","steam_id":76561198419798900,"connected_time":3768000000000,"state":"active","ping":147},{"user_id":55,"name":"Lorenzo Lovers","steam_id":76561198073973581,"connected_time":3418000000000,"state":"active","ping":78},{"user_id":89,"name":"The Daniella","steam_id":76561198023075547,"connected_time":1909000000000,"state":"active","ping":61},{"user_id":91,"name":"Venenakki","steam_id":76561198311526482,"connected_time":1757000000000,"state":"active","ping":67},{"user_id":62,"name":"Naiten","steam_id":76561198051894514,"connected_time":2942000000000,"state":"active","ping":70},{"user_id":63,"name":"TheDeath","steam_id":76561198265038954,"connected_time":2890000000000,"state":"active","ping":64},{"user_id":112,"name":"MIKA","steam_id":76561198312451814,"connected_time":147000000000,"state":"active","ping":47},{"user_id":104,"name":"roblan11","steam_id":76561198066839258,"connected_time":613000000000,"state":"active","ping":41},{"user_id":105,"name":"cuddle","steam_id":76561198805181599,"connected_time":599000000000,"state":"active","ping":62},{"user_id":106,"name":"sp00ky","steam_id":76561198809887201,"connected_time":593000000000,"state":"active","ping":69},{"user_id":111,"name":"Never Be Alone","steam_id":76561199380849468,"connected_time":199000000000,"state":"active","ping":61},{"user_id":110,"name":"Maddox","steam_id":76561198026419869,"connected_time":240000000000,"state":"active","ping":72},{"user_id":84,"name":"MrRoAndrei","steam_id":76561198205282000,"connected_time":2110000000000,"state":"active","ping":86},{"user_id":85,"name":"gentleman pyro","steam_id":76561198800662332,"connected_time":2100000000000,"state":"active","ping":77},{"user_id":108,"name":"Flamy?","steam_id":76561198024332838,"connected_time":570000000000,"state":"active","ping":75}]},{"server_id":308,"name":"Uncletopia | Frankfurt | 3 | All Maps","name_short":"frk-3","host":"frk-1.de.uncletopia.com","port":27035,"enabled":true,"region":"eu","cc":"de","latitude":50.110924,"longitude":8.682127,"reserved":0,"last_update":"0001-01-01T00:00:00Z","name_a2s":"Uncletopia | Frankfurt | 3 | All Maps","protocol":17,"map":"cp_snakewater_final1","folder":"tf","game":"Team Fortress","app_id":440,"player_count":24,"max_players":24,"Bots":0,"server_type":"Dedicated","server_os":"Linux","password":true,"vac":true,"version":"7961495","steam_id":85568392924504274,"keywords":["cp","nocrits","nodmgspread","uncletopia"],"game_id":440,"stv_port":27036,"stv_name":"Uncletopia | Frankfurt | 3 | All Maps | STV","players":[{"user_id":516,"name":"H1DD3 gaming","steam_id":76561198855897385,"connected_time":5277000000000,"state":"active","ping":59},{"user_id":522,"name":"you like buff tf2 men don't you","steam_id":76561198837586838,"connected_time":4769000000000,"state":"active","ping":67},{"user_id":529,"name":"yush","steam_id":76561198121688934,"connected_time":4317000000000,"state":"active","ping":74},{"user_id":575,"name":"Solima","steam_id":76561198045349099,"connected_time":211000000000,"state":"active","ping":52},{"user_id":551,"name":"Mr_Pulse_","steam_id":76561198095001602,"connected_time":2404000000000,"state":"active","ping":90},{"user_id":485,"name":"CMD_God","steam_id":76561198333037007,"connected_time":7889000000000,"state":"active","ping":65},{"user_id":569,"name":"hipster_doofus","steam_id":76561197970902697,"connected_time":1251000000000,"state":"active","ping":71},{"user_id":545,"name":"Driver's drunkest God","steam_id":76561198969373800,"connected_time":3013000000000,"state":"active","ping":69},{"user_id":565,"name":"rets_","steam_id":76561198061551392,"connected_time":1772000000000,"state":"active","ping":45},{"user_id":532,"name":"XPullaHiiri","steam_id":76561198031652375,"connected_time":4153000000000,"state":"active","ping":86},{"user_id":554,"name":"shoras","steam_id":76561198019680159,"connected_time":2330000000000,"state":"active","ping":80},{"user_id":571,"name":"KnugenIV","steam_id":76561198127091993,"connected_time":1131000000000,"state":"active","ping":59},{"user_id":539,"name":"Eric Coconut","steam_id":76561198910623003,"connected_time":3329000000000,"state":"active","ping":74},{"user_id":537,"name":"Nittugai","steam_id":76561198067366462,"connected_time":3790000000000,"state":"active","ping":60},{"user_id":568,"name":"Arsonist","steam_id":76561199087953833,"connected_time":1389000000000,"state":"active","ping":101},{"user_id":562,"name":"Lux","steam_id":76561198060417740,"connected_time":1865000000000,"state":"active","ping":46},{"user_id":573,"name":"M4 SOPMOD II Enjoyer","steam_id":76561198155176802,"connected_time":417000000000,"state":"active","ping":151},{"user_id":570,"name":"MostSereneDogeBestDoge","steam_id":76561198061196566,"connected_time":1250000000000,"state":"active","ping":67},{"user_id":544,"name":"‚ôÇ Animan ‚ôÇ Studios ‚ôÇ","steam_id":76561198308302932,"connected_time":3164000000000,"state":"active","ping":89},{"user_id":503,"name":"Fran","steam_id":76561199070516960,"connected_time":5875000000000,"state":"active","ping":60},{"user_id":567,"name":"Waluigi","steam_id":76561199070474380,"connected_time":1530000000000,"state":"active","ping":93},{"user_id":572,"name":"x","steam_id":76561198043837480,"connected_time":901000000000,"state":"active","ping":73},{"user_id":547,"name":"domek","steam_id":76561198048447632,"connected_time":2954000000000,"state":"active","ping":70},{"user_id":577,"name":"Ostry_sos","steam_id":76561198204717723,"connected_time":166000000000,"state":"active","ping":65}]},{"server_id":309,"name":"Uncletopia | Frankfurt | 4 | All Maps","name_short":"frk-4","host":"frk-1.de.uncletopia.com","port":27045,"enabled":true,"region":"eu","cc":"de","latitude":50.110924,"longitude":8.682127,"reserved":0,"last_update":"0001-01-01T00:00:00Z","name_a2s":"Uncletopia | Frankfurt | 4 | All Maps","protocol":17,"map":"pl_pier","folder":"tf","game":"Team Fortress","app_id":440,"player_count":19,"max_players":24,"Bots":0,"server_type":"Dedicated","server_os":"Linux","password":true,"vac":true,"version":"7961495","steam_id":85568392924504275,"keywords":["nocrits","nodmgspread","payload","uncletopia"],"game_id":440,"stv_port":27046,"stv_name":"Uncletopia | Frankfurt | 4 | All Maps | STV","players":[{"user_id":218,"name":"Malsi","steam_id":76561199061284165,"connected_time":2257000000000,"state":"active","ping":81},{"user_id":183,"name":"Gewpy","steam_id":76561198164380041,"connected_time":6018000000000,"state":"active","ping":136},{"user_id":202,"name":"Engie's best friend","steam_id":76561197961707932,"connected_time":4356000000000,"state":"active","ping":45},{"user_id":219,"name":"[P-roc] Cmm Bert","steam_id":76561198016658674,"connected_time":2209000000000,"state":"active","ping":80},{"user_id":233,"name":"The Lady","steam_id":76561198029895809,"connected_time":768000000000,"state":"active","ping":72},{"user_id":230,"name":"Xriasp","steam_id":76561198104721321,"connected_time":1097000000000,"state":"active","ping":81},{"user_id":220,"name":"Salih","steam_id":76561198287934839,"connected_time":2184000000000,"state":"active","ping":56},{"user_id":225,"name":"IFlippie","steam_id":76561198284359977,"connected_time":1966000000000,"state":"active","ping":57},{"user_id":192,"name":"≈Ωgr√¶√êek113","steam_id":76561198306883632,"connected_time":5773000000000,"state":"active","ping":60},{"user_id":216,"name":"Mati [EST]","steam_id":76561197994743813,"connected_time":2528000000000,"state":"active","ping":93},{"user_id":177,"name":"Ixsus\u003c3","steam_id":76561198094756869,"connected_time":6118000000000,"state":"active","ping":45},{"user_id":130,"name":"dotdotdot","steam_id":76561198057628751,"connected_time":8165000000000,"state":"active","ping":59},{"user_id":179,"name":"Vilmukas","steam_id":76561199106648396,"connected_time":6110000000000,"state":"active","ping":59},{"user_id":195,"name":"TroX","steam_id":76561197992862361,"connected_time":5417000000000,"state":"active","ping":75},{"user_id":222,"name":"Real (Real)","steam_id":76561198323425034,"connected_time":2157000000000,"state":"active","ping":70},{"user_id":234,"name":"jaime8D","steam_id":76561197980590671,"connected_time":169000000000,"state":"active","ping":71},{"user_id":227,"name":"Hey, I¬¥m Andy!","steam_id":76561198060337777,"connected_time":1533000000000,"state":"active","ping":70},{"user_id":190,"name":"Gengloid","steam_id":76561198273249730,"connected_time":5879000000000,"state":"active","ping":143},{"user_id":160,"name":"I_Forgot_My_Name","steam_id":76561198173424578,"connected_time":6754000000000,"state":"active","ping":68}]},{"server_id":310,"name":"Uncletopia | Frankfurt | 5 | All Maps","name_short":"frk-5","host":"frk-1.de.uncletopia.com","port":27055,"enabled":true,"region":"eu","cc":"de","latitude":50.110924,"longitude":8.682127,"reserved":0,"last_update":"0001-01-01T00:00:00Z","name_a2s":"Uncletopia | Frankfurt | 5 | All Maps","protocol":17,"map":"cp_dustbowl","folder":"tf","game":"Team Fortress","app_id":440,"player_count":24,"max_players":24,"Bots":0,"server_type":"Dedicated","server_os":"Linux","password":true,"vac":true,"version":"7961495","steam_id":85568392924504277,"keywords":["cp","nocrits","nodmgspread","uncletopia"],"game_id":440,"stv_port":27056,"stv_name":"Uncletopia | Frankfurt | 5 | All Maps | STV","players":[{"user_id":113,"name":"ERBLIN011","steam_id":76561198302006065,"connected_time":1112000000000,"state":"active","ping":90},{"user_id":124,"name":"loge","steam_id":76561198046307460,"connected_time":740000000000,"state":"active","ping":49},{"user_id":125,"name":"Kiofu","steam_id":76561198364947142,"connected_time":728000000000,"state":"active","ping":79},{"user_id":150,"name":"lofimonkeyjazz","steam_id":76561198117059662,"connected_time":42000000000,"state":"active","ping":86},{"user_id":142,"name":"BOT Grzegorz","steam_id":76561198317635320,"connected_time":321000000000,"state":"active","ping":82},{"user_id":146,"name":"Dvveh","steam_id":76561197965432356,"connected_time":272000000000,"state":"active","ping":58},{"user_id":126,"name":"Setiago","steam_id":76561198060770498,"connected_time":714000000000,"state":"active","ping":74},{"user_id":120,"name":"Kaia","steam_id":76561198294109951,"connected_time":882000000000,"state":"active","ping":75},{"user_id":127,"name":"Krim","steam_id":76561199070070579,"connected_time":688000000000,"state":"active","ping":66},{"user_id":128,"name":"Cursed","steam_id":76561198381491880,"connected_time":626000000000,"state":"active","ping":92},{"user_id":130,"name":"i have no ass but i must shit","steam_id":76561198326382938,"connected_time":587000000000,"state":"active","ping":60},{"user_id":131,"name":"Ô¢º","steam_id":76561198973232202,"connected_time":581000000000,"state":"active","ping":90},{"user_id":132,"name":"Grottoƒ∞sTaken","steam_id":76561198969893287,"connected_time":577000000000,"state":"active","ping":115},{"user_id":134,"name":"Foreskin Gamer","steam_id":76561198283106341,"connected_time":546000000000,"state":"active","ping":51},{"user_id":138,"name":"coach","steam_id":76561198179330687,"connected_time":398000000000,"state":"active","ping":112},{"user_id":136,"name":"ElisD24","steam_id":76561198063798508,"connected_time":431000000000,"state":"active","ping":78},{"user_id":137,"name":"bob","steam_id":76561198448135228,"connected_time":427000000000,"state":"active","ping":113},{"user_id":139,"name":"Major","steam_id":76561198086483282,"connected_time":396000000000,"state":"active","ping":59},{"user_id":140,"name":"Silver","steam_id":76561198175238807,"connected_time":367000000000,"state":"active","ping":77},{"user_id":144,"name":"John0309","steam_id":76561198447428162,"connected_time":296000000000,"state":"active","ping":75},{"user_id":75,"name":"Archive","steam_id":76561198071255385,"connected_time":4067000000000,"state":"active","ping":98},{"user_id":145,"name":"Xiqui","steam_id":76561198818386611,"connected_time":288000000000,"state":"active","ping":86},{"user_id":149,"name":"Egr Jeger","steam_id":76561198875687368,"connected_time":248000000000,"state":"active","ping":57},{"user_id":148,"name":"_TuKBa_–üo_IsPAnSkI_","steam_id":76561199235032972,"connected_time":252000000000,"state":"active","ping":82}]},{"server_id":311,"name":"Uncletopia | Frankfurt | 6 | All Maps","name_short":"frk-6","host":"frk-1.de.uncletopia.com","port":27065,"enabled":true,"region":"eu","cc":"de","latitude":50.110924,"longitude":8.682127,"reserved":0,"last_update":"0001-01-01T00:00:00Z","name_a2s":"Uncletopia | Frankfurt | 6 | All Maps","protocol":17,"map":"pl_badwater","folder":"tf","game":"Team Fortress","app_id":440,"player_count":24,"max_players":24,"Bots":0,"server_type":"Dedicated","server_os":"Linux","password":true,"vac":true,"version":"7961495","steam_id":85568392924504278,"keywords":["nocrits","nodmgspread","payload","uncletopia"],"game_id":440,"stv_port":27066,"stv_name":"Uncletopia | Frankfurt | 6 | All Maps | STV","players":[{"user_id":199,"name":"Dandroid7","steam_id":76561198947673092,"connected_time":997000000000,"state":"active","ping":44},{"user_id":215,"name":"BigChunk","steam_id":76561198215962313,"connected_time":162000000000,"state":"active","ping":47},{"user_id":202,"name":"warpig","steam_id":76561199226313309,"connected_time":802000000000,"state":"active","ping":133},{"user_id":201,"name":"Ghostler","steam_id":76561198008734235,"connected_time":832000000000,"state":"active","ping":47},{"user_id":217,"name":":weed:","steam_id":76561198409076278,"connected_time":32000000000,"state":"active","ping":64},{"user_id":137,"name":"Tonyx","steam_id":76561198414263237,"connected_time":4262000000000,"state":"active","ping":68},{"user_id":177,"name":"squillisky","steam_id":76561198083569327,"connected_time":3272000000000,"state":"active","ping":68},{"user_id":206,"name":"Vintage Violet","steam_id":76561199122876946,"connected_time":742000000000,"state":"active","ping":178},{"user_id":204,"name":"KingSlayer","steam_id":76561198360790271,"connected_time":777000000000,"state":"active","ping":77},{"user_id":179,"name":"_Alonso","steam_id":76561198041893314,"connected_time":3014000000000,"state":"active","ping":45},{"user_id":207,"name":"KLAMA  ‚ù§","steam_id":76561198351549661,"connected_time":711000000000,"state":"active","ping":67},{"user_id":166,"name":"Morfeus","steam_id":76561198136069762,"connected_time":3563000000000,"state":"active","ping":53},{"user_id":213,"name":"now am laughin at you, stupid","steam_id":76561198277943630,"connected_time":425000000000,"state":"active","ping":76},{"user_id":192,"name":"competitive sex","steam_id":76561198060530483,"connected_time":1780000000000,"state":"active","ping":76},{"user_id":182,"name":"gmem","steam_id":76561198070006725,"connected_time":2784000000000,"state":"active","ping":66},{"user_id":152,"name":"‚ô• Kentucky Fried Femboys ‚ô•","steam_id":76561199202438796,"connected_time":3766000000000,"state":"active","ping":56},{"user_id":209,"name":"frenchie","steam_id":76561198178298931,"connected_time":669000000000,"state":"active","ping":48},{"user_id":214,"name":"Spooks","steam_id":76561199171471823,"connected_time":377000000000,"state":"active","ping":47},{"user_id":198,"name":"Mocassino Felice","steam_id":76561198050715598,"connected_time":1414000000000,"state":"active","ping":51},{"user_id":171,"name":"Itai","steam_id":76561198804555329,"connected_time":3348000000000,"state":"active","ping":96},{"user_id":184,"name":"Yrj√∂ Koskinen Yrj√∂-Koskinen","steam_id":76561198368181145,"connected_time":2641000000000,"state":"active","ping":86},{"user_id":211,"name":"Vince","steam_id":76561199103000131,"connected_time":628000000000,"state":"active","ping":55},{"user_id":212,"name":"SegzyBae","steam_id":76561198802322294,"connected_time":502000000000,"state":"active","ping":73},{"user_id":174,"name":"√áodar","steam_id":76561198235518444,"connected_time":3299000000000,"state":"active","ping":49}]},{"server_id":23,"name":"Uncletopia | Frankfurt | 7 | Stopwatch","name_short":"frk-7","host":"frk-1.de.uncletopia.com","port":27075,"enabled":true,"region":"eu","cc":"de","latitude":50.110924,"longitude":8.682127,"reserved":0,"last_update":"0001-01-01T00:00:00Z","name_a2s":"Uncletopia | Frankfurt | 7 | Stopwatch","protocol":17,"map":"workshop/koth_ashville_final.ugc2130459942","folder":"tf","game":"Team Fortress","app_id":440,"player_count":22,"max_players":24,"Bots":0,"server_type":"Dedicated","server_os":"Linux","password":true,"vac":true,"version":"7961495","steam_id":85568392924742827,"keywords":["cp","nocrits","nodmgspread","uncletopia"],"game_id":440,"stv_port":27076,"stv_name":"Uncletopia | Frankfurt | 7 | Stopwatch | STV","players":[{"user_id":811,"name":"Handsome Man‚Ñ¢ Gaming","steam_id":76561198029685182,"connected_time":752000000000,"state":"active","ping":68},{"user_id":799,"name":"soupalognionycrouton","steam_id":76561199021878433,"connected_time":1400000000000,"state":"active","ping":78},{"user_id":808,"name":"thekoolest88","steam_id":76561199022415672,"connected_time":849000000000,"state":"active","ping":137},{"user_id":747,"name":"sex defender","steam_id":76561198121816815,"connected_time":4326000000000,"state":"active","ping":68},{"user_id":785,"name":"i am trash man","steam_id":76561198079524152,"connected_time":2312000000000,"state":"active","ping":56},{"user_id":823,"name":"padillacampos","steam_id":76561198161923970,"connected_time":162000000000,"state":"active","ping":86},{"user_id":809,"name":"Hansen","steam_id":76561198190566011,"connected_time":833000000000,"state":"active","ping":64},{"user_id":665,"name":"Richard_HUN","steam_id":76561198299050967,"connected_time":8478000000000,"state":"active","ping":93},{"user_id":824,"name":"N5LH","steam_id":76561199112528775,"connected_time":110000000000,"state":"active","ping":110},{"user_id":788,"name":"combine","steam_id":76561198007909007,"connected_time":2291000000000,"state":"active","ping":56},{"user_id":775,"name":"Kestrel","steam_id":76561198144033005,"connected_time":3152000000000,"state":"active","ping":62},{"user_id":755,"name":"M2rtRa","steam_id":76561198111036466,"connected_time":3977000000000,"state":"active","ping":60},{"user_id":810,"name":"Aspartus","steam_id":76561198101385763,"connected_time":824000000000,"state":"active","ping":46},{"user_id":817,"name":"–ê–±—Å–æ–ª—é—Ç–Ω–∞—è –≤–æ–¥–∫–∞","steam_id":76561198886250433,"connected_time":544000000000,"state":"active","ping":74},{"user_id":816,"name":"EDIBLE MORMONS","steam_id":76561199145282057,"connected_time":610000000000,"state":"active","ping":67},{"user_id":821,"name":"JO√ÉO MIGUEL","steam_id":76561198066297489,"connected_time":321000000000,"state":"active","ping":76},{"user_id":818,"name":"tralalaOuiOui","steam_id":76561197963471507,"connected_time":500000000000,"state":"active","ping":58},{"user_id":822,"name":"Dewotter","steam_id":76561198007653168,"connected_time":292000000000,"state":"active","ping":64},{"user_id":732,"name":"God's Goofiest Goober","steam_id":76561198103175187,"connected_time":4708000000000,"state":"active","ping":62},{"user_id":826,"name":"Baklava Enjoyer","steam_id":76561198990679631,"connected_time":64000000000,"state":"active","ping":72},{"user_id":795,"name":"lol","steam_id":76561198104438656,"connected_time":2008000000000,"state":"active","ping":60},{"user_id":783,"name":"Xeno","steam_id":76561198975556646,"connected_time":2383000000000,"state":"active","ping":46}]},{"server_id":24,"name":"Uncletopia | Frankfurt | 8 | Community","name_short":"frk-8","host":"frk-1.de.uncletopia.com","port":27085,"enabled":true,"region":"eu","cc":"de","latitude":50.110924,"longitude":8.682127,"reserved":0,"last_update":"0001-01-01T00:00:00Z","name_a2s":"Uncletopia | Frankfurt | 8 | Community","protocol":17,"map":"workshop/pl_vigil_rc10.ugc1266210012","folder":"tf","game":"Team Fortress","app_id":440,"player_count":19,"max_players":24,"Bots":0,"server_type":"Dedicated","server_os":"Linux","password":true,"vac":true,"version":"7961495","steam_id":85568392924742828,"keywords":["nocrits","nodmgspread","payload","uncletopia"],"game_id":440,"stv_port":27086,"stv_name":"Uncletopia | Frankfurt | 8 | Community | STV","players":[{"user_id":217,"name":"Zipnet","steam_id":76561198000218824,"connected_time":1453000000000,"state":"active","ping":55},{"user_id":199,"name":"pizzashit (real)","steam_id":76561198097507847,"connected_time":2388000000000,"state":"active","ping":74},{"user_id":207,"name":"ANGELFISH","steam_id":76561198027536466,"connected_time":1894000000000,"state":"active","ping":98},{"user_id":222,"name":"you're ugleh","steam_id":76561198056844850,"connected_time":1370000000000,"state":"active","ping":66},{"user_id":204,"name":"Pietro Badoglio","steam_id":76561198302435743,"connected_time":2112000000000,"state":"active","ping":72},{"user_id":231,"name":"bohoc","steam_id":76561198051814654,"connected_time":45000000000,"state":"active","ping":60},{"user_id":209,"name":"enterprise02","steam_id":76561198182026939,"connected_time":1797000000000,"state":"active","ping":51},{"user_id":210,"name":"asda9376","steam_id":76561199128278728,"connected_time":1716000000000,"state":"active","ping":79},{"user_id":213,"name":"Natural Causes","steam_id":76561198880517558,"connected_time":1540000000000,"state":"active","ping":78},{"user_id":185,"name":"Benzo Fury","steam_id":76561198025259336,"connected_time":3828000000000,"state":"active","ping":60},{"user_id":161,"name":"pyro gaming","steam_id":76561198087970118,"connected_time":6040000000000,"state":"spawning","ping":596},{"user_id":214,"name":"YO MAMA(CZ)","steam_id":76561198057308825,"connected_time":1539000000000,"state":"active","ping":71},{"user_id":162,"name":"Doctor Medic","steam_id":76561198100957443,"connected_time":6034000000000,"state":"spawning","ping":59},{"user_id":226,"name":"Scipionemiliano","steam_id":76561198027646559,"connected_time":1074000000000,"state":"active","ping":99},{"user_id":218,"name":"Little Villain","steam_id":76561198048634585,"connected_time":1446000000000,"state":"active","ping":74},{"user_id":230,"name":"Dispenser Diet","steam_id":76561198059937616,"connected_time":52000000000,"state":"active","ping":100},{"user_id":220,"name":"bliss","steam_id":76561198067459427,"connected_time":1425000000000,"state":"active","ping":44},{"user_id":225,"name":"Goop","steam_id":76561198169958065,"connected_time":1221000000000,"state":"active","ping":57},{"user_id":224,"name":"Mike","steam_id":76561198266996665,"connected_time":1318000000000,"state":"active","ping":43}]},{"server_id":202,"name":"Uncletopia | Hong Kong | 1 | All Maps","name_short":"hgk-1","host":"hgk-1.hk.uncletopia.com","port":27015,"enabled":true,"region":"asia","cc":"hk","latitude":22.302711,"longitude":114.177216,"reserved":0,"last_update":"0001-01-01T00:00:00Z","name_a2s":"Uncletopia | Hong Kong | 1 | All Maps","protocol":17,"map":"pl_frontier_final","folder":"tf","game":"Team Fortress","app_id":440,"player_count":0,"max_players":24,"Bots":0,"server_type":"Dedicated","server_os":"Linux","password":true,"vac":true,"version":"7961495","steam_id":85568392924494504,"keywords":["nocrits","nodmgspread","payload","uncletopia"],"game_id":440,"stv_port":27016,"stv_name":"Uncletopia | Hong Kong | 1 | All Maps | STV","players":null},{"server_id":1,"name":"Uncletopia | Los Angeles | 1 | All Maps","name_short":"lax-1","host":"lax-1.us.uncletopia.com","port":27015,"enabled":true,"region":"us-west","cc":"us","latitude":33.94279,"longitude":-118.41004,"reserved":0,"last_update":"0001-01-01T00:00:00Z","name_a2s":"Uncletopia | Los Angeles | 1 | All Maps","protocol":17,"map":"cp_steel","folder":"tf","game":"Team Fortress","app_id":440,"player_count":0,"max_players":24,"Bots":0,"server_type":"Dedicated","server_os":"Linux","password":true,"vac":true,"version":"7961495","steam_id":85568392924469991,"keywords":["cp","nocrits","nodmgspread","uncletopia"],"game_id":440,"stv_port":27016,"stv_name":"Uncletopia | Los Angeles | 1 | All Maps | STV","players":null},{"server_id":112,"name":"Uncletopia | Los Angeles | 2 | All Maps","name_short":"lax-2","host":"lax-1.us.uncletopia.com","port":27025,"enabled":true,"region":"us-west","cc":"us","latitude":33.94279,"longitude":-118.41004,"reserved":0,"last_update":"0001-01-01T00:00:00Z","name_a2s":"Uncletopia | Los Angeles | 2 | All Maps","protocol":17,"map":"koth_highpass","folder":"tf","game":"Team Fortress","app_id":440,"player_count":0,"max_players":24,"Bots":0,"server_type":"Dedicated","server_os":"Linux","password":true,"vac":true,"version":"7961495","steam_id":85568392924469992,"keywords":["cp","nocrits","nodmgspread","uncletopia"],"game_id":440,"stv_port":27026,"stv_name":"Uncletopia | Los Angeles | 2 | All Maps | STV","players":null},{"server_id":324,"name":"Uncletopia | Los Angeles | 3 | All Maps","name_short":"lax-3","host":"lax-1.us.uncletopia.com","port":27035,"enabled":true,"region":"us-west","cc":"us","latitude":33.94279,"longitude":-118.41004,"reserved":0,"last_update":"0001-01-01T00:00:00Z","name_a2s":"Uncletopia | Los Angeles | 3 | All Maps","protocol":17,"map":"pl_badwater","folder":"tf","game":"Team Fortress","app_id":440,"player_count":24,"max_players":24,"Bots":0,"server_type":"Dedicated","server_os":"Linux","password":true,"vac":true,"version":"7961495","steam_id":85568392924510198,"keywords":["nocrits","nodmgspread","payload","uncletopia"],"game_id":440,"stv_port":27036,"stv_name":"Uncletopia | Los Angeles | 3 | All Maps | STV","players":[{"user_id":88,"name":"Lily Thorn","steam_id":76561198305488625,"connected_time":967000000000,"state":"active","ping":84},{"user_id":51,"name":"Imitation Caucasian","steam_id":76561198320536166,"connected_time":4028000000000,"state":"active","ping":67},{"user_id":85,"name":"Frank Accardi","steam_id":76561198017275707,"connected_time":1318000000000,"state":"active","ping":64},{"user_id":83,"name":"MNIJ","steam_id":76561199209509468,"connected_time":1655000000000,"state":"active","ping":64},{"user_id":78,"name":"Woody","steam_id":76561198055842769,"connected_time":1927000000000,"state":"active","ping":41},{"user_id":94,"name":"Tosh","steam_id":76561198026948976,"connected_time":550000000000,"state":"active","ping":75},{"user_id":58,"name":"Happy Chaos","steam_id":76561198194248527,"connected_time":3496000000000,"state":"active","ping":76},{"user_id":89,"name":"Bombat","steam_id":76561198083096946,"connected_time":966000000000,"state":"active","ping":65},{"user_id":100,"name":"bleach‚Ç™","steam_id":76561198004482768,"connected_time":12000000000,"state":"active","ping":56},{"user_id":98,"name":"dewey","steam_id":76561198132791511,"connected_time":427000000000,"state":"active","ping":59},{"user_id":73,"name":"cooljason08","steam_id":76561198248153988,"connected_time":2171000000000,"state":"active","ping":103},{"user_id":86,"name":"antiblastic","steam_id":76561199442190101,"connected_time":1270000000000,"state":"active","ping":83},{"user_id":90,"name":"meme","steam_id":76561199170771700,"connected_time":964000000000,"state":"active","ping":62},{"user_id":69,"name":"FULL COMMANDO","steam_id":76561197977702774,"connected_time":2864000000000,"state":"active","ping":105},{"user_id":75,"name":"Bluedime","steam_id":76561198123181025,"connected_time":2138000000000,"state":"active","ping":96},{"user_id":93,"name":"uzr","steam_id":76561198799343084,"connected_time":554000000000,"state":"active","ping":49},{"user_id":99,"name":"EduardoLopez2005","steam_id":76561198188481309,"connected_time":423000000000,"state":"active","ping":58},{"user_id":77,"name":"Antwan","steam_id":76561198246200638,"connected_time":2011000000000,"state":"active","ping":68},{"user_id":96,"name":"sadurday | H.R.E.A.M 710","steam_id":76561198043969039,"connected_time":524000000000,"state":"active","ping":38},{"user_id":97,"name":"Froggy Chair","steam_id":76561198259695175,"connected_time":512000000000,"state":"active","ping":99},{"user_id":71,"name":"Child Devourer","steam_id":76561198218558897,"connected_time":2402000000000,"state":"active","ping":131},{"user_id":81,"name":"warren","steam_id":76561198136331136,"connected_time":1834000000000,"state":"active","ping":112},{"user_id":87,"name":"Anthid","steam_id":76561198074493797,"connected_time":1217000000000,"state":"active","ping":74},{"user_id":55,"name":"Stupid Idiot","steam_id":76561198241315370,"connected_time":3913000000000,"state":"active","ping":105}]},{"server_id":25,"name":"Uncletopia | Los Angeles | 4 | Stopwatch","name_short":"lax-4","host":"lax-1.us.uncletopia.com","port":27045,"enabled":true,"region":"us-west","cc":"us","latitude":33.94279,"longitude":-118.41004,"reserved":0,"last_update":"0001-01-01T00:00:00Z","name_a2s":"Uncletopia | Los Angeles | 4 | Stopwatch","protocol":17,"map":"workshop/koth_bagel_rc6.ugc2514036946","folder":"tf","game":"Team Fortress","app_id":440,"player_count":0,"max_players":24,"Bots":0,"server_type":"Dedicated","server_os":"Linux","password":true,"vac":true,"version":"7961495","steam_id":85568392924510199,"keywords":["cp","nocrits","nodmgspread","uncletopia"],"game_id":440,"stv_port":27046,"stv_name":"Uncletopia | Los Angeles | 4 | Stopwatch | STV","players":null},{"server_id":11,"name":"Uncletopia | London | 1 | All Maps","name_short":"lon-1","host":"lon-1.uk.uncletopia.com","port":27015,"enabled":true,"region":"eu","cc":"gb","latitude":51.509865,"longitude":-0.118092,"reserved":0,"last_update":"0001-01-01T00:00:00Z","name_a2s":"Uncletopia | London | 1 | All Maps","protocol":17,"map":"pl_swiftwater_final1","folder":"tf","game":"Team Fortress","app_id":440,"player_count":24,"max_players":24,"Bots":0,"server_type":"Dedicated","server_os":"Linux","password":true,"vac":true,"version":"7961495","steam_id":85568392924367362,"keywords":["nocrits","nodmgspread","payload","uncletopia"],"game_id":440,"stv_port":27016,"stv_name":"Uncletopia | London | 1 | All Maps | STV","players":[{"user_id":650,"name":"One Shiny Boi‚Ñ¢","steam_id":76561198199193627,"connected_time":784000000000,"state":"active","ping":75},{"user_id":628,"name":"‚ú™ Danny","steam_id":76561198104483241,"connected_time":2322000000000,"state":"active","ping":51},{"user_id":612,"name":"furry feet ü§§ü§§","steam_id":76561198723244199,"connected_time":3280000000000,"state":"active","ping":75},{"user_id":624,"name":"Rai_to","steam_id":76561199013720618,"connected_time":2989000000000,"state":"active","ping":89},{"user_id":625,"name":"stinker","steam_id":76561198799649223,"connected_time":2980000000000,"state":"active","ping":39},{"user_id":654,"name":"Nathan","steam_id":76561198394485387,"connected_time":252000000000,"state":"active","ping":69},{"user_id":623,"name":"SOPHIIEE","steam_id":76561198443798981,"connected_time":3028000000000,"state":"active","ping":56},{"user_id":635,"name":"png.png","steam_id":76561198444446521,"connected_time":1692000000000,"state":"active","ping":106},{"user_id":617,"name":"Angst","steam_id":76561197970562002,"connected_time":3166000000000,"state":"active","ping":59},{"user_id":632,"name":"Big Al","steam_id":76561198079585198,"connected_time":1967000000000,"state":"active","ping":55},{"user_id":616,"name":"gabagool","steam_id":76561198307111838,"connected_time":3217000000000,"state":"active","ping":32},{"user_id":626,"name":"slic","steam_id":76561198219197248,"connected_time":2966000000000,"state":"active","ping":65},{"user_id":637,"name":"FISH_EGG","steam_id":76561198881794548,"connected_time":1677000000000,"state":"active","ping":136},{"user_id":627,"name":"dthz","steam_id":76561198174210334,"connected_time":2671000000000,"state":"active","ping":60},{"user_id":578,"name":"halow","steam_id":76561198061505163,"connected_time":4965000000000,"state":"active","ping":110},{"user_id":638,"name":"Stunner/John „ÉÑ","steam_id":76561199085822219,"connected_time":1669000000000,"state":"active","ping":88},{"user_id":584,"name":"Dex","steam_id":76561197981134247,"connected_time":4678000000000,"state":"active","ping":40},{"user_id":657,"name":"‚ôÇ Twink Hunter ‚ôÇ","steam_id":76561198397024973,"connected_time":156000000000,"state":"active","ping":31},{"user_id":606,"name":"Aaron","steam_id":76561197990046953,"connected_time":3346000000000,"state":"active","ping":71},{"user_id":621,"name":"Black Mesa Employee","steam_id":76561198184151394,"connected_time":3041000000000,"state":"active","ping":45},{"user_id":652,"name":"Kphi(i)","steam_id":76561198970587061,"connected_time":680000000000,"state":"active","ping":57},{"user_id":634,"name":"hmscole09","steam_id":76561198811362788,"connected_time":1915000000000,"state":"active","ping":56},{"user_id":651,"name":"Dragonspikes74","steam_id":76561198374895450,"connected_time":737000000000,"state":"active","ping":54},{"user_id":653,"name":"BiggieTgaming101","steam_id":76561199466309068,"connected_time":552000000000,"state":"active","ping":105}]},{"server_id":114,"name":"Uncletopia | London | 2 | All Maps","name_short":"lon-2","host":"lon-1.uk.uncletopia.com","port":27025,"enabled":true,"region":"eu","cc":"gb","latitude":51.509865,"longitude":-0.118092,"reserved":0,"last_update":"0001-01-01T00:00:00Z","name_a2s":"Uncletopia | London | 2 | All Maps","protocol":17,"map":"pl_badwater","folder":"tf","game":"Team Fortress","app_id":440,"player_count":20,"max_players":24,"Bots":0,"server_type":"Dedicated","server_os":"Linux","password":true,"vac":true,"version":"7961495","steam_id":85568392924470941,"keywords":["nocrits","nodmgspread","payload","uncletopia"],"game_id":440,"stv_port":27026,"stv_name":"Uncletopia | London | 2 | All Maps | STV","players":[{"user_id":507,"name":"RedWater","steam_id":76561198016406576,"connected_time":123000000000,"state":"active","ping":92},{"user_id":508,"name":"Dr. Hannibal Erekter","steam_id":76561198256093319,"connected_time":122000000000,"state":"active","ping":90},{"user_id":460,"name":"S.Scary","steam_id":76561198248602386,"connected_time":3566000000000,"state":"active","ping":75},{"user_id":506,"name":"Hyperion","steam_id":76561198043716162,"connected_time":264000000000,"state":"active","ping":57},{"user_id":468,"name":"ornithology 1:1","steam_id":76561198097239850,"connected_time":3245000000000,"state":"active","ping":57},{"user_id":436,"name":"Mr. Mundy","steam_id":76561198132008918,"connected_time":5058000000000,"state":"active","ping":86},{"user_id":487,"name":"R0mulone","steam_id":76561198352513792,"connected_time":1632000000000,"state":"active","ping":51},{"user_id":503,"name":"Anri Okita's Massive Milkers","steam_id":76561199186352720,"connected_time":502000000000,"state":"active","ping":49},{"user_id":497,"name":"Umbraprism","steam_id":76561197984504910,"connected_time":1110000000000,"state":"active","ping":58},{"user_id":490,"name":"goose","steam_id":76561198169291125,"connected_time":1556000000000,"state":"active","ping":52},{"user_id":491,"name":"neovrtl","steam_id":76561199371471038,"connected_time":1548000000000,"state":"active","ping":58},{"user_id":446,"name":"DaCZ","steam_id":76561198093301141,"connected_time":4437000000000,"state":"active","ping":64},{"user_id":500,"name":"Garoseth","steam_id":76561197961387454,"connected_time":814000000000,"state":"active","ping":60},{"user_id":473,"name":"LordTrap.exe","steam_id":76561198318089716,"connected_time":2966000000000,"state":"active","ping":60},{"user_id":504,"name":"xiiski","steam_id":76561198152387747,"connected_time":469000000000,"state":"active","ping":102},{"user_id":478,"name":"Rock..","steam_id":76561198004641963,"connected_time":2276000000000,"state":"active","ping":73},{"user_id":498,"name":"corrosive taekwondo","steam_id":76561197982510441,"connected_time":1094000000000,"state":"active","ping":44},{"user_id":466,"name":"ROX","steam_id":76561198272289320,"connected_time":3401000000000,"state":"active","ping":60},{"user_id":418,"name":"Hexagon","steam_id":76561198151205758,"connected_time":6253000000000,"state":"active","ping":55},{"user_id":509,"name":"golfmastr","steam_id":76561198993144124,"connected_time":91000000000,"state":"active","ping":60}]},{"server_id":320,"name":"Uncletopia | London | 3 | All Maps","name_short":"lon-3","host":"lon-1.uk.uncletopia.com","port":27035,"enabled":true,"region":"eu","cc":"gb","latitude":51.509865,"longitude":-0.118092,"reserved":0,"last_update":"0001-01-01T00:00:00Z","name_a2s":"Uncletopia | London | 3 | All Maps","protocol":17,"map":"pl_frontier_final","folder":"tf","game":"Team Fortress","app_id":440,"player_count":24,"max_players":24,"Bots":0,"server_type":"Dedicated","server_os":"Linux","password":true,"vac":true,"version":"7961495","steam_id":85568392924510192,"keywords":["nocrits","nodmgspread","payload","uncletopia"],"game_id":440,"stv_port":27036,"stv_name":"Uncletopia | London | 3 | All Maps | STV","players":[{"user_id":429,"name":"Maid","steam_id":76561198104863288,"connected_time":995000000000,"state":"active","ping":49},{"user_id":433,"name":"neo","steam_id":76561198136265838,"connected_time":898000000000,"state":"active","ping":71},{"user_id":412,"name":"‚ù§Luna Bee‚ù§","steam_id":76561199230209215,"connected_time":2714000000000,"state":"active","ping":61},{"user_id":426,"name":"mr sparkles","steam_id":76561197980736364,"connected_time":1292000000000,"state":"active","ping":83},{"user_id":399,"name":"w+m1","steam_id":76561198010428082,"connected_time":3232000000000,"state":"active","ping":79},{"user_id":441,"name":"martin","steam_id":76561198107039012,"connected_time":249000000000,"state":"active","ping":44},{"user_id":425,"name":"Cream Corn","steam_id":76561198043791586,"connected_time":1562000000000,"state":"active","ping":112},{"user_id":430,"name":"bleeeeh :P","steam_id":76561198139729249,"connected_time":989000000000,"state":"active","ping":96},{"user_id":428,"name":"ham","steam_id":76561198092186935,"connected_time":1075000000000,"state":"active","ping":46},{"user_id":371,"name":"Vince","steam_id":76561198128953279,"connected_time":5684000000000,"state":"active","ping":73},{"user_id":434,"name":"BOLAXA","steam_id":76561198228406008,"connected_time":848000000000,"state":"active","ping":77},{"user_id":413,"name":"Hyppy ja liipasin pohjaan :D","steam_id":76561198080669698,"connected_time":2421000000000,"state":"active","ping":88},{"user_id":440,"name":"Mobster Tortoise","steam_id":76561199036837091,"connected_time":321000000000,"state":"active","ping":94},{"user_id":439,"name":"Anon User","steam_id":76561199490573064,"connected_time":395000000000,"state":"active","ping":87},{"user_id":373,"name":"JustaBadPlaya","steam_id":76561198408318646,"connected_time":5564000000000,"state":"active","ping":56},{"user_id":358,"name":"BabyYodaIsMySoda","steam_id":76561198321846861,"connected_time":6898000000000,"state":"active","ping":80},{"user_id":416,"name":"SpilledMilk","steam_id":76561198174123971,"connected_time":2328000000000,"state":"active","ping":77},{"user_id":432,"name":"unnamed","steam_id":76561198083700067,"connected_time":947000000000,"state":"active","ping":149},{"user_id":349,"name":"Snake-chan","steam_id":76561199044755854,"connected_time":8004000000000,"state":"active","ping":81},{"user_id":424,"name":"xXxXx_..--.._G4m3R_..--.._xXxXx","steam_id":76561199184831395,"connected_time":1669000000000,"state":"active","ping":43},{"user_id":419,"name":"kat","steam_id":76561198879664338,"connected_time":2186000000000,"state":"active","ping":70},{"user_id":409,"name":"Oak","steam_id":76561198067315672,"connected_time":2829000000000,"state":"active","ping":44},{"user_id":427,"name":"High Fructose Porn Syrup","steam_id":76561197998825323,"connected_time":1125000000000,"state":"active","ping":43},{"user_id":411,"name":"im tired","steam_id":76561198812159557,"connected_time":2814000000000,"state":"active","ping":81}]},{"server_id":321,"name":"Uncletopia | London | 4 | All Maps","name_short":"lon-4","host":"lon-1.uk.uncletopia.com","port":27045,"enabled":true,"region":"eu","cc":"gb","latitude":51.509865,"longitude":-0.118092,"reserved":0,"last_update":"0001-01-01T00:00:00Z","name_a2s":"Uncletopia | London | 4 | All Maps","protocol":17,"map":"pl_upward","folder":"tf","game":"Team Fortress","app_id":440,"player_count":24,"max_players":24,"Bots":0,"server_type":"Dedicated","server_os":"Linux","password":true,"vac":true,"version":"7961495","steam_id":85568392924510193,"keywords":["nocrits","nodmgspread","payload","uncletopia"],"game_id":440,"stv_port":27046,"stv_name":"Uncletopia | London | 4 | All Maps | STV","players":[{"user_id":547,"name":"gagalak","steam_id":76561198089979108,"connected_time":240000000000,"state":"active","ping":96},{"user_id":525,"name":"Testicular torsion","steam_id":76561198119547399,"connected_time":1266000000000,"state":"active","ping":55},{"user_id":528,"name":"Jayem","steam_id":76561198076470685,"connected_time":1195000000000,"state":"active","ping":63},{"user_id":535,"name":"meow (they/them)","steam_id":76561198416657815,"connected_time":869000000000,"state":"active","ping":81},{"user_id":497,"name":"jonas","steam_id":76561199441196540,"connected_time":2281000000000,"state":"active","ping":61},{"user_id":540,"name":"Luxotrics","steam_id":76561198053455161,"connected_time":633000000000,"state":"active","ping":86},{"user_id":541,"name":"armadillo","steam_id":76561198324656652,"connected_time":615000000000,"state":"active","ping":48},{"user_id":548,"name":"flr","steam_id":76561198249327786,"connected_time":45000000000,"state":"active","ping":87},{"user_id":526,"name":"Uselss Joe","steam_id":76561198275853629,"connected_time":1263000000000,"state":"active","ping":60},{"user_id":510,"name":"≈†tƒõp√°n","steam_id":76561198275742101,"connected_time":1846000000000,"state":"active","ping":69},{"user_id":511,"name":"üó£Ô∏èüí¨üíØüíØüî•üî•‚Äº","steam_id":76561198190816499,"connected_time":1843000000000,"state":"active","ping":75},{"user_id":512,"name":"Bottle O' Scrumpy","steam_id":76561199244250562,"connected_time":1822000000000,"state":"active","ping":106},{"user_id":529,"name":"Nonok","steam_id":76561199480685498,"connected_time":1178000000000,"state":"active","ping":77},{"user_id":521,"name":"madhead200","steam_id":76561198119498666,"connected_time":1518000000000,"state":"active","ping":70},{"user_id":534,"name":"newborn babies","steam_id":76561198127273128,"connected_time":928000000000,"state":"active","ping":62},{"user_id":520,"name":"laser","steam_id":76561198036030697,"connected_time":1566000000000,"state":"active","ping":67},{"user_id":537,"name":"sareena","steam_id":76561198810194062,"connected_time":808000000000,"state":"active","ping":78},{"user_id":499,"name":"KermSlinger","steam_id":76561198854027069,"connected_time":2227000000000,"state":"active","ping":70},{"user_id":500,"name":"STOMP","steam_id":76561198070819203,"connected_time":2208000000000,"state":"active","ping":59},{"user_id":545,"name":"joe biven","steam_id":76561198269429418,"connected_time":367000000000,"state":"active","ping":146},{"user_id":527,"name":"spherewithahat","steam_id":76561199122192660,"connected_time":1217000000000,"state":"active","ping":128},{"user_id":536,"name":"dochris.2","steam_id":76561198026478625,"connected_time":864000000000,"state":"active","ping":52},{"user_id":546,"name":"Desnot","steam_id":76561198862581894,"connected_time":362000000000,"state":"active","ping":72},{"user_id":474,"name":"twscsvl","steam_id":76561198045304929,"connected_time":3968000000000,"state":"active","ping":102}]},{"server_id":21,"name":"Uncletopia | London | 5 | All Maps","name_short":"lon-5","host":"lon-1.uk.uncletopia.com","port":27055,"enabled":true,"region":"eu","cc":"gb","latitude":51.509865,"longitude":-0.118092,"reserved":0,"last_update":"0001-01-01T00:00:00Z","name_a2s":"Uncletopia | London | 5 | All Maps","protocol":17,"map":"pl_upward","folder":"tf","game":"Team Fortress","app_id":440,"player_count":24,"max_players":24,"Bots":0,"server_type":"Dedicated","server_os":"Linux","password":true,"vac":true,"version":"7961495","steam_id":85568392924742829,"keywords":["nocrits","nodmgspread","payload","uncletopia"],"game_id":440,"stv_port":27056,"stv_name":"Uncletopia | London | 5 | All Maps | STV","players":[{"user_id":298,"name":"Dogdigger","steam_id":76561198032893130,"connected_time":7354000000000,"state":"active","ping":104},{"user_id":352,"name":"Laura ‚ù§","steam_id":76561198975652501,"connected_time":3127000000000,"state":"active","ping":85},{"user_id":362,"name":"Caruzon - Obismal","steam_id":76561198036211170,"connected_time":2715000000000,"state":"active","ping":85},{"user_id":394,"name":"Ironnicall","steam_id":76561199060151538,"connected_time":248000000000,"state":"active","ping":127},{"user_id":355,"name":"Cimbasso","steam_id":76561198968050004,"connected_time":2814000000000,"state":"active","ping":142},{"user_id":371,"name":"R8N - Obismal","steam_id":76561198007482714,"connected_time":2504000000000,"state":"active","ping":82},{"user_id":372,"name":"highest noon","steam_id":76561199103959197,"connected_time":2466000000000,"state":"active","ping":99},{"user_id":360,"name":"jorgemaioneze","steam_id":76561198282523699,"connected_time":2735000000000,"state":"active","ping":67},{"user_id":361,"name":"froge","steam_id":76561198304959766,"connected_time":2726000000000,"state":"active","ping":76},{"user_id":323,"name":"Macci - Obismal","steam_id":76561198050485404,"connected_time":5613000000000,"state":"active","ping":75},{"user_id":382,"name":"Ziy???","steam_id":76561197995765491,"connected_time":1706000000000,"state":"active","ping":48},{"user_id":389,"name":"_Monteiro_","steam_id":76561199033423134,"connected_time":282000000000,"state":"active","ping":73},{"user_id":390,"name":"Ultir","steam_id":76561198880096224,"connected_time":276000000000,"state":"active","ping":72},{"user_id":363,"name":"‚ô•Itsge‚ô•","steam_id":76561198389946860,"connected_time":2704000000000,"state":"active","ping":69},{"user_id":364,"name":"The Queen of England","steam_id":76561198862449376,"connected_time":2684000000000,"state":"active","ping":49},{"user_id":365,"name":"Pain in a Box","steam_id":76561197990777173,"connected_time":2665000000000,"state":"active","ping":109},{"user_id":370,"name":"Deemask√©","steam_id":76561199225833593,"connected_time":2578000000000,"state":"active","ping":50},{"user_id":385,"name":"yuck","steam_id":76561197987249568,"connected_time":1313000000000,"state":"active","ping":105},{"user_id":397,"name":"Bob Lettuce","steam_id":76561198126830902,"connected_time":158000000000,"state":"active","ping":125},{"user_id":392,"name":"ScaryTree","steam_id":76561199384362833,"connected_time":255000000000,"state":"active","ping":58},{"user_id":369,"name":"Clemonster","steam_id":76561198341727831,"connected_time":2594000000000,"state":"active","ping":60},{"user_id":398,"name":"Oqlebi","steam_id":76561198800210503,"connected_time":143000000000,"state":"active","ping":56},{"user_id":375,"name":"Dapper Pan Man","steam_id":76561197981874399,"connected_time":2406000000000,"state":"active","ping":88},{"user_id":388,"name":"carrots saved my life","steam_id":76561198069649097,"connected_time":1263000000000,"state":"active","ping":64}]},{"server_id":22,"name":"Uncletopia | London | 6 | All Maps","name_short":"lon-6","host":"lon-1.uk.uncletopia.com","port":27065,"enabled":true,"region":"eu","cc":"gb","latitude":51.509865,"longitude":-0.118092,"reserved":0,"last_update":"0001-01-01T00:00:00Z","name_a2s":"Uncletopia | London | 6 | All Maps","protocol":17,"map":"pl_frontier_final","folder":"tf","game":"Team Fortress","app_id":440,"player_count":24,"max_players":24,"Bots":0,"server_type":"Dedicated","server_os":"Linux","password":true,"vac":true,"version":"7961495","steam_id":85568392924742830,"keywords":["nocrits","nodmgspread","payload","uncletopia"],"game_id":440,"stv_port":27066,"stv_name":"Uncletopia | London | 6 | All Maps | STV","players":[{"user_id":208,"name":"W","steam_id":76561198273623211,"connected_time":564000000000,"state":"active","ping":90},{"user_id":164,"name":"Gent","steam_id":76561198037167890,"connected_time":2692000000000,"state":"active","ping":83},{"user_id":207,"name":"ack","steam_id":76561198139796077,"connected_time":647000000000,"state":"active","ping":52},{"user_id":128,"name":"Voks_","steam_id":76561198159687785,"connected_time":4653000000000,"state":"active","ping":71},{"user_id":215,"name":"Norkkom","steam_id":76561198027073521,"connected_time":31000000000,"state":"active","ping":122},{"user_id":213,"name":"justpixels","steam_id":76561198143717568,"connected_time":95000000000,"state":"spawning","ping":105},{"user_id":181,"name":"nug","steam_id":76561198055396568,"connected_time":2035000000000,"state":"active","ping":53},{"user_id":145,"name":"finbar","steam_id":76561198056812396,"connected_time":4407000000000,"state":"active","ping":76},{"user_id":205,"name":"Morty","steam_id":76561198227437620,"connected_time":995000000000,"state":"active","ping":76},{"user_id":152,"name":"Max Power","steam_id":76561198019269089,"connected_time":3972000000000,"state":"active","ping":58},{"user_id":190,"name":"Professional facestab","steam_id":76561198258721056,"connected_time":1316000000000,"state":"active","ping":56},{"user_id":191,"name":"milo","steam_id":76561198119016918,"connected_time":1305000000000,"state":"active","ping":61},{"user_id":206,"name":"mohemmedmokhter2005","steam_id":76561199197650506,"connected_time":984000000000,"state":"active","ping":106},{"user_id":194,"name":"hitscanner","steam_id":76561198295302437,"connected_time":1249000000000,"state":"active","ping":75},{"user_id":203,"name":"Kjat","steam_id":76561198839433592,"connected_time":1041000000000,"state":"active","ping":60},{"user_id":209,"name":"Ja","steam_id":76561198396340174,"connected_time":540000000000,"state":"active","ping":126},{"user_id":210,"name":"Ash","steam_id":76561198148738525,"connected_time":533000000000,"state":"active","ping":105},{"user_id":180,"name":"Slazaa","steam_id":76561197993252446,"connected_time":2059000000000,"state":"active","ping":50},{"user_id":199,"name":"fence_","steam_id":76561198150386379,"connected_time":1120000000000,"state":"active","ping":45},{"user_id":211,"name":"Giga–°had Pyro","steam_id":76561198140742485,"connected_time":433000000000,"state":"active","ping":111},{"user_id":201,"name":"minecrafter","steam_id":76561198797989834,"connected_time":1080000000000,"state":"active","ping":42},{"user_id":183,"name":"meriones","steam_id":76561198034234373,"connected_time":2015000000000,"state":"active","ping":42},{"user_id":212,"name":"David","steam_id":76561198085302725,"connected_time":342000000000,"state":"active","ping":56},{"user_id":114,"name":"SuntanPikachu","steam_id":76561198121242476,"connected_time":6279000000000,"state":"active","ping":60}]},{"server_id":40,"name":"Uncletopia | London | 7 | Stopwatch","name_short":"lon-7","host":"lon-1.uk.uncletopia.com","port":27075,"enabled":true,"region":"eu","cc":"gb","latitude":51.509865,"longitude":-0.118092,"reserved":0,"last_update":"0001-01-01T00:00:00Z","name_a2s":"Uncletopia | London | 7 | Stopwatch","protocol":17,"map":"koth_highpass","folder":"tf","game":"Team Fortress","app_id":440,"player_count":1,"max_players":24,"Bots":0,"server_type":"Dedicated","server_os":"Linux","password":true,"vac":true,"version":"7961495","steam_id":85568392924964314,"keywords":["cp","nocrits","nodmgspread","uncletopia"],"game_id":440,"stv_port":27076,"stv_name":"Uncletopia | London | 7 | Stopwatch | STV","players":[{"user_id":13,"name":"Lola bunny","steam_id":76561198214149431,"connected_time":4000000000,"state":"spawning","ping":44}]},{"server_id":41,"name":"Uncletopia | London | 8 | Community","name_short":"lon-8","host":"lon-1.uk.uncletopia.com","port":27085,"enabled":true,"region":"eu","cc":"gb","latitude":51.509865,"longitude":-0.118092,"reserved":0,"last_update":"0001-01-01T00:00:00Z","name_a2s":"Uncletopia | London | 8 | Community","protocol":17,"map":"workshop/cp_kalinka_rc6a.ugc1272700588","folder":"tf","game":"Team Fortress","app_id":440,"player_count":0,"max_players":24,"Bots":0,"server_type":"Dedicated","server_os":"Linux","password":true,"vac":true,"version":"7961495","steam_id":85568392924964315,"keywords":["cp","nocrits","nodmgspread","uncletopia"],"game_id":440,"stv_port":27086,"stv_name":"Uncletopia | London | 8 | Community | STV","players":null},{"server_id":300,"name":"Uncletopia | Montr√©al | 1 | All Maps","name_short":"mtl-1","host":"mtl-1.ca.uncletopia.com","port":27015,"enabled":true,"region":"us-east","cc":"ca","latitude":45.50889,"longitude":-73.56167,"reserved":0,"last_update":"0001-01-01T00:00:00Z","name_a2s":"","protocol":0,"map":"","folder":"","game":"","app_id":0,"player_count":2,"max_players":0,"Bots":0,"server_type":"","server_os":"","password":false,"vac":false,"version":"","steam_id":0,"keywords":null,"game_id":0,"stv_port":0,"stv_name":"","players":[{"user_id":33,"name":"DrMisteryous2","steam_id":76561198336307012,"connected_time":260000000000,"state":"active","ping":162},{"user_id":34,"name":"Goose of Wisdom","steam_id":76561198233465044,"connected_time":177000000000,"state":"active","ping":47}]},{"server_id":301,"name":"Uncletopia | Montr√©al | 2 | ???","name_short":"mtl-2","host":"mtl-1.ca.uncletopia.com","port":27025,"enabled":true,"region":"us-east","cc":"ca","latitude":45.50889,"longitude":-73.56167,"reserved":0,"last_update":"0001-01-01T00:00:00Z","name_a2s":"","protocol":0,"map":"","folder":"","game":"","app_id":0,"player_count":0,"max_players":0,"Bots":0,"server_type":"","server_os":"","password":false,"vac":false,"version":"","steam_id":0,"keywords":null,"game_id":0,"stv_port":0,"stv_name":"","players":null},{"server_id":302,"name":"Uncletopia | Montr√©al | 3 | All Maps","name_short":"mtl-3","host":"mtl-1.ca.uncletopia.com","port":27035,"enabled":true,"region":"us-east","cc":"ca","latitude":45.50889,"longitude":-73.56167,"reserved":0,"last_update":"0001-01-01T00:00:00Z","name_a2s":"","protocol":0,"map":"","folder":"","game":"","app_id":0,"player_count":0,"max_players":0,"Bots":0,"server_type":"","server_os":"","password":false,"vac":false,"version":"","steam_id":0,"keywords":null,"game_id":0,"stv_port":0,"stv_name":"","players":null},{"server_id":303,"name":"Uncletopia | Montr√©al | 4 | No Payload","name_short":"mtl-4","host":"mtl-1.ca.uncletopia.com","port":27045,"enabled":true,"region":"us-east","cc":"ca","latitude":45.50889,"longitude":-73.56167,"reserved":0,"last_update":"0001-01-01T00:00:00Z","name_a2s":"","protocol":0,"map":"","folder":"","game":"","app_id":0,"player_count":0,"max_players":0,"Bots":0,"server_type":"","server_os":"","password":false,"vac":false,"version":"","steam_id":0,"keywords":null,"game_id":0,"stv_port":0,"stv_name":"","players":null},{"server_id":13,"name":"Uncletopia | New York City | 1 | All Maps","name_short":"nyc-1","host":"nyc-1.us.uncletopia.com","port":27015,"enabled":true,"region":"us-east","cc":"us","latitude":40.73061,"longitude":-73.93524,"reserved":0,"last_update":"0001-01-01T00:00:00Z","name_a2s":"Uncletopia | New York City | 1 | All Maps","protocol":17,"map":"pl_badwater","folder":"tf","game":"Team Fortress","app_id":440,"player_count":24,"max_players":24,"Bots":0,"server_type":"Dedicated","server_os":"Linux","password":true,"vac":true,"version":"7961495","steam_id":85568392924469993,"keywords":["nocrits","nodmgspread","payload","uncletopia"],"game_id":440,"stv_port":27016,"stv_name":"Uncletopia | New York City | 1 | All Maps | STV","players":[{"user_id":147,"name":"Pluto","steam_id":76561198338593690,"connected_time":1128000000000,"state":"active","ping":78},{"user_id":148,"name":"Lil' Diabeetus","steam_id":76561198330119627,"connected_time":1121000000000,"state":"active","ping":82},{"user_id":82,"name":"aqua","steam_id":76561199407709552,"connected_time":5184000000000,"state":"active","ping":87},{"user_id":121,"name":"Pork Soda","steam_id":76561198119575082,"connected_time":3010000000000,"state":"active","ping":67},{"user_id":149,"name":"dicksnip","steam_id":76561198356515396,"connected_time":1079000000000,"state":"active","ping":97},{"user_id":112,"name":"Jazz2T","steam_id":76561198154418867,"connected_time":3881000000000,"state":"active","ping":105},{"user_id":150,"name":"Mobster Lobster","steam_id":76561198025376883,"connected_time":1046000000000,"state":"active","ping":74},{"user_id":136,"name":"CoconutNeutral","steam_id":76561198277110108,"connected_time":2054000000000,"state":"active","ping":68},{"user_id":111,"name":"A Puppy","steam_id":76561198828184456,"connected_time":3966000000000,"state":"active","ping":46},{"user_id":162,"name":"Ian","steam_id":76561199078852180,"connected_time":217000000000,"state":"active","ping":74},{"user_id":160,"name":"Citamin V","steam_id":76561198036032168,"connected_time":749000000000,"state":"active","ping":60},{"user_id":113,"name":"Knifedge825","steam_id":76561198423967605,"connected_time":3873000000000,"state":"active","ping":85},{"user_id":158,"name":"dcqwerty","steam_id":76561198964101426,"connected_time":838000000000,"state":"active","ping":44},{"user_id":153,"name":"Mr. Dick‚Ñ¢","steam_id":76561198047309044,"connected_time":934000000000,"state":"active","ping":62},{"user_id":164,"name":"Philo","steam_id":76561198061873341,"connected_time":187000000000,"state":"active","ping":89},{"user_id":142,"name":"Clumsy","steam_id":76561198056345245,"connected_time":1388000000000,"state":"active","ping":69},{"user_id":155,"name":"Nice21","steam_id":76561199427548141,"connected_time":921000000000,"state":"active","ping":69},{"user_id":165,"name":"Gentoo Linux Gaming","steam_id":76561197999657118,"connected_time":83000000000,"state":"active","ping":74},{"user_id":157,"name":"Goat","steam_id":76561197960432083,"connected_time":885000000000,"state":"active","ping":85},{"user_id":163,"name":"yer_nerd","steam_id":76561199435454093,"connected_time":202000000000,"state":"active","ping":59},{"user_id":137,"name":"triple_range_merge","steam_id":76561198991225026,"connected_time":1885000000000,"state":"active","ping":63},{"user_id":48,"name":"Bottom feeder","steam_id":76561198181298169,"connected_time":7373000000000,"state":"active","ping":74},{"user_id":159,"name":"Mario2109","steam_id":76561198431842219,"connected_time":777000000000,"state":"active","ping":46},{"user_id":145,"name":"bran","steam_id":76561199028457134,"connected_time":1248000000000,"state":"active","ping":46}]},{"server_id":14,"name":"Uncletopia | New York City | 2 | All Maps","name_short":"nyc-2","host":"nyc-1.us.uncletopia.com","port":27025,"enabled":true,"region":"us-east","cc":"us","latitude":40.73061,"longitude":-73.93524,"reserved":0,"last_update":"0001-01-01T00:00:00Z","name_a2s":"Uncletopia | New York City | 2 | All Maps","protocol":17,"map":"pl_barnblitz","folder":"tf","game":"Team Fortress","app_id":440,"player_count":24,"max_players":24,"Bots":0,"server_type":"Dedicated","server_os":"Linux","password":true,"vac":true,"version":"7961495","steam_id":85568392924469994,"keywords":["nocrits","nodmgspread","payload","uncletopia"],"game_id":440,"stv_port":27026,"stv_name":"Uncletopia | New York City | 2 | All Maps | STV","players":[{"user_id":307,"name":"turd ferguson","steam_id":76561198071620782,"connected_time":2038000000000,"state":"active","ping":71},{"user_id":260,"name":"Smokey Ian","steam_id":76561199128786637,"connected_time":5296000000000,"state":"active","ping":87},{"user_id":334,"name":"The Wave","steam_id":76561198268225109,"connected_time":220000000000,"state":"active","ping":73},{"user_id":293,"name":"Mr. Sauce","steam_id":76561198055512324,"connected_time":2610000000000,"state":"active","ping":61},{"user_id":333,"name":"guppy","steam_id":76561198041380190,"connected_time":402000000000,"state":"active","ping":71},{"user_id":310,"name":"Cellus","steam_id":76561198067204847,"connected_time":1704000000000,"state":"active","ping":60},{"user_id":296,"name":"Keymaster","steam_id":76561198881514228,"connected_time":2419000000000,"state":"active","ping":63},{"user_id":335,"name":"capeeKo","steam_id":76561197970346623,"connected_time":46000000000,"state":"active","ping":67},{"user_id":320,"name":"Sigiferd","steam_id":76561198148788110,"connected_time":1096000000000,"state":"active","ping":130},{"user_id":189,"name":"SpaceSanctum","steam_id":76561198805242305,"connected_time":8861000000000,"state":"active","ping":45},{"user_id":172,"name":"googa","steam_id":76561198133130452,"connected_time":10849000000000,"state":"active","ping":45},{"user_id":322,"name":"Doctor Nic","steam_id":76561198035844950,"connected_time":1013000000000,"state":"active","ping":68},{"user_id":276,"name":"Linguine Alfredo","steam_id":76561198022045816,"connected_time":4384000000000,"state":"active","ping":62},{"user_id":309,"name":"De","steam_id":76561198206728044,"connected_time":1907000000000,"state":"active","ping":75},{"user_id":323,"name":"Dombo","steam_id":76561198108191209,"connected_time":1003000000000,"state":"active","ping":120},{"user_id":314,"name":"asbestos","steam_id":76561198079178866,"connected_time":1325000000000,"state":"active","ping":50},{"user_id":281,"name":"Fish","steam_id":76561199258053772,"connected_time":4051000000000,"state":"active","ping":84},{"user_id":324,"name":"Lovedaddy","steam_id":76561198006569710,"connected_time":990000000000,"state":"active","ping":74},{"user_id":201,"name":"the keebler","steam_id":76561199486326945,"connected_time":8095000000000,"state":"active","ping":69},{"user_id":312,"name":"He Who Dared Say \"SuS\"","steam_id":76561198123441203,"connected_time":1603000000000,"state":"active","ping":77},{"user_id":311,"name":"Hawk (NV-6155)","steam_id":76561198085696816,"connected_time":1658000000000,"state":"active","ping":67},{"user_id":315,"name":"Purp","steam_id":76561198044559535,"connected_time":1303000000000,"state":"active","ping":78},{"user_id":326,"name":"The Mug Man","steam_id":76561198283468122,"connected_time":977000000000,"state":"active","ping":48},{"user_id":327,"name":"frid","steam_id":76561198005806915,"connected_time":964000000000,"state":"active","ping":74}]},{"server_id":15,"name":"Uncletopia | New York City | 3 | Stopwatch","name_short":"nyc-3","host":"nyc-1.us.uncletopia.com","port":27035,"enabled":true,"region":"us-east","cc":"us","latitude":40.73061,"longitude":-73.93524,"reserved":0,"last_update":"0001-01-01T00:00:00Z","name_a2s":"Uncletopia | New York City | 3 | Stopwatch","protocol":17,"map":"cp_process_final","folder":"tf","game":"Team Fortress","app_id":440,"player_count":0,"max_players":24,"Bots":0,"server_type":"Dedicated","server_os":"Linux","password":true,"vac":true,"version":"7961495","steam_id":85568392924742820,"keywords":["cp","nocrits","nodmgspread","uncletopia"],"game_id":440,"stv_port":27036,"stv_name":"Uncletopia | New York City | 3 | Stopwatch | STV","players":null},{"server_id":16,"name":"Uncletopia | New York City | 4 | Community","name_short":"nyc-4","host":"nyc-1.us.uncletopia.com","port":27045,"enabled":true,"region":"us-east","cc":"us","latitude":40.73061,"longitude":-73.93524,"reserved":0,"last_update":"0001-01-01T00:00:00Z","name_a2s":"Uncletopia | New York City | 4 | Community","protocol":17,"map":"workshop/koth_trenchfoot_b1a.ugc731436616","folder":"tf","game":"Team Fortress","app_id":440,"player_count":0,"max_players":24,"Bots":0,"server_type":"Dedicated","server_os":"Linux","password":true,"vac":true,"version":"7961495","steam_id":85568392924742821,"keywords":["cp","nocrits","nodmgspread","uncletopia"],"game_id":440,"stv_port":27046,"stv_name":"Uncletopia | New York City | 4 | Community | STV","players":null},{"server_id":142,"name":"Uncletopia | S√£o Paulo | 1 | All Maps","name_short":"sao-1","host":"sao-1.br.uncletopia.com","port":27015,"enabled":true,"region":"sa","cc":"br","latitude":-23.533773,"longitude":-46.62529,"reserved":0,"last_update":"0001-01-01T00:00:00Z","name_a2s":"Uncletopia | S√£o Paulo | 1 | All Maps","protocol":17,"map":"koth_lakeside_final","folder":"tf","game":"Team Fortress","app_id":440,"player_count":0,"max_players":24,"Bots":0,"server_type":"Dedicated","server_os":"Linux","password":true,"vac":true,"version":"7961495","steam_id":85568392924469996,"keywords":["cp","nocrits","nodmgspread","uncletopia"],"game_id":440,"stv_port":27016,"stv_name":"Uncletopia | S√£o Paulo | 1 | All Maps | STV","players":null},{"server_id":143,"name":"Uncletopia | S√£o Paulo | 2 | Community","name_short":"sao-2","host":"sao-2.br.uncletopia.com","port":27015,"enabled":true,"region":"sa","cc":"br","latitude":-23.533773,"longitude":-46.62529,"reserved":0,"last_update":"0001-01-01T00:00:00Z","name_a2s":"Uncletopia | S√£o Paulo | 2 | Community","protocol":17,"map":"workshop/koth_ramjam_rc1.ugc459778887","folder":"tf","game":"Team Fortress","app_id":440,"player_count":0,"max_players":24,"Bots":0,"server_type":"Dedicated","server_os":"Linux","password":true,"vac":true,"version":"7961495","steam_id":85568392924485349,"keywords":["cp","nocrits","nodmgspread","uncletopia"],"game_id":440,"stv_port":27016,"stv_name":"Uncletopia | S√£o Paulo | 2 | Community | STV","players":null},{"server_id":7,"name":"Uncletopia | Seattle | 1 | All Maps","name_short":"sea-1","host":"sea-1.us.uncletopia.com","port":27015,"enabled":true,"region":"us-west","cc":"us","latitude":47.608013,"longitude":-122.33517,"reserved":0,"last_update":"0001-01-01T00:00:00Z","name_a2s":"Uncletopia | Seattle | 1 | All Maps","protocol":17,"map":"pl_barnblitz","folder":"tf","game":"Team Fortress","app_id":440,"player_count":21,"max_players":24,"Bots":0,"server_type":"Dedicated","server_os":"Linux","password":true,"vac":true,"version":"7961495","steam_id":85568392924469997,"keywords":["nocrits","nodmgspread","payload","uncletopia"],"game_id":440,"stv_port":27016,"stv_name":"Uncletopia | Seattle | 1 | All Maps | STV","players":[{"user_id":138,"name":"„Åµ„Çè„Åµ„ÇèÊØõÂ∏É","steam_id":76561198088403016,"connected_time":6895000000000,"state":"active","ping":153},{"user_id":208,"name":"PageBoiSkull","steam_id":76561198237353578,"connected_time":2343000000000,"state":"active","ping":70},{"user_id":201,"name":"Ashanti Clan","steam_id":76561198032651105,"connected_time":2607000000000,"state":"active","ping":48},{"user_id":260,"name":"Red","steam_id":76561198001939529,"connected_time":30000000000,"state":"active","ping":139},{"user_id":172,"name":"Mr Clean","steam_id":76561198061104964,"connected_time":4710000000000,"state":"active","ping":86},{"user_id":207,"name":"Lesbian Futa Mommy","steam_id":76561198130479030,"connected_time":2356000000000,"state":"active","ping":44},{"user_id":226,"name":"vinc3nt10","steam_id":76561199122195012,"connected_time":1289000000000,"state":"active","ping":76},{"user_id":188,"name":"NeptuneÀñ‚Å∫ÔΩ°Àö‚ãÜÀô‚ô•","steam_id":76561199054203198,"connected_time":4214000000000,"state":"active","ping":135},{"user_id":259,"name":"mudunit","steam_id":76561198811544015,"connected_time":52000000000,"state":"active","ping":50},{"user_id":256,"name":"I KEEP IT REAL","steam_id":76561199127423378,"connected_time":591000000000,"state":"active","ping":74},{"user_id":191,"name":"Urby","steam_id":76561199074391666,"connected_time":3823000000000,"state":"active","ping":61},{"user_id":230,"name":"Keamy","steam_id":76561199471434875,"connected_time":1088000000000,"state":"active","ping":30},{"user_id":217,"name":"my mom","steam_id":76561199225201569,"connected_time":1853000000000,"state":"active","ping":119},{"user_id":257,"name":"ven","steam_id":76561199406261605,"connected_time":470000000000,"state":"active","ping":96},{"user_id":258,"name":"Apollo","steam_id":76561198162364702,"connected_time":305000000000,"state":"active","ping":46},{"user_id":254,"name":"FrostNova","steam_id":76561198348354629,"connected_time":826000000000,"state":"active","ping":68},{"user_id":227,"name":"catberg","steam_id":76561198111995277,"connected_time":1272000000000,"state":"active","ping":111},{"user_id":214,"name":"Captain Parker","steam_id":76561198882415101,"connected_time":1924000000000,"state":"active","ping":81},{"user_id":210,"name":"FI LO","steam_id":76561198976530881,"connected_time":2220000000000,"state":"active","ping":61},{"user_id":228,"name":"joethefool","steam_id":76561199015436319,"connected_time":1271000000000,"state":"active","ping":128},{"user_id":255,"name":"weed boner","steam_id":76561198034131572,"connected_time":791000000000,"state":"active","ping":31}]},{"server_id":119,"name":"Uncletopia | Seattle | 2 | All Maps","name_short":"sea-2","host":"sea-1.us.uncletopia.com","port":27025,"enabled":true,"region":"us-west","cc":"us","latitude":47.608013,"longitude":-122.33517,"reserved":0,"last_update":"0001-01-01T00:00:00Z","name_a2s":"Uncletopia | Seattle | 2 | All Maps","protocol":17,"map":"pl_swiftwater_final1","folder":"tf","game":"Team Fortress","app_id":440,"player_count":3,"max_players":24,"Bots":0,"server_type":"Dedicated","server_os":"Linux","password":true,"vac":true,"version":"7961495","steam_id":85568392924469998,"keywords":["nocrits","nodmgspread","payload","uncletopia"],"game_id":440,"stv_port":27026,"stv_name":"Uncletopia | Seattle | 2 | All Maps | STV","players":[{"user_id":12,"name":"spiderland","steam_id":76561198335992132,"connected_time":1102000000000,"state":"active","ping":42},{"user_id":13,"name":"Doony","steam_id":76561198073472571,"connected_time":1016000000000,"state":"active","ping":31},{"user_id":18,"name":"Len","steam_id":76561199141913673,"connected_time":47000000000,"state":"spawning","ping":59}]},{"server_id":406,"name":"Uncletopia | Seattle | 3 | Stopwatch","name_short":"sea-3","host":"sea-1.us.uncletopia.com","port":27035,"enabled":true,"region":"us-west","cc":"us","latitude":47.608013,"longitude":-122.33517,"reserved":0,"last_update":"0001-01-01T00:00:00Z","name_a2s":"Uncletopia | Seattle | 3 | Stopwatch","protocol":17,"map":"workshop/cp_process_f12.ugc2302948105","folder":"tf","game":"Team Fortress","app_id":440,"player_count":0,"max_players":24,"Bots":0,"server_type":"Dedicated","server_os":"Linux","password":true,"vac":true,"version":"7961495","steam_id":85568392924515217,"keywords":["cp","nocrits","nodmgspread","uncletopia"],"game_id":440,"stv_port":27036,"stv_name":"Uncletopia | Seattle | 3 | Stopwatch | STV","players":null},{"server_id":17,"name":"Uncletopia | San Francisco | 1 | All Maps","name_short":"sfo-1","host":"sfo-1.us.uncletopia.com","port":27015,"enabled":true,"region":"us-west","cc":"us","latitude":37.77397,"longitude":-122.4313,"reserved":0,"last_update":"0001-01-01T00:00:00Z","name_a2s":"Uncletopia | San Francisco | 1 | All Maps","protocol":17,"map":"koth_cascade","folder":"tf","game":"Team Fortress","app_id":440,"player_count":0,"max_players":24,"Bots":0,"server_type":"Dedicated","server_os":"Linux","password":true,"vac":true,"version":"7961495","steam_id":85568392924469999,"keywords":["cp","nocrits","nodmgspread","uncletopia"],"game_id":440,"stv_port":27016,"stv_name":"Uncletopia | San Francisco | 1 | All Maps | STV","players":null},{"server_id":18,"name":"Uncletopia | San Francisco | 2 | All Maps","name_short":"sfo-2","host":"sfo-1.us.uncletopia.com","port":27025,"enabled":true,"region":"us-west","cc":"us","latitude":37.77397,"longitude":-122.4313,"reserved":0,"last_update":"0001-01-01T00:00:00Z","name_a2s":"Uncletopia | San Francisco | 2 | All Maps","protocol":17,"map":"koth_cascade","folder":"tf","game":"Team Fortress","app_id":440,"player_count":0,"max_players":24,"Bots":0,"server_type":"Dedicated","server_os":"Linux","password":true,"vac":true,"version":"7961495","steam_id":85568392924470000,"keywords":["cp","nocrits","nodmgspread","uncletopia"],"game_id":440,"stv_port":27026,"stv_name":"Uncletopia | San Francisco | 2 | All Maps | STV","players":null},{"server_id":19,"name":"Uncletopia | San Francisco | 3 | Stopwatch","name_short":"sfo-3","host":"sfo-1.us.uncletopia.com","port":27035,"enabled":true,"region":"us-west","cc":"us","latitude":37.77397,"longitude":-122.4313,"reserved":0,"last_update":"0001-01-01T00:00:00Z","name_a2s":"Uncletopia | San Francisco | 3 | Stopwatch","protocol":17,"map":"pl_pier","folder":"tf","game":"Team Fortress","app_id":440,"player_count":0,"max_players":24,"Bots":0,"server_type":"Dedicated","server_os":"Linux","password":true,"vac":true,"version":"7961495","steam_id":85568392924742824,"keywords":["nocrits","nodmgspread","payload","uncletopia"],"game_id":440,"stv_port":27036,"stv_name":"Uncletopia | San Francisco | 3 | Stopwatch | STV","players":null},{"server_id":20,"name":"Uncletopia | San Francisco | 4 | Community","name_short":"sfo-4","host":"sfo-1.us.uncletopia.com","port":27045,"enabled":true,"region":"us-west","cc":"us","latitude":37.77397,"longitude":-122.4313,"reserved":0,"last_update":"0001-01-01T00:00:00Z","name_a2s":"Uncletopia | San Francisco | 4 | Community","protocol":17,"map":"pl_pier","folder":"tf","game":"Team Fortress","app_id":440,"player_count":0,"max_players":24,"Bots":0,"server_type":"Dedicated","server_os":"Linux","password":true,"vac":true,"version":"7961495","steam_id":85568392924742826,"keywords":["nocrits","nodmgspread","payload","uncletopia"],"game_id":440,"stv_port":27046,"stv_name":"Uncletopia | San Francisco | 4 | Community | STV","players":null},{"server_id":141,"name":"Uncletopia | Sydney | 1 | All Maps","name_short":"syd-1","host":"syd-1.au.uncletopia.com","port":27015,"enabled":true,"region":"au","cc":"au","latitude":-33.865143,"longitude":151.2099,"reserved":0,"last_update":"0001-01-01T00:00:00Z","name_a2s":"Uncletopia | Sydney | 1 | All Maps","protocol":17,"map":"koth_viaduct","folder":"tf","game":"Team Fortress","app_id":440,"player_count":0,"max_players":24,"Bots":0,"server_type":"Dedicated","server_os":"Linux","password":true,"vac":true,"version":"7961495","steam_id":85568392924470001,"keywords":["cp","nocrits","nodmgspread","uncletopia"],"game_id":440,"stv_port":27016,"stv_name":"Uncletopia | Sydney | 1 | All Maps | STV","players":null},{"server_id":123,"name":"Uncletopia | Sydney | 2 | All Maps","name_short":"syd-2","host":"syd-1.au.uncletopia.com","port":27025,"enabled":true,"region":"au","cc":"au","latitude":-33.865143,"longitude":151.2099,"reserved":0,"last_update":"0001-01-01T00:00:00Z","name_a2s":"Uncletopia | Sydney | 2 | All Maps","protocol":17,"map":"koth_lakeside_final","folder":"tf","game":"Team Fortress","app_id":440,"player_count":0,"max_players":24,"Bots":0,"server_type":"Dedicated","server_os":"Linux","password":true,"vac":true,"version":"7961495","steam_id":85568392924470002,"keywords":["cp","nocrits","nodmgspread","uncletopia"],"game_id":440,"stv_port":27026,"stv_name":"Uncletopia | Sydney | 2 | All Maps | STV","players":null},{"server_id":395,"name":"Uncletopia | Sydney | 3 | All Maps","name_short":"syd-3","host":"syd-1.au.uncletopia.com","port":27035,"enabled":true,"region":"au","cc":"au","latitude":-33.865143,"longitude":151.2099,"reserved":0,"last_update":"0001-01-01T00:00:00Z","name_a2s":"Uncletopia | Sydney | 3 | All Maps","protocol":17,"map":"pl_frontier_final","folder":"tf","game":"Team Fortress","app_id":440,"player_count":0,"max_players":24,"Bots":0,"server_type":"Dedicated","server_os":"Linux","password":true,"vac":true,"version":"7961495","steam_id":85568392925194467,"keywords":["nocrits","nodmgspread","payload","uncletopia"],"game_id":440,"stv_port":27036,"stv_name":"Uncletopia | Sydney | 3 | All Maps | STV","players":null},{"server_id":396,"name":"Uncletopia | Sydney | 4 | All Maps","name_short":"syd-4","host":"syd-1.au.uncletopia.com","port":27045,"enabled":true,"region":"au","cc":"au","latitude":-33.865143,"longitude":151.2099,"reserved":0,"last_update":"0001-01-01T00:00:00Z","name_a2s":"Uncletopia | Sydney | 4 | All Maps","protocol":17,"map":"cp_process_final","folder":"tf","game":"Team Fortress","app_id":440,"player_count":0,"max_players":24,"Bots":0,"server_type":"Dedicated","server_os":"Linux","password":true,"vac":true,"version":"7961495","steam_id":85568392925397958,"keywords":["cp","nocrits","nodmgspread","uncletopia"],"game_id":440,"stv_port":27046,"stv_name":"Uncletopia | Sydney | 4 | All Maps | STV","players":null},{"server_id":58,"name":"Uncletopia | Sydney | 5 | Stopwatch","name_short":"syd-5","host":"syd-1.au.uncletopia.com","port":27055,"enabled":true,"region":"au","cc":"au","latitude":-33.865143,"longitude":151.2099,"reserved":0,"last_update":"0001-01-01T00:00:00Z","name_a2s":"Uncletopia | Sydney | 5 | Stopwatch","protocol":17,"map":"pl_frontier_final","folder":"tf","game":"Team Fortress","app_id":440,"player_count":0,"max_players":24,"Bots":0,"server_type":"Dedicated","server_os":"Linux","password":true,"vac":true,"version":"7961495","steam_id":85568392925397959,"keywords":["nocrits","nodmgspread","payload","uncletopia"],"game_id":440,"stv_port":27056,"stv_name":"Uncletopia | Sydney | 5 | Stopwatch | STV","players":null},{"server_id":59,"name":"Uncletopia | Sydney | 6 | Community","name_short":"syd-6","host":"syd-1.au.uncletopia.com","port":27065,"enabled":true,"region":"au","cc":"au","latitude":-33.865143,"longitude":151.2099,"reserved":0,"last_update":"0001-01-01T00:00:00Z","name_a2s":"Uncletopia | Sydney | 6 | Community","protocol":17,"map":"cp_sunshine","folder":"tf","game":"Team Fortress","app_id":440,"player_count":0,"max_players":24,"Bots":0,"server_type":"Dedicated","server_os":"Linux","password":true,"vac":true,"version":"7961495","steam_id":85568392925397960,"keywords":["cp","nocrits","nodmgspread","uncletopia"],"game_id":440,"stv_port":27066,"stv_name":"Uncletopia | Sydney | 6 | Community | STV","players":null},{"server_id":49,"name":"Uncletopia | Warsaw | 1 | All Maps","name_short":"waw-1","host":"waw-1.pl.uncletopia.com","port":27015,"enabled":true,"region":"eu","cc":"pl","latitude":52.2297,"longitude":21.017532,"reserved":0,"last_update":"0001-01-01T00:00:00Z","name_a2s":"Uncletopia | Warsaw | 1 | All Maps","protocol":17,"map":"koth_lakeside_final","folder":"tf","game":"Team Fortress","app_id":440,"player_count":0,"max_players":24,"Bots":0,"server_type":"Dedicated","server_os":"Linux","password":true,"vac":true,"version":"7961495","steam_id":85568392925397850,"keywords":["cp","nocrits","nodmgspread","uncletopia"],"game_id":440,"stv_port":27016,"stv_name":"Uncletopia | Warsaw | 1 | All Maps | STV","players":null},{"server_id":50,"name":"Uncletopia | Warsaw | 2 | All Maps","name_short":"waw-2","host":"waw-1.pl.uncletopia.com","port":27025,"enabled":true,"region":"eu","cc":"pl","latitude":52.2297,"longitude":21.017532,"reserved":0,"last_update":"0001-01-01T00:00:00Z","name_a2s":"Uncletopia | Warsaw | 2 | All Maps","protocol":17,"map":"koth_suijin","folder":"tf","game":"Team Fortress","app_id":440,"player_count":4,"max_players":24,"Bots":0,"server_type":"Dedicated","server_os":"Linux","password":true,"vac":true,"version":"7961495","steam_id":85568392925397851,"keywords":["cp","nocrits","nodmgspread","uncletopia"],"game_id":440,"stv_port":27026,"stv_name":"Uncletopia | Warsaw | 2 | All Maps | STV","players":[{"user_id":10,"name":"39","steam_id":76561199091672937,"connected_time":3635000000000,"state":"active","ping":87},{"user_id":9,"name":"sk≈ô√≠tek ≈°pind√≠ra","steam_id":76561198406483941,"connected_time":3866000000000,"state":"active","ping":69},{"user_id":14,"name":"N","steam_id":76561198176593895,"connected_time":15000000000,"state":"active","ping":53},{"user_id":13,"name":"Barbatruc","steam_id":76561198119019916,"connected_time":1577000000000,"state":"active","ping":88}]},{"server_id":51,"name":"Uncletopia | Warsaw | 3 | All Maps","name_short":"waw-3","host":"waw-1.pl.uncletopia.com","port":27035,"enabled":true,"region":"eu","cc":"pl","latitude":52.2297,"longitude":21.017532,"reserved":0,"last_update":"0001-01-01T00:00:00Z","name_a2s":"Uncletopia | Warsaw | 3 | All Maps","protocol":17,"map":"koth_highpass","folder":"tf","game":"Team Fortress","app_id":440,"player_count":0,"max_players":24,"Bots":0,"server_type":"Dedicated","server_os":"Linux","password":true,"vac":true,"version":"7961495","steam_id":85568392925397852,"keywords":["cp","nocrits","nodmgspread","uncletopia"],"game_id":440,"stv_port":27036,"stv_name":"Uncletopia | Warsaw | 3 | All Maps | STV","players":null},{"server_id":52,"name":"Uncletopia | Warsaw | 4 | All Maps","name_short":"waw-4","host":"waw-1.pl.uncletopia.com","port":27045,"enabled":true,"region":"eu","cc":"pl","latitude":52.2297,"longitude":21.017532,"reserved":0,"last_update":"0001-01-01T00:00:00Z","name_a2s":"Uncletopia | Warsaw | 4 | All Maps","protocol":17,"map":"pl_barnblitz","folder":"tf","game":"Team Fortress","app_id":440,"player_count":2,"max_players":24,"Bots":0,"server_type":"Dedicated","server_os":"Linux","password":true,"vac":true,"version":"7961495","steam_id":85568392925397853,"keywords":["nocrits","nodmgspread","payload","uncletopia"],"game_id":440,"stv_port":27046,"stv_name":"Uncletopia | Warsaw | 4 | All Maps | STV","players":[{"user_id":10,"name":"Wojtasek0505","steam_id":76561199236721669,"connected_time":1746000000000,"state":"active","ping":84},{"user_id":11,"name":"Rybigiusz","steam_id":76561198799311754,"connected_time":1723000000000,"state":"active","ping":55}]},{"server_id":53,"name":"Uncletopia | Warsaw | 5 | Stopwatch","name_short":"waw-5","host":"waw-1.pl.uncletopia.com","port":27055,"enabled":true,"region":"eu","cc":"pl","latitude":52.2297,"longitude":21.017532,"reserved":0,"last_update":"0001-01-01T00:00:00Z","name_a2s":"Uncletopia | Warsaw | 5 | Stopwatch","protocol":17,"map":"cp_metalworks","folder":"tf","game":"Team Fortress","app_id":440,"player_count":0,"max_players":24,"Bots":0,"server_type":"Dedicated","server_os":"Linux","password":true,"vac":true,"version":"7961495","steam_id":85568392925397854,"keywords":["cp","nocrits","nodmgspread","uncletopia"],"game_id":440,"stv_port":27056,"stv_name":"Uncletopia | Warsaw | 5 | Stopwatch | STV","players":null},{"server_id":54,"name":"Uncletopia | Warsaw | 6 | Community","name_short":"waw-6","host":"waw-1.pl.uncletopia.com","port":27065,"enabled":true,"region":"eu","cc":"pl","latitude":52.2297,"longitude":21.017532,"reserved":0,"last_update":"0001-01-01T00:00:00Z","name_a2s":"Uncletopia | Warsaw | 6 | Community","protocol":17,"map":"workshop/koth_synthetic_rc6a.ugc1549817316","folder":"tf","game":"Team Fortress","app_id":440,"player_count":0,"max_players":24,"Bots":0,"server_type":"Dedicated","server_os":"Linux","password":true,"vac":true,"version":"7961495","steam_id":85568392925397856,"keywords":["cp","nocrits","nodmgspread","uncletopia"],"game_id":440,"stv_port":27066,"stv_name":"Uncletopia | Warsaw | 6 | Community | STV","players":null}]}