{"status":true,"message":"","result":[{"server_id":9,"name":"Uncletopia | Atlanta | 1 | All Maps","name_short":"atl-1","host":"atl-1.us.uncletopia.com","port":27015,"enabled":true,"region":"us-east","cc":"us","latitude":33.753746,"longitude":-84.38633,"reserved":0,"last_update":"0001-01-01T00:00:00Z","name_a2s":"Uncletopia | Atlanta | 1 | All Maps","protocol":17,"map":"pl_frontier_final","folder":"tf","game":"Team Fortress","app_id":440,"player_count":24,"max_players":24,"Bots":0,"server_type":"Dedicated","server_os":"Linux","password":true,"vac":true,"version":"7742253","steam_id":85568392924469982,"keywords":["nocrits","nodmgspread","payload","uncletopia"],"game_id":440,"stv_port":27016,"stv_name":"Uncletopia | Atlanta | 1 | All Maps | STV","players":[{"user_id":845,"name":"Soyboy Atheist Redditor","steam_id":76561198129768826,"connected_time":737000000000,"state":"active","ping":75},{"user_id":839,"name":"gaminbacon","steam_id":76561199411651596,"connected_time":1512000000000,"state":"active","ping":136},{"user_id":823,"name":"stink","steam_id":76561198099318923,"connected_time":4256000000000,"state":"active","ping":75},{"user_id":846,"name":"Brock sturdy™","steam_id":76561198118428095,"connected_time":734000000000,"state":"active","ping":86},{"user_id":847,"name":"noah","steam_id":76561198140305002,"connected_time":672000000000,"state":"active","ping":93},{"user_id":812,"name":"Drygongames","steam_id":76561198250418424,"connected_time":5013000000000,"state":"active","ping":85},{"user_id":789,"name":"K_ylo","steam_id":76561198401421253,"connected_time":7420000000000,"state":"active","ping":64},{"user_id":815,"name":"ATL1 | Mayhem","steam_id":76561199246637881,"connected_time":4790000000000,"state":"active","ping":53},{"user_id":848,"name":"Hounty B.","steam_id":76561198045974827,"connected_time":611000000000,"state":"active","ping":63},{"user_id":736,"name":"ATL1 | eish","steam_id":76561198089463603,"connected_time":13779000000000,"state":"active","ping":121},{"user_id":851,"name":"standards","steam_id":76561199091978264,"connected_time":184000000000,"state":"active","ping":82},{"user_id":829,"name":"mos","steam_id":76561198146126212,"connected_time":3138000000000,"state":"active","ping":59},{"user_id":820,"name":"ATL3 | Laura","steam_id":76561198155434598,"connected_time":4708000000000,"state":"active","ping":67},{"user_id":849,"name":"TrueKingPumpkin","steam_id":76561198806433630,"connected_time":594000000000,"state":"active","ping":85},{"user_id":850,"name":"LEEROY JENKINS","steam_id":76561199070160646,"connected_time":468000000000,"state":"active","ping":99},{"user_id":827,"name":"craf","steam_id":76561198163535075,"connected_time":4076000000000,"state":"active","ping":74},{"user_id":792,"name":"SavingPrivateRocky","steam_id":76561198843195350,"connected_time":7396000000000,"state":"active","ping":106},{"user_id":852,"name":"Derpytemmie","steam_id":76561198403204065,"connected_time":177000000000,"state":"active","ping":96},{"user_id":837,"name":"Astronautic","steam_id":76561198052685847,"connected_time":2086000000000,"state":"active","ping":81},{"user_id":822,"name":"Intro Bonito","steam_id":76561198119478838,"connected_time":4509000000000,"state":"active","ping":59},{"user_id":844,"name":"IZISOO","steam_id":76561198970380577,"connected_time":847000000000,"state":"active","ping":82},{"user_id":842,"name":"honeybun on christmas day","steam_id":76561197993931722,"connected_time":1328000000000,"state":"active","ping":78},{"user_id":838,"name":"(ツ)Valkyrie(ツ)","steam_id":76561199014115425,"connected_time":1996000000000,"state":"active","ping":52}]},{"server_id":400,"name":"Uncletopia | Atlanta | 3 | Stopwatch Beta","name_short":"atl-3","host":"atl-1.us.uncletopia.com","port":27035,"enabled":true,"region":"us-east","cc":"us","latitude":33.753746,"longitude":-84.38633,"reserved":0,"last_update":"0001-01-01T00:00:00Z","name_a2s":"Uncletopia | Atlanta | 3 | Stopwatch Beta","protocol":17,"map":"pl_swiftwater_final1","folder":"tf","game":"Team Fortress","app_id":440,"player_count":0,"max_players":24,"Bots":0,"server_type":"Dedicated","server_os":"Linux","password":true,"vac":true,"version":"7742253","steam_id":85568392924515187,"keywords":["nocrits","nodmgspread","payload","uncletopia"],"game_id":440,"stv_port":27036,"stv_name":"Uncletopia | Atlanta | 3 | Stopwatch Beta | STV","players":null},{"server_id":401,"name":"Uncletopia | Atlanta | 4 | No Payload","name_short":"atl-4","host":"atl-1.us.uncletopia.com","port":27045,"enabled":true,"region":"us-east","cc":"us","latitude":33.753746,"longitude":-84.38633,"reserved":0,"last_update":"0001-01-01T00:00:00Z","name_a2s":"Uncletopia | Atlanta | 4 | No Payload","protocol":17,"map":"pl_pier","folder":"tf","game":"Team Fortress","app_id":440,"player_count":0,"max_players":24,"Bots":0,"server_type":"Dedicated","server_os":"Linux","password":true,"vac":true,"version":"7723704","steam_id":85568392924515188,"keywords":["nocrits","nodmgspread","payload","uncletopia"],"game_id":440,"stv_port":27046,"stv_name":"Uncletopia | Atlanta | 4 | No Payload | STV","players":null},{"server_id":2,"name":"Uncletopia | Chicago | 1 | All Maps","name_short":"chi-1","host":"chi-1.us.uncletopia.com","port":27015,"enabled":true,"region":"us-central","cc":"us","latitude":41.881832,"longitude":-87.62318,"reserved":0,"last_update":"0001-01-01T00:00:00Z","name_a2s":"Uncletopia | Chicago | 1 | All Maps","protocol":17,"map":"cp_mountainlab","folder":"tf","game":"Team Fortress","app_id":440,"player_count":14,"max_players":24,"Bots":0,"server_type":"Dedicated","server_os":"Linux","password":true,"vac":true,"version":"7742253","steam_id":85568392924469984,"keywords":["cp","nocrits","nodmgspread","uncletopia"],"game_id":440,"stv_port":27016,"stv_name":"Uncletopia | Chicago | 1 | All Maps | STV","players":[{"user_id":754,"name":"Squiliam","steam_id":76561198025278006,"connected_time":2225000000000,"state":"active","ping":64},{"user_id":771,"name":"graystripe2020","steam_id":76561199161546139,"connected_time":219000000000,"state":"active","ping":71},{"user_id":749,"name":"Jupiter","steam_id":76561198181315681,"connected_time":2413000000000,"state":"active","ping":59},{"user_id":714,"name":"CPUnit","steam_id":76561198162881878,"connected_time":4899000000000,"state":"active","ping":69},{"user_id":774,"name":"trash beast","steam_id":76561198015792736,"connected_time":93000000000,"state":"active","ping":63},{"user_id":767,"name":"Poverty's Finest","steam_id":76561198127704044,"connected_time":979000000000,"state":"active","ping":68},{"user_id":773,"name":"seats","steam_id":76561197998756039,"connected_time":147000000000,"state":"active","ping":90},{"user_id":761,"name":"Andallfor","steam_id":76561198350143349,"connected_time":1600000000000,"state":"active","ping":71},{"user_id":766,"name":"Athenara_","steam_id":76561199120696315,"connected_time":1444000000000,"state":"active","ping":101},{"user_id":768,"name":"joegoob","steam_id":76561198208906529,"connected_time":843000000000,"state":"active","ping":64},{"user_id":703,"name":"Killroy NQP ❤","steam_id":76561198006983771,"connected_time":6226000000000,"state":"active","ping":71},{"user_id":758,"name":"arashsmash","steam_id":76561198277649058,"connected_time":1663000000000,"state":"active","ping":64},{"user_id":722,"name":"peepeeroni","steam_id":76561198382877812,"connected_time":4342000000000,"state":"active","ping":63},{"user_id":769,"name":"HorseCooker","steam_id":76561198076588370,"connected_time":740000000000,"state":"active","ping":64}]},{"server_id":106,"name":"Uncletopia | Chicago | 2 | All Maps","name_short":"chi-2","host":"chi-1.us.uncletopia.com","port":27025,"enabled":true,"region":"us-central","cc":"us","latitude":41.881832,"longitude":-87.62318,"reserved":0,"last_update":"0001-01-01T00:00:00Z","name_a2s":"Uncletopia | Chicago | 2 | All Maps","protocol":17,"map":"koth_cascade","folder":"tf","game":"Team Fortress","app_id":440,"player_count":13,"max_players":24,"Bots":0,"server_type":"Dedicated","server_os":"Linux","password":true,"vac":true,"version":"7742253","steam_id":85568392924469985,"keywords":["cp","nocrits","nodmgspread","uncletopia"],"game_id":440,"stv_port":27026,"stv_name":"Uncletopia | Chicago | 2 | All Maps | STV","players":[{"user_id":820,"name":"hyperledz","steam_id":76561198807917808,"connected_time":2302000000000,"state":"active","ping":60},{"user_id":802,"name":"loyaldandan0764","steam_id":76561199231020424,"connected_time":3292000000000,"state":"active","ping":125},{"user_id":833,"name":"BreadGod","steam_id":76561198050665205,"connected_time":1869000000000,"state":"active","ping":89},{"user_id":846,"name":"Pisser12434","steam_id":76561198835144780,"connected_time":619000000000,"state":"active","ping":74},{"user_id":837,"name":"Why","steam_id":76561198839450224,"connected_time":1200000000000,"state":"active","ping":107},{"user_id":806,"name":"howtobepker","steam_id":76561198115053865,"connected_time":3027000000000,"state":"active","ping":74},{"user_id":848,"name":"Dang","steam_id":76561198288874083,"connected_time":456000000000,"state":"active","ping":97},{"user_id":850,"name":"CLG TaRiK","steam_id":76561198839880487,"connected_time":387000000000,"state":"active","ping":33},{"user_id":853,"name":"Grill Skills","steam_id":76561198053575147,"connected_time":137000000000,"state":"active","ping":95},{"user_id":713,"name":"DeckofDragons","steam_id":76561198057398213,"connected_time":10605000000000,"state":"active","ping":72},{"user_id":852,"name":"WhoIsFrosty","steam_id":76561198880588117,"connected_time":280000000000,"state":"active","ping":42},{"user_id":854,"name":"caption cool","steam_id":76561197990612056,"connected_time":85000000000,"state":"active","ping":43},{"user_id":842,"name":"the \"prawn\" bay","steam_id":76561198075544930,"connected_time":1043000000000,"state":"active","ping":88}]},{"server_id":402,"name":"Uncletopia | Chicago | 3 | All Maps","name_short":"chi-3","host":"chi-1.us.uncletopia.com","port":27035,"enabled":true,"region":"us-central","cc":"us","latitude":41.881832,"longitude":-87.62318,"reserved":0,"last_update":"0001-01-01T00:00:00Z","name_a2s":"Uncletopia | Chicago | 3 | All Maps","protocol":17,"map":"pl_upward","folder":"tf","game":"Team Fortress","app_id":440,"player_count":23,"max_players":24,"Bots":0,"server_type":"Dedicated","server_os":"Linux","password":true,"vac":true,"version":"7742253","steam_id":85568392924515191,"keywords":["nocrits","nodmgspread","payload","uncletopia"],"game_id":440,"stv_port":27036,"stv_name":"Uncletopia | Chicago | 3 | All Maps | STV","players":[{"user_id":1002,"name":"BustedRake","steam_id":76561198130489976,"connected_time":852000000000,"state":"active","ping":70},{"user_id":965,"name":"christmas  moment","steam_id":76561199217063673,"connected_time":3730000000000,"state":"active","ping":84},{"user_id":1014,"name":"Murk Wahlberg","steam_id":76561198131467867,"connected_time":165000000000,"state":"active","ping":78},{"user_id":1015,"name":"mel0n","steam_id":76561198034817244,"connected_time":154000000000,"state":"active","ping":71},{"user_id":1016,"name":"WeegeePJ","steam_id":76561199383362382,"connected_time":80000000000,"state":"active","ping":289},{"user_id":1003,"name":"Aussi","steam_id":76561198140732688,"connected_time":851000000000,"state":"active","ping":62},{"user_id":1004,"name":"bird","steam_id":76561199050758491,"connected_time":846000000000,"state":"active","ping":135},{"user_id":1005,"name":"my skin is smothering me","steam_id":76561198153296292,"connected_time":760000000000,"state":"active","ping":77},{"user_id":1006,"name":"sayad","steam_id":76561198080897870,"connected_time":715000000000,"state":"active","ping":63},{"user_id":1007,"name":"God im so badas.............","steam_id":76561199037497493,"connected_time":706000000000,"state":"active","ping":52},{"user_id":1009,"name":"D-Class 1278","steam_id":76561198121316353,"connected_time":407000000000,"state":"active","ping":81},{"user_id":1017,"name":"Rikine","steam_id":76561198887083363,"connected_time":74000000000,"state":"active","ping":60},{"user_id":1010,"name":"Conrad Murray","steam_id":76561198141682876,"connected_time":326000000000,"state":"active","ping":106},{"user_id":993,"name":"Bread Baker","steam_id":76561198185335103,"connected_time":1543000000000,"state":"active","ping":54},{"user_id":1011,"name":"Shaku","steam_id":76561198415035869,"connected_time":315000000000,"state":"active","ping":75},{"user_id":1018,"name":"Frick On a Leash","steam_id":76561198044911149,"connected_time":59000000000,"state":"active","ping":79},{"user_id":974,"name":"brian emo","steam_id":76561198109901138,"connected_time":3230000000000,"state":"active","ping":75},{"user_id":976,"name":"Carbon8ed","steam_id":76561198188488341,"connected_time":3220000000000,"state":"active","ping":62},{"user_id":1012,"name":"Dummy","steam_id":76561199019579816,"connected_time":303000000000,"state":"active","ping":81},{"user_id":1013,"name":"Riske","steam_id":76561198115840568,"connected_time":301000000000,"state":"active","ping":72},{"user_id":1019,"name":"it","steam_id":76561197970730460,"connected_time":39000000000,"state":"active","ping":92},{"user_id":997,"name":"epic","steam_id":76561198097321881,"connected_time":1454000000000,"state":"active","ping":92},{"user_id":1001,"name":"ExplosiveGamer21","steam_id":76561198132370955,"connected_time":1008000000000,"state":"active","ping":108}]},{"server_id":403,"name":"Uncletopia | Chicago | 4 | All Maps","name_short":"chi-4","host":"chi-1.us.uncletopia.com","port":27045,"enabled":true,"region":"us-central","cc":"us","latitude":41.881832,"longitude":-87.62318,"reserved":0,"last_update":"0001-01-01T00:00:00Z","name_a2s":"Uncletopia | Chicago | 4 | All Maps","protocol":17,"map":"pl_borneo","folder":"tf","game":"Team Fortress","app_id":440,"player_count":24,"max_players":24,"Bots":0,"server_type":"Dedicated","server_os":"Linux","password":true,"vac":true,"version":"7742253","steam_id":85568392924515193,"keywords":["nocrits","nodmgspread","payload","uncletopia"],"game_id":440,"stv_port":27046,"stv_name":"Uncletopia | Chicago | 4 | All Maps | STV","players":[{"user_id":319,"name":"the pizza","steam_id":76561198221331476,"connected_time":108000000000,"state":"active","ping":89},{"user_id":314,"name":"Jolly Old Asshat","steam_id":76561198004584315,"connected_time":669000000000,"state":"active","ping":72},{"user_id":197,"name":"Capgun","steam_id":76561197963434640,"connected_time":7823000000000,"state":"active","ping":63},{"user_id":300,"name":"Freezer Fox YT","steam_id":76561198060542607,"connected_time":1509000000000,"state":"active","ping":164},{"user_id":286,"name":"fuzze","steam_id":76561198214461775,"connected_time":2391000000000,"state":"active","ping":75},{"user_id":296,"name":"Superplay64","steam_id":76561198172471162,"connected_time":1997000000000,"state":"active","ping":79},{"user_id":287,"name":"EvantheLynn [DS]","steam_id":76561198045006472,"connected_time":2342000000000,"state":"active","ping":61},{"user_id":301,"name":"skittle ducks jr.","steam_id":76561198309823950,"connected_time":1497000000000,"state":"active","ping":90},{"user_id":199,"name":"Elteeb96","steam_id":76561198056063330,"connected_time":7793000000000,"state":"active","ping":69},{"user_id":313,"name":"sweaterfan","steam_id":76561199389567214,"connected_time":851000000000,"state":"active","ping":70},{"user_id":305,"name":"jrmadmallard","steam_id":76561198275994616,"connected_time":1179000000000,"state":"active","ping":100},{"user_id":297,"name":"Yakul","steam_id":76561198100040013,"connected_time":1755000000000,"state":"active","ping":92},{"user_id":258,"name":"IFDABOOTYFATUKNOWHEREIM@","steam_id":76561198144766439,"connected_time":5571000000000,"state":"active","ping":38},{"user_id":309,"name":"grass.","steam_id":76561198953819225,"connected_time":1039000000000,"state":"active","ping":77},{"user_id":315,"name":"Iru","steam_id":76561198077602040,"connected_time":659000000000,"state":"active","ping":136},{"user_id":307,"name":"Harley [Ramiel]","steam_id":76561198079510840,"connected_time":1133000000000,"state":"active","ping":93},{"user_id":310,"name":"Jason Voorhees","steam_id":76561198358987380,"connected_time":1000000000000,"state":"active","ping":96},{"user_id":302,"name":"Nebulon-B_Frigate_FTW","steam_id":76561198040955960,"connected_time":1490000000000,"state":"active","ping":141},{"user_id":299,"name":"Scout","steam_id":76561198081464125,"connected_time":1675000000000,"state":"active","ping":63},{"user_id":316,"name":"Florentine","steam_id":76561198107230148,"connected_time":636000000000,"state":"active","ping":54},{"user_id":298,"name":"Fly Man","steam_id":76561198201036790,"connected_time":1714000000000,"state":"active","ping":76},{"user_id":311,"name":"stop","steam_id":76561198268686419,"connected_time":997000000000,"state":"active","ping":54},{"user_id":236,"name":"goober","steam_id":76561198943598378,"connected_time":6555000000000,"state":"active","ping":59},{"user_id":312,"name":"Frontier Psychiatrist","steam_id":76561198038689088,"connected_time":995000000000,"state":"active","ping":80}]},{"server_id":36,"name":"Uncletopia | Chicago | 5 | All Maps","name_short":"chi-5","host":"chi-2.us.uncletopia.com","port":27015,"enabled":true,"region":"us-central","cc":"us","latitude":41.881832,"longitude":-87.62318,"reserved":0,"last_update":"0001-01-01T00:00:00Z","name_a2s":"Uncletopia | Chicago | 5 | All Maps","protocol":17,"map":"pl_frontier_final","folder":"tf","game":"Team Fortress","app_id":440,"player_count":4,"max_players":24,"Bots":0,"server_type":"Dedicated","server_os":"Linux","password":true,"vac":true,"version":"7742253","steam_id":85568392924866362,"keywords":["nocrits","nodmgspread","payload","uncletopia"],"game_id":440,"stv_port":27016,"stv_name":"Uncletopia | Chicago | 5 | All Maps | STV","players":[{"user_id":240,"name":"The Broken Lightbulb","steam_id":76561198141566312,"connected_time":3466000000000,"state":"active","ping":105},{"user_id":248,"name":"Octopoda","steam_id":76561199064758232,"connected_time":237000000000,"state":"active","ping":77},{"user_id":243,"name":"Stardust-Parfait","steam_id":76561198277262753,"connected_time":2835000000000,"state":"active","ping":51},{"user_id":245,"name":"Chris the Nerd","steam_id":76561198103947507,"connected_time":1901000000000,"state":"active","ping":103}]},{"server_id":37,"name":"Uncletopia | Chicago | 6 | All Maps","name_short":"chi-6","host":"chi-2.us.uncletopia.com","port":27025,"enabled":true,"region":"us-central","cc":"us","latitude":41.881832,"longitude":-87.62318,"reserved":0,"last_update":"0001-01-01T00:00:00Z","name_a2s":"Uncletopia | Chicago | 6 | All Maps","protocol":17,"map":"cp_altitude","folder":"tf","game":"Team Fortress","app_id":440,"player_count":0,"max_players":24,"Bots":0,"server_type":"Dedicated","server_os":"Linux","password":true,"vac":true,"version":"7742253","steam_id":85568392924866363,"keywords":["cp","nocrits","nodmgspread","uncletopia"],"game_id":440,"stv_port":27026,"stv_name":"Uncletopia | Chicago | 6 | All Maps | STV","players":null},{"server_id":38,"name":"Uncletopia | Chicago | 7 | Stopwatch Beta","name_short":"chi-7","host":"chi-2.us.uncletopia.com","port":27035,"enabled":true,"region":"us-central","cc":"us","latitude":41.881832,"longitude":-87.62318,"reserved":0,"last_update":"0001-01-01T00:00:00Z","name_a2s":"Uncletopia | Chicago | 7 | Stopwatch Beta","protocol":17,"map":"workshop/pl_vigil_rc9.ugc1266210012","folder":"tf","game":"Team Fortress","app_id":440,"player_count":0,"max_players":24,"Bots":0,"server_type":"Dedicated","server_os":"Linux","password":true,"vac":true,"version":"7742253","steam_id":85568392924866364,"keywords":["nocrits","nodmgspread","payload","uncletopia"],"game_id":440,"stv_port":27036,"stv_name":"Uncletopia | Chicago | 7 | Stopwatch Beta | STV","players":null},{"server_id":39,"name":"Uncletopia | Chicago | 8 | Community","name_short":"chi-8","host":"chi-2.us.uncletopia.com","port":27045,"enabled":true,"region":"us-central","cc":"us","latitude":41.881832,"longitude":-87.62318,"reserved":0,"last_update":"0001-01-01T00:00:00Z","name_a2s":"Uncletopia | Chicago | 8 | Community","protocol":17,"map":"workshop/pl_barnblitz_pro7.ugc582280235","folder":"tf","game":"Team Fortress","app_id":440,"player_count":0,"max_players":24,"Bots":0,"server_type":"Dedicated","server_os":"Linux","password":true,"vac":true,"version":"7742253","steam_id":85568392924866365,"keywords":["nocrits","nodmgspread","payload","uncletopia"],"game_id":440,"stv_port":27046,"stv_name":"Uncletopia | Chicago | 8 | Community | STV","players":null},{"server_id":8,"name":"Uncletopia | Dallas | 1 | All Maps","name_short":"dal-1","host":"dal-1.us.uncletopia.com","port":27015,"enabled":true,"region":"us-central","cc":"us","latitude":32.779167,"longitude":-96.80889,"reserved":0,"last_update":"0001-01-01T00:00:00Z","name_a2s":"Uncletopia | Dallas | 1 | All Maps","protocol":17,"map":"pl_borneo","folder":"tf","game":"Team Fortress","app_id":440,"player_count":14,"max_players":24,"Bots":0,"server_type":"Dedicated","server_os":"Linux","password":true,"vac":true,"version":"7742253","steam_id":85568392924469986,"keywords":["nocrits","nodmgspread","payload","uncletopia"],"game_id":440,"stv_port":27016,"stv_name":"Uncletopia | Dallas | 1 | All Maps | STV","players":[{"user_id":938,"name":"SuperBurgerBoy","steam_id":76561198856387197,"connected_time":99000000000,"state":"active","ping":77},{"user_id":919,"name":"sk","steam_id":76561198133360797,"connected_time":1537000000000,"state":"active","ping":75},{"user_id":939,"name":"deathgaming69","steam_id":76561198452547649,"connected_time":58000000000,"state":"active","ping":45},{"user_id":940,"name":"Meh but good","steam_id":76561199005772246,"connected_time":29000000000,"state":"active","ping":65},{"user_id":932,"name":"Linakas","steam_id":76561198299757435,"connected_time":695000000000,"state":"active","ping":165},{"user_id":933,"name":"Shock'N'Lock","steam_id":76561198072583012,"connected_time":679000000000,"state":"active","ping":77},{"user_id":920,"name":"MrChaosOK","steam_id":76561197976353083,"connected_time":1520000000000,"state":"active","ping":94},{"user_id":921,"name":"sniffy","steam_id":76561198184933255,"connected_time":1517000000000,"state":"active","ping":79},{"user_id":934,"name":"Lore","steam_id":76561198098407538,"connected_time":569000000000,"state":"active","ping":74},{"user_id":935,"name":"I DRINK PAINT","steam_id":76561198195228122,"connected_time":410000000000,"state":"active","ping":64},{"user_id":926,"name":"LeviticusDB","steam_id":76561199079690162,"connected_time":1289000000000,"state":"active","ping":113},{"user_id":936,"name":"❆ Spearmint ❆","steam_id":76561198040974097,"connected_time":383000000000,"state":"active","ping":57},{"user_id":937,"name":"Amadeus","steam_id":76561198160047173,"connected_time":345000000000,"state":"active","ping":90},{"user_id":872,"name":"Ap1hw","steam_id":76561199122883466,"connected_time":6240000000000,"state":"active","ping":48}]},{"server_id":108,"name":"Uncletopia | Dallas | 2 | All Maps","name_short":"dal-2","host":"dal-1.us.uncletopia.com","port":27025,"enabled":true,"region":"us-central","cc":"us","latitude":32.779167,"longitude":-96.80889,"reserved":0,"last_update":"0001-01-01T00:00:00Z","name_a2s":"Uncletopia | Dallas | 2 | All Maps","protocol":17,"map":"pl_snowycoast","folder":"tf","game":"Team Fortress","app_id":440,"player_count":0,"max_players":24,"Bots":0,"server_type":"Dedicated","server_os":"Linux","password":true,"vac":true,"version":"7742253","steam_id":85568392924469988,"keywords":["nocrits","nodmgspread","payload","uncletopia"],"game_id":440,"stv_port":27026,"stv_name":"Uncletopia | Dallas | 2 | All Maps | STV","players":null},{"server_id":5,"name":"Uncletopia | Frankfurt | 1 | All Maps","name_short":"frk-1","host":"frk-1.de.uncletopia.com","port":27015,"enabled":true,"region":"eu","cc":"de","latitude":50.110924,"longitude":8.682127,"reserved":0,"last_update":"0001-01-01T00:00:00Z","name_a2s":"Uncletopia | Frankfurt | 1 | All Maps","protocol":17,"map":"pl_barnblitz","folder":"tf","game":"Team Fortress","app_id":440,"player_count":0,"max_players":24,"Bots":0,"server_type":"Dedicated","server_os":"Linux","password":true,"vac":true,"version":"7742253","steam_id":85568392924469989,"keywords":["nocrits","nodmgspread","payload","uncletopia"],"game_id":440,"stv_port":27016,"stv_name":"Uncletopia | Frankfurt | 1 | All Maps | STV","players":null},{"server_id":110,"name":"Uncletopia | Frankfurt | 2 | All Maps","name_short":"frk-2","host":"frk-1.de.uncletopia.com","port":27025,"enabled":true,"region":"eu","cc":"de","latitude":50.110924,"longitude":8.682127,"reserved":0,"last_update":"0001-01-01T00:00:00Z","name_a2s":"Uncletopia | Frankfurt | 2 | All Maps","protocol":17,"map":"pl_upward","folder":"tf","game":"Team Fortress","app_id":440,"player_count":0,"max_players":24,"Bots":0,"server_type":"Dedicated","server_os":"Linux","password":true,"vac":true,"version":"7742253","steam_id":85568392924469990,"keywords":["nocrits","nodmgspread","payload","uncletopia"],"game_id":440,"stv_port":27026,"stv_name":"Uncletopia | Frankfurt | 2 | All Maps | STV","players":null},{"server_id":308,"name":"Uncletopia | Frankfurt | 3 | All Maps","name_short":"frk-3","host":"frk-1.de.uncletopia.com","port":27035,"enabled":true,"region":"eu","cc":"de","latitude":50.110924,"longitude":8.682127,"reserved":0,"last_update":"0001-01-01T00:00:00Z","name_a2s":"Uncletopia | Frankfurt | 3 | All Maps","protocol":17,"map":"koth_viaduct","folder":"tf","game":"Team Fortress","app_id":440,"player_count":0,"max_players":24,"Bots":0,"server_type":"Dedicated","server_os":"Linux","password":true,"vac":true,"version":"7742253","steam_id":85568392924504274,"keywords":["cp","nocrits","nodmgspread","uncletopia"],"game_id":440,"stv_port":27036,"stv_name":"Uncletopia | Frankfurt | 3 | All Maps | STV","players":null},{"server_id":309,"name":"Uncletopia | Frankfurt | 4 | All Maps","name_short":"frk-4","host":"frk-1.de.uncletopia.com","port":27045,"enabled":true,"region":"eu","cc":"de","latitude":50.110924,"longitude":8.682127,"reserved":0,"last_update":"0001-01-01T00:00:00Z","name_a2s":"Uncletopia | Frankfurt | 4 | All Maps","protocol":17,"map":"pl_frontier_final","folder":"tf","game":"Team Fortress","app_id":440,"player_count":0,"max_players":24,"Bots":0,"server_type":"Dedicated","server_os":"Linux","password":true,"vac":true,"version":"7742253","steam_id":85568392924504275,"keywords":["nocrits","nodmgspread","payload","uncletopia"],"game_id":440,"stv_port":27046,"stv_name":"Uncletopia | Frankfurt | 4 | All Maps | STV","players":null},{"server_id":310,"name":"Uncletopia | Frankfurt | 5 | All Maps","name_short":"frk-5","host":"frk-1.de.uncletopia.com","port":27055,"enabled":true,"region":"eu","cc":"de","latitude":50.110924,"longitude":8.682127,"reserved":0,"last_update":"0001-01-01T00:00:00Z","name_a2s":"Uncletopia | Frankfurt | 5 | All Maps","protocol":17,"map":"cp_sunshine","folder":"tf","game":"Team Fortress","app_id":440,"player_count":0,"max_players":24,"Bots":0,"server_type":"Dedicated","server_os":"Linux","password":true,"vac":true,"version":"7742253","steam_id":85568392924504277,"keywords":["cp","nocrits","nodmgspread","uncletopia"],"game_id":440,"stv_port":27056,"stv_name":"Uncletopia | Frankfurt | 5 | All Maps | STV","players":null},{"server_id":311,"name":"Uncletopia | Frankfurt | 6 | All Maps","name_short":"frk-6","host":"frk-1.de.uncletopia.com","port":27065,"enabled":true,"region":"eu","cc":"de","latitude":50.110924,"longitude":8.682127,"reserved":0,"last_update":"0001-01-01T00:00:00Z","name_a2s":"Uncletopia | Frankfurt | 6 | All Maps","protocol":17,"map":"pl_frontier_final","folder":"tf","game":"Team Fortress","app_id":440,"player_count":0,"max_players":24,"Bots":0,"server_type":"Dedicated","server_os":"Linux","password":true,"vac":true,"version":"7742253","steam_id":85568392924504278,"keywords":["nocrits","nodmgspread","payload","uncletopia"],"game_id":440,"stv_port":27066,"stv_name":"Uncletopia | Frankfurt | 6 | All Maps | STV","players":null},{"server_id":23,"name":"Uncletopia | Frankfurt | 7 | Stopwatch Beta","name_short":"frk-7","host":"frk-1.de.uncletopia.com","port":27075,"enabled":true,"region":"eu","cc":"de","latitude":50.110924,"longitude":8.682127,"reserved":0,"last_update":"0001-01-01T00:00:00Z","name_a2s":"Uncletopia | Frankfurt | 7 | Stopwatch Beta","protocol":17,"map":"koth_lakeside_final","folder":"tf","game":"Team Fortress","app_id":440,"player_count":0,"max_players":24,"Bots":0,"server_type":"Dedicated","server_os":"Linux","password":true,"vac":true,"version":"7742253","steam_id":85568392924742827,"keywords":["cp","nocrits","nodmgspread","uncletopia"],"game_id":440,"stv_port":27076,"stv_name":"Uncletopia | Frankfurt | 7 | Stopwatch Beta | STV","players":null},{"server_id":24,"name":"Uncletopia | Frankfurt | 8 | Community","name_short":"frk-8","host":"frk-1.de.uncletopia.com","port":27085,"enabled":true,"region":"eu","cc":"de","latitude":50.110924,"longitude":8.682127,"reserved":0,"last_update":"0001-01-01T00:00:00Z","name_a2s":"Uncletopia | Frankfurt | 8 | Community","protocol":17,"map":"workshop/koth_slaughter_rc1.ugc1712845210","folder":"tf","game":"Team Fortress","app_id":440,"player_count":0,"max_players":24,"Bots":0,"server_type":"Dedicated","server_os":"Linux","password":true,"vac":true,"version":"7742253","steam_id":85568392924742828,"keywords":["cp","nocrits","nodmgspread","uncletopia"],"game_id":440,"stv_port":27086,"stv_name":"Uncletopia | Frankfurt | 8 | Community | STV","players":null},{"server_id":202,"name":"Uncletopia | Hong Kong | 1 | All Maps","name_short":"hgk-1","host":"hgk-1.hk.uncletopia.com","port":27015,"enabled":true,"region":"asia","cc":"hk","latitude":22.302711,"longitude":114.177216,"reserved":0,"last_update":"0001-01-01T00:00:00Z","name_a2s":"Uncletopia | Hong Kong | 1 | All Maps","protocol":17,"map":"pl_barnblitz","folder":"tf","game":"Team Fortress","app_id":440,"player_count":24,"max_players":24,"Bots":0,"server_type":"Dedicated","server_os":"Linux","password":true,"vac":true,"version":"7742253","steam_id":85568392924494504,"keywords":["nocrits","nodmgspread","payload","uncletopia"],"game_id":440,"stv_port":27016,"stv_name":"Uncletopia | Hong Kong | 1 | All Maps | STV","players":[{"user_id":222,"name":"brizzard","steam_id":76561198048438653,"connected_time":545000000000,"state":"active","ping":45},{"user_id":214,"name":"NeutralSkeptic","steam_id":76561199277426176,"connected_time":1379000000000,"state":"active","ping":90},{"user_id":219,"name":"Degenerate With Standards","steam_id":76561199174449723,"connected_time":819000000000,"state":"active","ping":62},{"user_id":231,"name":"ahni","steam_id":76561198312155049,"connected_time":135000000000,"state":"active","ping":89},{"user_id":216,"name":"kpopbobo","steam_id":76561198352372705,"connected_time":1328000000000,"state":"active","ping":118},{"user_id":211,"name":"Mr. Large Man","steam_id":76561199015718598,"connected_time":1628000000000,"state":"active","ping":86},{"user_id":221,"name":"Cá Tháng 4","steam_id":76561198047162026,"connected_time":567000000000,"state":"active","ping":83},{"user_id":225,"name":"Madman on Meth","steam_id":76561199262505570,"connected_time":405000000000,"state":"active","ping":73},{"user_id":226,"name":"spinach hero","steam_id":76561198042539541,"connected_time":350000000000,"state":"active","ping":75},{"user_id":218,"name":"The11thprince","steam_id":76561199186626908,"connected_time":874000000000,"state":"active","ping":404},{"user_id":136,"name":"yw","steam_id":76561199382726488,"connected_time":10176000000000,"state":"active","ping":85},{"user_id":229,"name":"ocha","steam_id":76561199224096189,"connected_time":248000000000,"state":"active","ping":90},{"user_id":201,"name":"Doormann","steam_id":76561199219230108,"connected_time":3240000000000,"state":"active","ping":78},{"user_id":28,"name":"Bertengkar","steam_id":76561198213031155,"connected_time":20027000000000,"state":"active","ping":96},{"user_id":224,"name":"Pure Testosterone","steam_id":76561198866364958,"connected_time":492000000000,"state":"active","ping":62},{"user_id":230,"name":"InnocuousGallows","steam_id":76561198100987866,"connected_time":160000000000,"state":"active","ping":37},{"user_id":145,"name":"Vortex Morez","steam_id":76561198833527091,"connected_time":8820000000000,"state":"active","ping":90},{"user_id":67,"name":"Noyour","steam_id":76561198323259830,"connected_time":16817000000000,"state":"active","ping":114},{"user_id":94,"name":"lillalune","steam_id":76561198230213828,"connected_time":14101000000000,"state":"active","ping":64},{"user_id":70,"name":"Windmill","steam_id":76561199230997986,"connected_time":16612000000000,"state":"active","ping":71},{"user_id":228,"name":"AP022","steam_id":76561199267154987,"connected_time":319000000000,"state":"active","ping":108},{"user_id":106,"name":"Urotsuki","steam_id":76561198074339034,"connected_time":12262000000000,"state":"active","ping":76},{"user_id":174,"name":"LOLGAL","steam_id":76561198347418251,"connected_time":6896000000000,"state":"active","ping":71},{"user_id":213,"name":",","steam_id":76561198413116920,"connected_time":1496000000000,"state":"active","ping":104}]},{"server_id":1,"name":"Uncletopia | Los Angeles | 1 | All Maps","name_short":"lax-1","host":"lax-1.us.uncletopia.com","port":27015,"enabled":true,"region":"us-west","cc":"us","latitude":33.94279,"longitude":-118.41004,"reserved":0,"last_update":"0001-01-01T00:00:00Z","name_a2s":"Uncletopia | Los Angeles | 1 | All Maps","protocol":17,"map":"pl_badwater","folder":"tf","game":"Team Fortress","app_id":440,"player_count":24,"max_players":24,"Bots":0,"server_type":"Dedicated","server_os":"Linux","password":true,"vac":true,"version":"7742253","steam_id":85568392924469991,"keywords":["nocrits","nodmgspread","payload","uncletopia"],"game_id":440,"stv_port":27016,"stv_name":"Uncletopia | Los Angeles | 1 | All Maps | STV","players":[{"user_id":621,"name":"existential dread","steam_id":76561198041907345,"connected_time":340000000000,"state":"active","ping":45},{"user_id":626,"name":"Juicy Duce","steam_id":76561198061088803,"connected_time":178000000000,"state":"active","ping":122},{"user_id":604,"name":"Павло Паченко","steam_id":76561198314446564,"connected_time":1928000000000,"state":"active","ping":56},{"user_id":627,"name":"VerSaKa","steam_id":76561198052392540,"connected_time":171000000000,"state":"active","ping":107},{"user_id":614,"name":"soup mode","steam_id":76561198071451771,"connected_time":1367000000000,"state":"active","ping":51},{"user_id":625,"name":"Convicted Sex Defender","steam_id":76561199080049195,"connected_time":220000000000,"state":"active","ping":60},{"user_id":622,"name":"Poot®","steam_id":76561198046436519,"connected_time":338000000000,"state":"active","ping":67},{"user_id":593,"name":"Koyota","steam_id":76561198069878114,"connected_time":3032000000000,"state":"active","ping":78},{"user_id":628,"name":"Botched Mark","steam_id":76561198847868083,"connected_time":168000000000,"state":"active","ping":77},{"user_id":629,"name":"herp derp ☕","steam_id":76561198047646956,"connected_time":102000000000,"state":"active","ping":77},{"user_id":616,"name":"New Gaming Chair","steam_id":76561198418288939,"connected_time":976000000000,"state":"active","ping":56},{"user_id":603,"name":"Rich Money McNickelson","steam_id":76561198352427247,"connected_time":2046000000000,"state":"active","ping":67},{"user_id":607,"name":"bo scrungulus","steam_id":76561198038036122,"connected_time":1739000000000,"state":"active","ping":75},{"user_id":630,"name":"EL GEFF","steam_id":76561198365725540,"connected_time":77000000000,"state":"active","ping":193},{"user_id":611,"name":"Schnitz","steam_id":76561198265484253,"connected_time":1638000000000,"state":"active","ping":55},{"user_id":618,"name":"The Paperwork","steam_id":76561198385887698,"connected_time":861000000000,"state":"active","ping":51},{"user_id":610,"name":"Rock Kickass","steam_id":76561198450510841,"connected_time":1707000000000,"state":"active","ping":70},{"user_id":631,"name":"HydroPerc 60","steam_id":76561198141858576,"connected_time":71000000000,"state":"active","ping":121},{"user_id":632,"name":"Eth","steam_id":76561198147881701,"connected_time":63000000000,"state":"active","ping":53},{"user_id":587,"name":"Brutelitops","steam_id":76561198071420878,"connected_time":3781000000000,"state":"active","ping":86},{"user_id":624,"name":"Blood for the Blood God","steam_id":76561198027484505,"connected_time":288000000000,"state":"active","ping":51},{"user_id":633,"name":"Sour Biscuit","steam_id":76561198239467502,"connected_time":53000000000,"state":"active","ping":60},{"user_id":617,"name":"kebo","steam_id":76561198237159430,"connected_time":932000000000,"state":"active","ping":56},{"user_id":634,"name":"Family Guy Funny Moments","steam_id":76561198847752839,"connected_time":50000000000,"state":"active","ping":58}]},{"server_id":112,"name":"Uncletopia | Los Angeles | 2 | All Maps","name_short":"lax-2","host":"lax-1.us.uncletopia.com","port":27025,"enabled":true,"region":"us-west","cc":"us","latitude":33.94279,"longitude":-118.41004,"reserved":0,"last_update":"0001-01-01T00:00:00Z","name_a2s":"Uncletopia | Los Angeles | 2 | All Maps","protocol":17,"map":"cp_snakewater_final1","folder":"tf","game":"Team Fortress","app_id":440,"player_count":3,"max_players":24,"Bots":0,"server_type":"Dedicated","server_os":"Linux","password":true,"vac":true,"version":"7742253","steam_id":85568392924469992,"keywords":["cp","nocrits","nodmgspread","uncletopia"],"game_id":440,"stv_port":27026,"stv_name":"Uncletopia | Los Angeles | 2 | All Maps | STV","players":[{"user_id":20,"name":"potownperuzzer","steam_id":76561199123308715,"connected_time":153000000000,"state":"active","ping":53},{"user_id":21,"name":"what_makes_me_a_good_demoman","steam_id":76561199455842239,"connected_time":127000000000,"state":"active","ping":309},{"user_id":22,"name":"dead","steam_id":76561199225461206,"connected_time":91000000000,"state":"active","ping":52}]},{"server_id":324,"name":"Uncletopia | Los Angeles | 3 | All Maps","name_short":"lax-3","host":"lax-1.us.uncletopia.com","port":27035,"enabled":true,"region":"us-west","cc":"us","latitude":33.94279,"longitude":-118.41004,"reserved":0,"last_update":"0001-01-01T00:00:00Z","name_a2s":"Uncletopia | Los Angeles | 3 | All Maps","protocol":17,"map":"cp_mountainlab","folder":"tf","game":"Team Fortress","app_id":440,"player_count":0,"max_players":24,"Bots":0,"server_type":"Dedicated","server_os":"Linux","password":true,"vac":true,"version":"7742253","steam_id":85568392924510198,"keywords":["cp","nocrits","nodmgspread","uncletopia"],"game_id":440,"stv_port":27036,"stv_name":"Uncletopia | Los Angeles | 3 | All Maps | STV","players":null},{"server_id":25,"name":"Uncletopia | Los Angeles | 4 | Stopwatch Beta","name_short":"lax-4","host":"lax-1.us.uncletopia.com","port":27045,"enabled":true,"region":"us-west","cc":"us","latitude":33.94279,"longitude":-118.41004,"reserved":0,"last_update":"0001-01-01T00:00:00Z","name_a2s":"Uncletopia | Los Angeles | 4 | Stopwatch Beta","protocol":17,"map":"cp_process_final","folder":"tf","game":"Team Fortress","app_id":440,"player_count":0,"max_players":24,"Bots":0,"server_type":"Dedicated","server_os":"Linux","password":true,"vac":true,"version":"7742253","steam_id":85568392924510199,"keywords":["cp","nocrits","nodmgspread","uncletopia"],"game_id":440,"stv_port":27046,"stv_name":"Uncletopia | Los Angeles | 4 | Stopwatch Beta | STV","players":null},{"server_id":11,"name":"Uncletopia | London | 1 | All Maps","name_short":"lon-1","host":"lon-1.uk.uncletopia.com","port":27015,"enabled":true,"region":"eu","cc":"gb","latitude":51.509865,"longitude":-0.118092,"reserved":0,"last_update":"0001-01-01T00:00:00Z","name_a2s":"Uncletopia | London | 1 | All Maps","protocol":17,"map":"pl_upward","folder":"tf","game":"Team Fortress","app_id":440,"player_count":22,"max_players":24,"Bots":0,"server_type":"Dedicated","server_os":"Linux","password":true,"vac":true,"version":"7742253","steam_id":85568392924367362,"keywords":["nocrits","nodmgspread","payload","uncletopia"],"game_id":440,"stv_port":27016,"stv_name":"Uncletopia | London | 1 | All Maps | STV","players":[{"user_id":15,"name":"Itai","steam_id":76561198804555329,"connected_time":3874000000000,"state":"active","ping":105},{"user_id":54,"name":"Hydroxianchaos","steam_id":76561198043786828,"connected_time":885000000000,"state":"active","ping":122},{"user_id":62,"name":"Elon","steam_id":76561198140751130,"connected_time":136000000000,"state":"active","ping":61},{"user_id":7,"name":"K.V. #RemoveRandomCrits","steam_id":76561197994832993,"connected_time":5113000000000,"state":"active","ping":79},{"user_id":58,"name":"autistic luigi","steam_id":76561199218285040,"connected_time":565000000000,"state":"active","ping":85},{"user_id":17,"name":"MONKEYBOYXD","steam_id":76561198156224952,"connected_time":3682000000000,"state":"active","ping":45},{"user_id":18,"name":"AlexLovesYou","steam_id":76561199163263543,"connected_time":3497000000000,"state":"active","ping":148},{"user_id":60,"name":"Rcki","steam_id":76561198164291462,"connected_time":359000000000,"state":"active","ping":74},{"user_id":61,"name":"Sara Rem","steam_id":76561198889728504,"connected_time":261000000000,"state":"active","ping":94},{"user_id":63,"name":"Demopan","steam_id":76561199442339392,"connected_time":24000000000,"state":"spawning","ping":115},{"user_id":33,"name":"|==[шприц]\u003e--- RAMA","steam_id":76561198040423618,"connected_time":2028000000000,"state":"active","ping":89},{"user_id":46,"name":"the boil","steam_id":76561199236080782,"connected_time":1404000000000,"state":"active","ping":119},{"user_id":34,"name":"The Duke","steam_id":76561198063644325,"connected_time":2018000000000,"state":"active","ping":57},{"user_id":48,"name":"Prox","steam_id":76561198351490981,"connected_time":1203000000000,"state":"active","ping":44},{"user_id":59,"name":"say cheese ;P","steam_id":76561198076219289,"connected_time":530000000000,"state":"active","ping":55},{"user_id":52,"name":"Lee","steam_id":76561198208439112,"connected_time":946000000000,"state":"active","ping":35},{"user_id":57,"name":"inserting iain","steam_id":76561198046873337,"connected_time":712000000000,"state":"active","ping":56},{"user_id":49,"name":"iz3rq","steam_id":76561199063497223,"connected_time":1178000000000,"state":"active","ping":109},{"user_id":41,"name":"Мякиш(хлебный)","steam_id":76561199223895282,"connected_time":1782000000000,"state":"active","ping":96},{"user_id":50,"name":"Herobrine","steam_id":76561198155262213,"connected_time":1173000000000,"state":"active","ping":145},{"user_id":51,"name":"Bulyto","steam_id":76561198043205202,"connected_time":1071000000000,"state":"active","ping":75},{"user_id":53,"name":"Making Coffee","steam_id":76561198138281039,"connected_time":922000000000,"state":"active","ping":64}]},{"server_id":114,"name":"Uncletopia | London | 2 | All Maps","name_short":"lon-2","host":"lon-1.uk.uncletopia.com","port":27025,"enabled":true,"region":"eu","cc":"gb","latitude":51.509865,"longitude":-0.118092,"reserved":0,"last_update":"0001-01-01T00:00:00Z","name_a2s":"Uncletopia | London | 2 | All Maps","protocol":17,"map":"cp_altitude","folder":"tf","game":"Team Fortress","app_id":440,"player_count":0,"max_players":24,"Bots":0,"server_type":"Dedicated","server_os":"Linux","password":true,"vac":true,"version":"7742253","steam_id":85568392924470941,"keywords":["cp","nocrits","nodmgspread","uncletopia"],"game_id":440,"stv_port":27026,"stv_name":"Uncletopia | London | 2 | All Maps | STV","players":null},{"server_id":320,"name":"Uncletopia | London | 3 | All Maps","name_short":"lon-3","host":"lon-1.uk.uncletopia.com","port":27035,"enabled":true,"region":"eu","cc":"gb","latitude":51.509865,"longitude":-0.118092,"reserved":0,"last_update":"0001-01-01T00:00:00Z","name_a2s":"Uncletopia | London | 3 | All Maps","protocol":17,"map":"cp_mountainlab","folder":"tf","game":"Team Fortress","app_id":440,"player_count":0,"max_players":24,"Bots":0,"server_type":"Dedicated","server_os":"Linux","password":true,"vac":true,"version":"7742253","steam_id":85568392924510192,"keywords":["cp","nocrits","nodmgspread","uncletopia"],"game_id":440,"stv_port":27036,"stv_name":"Uncletopia | London | 3 | All Maps | STV","players":null},{"server_id":321,"name":"Uncletopia | London | 4 | All Maps","name_short":"lon-4","host":"lon-1.uk.uncletopia.com","port":27045,"enabled":true,"region":"eu","cc":"gb","latitude":51.509865,"longitude":-0.118092,"reserved":0,"last_update":"0001-01-01T00:00:00Z","name_a2s":"Uncletopia | London | 4 | All Maps","protocol":17,"map":"pl_borneo","folder":"tf","game":"Team Fortress","app_id":440,"player_count":0,"max_players":24,"Bots":0,"server_type":"Dedicated","server_os":"Linux","password":true,"vac":true,"version":"7742253","steam_id":85568392924510193,"keywords":["nocrits","nodmgspread","payload","uncletopia"],"game_id":440,"stv_port":27046,"stv_name":"Uncletopia | London | 4 | All Maps | STV","players":null},{"server_id":21,"name":"Uncletopia | London | 5 | All Maps","name_short":"lon-5","host":"lon-1.uk.uncletopia.com","port":27055,"enabled":true,"region":"eu","cc":"gb","latitude":51.509865,"longitude":-0.118092,"reserved":0,"last_update":"0001-01-01T00:00:00Z","name_a2s":"Uncletopia | London | 5 | All Maps","protocol":17,"map":"cp_process_final","folder":"tf","game":"Team Fortress","app_id":440,"player_count":0,"max_players":24,"Bots":0,"server_type":"Dedicated","server_os":"Linux","password":true,"vac":true,"version":"7742253","steam_id":85568392924742829,"keywords":["cp","nocrits","nodmgspread","uncletopia"],"game_id":440,"stv_port":27056,"stv_name":"Uncletopia | London | 5 | All Maps | STV","players":null},{"server_id":22,"name":"Uncletopia | London | 6 | All Maps","name_short":"lon-6","host":"lon-1.uk.uncletopia.com","port":27065,"enabled":true,"region":"eu","cc":"gb","latitude":51.509865,"longitude":-0.118092,"reserved":0,"last_update":"0001-01-01T00:00:00Z","name_a2s":"Uncletopia | London | 6 | All Maps","protocol":17,"map":"pl_badwater","folder":"tf","game":"Team Fortress","app_id":440,"player_count":0,"max_players":24,"Bots":0,"server_type":"Dedicated","server_os":"Linux","password":true,"vac":true,"version":"7742253","steam_id":85568392924742830,"keywords":["nocrits","nodmgspread","payload","uncletopia"],"game_id":440,"stv_port":27066,"stv_name":"Uncletopia | London | 6 | All Maps | STV","players":null},{"server_id":40,"name":"Uncletopia | London | 7 | No Payload","name_short":"lon-7","host":"lon-1.uk.uncletopia.com","port":27075,"enabled":true,"region":"eu","cc":"gb","latitude":51.509865,"longitude":-0.118092,"reserved":0,"last_update":"0001-01-01T00:00:00Z","name_a2s":"Uncletopia | London | 7 | No Payload","protocol":17,"map":"pl_borneo","folder":"tf","game":"Team Fortress","app_id":440,"player_count":0,"max_players":24,"Bots":0,"server_type":"Dedicated","server_os":"Linux","password":true,"vac":true,"version":"7742253","steam_id":85568392924964314,"keywords":["nocrits","nodmgspread","payload","uncletopia"],"game_id":440,"stv_port":27076,"stv_name":"Uncletopia | London | 7 | No Payload | STV","players":null},{"server_id":41,"name":"Uncletopia | London | 8 | Community","name_short":"lon-8","host":"lon-1.uk.uncletopia.com","port":27085,"enabled":true,"region":"eu","cc":"gb","latitude":51.509865,"longitude":-0.118092,"reserved":0,"last_update":"0001-01-01T00:00:00Z","name_a2s":"Uncletopia | London | 8 | Community","protocol":17,"map":"cp_process_final","folder":"tf","game":"Team Fortress","app_id":440,"player_count":0,"max_players":24,"Bots":0,"server_type":"Dedicated","server_os":"Linux","password":true,"vac":true,"version":"7742253","steam_id":85568392924964315,"keywords":["cp","nocrits","nodmgspread","uncletopia"],"game_id":440,"stv_port":27086,"stv_name":"Uncletopia | London | 8 | Community | STV","players":null},{"server_id":300,"name":"Uncletopia | Montréal | 1 | All Maps","name_short":"mtl-1","host":"mtl-1.ca.uncletopia.com","port":27015,"enabled":true,"region":"us-east","cc":"ca","latitude":45.50889,"longitude":-73.56167,"reserved":0,"last_update":"0001-01-01T00:00:00Z","name_a2s":"Uncletopia | Montréal | 1 | All Maps","protocol":17,"map":"koth_cascade","folder":"tf","game":"Team Fortress","app_id":440,"player_count":0,"max_players":24,"Bots":0,"server_type":"Dedicated","server_os":"Linux","password":true,"vac":true,"version":"7742253","steam_id":85568392924500087,"keywords":["cp","nocrits","nodmgspread","uncletopia"],"game_id":440,"stv_port":27016,"stv_name":"Uncletopia | Montréal | 1 | All Maps | STV","players":null},{"server_id":301,"name":"Uncletopia | Montréal | 2 | All Maps","name_short":"mtl-2","host":"mtl-1.ca.uncletopia.com","port":27025,"enabled":true,"region":"us-east","cc":"ca","latitude":45.50889,"longitude":-73.56167,"reserved":0,"last_update":"0001-01-01T00:00:00Z","name_a2s":"Uncletopia | Montréal | 2 | All Maps","protocol":17,"map":"koth_lakeside_final","folder":"tf","game":"Team Fortress","app_id":440,"player_count":0,"max_players":24,"Bots":0,"server_type":"Dedicated","server_os":"Linux","password":true,"vac":true,"version":"7742253","steam_id":85568392924500088,"keywords":["cp","nocrits","nodmgspread","uncletopia"],"game_id":440,"stv_port":27026,"stv_name":"Uncletopia | Montréal | 2 | All Maps | STV","players":null},{"server_id":302,"name":"Uncletopia | Montréal | 3 | All Maps","name_short":"mtl-3","host":"mtl-1.ca.uncletopia.com","port":27035,"enabled":true,"region":"us-east","cc":"ca","latitude":45.50889,"longitude":-73.56167,"reserved":0,"last_update":"0001-01-01T00:00:00Z","name_a2s":"Uncletopia | Montréal | 3 | All Maps","protocol":17,"map":"cp_altitude","folder":"tf","game":"Team Fortress","app_id":440,"player_count":0,"max_players":24,"Bots":0,"server_type":"Dedicated","server_os":"Linux","password":true,"vac":true,"version":"7742253","steam_id":85568392924500089,"keywords":["cp","nocrits","nodmgspread","uncletopia"],"game_id":440,"stv_port":27036,"stv_name":"Uncletopia | Montréal | 3 | All Maps | STV","players":null},{"server_id":303,"name":"Uncletopia | Montréal | 4 | No Payload","name_short":"mtl-4","host":"mtl-1.ca.uncletopia.com","port":27045,"enabled":true,"region":"us-east","cc":"ca","latitude":45.50889,"longitude":-73.56167,"reserved":0,"last_update":"0001-01-01T00:00:00Z","name_a2s":"Uncletopia | Montréal | 4 | No Payload","protocol":17,"map":"koth_sawmill","folder":"tf","game":"Team Fortress","app_id":440,"player_count":0,"max_players":24,"Bots":0,"server_type":"Dedicated","server_os":"Linux","password":true,"vac":true,"version":"7742253","steam_id":85568392924500090,"keywords":["cp","nocrits","nodmgspread","uncletopia"],"game_id":440,"stv_port":27046,"stv_name":"Uncletopia | Montréal | 4 | No Payload | STV","players":null},{"server_id":13,"name":"Uncletopia | New York City | 1 | All Maps","name_short":"nyc-1","host":"nyc-1.us.uncletopia.com","port":27015,"enabled":true,"region":"us-east","cc":"us","latitude":40.73061,"longitude":-73.93524,"reserved":0,"last_update":"0001-01-01T00:00:00Z","name_a2s":"Uncletopia | New York City | 1 | All Maps","protocol":17,"map":"koth_viaduct","folder":"tf","game":"Team Fortress","app_id":440,"player_count":3,"max_players":24,"Bots":0,"server_type":"Dedicated","server_os":"Linux","password":true,"vac":true,"version":"7742253","steam_id":85568392924469993,"keywords":["cp","nocrits","nodmgspread","uncletopia"],"game_id":440,"stv_port":27016,"stv_name":"Uncletopia | New York City | 1 | All Maps | STV","players":[{"user_id":745,"name":"Dark Saturday","steam_id":76561198152056777,"connected_time":397000000000,"state":"active","ping":58},{"user_id":743,"name":"plasmaman56","steam_id":76561198808378733,"connected_time":1541000000000,"state":"active","ping":57},{"user_id":744,"name":"Vaude","steam_id":76561198369187511,"connected_time":1522000000000,"state":"active","ping":45}]},{"server_id":14,"name":"Uncletopia | New York City | 2 | All Maps","name_short":"nyc-2","host":"nyc-1.us.uncletopia.com","port":27025,"enabled":true,"region":"us-east","cc":"us","latitude":40.73061,"longitude":-73.93524,"reserved":0,"last_update":"0001-01-01T00:00:00Z","name_a2s":"Uncletopia | New York City | 2 | All Maps","protocol":17,"map":"koth_lakeside_final","folder":"tf","game":"Team Fortress","app_id":440,"player_count":0,"max_players":24,"Bots":0,"server_type":"Dedicated","server_os":"Linux","password":true,"vac":true,"version":"7742253","steam_id":85568392924469994,"keywords":["cp","nocrits","nodmgspread","uncletopia"],"game_id":440,"stv_port":27026,"stv_name":"Uncletopia | New York City | 2 | All Maps | STV","players":null},{"server_id":15,"name":"Uncletopia | New York City | 3 | Stopwatch Beta","name_short":"nyc-3","host":"nyc-1.us.uncletopia.com","port":27035,"enabled":true,"region":"us-east","cc":"us","latitude":40.73061,"longitude":-73.93524,"reserved":0,"last_update":"0001-01-01T00:00:00Z","name_a2s":"Uncletopia | New York City | 3 | Stopwatch Beta","protocol":17,"map":"cp_altitude","folder":"tf","game":"Team Fortress","app_id":440,"player_count":0,"max_players":24,"Bots":0,"server_type":"Dedicated","server_os":"Linux","password":true,"vac":true,"version":"7742253","steam_id":85568392924742820,"keywords":["cp","nocrits","nodmgspread","uncletopia"],"game_id":440,"stv_port":27036,"stv_name":"Uncletopia | New York City | 3 | Stopwatch Beta | STV","players":null},{"server_id":16,"name":"Uncletopia | New York City | 4 | Community","name_short":"nyc-4","host":"nyc-1.us.uncletopia.com","port":27045,"enabled":true,"region":"us-east","cc":"us","latitude":40.73061,"longitude":-73.93524,"reserved":0,"last_update":"0001-01-01T00:00:00Z","name_a2s":"Uncletopia | New York City | 4 | Community","protocol":17,"map":"pl_barnblitz","folder":"tf","game":"Team Fortress","app_id":440,"player_count":0,"max_players":24,"Bots":0,"server_type":"Dedicated","server_os":"Linux","password":true,"vac":true,"version":"7742253","steam_id":85568392924742821,"keywords":["nocrits","nodmgspread","payload","uncletopia"],"game_id":440,"stv_port":27046,"stv_name":"Uncletopia | New York City | 4 | Community | STV","players":null},{"server_id":142,"name":"Uncletopia | São Paulo | 1 | All Maps","name_short":"sao-1","host":"sao-1.br.uncletopia.com","port":27015,"enabled":true,"region":"sa","cc":"br","latitude":-23.533773,"longitude":-46.62529,"reserved":0,"last_update":"0001-01-01T00:00:00Z","name_a2s":"Uncletopia | São Paulo | 1 | All Maps","protocol":17,"map":"koth_lakeside_final","folder":"tf","game":"Team Fortress","app_id":440,"player_count":0,"max_players":24,"Bots":0,"server_type":"Dedicated","server_os":"Linux","password":true,"vac":true,"version":"7742253","steam_id":85568392924469996,"keywords":["cp","nocrits","nodmgspread","uncletopia"],"game_id":440,"stv_port":27016,"stv_name":"Uncletopia | São Paulo | 1 | All Maps | STV","players":null},{"server_id":143,"name":"Uncletopia | São Paulo | 2 | All Maps","name_short":"sao-2","host":"sao-2.br.uncletopia.com","port":27015,"enabled":true,"region":"sa","cc":"br","latitude":-23.533773,"longitude":-46.62529,"reserved":0,"last_update":"0001-01-01T00:00:00Z","name_a2s":"Uncletopia | São Paulo | 2 | All Maps","protocol":17,"map":"koth_cascade","folder":"tf","game":"Team Fortress","app_id":440,"player_count":0,"max_players":24,"Bots":0,"server_type":"Dedicated","server_os":"Linux","password":true,"vac":true,"version":"7742253","steam_id":85568392924485349,"keywords":["cp","nocrits","nodmgspread","uncletopia"],"game_id":440,"stv_port":27016,"stv_name":"Uncletopia | São Paulo | 2 | All Maps | STV","players":null},{"server_id":7,"name":"Uncletopia | Seattle | 1 | All Maps","name_short":"sea-1","host":"sea-1.us.uncletopia.com","port":27015,"enabled":true,"region":"us-west","cc":"us","latitude":47.608013,"longitude":-122.33517,"reserved":0,"last_update":"0001-01-01T00:00:00Z","name_a2s":"Uncletopia | Seattle | 1 | All Maps","protocol":17,"map":"pl_pier","folder":"tf","game":"Team Fortress","app_id":440,"player_count":24,"max_players":24,"Bots":0,"server_type":"Dedicated","server_os":"Linux","password":true,"vac":true,"version":"7742253","steam_id":85568392924469997,"keywords":["nocrits","nodmgspread","payload","uncletopia"],"game_id":440,"stv_port":27016,"stv_name":"Uncletopia | Seattle | 1 | All Maps | STV","players":[{"user_id":935,"name":"Big Meaty Frogs","steam_id":76561198068328470,"connected_time":884000000000,"state":"active","ping":67},{"user_id":948,"name":"BABABOOEY","steam_id":76561198843892068,"connected_time":386000000000,"state":"active","ping":82},{"user_id":934,"name":"TheBold","steam_id":76561199194787298,"connected_time":898000000000,"state":"active","ping":55},{"user_id":909,"name":"J. Cash","steam_id":76561198078626283,"connected_time":2736000000000,"state":"active","ping":43},{"user_id":818,"name":"butt3r_","steam_id":76561198156374792,"connected_time":8419000000000,"state":"active","ping":46},{"user_id":624,"name":"Lord Hater","steam_id":76561199158148782,"connected_time":23365000000000,"state":"active","ping":61},{"user_id":930,"name":"haj","steam_id":76561198043902911,"connected_time":1353000000000,"state":"active","ping":52},{"user_id":946,"name":"Speve Bobs","steam_id":76561198349908268,"connected_time":546000000000,"state":"active","ping":64},{"user_id":939,"name":"Chicanery","steam_id":76561198977589038,"connected_time":761000000000,"state":"active","ping":107},{"user_id":877,"name":"Chilihohoho","steam_id":76561198004929152,"connected_time":3971000000000,"state":"active","ping":78},{"user_id":940,"name":"Wrenchek","steam_id":76561198076358645,"connected_time":737000000000,"state":"active","ping":88},{"user_id":941,"name":"Sad Sapling","steam_id":76561198075612150,"connected_time":693000000000,"state":"active","ping":85},{"user_id":947,"name":"tabbed11","steam_id":76561198272314004,"connected_time":504000000000,"state":"active","ping":87},{"user_id":933,"name":"blinkerton city","steam_id":76561198054270410,"connected_time":954000000000,"state":"active","ping":57},{"user_id":904,"name":"dougrocks421","steam_id":76561198165063918,"connected_time":2966000000000,"state":"active","ping":46},{"user_id":943,"name":"Bubbamanme","steam_id":76561198119778504,"connected_time":598000000000,"state":"active","ping":57},{"user_id":944,"name":"Naffers","steam_id":76561198195957335,"connected_time":593000000000,"state":"active","ping":45},{"user_id":914,"name":"Genius Meme","steam_id":76561198162911254,"connected_time":2432000000000,"state":"active","ping":63},{"user_id":927,"name":"Dank Hill","steam_id":76561198081194839,"connected_time":1619000000000,"state":"active","ping":64},{"user_id":868,"name":"ScrwVwls","steam_id":76561198013483199,"connected_time":4187000000000,"state":"active","ping":54},{"user_id":915,"name":"NGsterson","steam_id":76561198162108154,"connected_time":2415000000000,"state":"active","ping":41},{"user_id":918,"name":"exephur","steam_id":76561198135763234,"connected_time":2213000000000,"state":"active","ping":64},{"user_id":945,"name":"Grim","steam_id":76561198158911860,"connected_time":565000000000,"state":"active","ping":57},{"user_id":836,"name":"gorlab","steam_id":76561198025089694,"connected_time":6728000000000,"state":"active","ping":62}]},{"server_id":119,"name":"Uncletopia | Seattle | 2 | All Maps","name_short":"sea-2","host":"sea-1.us.uncletopia.com","port":27025,"enabled":true,"region":"us-west","cc":"us","latitude":47.608013,"longitude":-122.33517,"reserved":0,"last_update":"0001-01-01T00:00:00Z","name_a2s":"Uncletopia | Seattle | 2 | All Maps","protocol":17,"map":"pl_borneo","folder":"tf","game":"Team Fortress","app_id":440,"player_count":23,"max_players":24,"Bots":0,"server_type":"Dedicated","server_os":"Linux","password":true,"vac":true,"version":"7742253","steam_id":85568392924469998,"keywords":["nocrits","nodmgspread","payload","uncletopia"],"game_id":440,"stv_port":27026,"stv_name":"Uncletopia | Seattle | 2 | All Maps | STV","players":[{"user_id":657,"name":"Frongus","steam_id":76561197979056451,"connected_time":1346000000000,"state":"active","ping":45},{"user_id":681,"name":"Seriously Bruh","steam_id":76561198070408485,"connected_time":81000000000,"state":"active","ping":60},{"user_id":629,"name":"Ch3wmanji","steam_id":76561198799746229,"connected_time":4448000000000,"state":"active","ping":109},{"user_id":682,"name":"SmallErection","steam_id":76561198071770147,"connected_time":72000000000,"state":"active","ping":57},{"user_id":650,"name":"Gaming","steam_id":76561198327632113,"connected_time":1977000000000,"state":"active","ping":47},{"user_id":613,"name":"Van","steam_id":76561198073518712,"connected_time":5145000000000,"state":"active","ping":54},{"user_id":670,"name":"Testicular Torsion","steam_id":76561197968179862,"connected_time":542000000000,"state":"active","ping":102},{"user_id":683,"name":"weed lesbian","steam_id":76561198042263805,"connected_time":41000000000,"state":"spawning","ping":62},{"user_id":672,"name":"mommy hog","steam_id":76561199230929836,"connected_time":473000000000,"state":"active","ping":104},{"user_id":684,"name":"_narwool_","steam_id":76561198175955138,"connected_time":19000000000,"state":"active","ping":103},{"user_id":626,"name":"Snety Gun","steam_id":76561198862745731,"connected_time":4776000000000,"state":"active","ping":54},{"user_id":653,"name":"goldhed","steam_id":76561198051751133,"connected_time":1729000000000,"state":"active","ping":60},{"user_id":667,"name":"Lightworker","steam_id":76561198063949642,"connected_time":945000000000,"state":"active","ping":43},{"user_id":678,"name":"zoiboi","steam_id":76561198069598590,"connected_time":228000000000,"state":"active","ping":77},{"user_id":576,"name":"self sufficient kitten","steam_id":76561197960592612,"connected_time":7799000000000,"state":"active","ping":45},{"user_id":604,"name":"Scorpie Doodle","steam_id":76561198021845763,"connected_time":5691000000000,"state":"active","ping":103},{"user_id":673,"name":"COLOSSAL HOG","steam_id":76561198079923652,"connected_time":469000000000,"state":"active","ping":104},{"user_id":641,"name":"smeasly","steam_id":76561198028718812,"connected_time":3000000000000,"state":"active","ping":44},{"user_id":628,"name":"Laurie","steam_id":76561198837843924,"connected_time":4759000000000,"state":"active","ping":58},{"user_id":663,"name":"King PBJames","steam_id":76561197988610306,"connected_time":1044000000000,"state":"active","ping":33},{"user_id":680,"name":"Savant","steam_id":76561197969881916,"connected_time":210000000000,"state":"active","ping":46},{"user_id":679,"name":"Steven ☭","steam_id":76561197999653804,"connected_time":222000000000,"state":"active","ping":60},{"user_id":633,"name":"R4 | Mr. Commissioner","steam_id":76561198101666509,"connected_time":4012000000000,"state":"active","ping":91}]},{"server_id":406,"name":"Uncletopia | Seattle | 3 | Stopwatch Beta","name_short":"sea-3","host":"sea-1.us.uncletopia.com","port":27035,"enabled":true,"region":"us-west","cc":"us","latitude":47.608013,"longitude":-122.33517,"reserved":0,"last_update":"0001-01-01T00:00:00Z","name_a2s":"Uncletopia | Seattle | 3 | Stopwatch Beta","protocol":17,"map":"pl_upward","folder":"tf","game":"Team Fortress","app_id":440,"player_count":0,"max_players":24,"Bots":0,"server_type":"Dedicated","server_os":"Linux","password":true,"vac":false,"version":"7742253","steam_id":0,"keywords":["nocrits","nodmgspread","payload","uncletopia"],"game_id":440,"stv_port":27036,"stv_name":"Uncletopia | Seattle | 3 | Stopwatch Beta | STV","players":null},{"server_id":17,"name":"Uncletopia | San Francisco | 1 | All Maps","name_short":"sfo-1","host":"sfo-1.us.uncletopia.com","port":27015,"enabled":true,"region":"us-west","cc":"us","latitude":37.77397,"longitude":-122.4313,"reserved":0,"last_update":"0001-01-01T00:00:00Z","name_a2s":"Uncletopia | San Francisco | 1 | All Maps","protocol":17,"map":"koth_highpass","folder":"tf","game":"Team Fortress","app_id":440,"player_count":0,"max_players":24,"Bots":0,"server_type":"Dedicated","server_os":"Linux","password":true,"vac":true,"version":"7742253","steam_id":85568392924469999,"keywords":["cp","nocrits","nodmgspread","uncletopia"],"game_id":440,"stv_port":27016,"stv_name":"Uncletopia | San Francisco | 1 | All Maps | STV","players":null},{"server_id":18,"name":"Uncletopia | San Francisco | 2 | All Maps","name_short":"sfo-2","host":"sfo-1.us.uncletopia.com","port":27025,"enabled":true,"region":"us-west","cc":"us","latitude":37.77397,"longitude":-122.4313,"reserved":0,"last_update":"0001-01-01T00:00:00Z","name_a2s":"Uncletopia | San Francisco | 2 | All Maps","protocol":17,"map":"koth_viaduct","folder":"tf","game":"Team Fortress","app_id":440,"player_count":0,"max_players":24,"Bots":0,"server_type":"Dedicated","server_os":"Linux","password":true,"vac":true,"version":"7742253","steam_id":85568392924470000,"keywords":["cp","nocrits","nodmgspread","uncletopia"],"game_id":440,"stv_port":27026,"stv_name":"Uncletopia | San Francisco | 2 | All Maps | STV","players":null},{"server_id":19,"name":"Uncletopia | San Francisco | 3 | Stopwatch Beta","name_short":"sfo-3","host":"sfo-1.us.uncletopia.com","port":27035,"enabled":true,"region":"us-west","cc":"us","latitude":37.77397,"longitude":-122.4313,"reserved":0,"last_update":"0001-01-01T00:00:00Z","name_a2s":"Uncletopia | San Francisco | 3 | Stopwatch Beta","protocol":17,"map":"cp_snakewater_final1","folder":"tf","game":"Team Fortress","app_id":440,"player_count":0,"max_players":24,"Bots":0,"server_type":"Dedicated","server_os":"Linux","password":true,"vac":true,"version":"7742253","steam_id":85568392924742824,"keywords":["cp","nocrits","nodmgspread","uncletopia"],"game_id":440,"stv_port":27036,"stv_name":"Uncletopia | San Francisco | 3 | Stopwatch Beta | STV","players":null},{"server_id":20,"name":"Uncletopia | San Francisco | 4 | Community","name_short":"sfo-4","host":"sfo-1.us.uncletopia.com","port":27045,"enabled":true,"region":"us-west","cc":"us","latitude":37.77397,"longitude":-122.4313,"reserved":0,"last_update":"0001-01-01T00:00:00Z","name_a2s":"Uncletopia | San Francisco | 4 | Community","protocol":17,"map":"workshop/koth_ashville_final.ugc2130459942","folder":"tf","game":"Team Fortress","app_id":440,"player_count":0,"max_players":24,"Bots":0,"server_type":"Dedicated","server_os":"Linux","password":true,"vac":true,"version":"7742253","steam_id":85568392924742826,"keywords":["cp","nocrits","nodmgspread","uncletopia"],"game_id":440,"stv_port":27046,"stv_name":"Uncletopia | San Francisco | 4 | Community | STV","players":null},{"server_id":141,"name":"Uncletopia | Sydney | 1 | All Maps","name_short":"syd-1","host":"syd-1.au.uncletopia.com","port":27015,"enabled":true,"region":"au","cc":"au","latitude":-33.865143,"longitude":151.2099,"reserved":0,"last_update":"0001-01-01T00:00:00Z","name_a2s":"Uncletopia | Sydney | 1 | All Maps","protocol":17,"map":"pl_badwater","folder":"tf","game":"Team Fortress","app_id":440,"player_count":24,"max_players":24,"Bots":0,"server_type":"Dedicated","server_os":"Linux","password":true,"vac":true,"version":"7742253","steam_id":85568392924470001,"keywords":["nocrits","nodmgspread","payload","uncletopia"],"game_id":440,"stv_port":27016,"stv_name":"Uncletopia | Sydney | 1 | All Maps | STV","players":[{"user_id":137,"name":"sweet","steam_id":76561198075311236,"connected_time":349000000000,"state":"active","ping":55},{"user_id":134,"name":"Sover blw.tf","steam_id":76561198136347837,"connected_time":788000000000,"state":"active","ping":129},{"user_id":135,"name":"Gamma","steam_id":76561198281131757,"connected_time":562000000000,"state":"active","ping":57},{"user_id":106,"name":"IamDinosaur","steam_id":76561198081540507,"connected_time":2527000000000,"state":"active","ping":61},{"user_id":115,"name":"billy loomis","steam_id":76561198032687714,"connected_time":2062000000000,"state":"active","ping":91},{"user_id":103,"name":"MixMaster","steam_id":76561198212654905,"connected_time":2879000000000,"state":"active","ping":60},{"user_id":111,"name":"Life","steam_id":76561198072217827,"connected_time":2300000000000,"state":"active","ping":95},{"user_id":74,"name":"♥Alfred2♥","steam_id":76561198806268791,"connected_time":4340000000000,"state":"active","ping":49},{"user_id":129,"name":"Barchel (She/Her)","steam_id":76561197984629970,"connected_time":851000000000,"state":"active","ping":60},{"user_id":94,"name":"Flak","steam_id":76561198205833232,"connected_time":3619000000000,"state":"active","ping":44},{"user_id":123,"name":"Nenguu","steam_id":76561198243952386,"connected_time":1510000000000,"state":"active","ping":64},{"user_id":130,"name":"ree boy","steam_id":76561199024189820,"connected_time":825000000000,"state":"active","ping":83},{"user_id":127,"name":"blicky","steam_id":76561198029829077,"connected_time":1162000000000,"state":"active","ping":92},{"user_id":125,"name":"Wake'n'Bake'n'Make'n'Bacon","steam_id":76561198061960926,"connected_time":1287000000000,"state":"active","ping":94},{"user_id":52,"name":"gave my love to a shooting star","steam_id":76561197990537324,"connected_time":5466000000000,"state":"active","ping":107},{"user_id":99,"name":"doctor morbin' (real)","steam_id":76561199365241695,"connected_time":3230000000000,"state":"active","ping":129},{"user_id":122,"name":"nojnosbod11","steam_id":76561199176012151,"connected_time":1697000000000,"state":"active","ping":59},{"user_id":124,"name":"KiwiJiwi","steam_id":76561198262081410,"connected_time":1328000000000,"state":"active","ping":66},{"user_id":101,"name":"clout","steam_id":76561198073310502,"connected_time":3057000000000,"state":"active","ping":77},{"user_id":118,"name":"timboe","steam_id":76561198003442007,"connected_time":1896000000000,"state":"active","ping":59},{"user_id":119,"name":"2018 lebron","steam_id":76561198087803935,"connected_time":1847000000000,"state":"active","ping":47},{"user_id":121,"name":"krandlez` (Any/All)","steam_id":76561198044839726,"connected_time":1722000000000,"state":"active","ping":39},{"user_id":136,"name":"3-Star Yelp Review","steam_id":76561197995258180,"connected_time":438000000000,"state":"active","ping":46},{"user_id":138,"name":"LeoJoeD","steam_id":76561198161848749,"connected_time":306000000000,"state":"active","ping":87}]},{"server_id":123,"name":"Uncletopia | Sydney | 2 | All Maps","name_short":"syd-2","host":"syd-1.au.uncletopia.com","port":27025,"enabled":true,"region":"au","cc":"au","latitude":-33.865143,"longitude":151.2099,"reserved":0,"last_update":"0001-01-01T00:00:00Z","name_a2s":"Uncletopia | Sydney | 2 | All Maps","protocol":17,"map":"koth_lakeside_final","folder":"tf","game":"Team Fortress","app_id":440,"player_count":0,"max_players":24,"Bots":0,"server_type":"Dedicated","server_os":"Linux","password":true,"vac":true,"version":"7742253","steam_id":85568392924470002,"keywords":["cp","nocrits","nodmgspread","uncletopia"],"game_id":440,"stv_port":27026,"stv_name":"Uncletopia | Sydney | 2 | All Maps | STV","players":null},{"server_id":395,"name":"Uncletopia | Sydney | 3 | All Maps","name_short":"syd-3","host":"syd-1.au.uncletopia.com","port":27035,"enabled":true,"region":"au","cc":"au","latitude":-33.865143,"longitude":151.2099,"reserved":0,"last_update":"0001-01-01T00:00:00Z","name_a2s":"Uncletopia | Sydney | 3 | All Maps","protocol":17,"map":"pl_swiftwater_final1","folder":"tf","game":"Team Fortress","app_id":440,"player_count":1,"max_players":24,"Bots":0,"server_type":"Dedicated","server_os":"Linux","password":true,"vac":true,"version":"7742253","steam_id":85568392925194467,"keywords":["nocrits","nodmgspread","payload","uncletopia"],"game_id":440,"stv_port":27036,"stv_name":"Uncletopia | Sydney | 3 | All Maps | STV","players":[{"user_id":13,"name":"LightningBlock","steam_id":76561198289997742,"connected_time":351000000000,"state":"active","ping":30}]},{"server_id":396,"name":"Uncletopia | Sydney | 4 | All Maps","name_short":"syd-4","host":"syd-1.au.uncletopia.com","port":27045,"enabled":true,"region":"au","cc":"au","latitude":-33.865143,"longitude":151.2099,"reserved":0,"last_update":"0001-01-01T00:00:00Z","name_a2s":"Uncletopia | Sydney | 4 | All Maps","protocol":17,"map":"pl_upward","folder":"tf","game":"Team Fortress","app_id":440,"player_count":5,"max_players":24,"Bots":0,"server_type":"Dedicated","server_os":"Linux","password":true,"vac":true,"version":"7742253","steam_id":85568392925397958,"keywords":["nocrits","nodmgspread","payload","uncletopia"],"game_id":440,"stv_port":27046,"stv_name":"Uncletopia | Sydney | 4 | All Maps | STV","players":[{"user_id":6,"name":"ChairMonster26","steam_id":76561198959787682,"connected_time":1169000000000,"state":"active","ping":59},{"user_id":7,"name":"Babushka","steam_id":76561198311483331,"connected_time":1135000000000,"state":"active","ping":70},{"user_id":8,"name":"dog chow","steam_id":76561198962911786,"connected_time":955000000000,"state":"active","ping":40},{"user_id":14,"name":"Spaceman☮︎♥","steam_id":76561198130356480,"connected_time":241000000000,"state":"active","ping":58},{"user_id":13,"name":"Dayan GuHong V4 M 3x3","steam_id":76561198254704906,"connected_time":638000000000,"state":"active","ping":89}]},{"server_id":58,"name":"Uncletopia | Sydney | 5 | Stopwatch Beta","name_short":"syd-5","host":"syd-1.au.uncletopia.com","port":27055,"enabled":true,"region":"au","cc":"au","latitude":-33.865143,"longitude":151.2099,"reserved":0,"last_update":"0001-01-01T00:00:00Z","name_a2s":"Uncletopia | Sydney | 5 | Stopwatch Beta","protocol":17,"map":"cp_snakewater_final1","folder":"tf","game":"Team Fortress","app_id":440,"player_count":0,"max_players":24,"Bots":0,"server_type":"Dedicated","server_os":"Linux","password":true,"vac":true,"version":"7742253","steam_id":85568392925397959,"keywords":["cp","nocrits","nodmgspread","uncletopia"],"game_id":440,"stv_port":27056,"stv_name":"Uncletopia | Sydney | 5 | Stopwatch Beta | STV","players":null},{"server_id":59,"name":"Uncletopia | Sydney | 6 | Community","name_short":"syd-6","host":"syd-1.au.uncletopia.com","port":27065,"enabled":true,"region":"au","cc":"au","latitude":-33.865143,"longitude":151.2099,"reserved":0,"last_update":"0001-01-01T00:00:00Z","name_a2s":"Uncletopia | Sydney | 6 | Community","protocol":17,"map":"cp_snakewater_final1","folder":"tf","game":"Team Fortress","app_id":440,"player_count":0,"max_players":24,"Bots":0,"server_type":"Dedicated","server_os":"Linux","password":true,"vac":true,"version":"7742253","steam_id":85568392925397960,"keywords":["cp","nocrits","nodmgspread","uncletopia"],"game_id":440,"stv_port":27066,"stv_name":"Uncletopia | Sydney | 6 | Community | STV","players":null},{"server_id":49,"name":"Uncletopia | Warsaw | 1 | All Maps","name_short":"waw-1","host":"waw-1.pl.uncletopia.com","port":27015,"enabled":true,"region":"eu","cc":"pl","latitude":52.2297,"longitude":21.017532,"reserved":0,"last_update":"0001-01-01T00:00:00Z","name_a2s":"","protocol":0,"map":"","folder":"","game":"","app_id":0,"player_count":0,"max_players":0,"Bots":0,"server_type":"","server_os":"","password":false,"vac":false,"version":"","steam_id":0,"keywords":null,"game_id":0,"stv_port":0,"stv_name":"","players":null},{"server_id":50,"name":"Uncletopia | Warsaw | 2 | All Maps","name_short":"waw-2","host":"waw-1.pl.uncletopia.com","port":27025,"enabled":true,"region":"eu","cc":"pl","latitude":52.2297,"longitude":21.017532,"reserved":0,"last_update":"0001-01-01T00:00:00Z","name_a2s":"Uncletopia | Warsaw | 2 | All Maps","protocol":17,"map":"pl_frontier_final","folder":"tf","game":"Team Fortress","app_id":440,"player_count":0,"max_players":24,"Bots":0,"server_type":"Dedicated","server_os":"Linux","password":true,"vac":true,"version":"7742253","steam_id":85568392925397851,"keywords":["nocrits","nodmgspread","payload","uncletopia"],"game_id":440,"stv_port":27026,"stv_name":"Uncletopia | Warsaw | 2 | All Maps | STV","players":null},{"server_id":51,"name":"Uncletopia | Warsaw | 3 | All Maps","name_short":"waw-3","host":"waw-1.pl.uncletopia.com","port":27035,"enabled":true,"region":"eu","cc":"pl","latitude":52.2297,"longitude":21.017532,"reserved":0,"last_update":"0001-01-01T00:00:00Z","name_a2s":"Uncletopia | Warsaw | 3 | All Maps","protocol":17,"map":"pl_frontier_final","folder":"tf","game":"Team Fortress","app_id":440,"player_count":0,"max_players":24,"Bots":0,"server_type":"Dedicated","server_os":"Linux","password":true,"vac":true,"version":"7742253","steam_id":85568392925397852,"keywords":["nocrits","nodmgspread","payload","uncletopia"],"game_id":440,"stv_port":27036,"stv_name":"Uncletopia | Warsaw | 3 | All Maps | STV","players":null},{"server_id":52,"name":"Uncletopia | Warsaw | 4 | All Maps","name_short":"waw-4","host":"waw-1.pl.uncletopia.com","port":27045,"enabled":true,"region":"eu","cc":"pl","latitude":52.2297,"longitude":21.017532,"reserved":0,"last_update":"0001-01-01T00:00:00Z","name_a2s":"Uncletopia | Warsaw | 4 | All Maps","protocol":17,"map":"pl_swiftwater_final1","folder":"tf","game":"Team Fortress","app_id":440,"player_count":0,"max_players":24,"Bots":0,"server_type":"Dedicated","server_os":"Linux","password":true,"vac":true,"version":"7742253","steam_id":85568392925397853,"keywords":["nocrits","nodmgspread","payload","uncletopia"],"game_id":440,"stv_port":27046,"stv_name":"Uncletopia | Warsaw | 4 | All Maps | STV","players":null},{"server_id":53,"name":"Uncletopia | Warsaw | 5 | Stopwatch Beta","name_short":"waw-5","host":"waw-1.pl.uncletopia.com","port":27055,"enabled":true,"region":"eu","cc":"pl","latitude":52.2297,"longitude":21.017532,"reserved":0,"last_update":"0001-01-01T00:00:00Z","name_a2s":"Uncletopia | Warsaw | 5 | Stopwatch Beta","protocol":17,"map":"pl_pier","folder":"tf","game":"Team Fortress","app_id":440,"player_count":0,"max_players":24,"Bots":0,"server_type":"Dedicated","server_os":"Linux","password":true,"vac":true,"version":"7742253","steam_id":85568392925397854,"keywords":["nocrits","nodmgspread","payload","uncletopia"],"game_id":440,"stv_port":27056,"stv_name":"Uncletopia | Warsaw | 5 | Stopwatch Beta | STV","players":null},{"server_id":54,"name":"Uncletopia | Warsaw | 6 | Community","name_short":"waw-6","host":"waw-1.pl.uncletopia.com","port":27065,"enabled":true,"region":"eu","cc":"pl","latitude":52.2297,"longitude":21.017532,"reserved":0,"last_update":"0001-01-01T00:00:00Z","name_a2s":"Uncletopia | Warsaw | 6 | Community","protocol":17,"map":"cp_sunshine","folder":"tf","game":"Team Fortress","app_id":440,"player_count":0,"max_players":24,"Bots":0,"server_type":"Dedicated","server_os":"Linux","password":true,"vac":true,"version":"7742253","steam_id":85568392925397856,"keywords":["cp","nocrits","nodmgspread","uncletopia"],"game_id":440,"stv_port":27066,"stv_name":"Uncletopia | Warsaw | 6 | Community | STV","players":null}]}