{"status":true,"message":"","result":[{"server_id":9,"name":"Uncletopia | Atlanta | 1 | All Maps","name_short":"atl-1","host":"atl-1.us.uncletopia.com","port":27015,"enabled":true,"region":"us-east","cc":"us","latitude":33.753746,"longitude":-84.38633,"reserved":0,"last_update":"0001-01-01T00:00:00Z","name_a2s":"Uncletopia | Atlanta | 1 | All Maps","protocol":17,"map":"pl_barnblitz","folder":"tf","game":"Team Fortress","app_id":440,"player_count":0,"max_players":24,"Bots":0,"server_type":"Dedicated","server_os":"Linux","password":true,"vac":true,"version":"7742253","steam_id":85568392924469982,"keywords":["nocrits","nodmgspread","payload","uncletopia"],"game_id":440,"stv_port":27016,"stv_name":"Uncletopia | Atlanta | 1 | All Maps | STV","players":null},{"server_id":400,"name":"Uncletopia | Atlanta | 3 | Stopwatch Beta","name_short":"atl-3","host":"atl-1.us.uncletopia.com","port":27035,"enabled":true,"region":"us-east","cc":"us","latitude":33.753746,"longitude":-84.38633,"reserved":0,"last_update":"0001-01-01T00:00:00Z","name_a2s":"Uncletopia | Atlanta | 3 | Stopwatch Beta","protocol":17,"map":"pl_pier","folder":"tf","game":"Team Fortress","app_id":440,"player_count":0,"max_players":24,"Bots":0,"server_type":"Dedicated","server_os":"Linux","password":true,"vac":true,"version":"7742253","steam_id":85568392924515187,"keywords":["nocrits","nodmgspread","payload","uncletopia"],"game_id":440,"stv_port":27036,"stv_name":"Uncletopia | Atlanta | 3 | Stopwatch Beta | STV","players":null},{"server_id":401,"name":"Uncletopia | Atlanta | 4 | No Payload","name_short":"atl-4","host":"atl-1.us.uncletopia.com","port":27045,"enabled":true,"region":"us-east","cc":"us","latitude":33.753746,"longitude":-84.38633,"reserved":0,"last_update":"0001-01-01T00:00:00Z","name_a2s":"Uncletopia | Atlanta | 4 | No Payload","protocol":17,"map":"pl_pier","folder":"tf","game":"Team Fortress","app_id":440,"player_count":0,"max_players":24,"Bots":0,"server_type":"Dedicated","server_os":"Linux","password":true,"vac":true,"version":"7723704","steam_id":85568392924515188,"keywords":["nocrits","nodmgspread","payload","uncletopia"],"game_id":440,"stv_port":27046,"stv_name":"Uncletopia | Atlanta | 4 | No Payload | STV","players":null},{"server_id":2,"name":"Uncletopia | Chicago | 1 | All Maps","name_short":"chi-1","host":"chi-1.us.uncletopia.com","port":27015,"enabled":true,"region":"us-central","cc":"us","latitude":41.881832,"longitude":-87.62318,"reserved":0,"last_update":"0001-01-01T00:00:00Z","name_a2s":"Uncletopia | Chicago | 1 | All Maps","protocol":17,"map":"koth_cascade","folder":"tf","game":"Team Fortress","app_id":440,"player_count":0,"max_players":24,"Bots":0,"server_type":"Dedicated","server_os":"Linux","password":true,"vac":true,"version":"7742253","steam_id":85568392924469984,"keywords":["cp","nocrits","nodmgspread","uncletopia"],"game_id":440,"stv_port":27016,"stv_name":"Uncletopia | Chicago | 1 | All Maps | STV","players":null},{"server_id":106,"name":"Uncletopia | Chicago | 2 | All Maps","name_short":"chi-2","host":"chi-1.us.uncletopia.com","port":27025,"enabled":true,"region":"us-central","cc":"us","latitude":41.881832,"longitude":-87.62318,"reserved":0,"last_update":"0001-01-01T00:00:00Z","name_a2s":"Uncletopia | Chicago | 2 | All Maps","protocol":17,"map":"cp_sunshine","folder":"tf","game":"Team Fortress","app_id":440,"player_count":0,"max_players":24,"Bots":0,"server_type":"Dedicated","server_os":"Linux","password":true,"vac":true,"version":"7742253","steam_id":85568392924469985,"keywords":["cp","nocrits","nodmgspread","uncletopia"],"game_id":440,"stv_port":27026,"stv_name":"Uncletopia | Chicago | 2 | All Maps | STV","players":null},{"server_id":402,"name":"Uncletopia | Chicago | 3 | All Maps","name_short":"chi-3","host":"chi-1.us.uncletopia.com","port":27035,"enabled":true,"region":"us-central","cc":"us","latitude":41.881832,"longitude":-87.62318,"reserved":0,"last_update":"0001-01-01T00:00:00Z","name_a2s":"Uncletopia | Chicago | 3 | All Maps","protocol":17,"map":"pl_barnblitz","folder":"tf","game":"Team Fortress","app_id":440,"player_count":24,"max_players":24,"Bots":0,"server_type":"Dedicated","server_os":"Linux","password":true,"vac":true,"version":"7742253","steam_id":85568392924515191,"keywords":["nocrits","nodmgspread","payload","uncletopia"],"game_id":440,"stv_port":27036,"stv_name":"Uncletopia | Chicago | 3 | All Maps | STV","players":[{"user_id":897,"name":"Mr. Sandman","steam_id":76561198065870487,"connected_time":1410000000000,"state":"active","ping":55},{"user_id":910,"name":"CheeseCake488","steam_id":76561199407617942,"connected_time":96000000000,"state":"active","ping":158},{"user_id":903,"name":"Twin","steam_id":76561198018511144,"connected_time":1243000000000,"state":"active","ping":86},{"user_id":904,"name":"SwankyStella","steam_id":76561198090565573,"connected_time":1228000000000,"state":"active","ping":57},{"user_id":898,"name":"kapootis","steam_id":76561198127468114,"connected_time":1404000000000,"state":"active","ping":89},{"user_id":872,"name":"keffers","steam_id":76561198202338796,"connected_time":3438000000000,"state":"active","ping":73},{"user_id":906,"name":"„ÄéHazon„Äè","steam_id":76561198119852107,"connected_time":240000000000,"state":"active","ping":95},{"user_id":876,"name":"botulism","steam_id":76561198141204302,"connected_time":3392000000000,"state":"active","ping":82},{"user_id":885,"name":"tbuoft","steam_id":76561198426655364,"connected_time":2763000000000,"state":"active","ping":90},{"user_id":895,"name":"skaj","steam_id":76561198082278586,"connected_time":1426000000000,"state":"active","ping":66},{"user_id":899,"name":"Rise for the National Spamton","steam_id":76561198138468982,"connected_time":1392000000000,"state":"active","ping":108},{"user_id":854,"name":"HollowMan","steam_id":76561198967266827,"connected_time":5205000000000,"state":"active","ping":78},{"user_id":888,"name":"Souper Scott","steam_id":76561198045518926,"connected_time":2649000000000,"state":"active","ping":58},{"user_id":900,"name":"Loblaws Digital","steam_id":76561198041017977,"connected_time":1385000000000,"state":"active","ping":71},{"user_id":845,"name":"Spoofle","steam_id":76561199003655066,"connected_time":5466000000000,"state":"active","ping":96},{"user_id":911,"name":"River Rat","steam_id":76561198116383976,"connected_time":92000000000,"state":"active","ping":109},{"user_id":878,"name":"dahperson","steam_id":76561198067207467,"connected_time":3333000000000,"state":"active","ping":49},{"user_id":901,"name":"SKIN IS WHERE THE FLAVOR IS","steam_id":76561198115842661,"connected_time":1385000000000,"state":"active","ping":67},{"user_id":902,"name":"Seal","steam_id":76561197970204043,"connected_time":1372000000000,"state":"active","ping":84},{"user_id":905,"name":"The Alfestive Nicholas","steam_id":76561198122243357,"connected_time":1221000000000,"state":"active","ping":76},{"user_id":893,"name":"Sailor Jupiter","steam_id":76561198125094648,"connected_time":1447000000000,"state":"active","ping":64},{"user_id":879,"name":"Someguy","steam_id":76561198097953930,"connected_time":3249000000000,"state":"active","ping":81},{"user_id":907,"name":"spoopy","steam_id":76561198281278725,"connected_time":239000000000,"state":"active","ping":59},{"user_id":881,"name":"*M* Strike Force Lightning","steam_id":76561198271519776,"connected_time":3170000000000,"state":"active","ping":72}]},{"server_id":403,"name":"Uncletopia | Chicago | 4 | All Maps","name_short":"chi-4","host":"chi-1.us.uncletopia.com","port":27045,"enabled":true,"region":"us-central","cc":"us","latitude":41.881832,"longitude":-87.62318,"reserved":0,"last_update":"0001-01-01T00:00:00Z","name_a2s":"Uncletopia | Chicago | 4 | All Maps","protocol":17,"map":"cp_mountainlab","folder":"tf","game":"Team Fortress","app_id":440,"player_count":0,"max_players":24,"Bots":0,"server_type":"Dedicated","server_os":"Linux","password":true,"vac":true,"version":"7742253","steam_id":85568392924515193,"keywords":["cp","nocrits","nodmgspread","uncletopia"],"game_id":440,"stv_port":27046,"stv_name":"Uncletopia | Chicago | 4 | All Maps | STV","players":null},{"server_id":36,"name":"Uncletopia | Chicago | 5 | All Maps","name_short":"chi-5","host":"chi-2.us.uncletopia.com","port":27015,"enabled":true,"region":"us-central","cc":"us","latitude":41.881832,"longitude":-87.62318,"reserved":0,"last_update":"0001-01-01T00:00:00Z","name_a2s":"Uncletopia | Chicago | 5 | All Maps","protocol":17,"map":"pl_upward","folder":"tf","game":"Team Fortress","app_id":440,"player_count":24,"max_players":24,"Bots":0,"server_type":"Dedicated","server_os":"Linux","password":true,"vac":true,"version":"7742253","steam_id":85568392924866362,"keywords":["nocrits","nodmgspread","payload","uncletopia"],"game_id":440,"stv_port":27016,"stv_name":"Uncletopia | Chicago | 5 | All Maps | STV","players":[{"user_id":894,"name":"John16Mark","steam_id":76561198119445407,"connected_time":2942000000000,"state":"active","ping":84},{"user_id":838,"name":"leeeeeeeeeeeeeeeeeeeeeeeeeee","steam_id":76561199083322731,"connected_time":6397000000000,"state":"active","ping":81},{"user_id":922,"name":"squid game","steam_id":76561199248960166,"connected_time":434000000000,"state":"active","ping":81},{"user_id":905,"name":"ATL1 | Lav4ie They/Them","steam_id":76561198825997674,"connected_time":1911000000000,"state":"active","ping":80},{"user_id":920,"name":"Bait","steam_id":76561198336489647,"connected_time":662000000000,"state":"active","ping":50},{"user_id":916,"name":"SuaveFrenchman","steam_id":76561198043762683,"connected_time":1403000000000,"state":"active","ping":90},{"user_id":833,"name":"Sequel","steam_id":76561199003380346,"connected_time":6749000000000,"state":"active","ping":62},{"user_id":908,"name":"Dot.","steam_id":76561198149463984,"connected_time":1803000000000,"state":"active","ping":68},{"user_id":784,"name":"DementiaGaming","steam_id":76561199195205705,"connected_time":10947000000000,"state":"active","ping":77},{"user_id":897,"name":"Malmart_Employee","steam_id":76561198320388704,"connected_time":2817000000000,"state":"active","ping":112},{"user_id":836,"name":"Huge","steam_id":76561199030987614,"connected_time":6642000000000,"state":"active","ping":78},{"user_id":850,"name":"Basil ‚òÜFestive Mode‚òÜ","steam_id":76561198062658149,"connected_time":6001000000000,"state":"active","ping":85},{"user_id":901,"name":"MasterGeek.MX","steam_id":76561198063355220,"connected_time":2504000000000,"state":"active","ping":97},{"user_id":902,"name":"noelle","steam_id":76561198842577534,"connected_time":2433000000000,"state":"active","ping":94},{"user_id":919,"name":"VulKaal","steam_id":76561198067882872,"connected_time":852000000000,"state":"active","ping":67},{"user_id":921,"name":"FSC Fat Captain","steam_id":76561198308073456,"connected_time":458000000000,"state":"active","ping":91},{"user_id":917,"name":"eryn üó∫","steam_id":76561198004433070,"connected_time":1207000000000,"state":"active","ping":75},{"user_id":852,"name":"Basil ‚òÜNumber 1 Fan‚òÜ","steam_id":76561198042157421,"connected_time":5944000000000,"state":"active","ping":67},{"user_id":924,"name":"Ta5K","steam_id":76561198939558155,"connected_time":299000000000,"state":"active","ping":45},{"user_id":910,"name":"beef potion :o3","steam_id":76561199121632136,"connected_time":1755000000000,"state":"active","ping":46},{"user_id":912,"name":"DrakeYorn","steam_id":76561198986353696,"connected_time":1727000000000,"state":"active","ping":66},{"user_id":925,"name":"Sir Iasis","steam_id":76561198035666760,"connected_time":174000000000,"state":"active","ping":58},{"user_id":914,"name":"Smuggs","steam_id":76561197999456003,"connected_time":1581000000000,"state":"active","ping":129},{"user_id":927,"name":"Funi","steam_id":76561198237603082,"connected_time":127000000000,"state":"active","ping":192}]},{"server_id":37,"name":"Uncletopia | Chicago | 6 | All Maps","name_short":"chi-6","host":"chi-2.us.uncletopia.com","port":27025,"enabled":true,"region":"us-central","cc":"us","latitude":41.881832,"longitude":-87.62318,"reserved":0,"last_update":"0001-01-01T00:00:00Z","name_a2s":"Uncletopia | Chicago | 6 | All Maps","protocol":17,"map":"pl_coal_event","folder":"tf","game":"Team Fortress","app_id":440,"player_count":0,"max_players":24,"Bots":0,"server_type":"Dedicated","server_os":"Linux","password":true,"vac":true,"version":"7742253","steam_id":85568392924866363,"keywords":["nocrits","nodmgspread","payload","uncletopia"],"game_id":440,"stv_port":27026,"stv_name":"Uncletopia | Chicago | 6 | All Maps | STV","players":null},{"server_id":38,"name":"Uncletopia | Chicago | 7 | Stopwatch Beta","name_short":"chi-7","host":"chi-2.us.uncletopia.com","port":27035,"enabled":true,"region":"us-central","cc":"us","latitude":41.881832,"longitude":-87.62318,"reserved":0,"last_update":"0001-01-01T00:00:00Z","name_a2s":"Uncletopia | Chicago | 7 | Stopwatch Beta","protocol":17,"map":"workshop/koth_product_final.ugc454272353","folder":"tf","game":"Team Fortress","app_id":440,"player_count":0,"max_players":24,"Bots":0,"server_type":"Dedicated","server_os":"Linux","password":true,"vac":true,"version":"7742253","steam_id":85568392924866364,"keywords":["cp","nocrits","nodmgspread","uncletopia"],"game_id":440,"stv_port":27036,"stv_name":"Uncletopia | Chicago | 7 | Stopwatch Beta | STV","players":null},{"server_id":39,"name":"Uncletopia | Chicago | 8 | Community","name_short":"chi-8","host":"chi-2.us.uncletopia.com","port":27045,"enabled":true,"region":"us-central","cc":"us","latitude":41.881832,"longitude":-87.62318,"reserved":0,"last_update":"0001-01-01T00:00:00Z","name_a2s":"Uncletopia | Chicago | 8 | Community","protocol":17,"map":"workshop/koth_ramjam_rc1.ugc459778887","folder":"tf","game":"Team Fortress","app_id":440,"player_count":0,"max_players":24,"Bots":0,"server_type":"Dedicated","server_os":"Linux","password":true,"vac":true,"version":"7742253","steam_id":85568392924866365,"keywords":["cp","nocrits","nodmgspread","uncletopia"],"game_id":440,"stv_port":27046,"stv_name":"Uncletopia | Chicago | 8 | Community | STV","players":null},{"server_id":8,"name":"Uncletopia | Dallas | 1 | All Maps","name_short":"dal-1","host":"dal-1.us.uncletopia.com","port":27015,"enabled":true,"region":"us-central","cc":"us","latitude":32.779167,"longitude":-96.80889,"reserved":0,"last_update":"0001-01-01T00:00:00Z","name_a2s":"Uncletopia | Dallas | 1 | All Maps","protocol":17,"map":"pl_borneo","folder":"tf","game":"Team Fortress","app_id":440,"player_count":24,"max_players":24,"Bots":0,"server_type":"Dedicated","server_os":"Linux","password":true,"vac":true,"version":"7742253","steam_id":85568392924469986,"keywords":["nocrits","nodmgspread","payload","uncletopia"],"game_id":440,"stv_port":27016,"stv_name":"Uncletopia | Dallas | 1 | All Maps | STV","players":[{"user_id":701,"name":"Jarryl97","steam_id":76561198055451373,"connected_time":2003000000000,"state":"active","ping":61},{"user_id":682,"name":"flexer_2000","steam_id":76561198084422657,"connected_time":3865000000000,"state":"active","ping":75},{"user_id":714,"name":"StarB","steam_id":76561198149605368,"connected_time":600000000000,"state":"active","ping":82},{"user_id":702,"name":"ZeR01206","steam_id":76561198980510227,"connected_time":1985000000000,"state":"active","ping":88},{"user_id":654,"name":"Can You Feel It Mr.Krabs","steam_id":76561198128302414,"connected_time":6361000000000,"state":"active","ping":67},{"user_id":677,"name":"man who has eaten concrete","steam_id":76561198856903497,"connected_time":4413000000000,"state":"active","ping":128},{"user_id":648,"name":"HumFreY","steam_id":76561198076639682,"connected_time":6694000000000,"state":"active","ping":101},{"user_id":711,"name":"Atomic Waffles","steam_id":76561197970935570,"connected_time":717000000000,"state":"active","ping":92},{"user_id":712,"name":"Mr. Bixby","steam_id":76561198868839264,"connected_time":649000000000,"state":"active","ping":46},{"user_id":703,"name":"\u003c blank \u003e","steam_id":76561198061448188,"connected_time":1972000000000,"state":"active","ping":96},{"user_id":706,"name":"MontellWilliams","steam_id":76561198172143015,"connected_time":1244000000000,"state":"active","ping":94},{"user_id":673,"name":"deech","steam_id":76561198066429444,"connected_time":4443000000000,"state":"active","ping":85},{"user_id":716,"name":"Hanky","steam_id":76561199042672335,"connected_time":302000000000,"state":"active","ping":68},{"user_id":705,"name":"Professor Peppermint","steam_id":76561198184017082,"connected_time":1628000000000,"state":"active","ping":60},{"user_id":675,"name":"polarize","steam_id":76561198039686606,"connected_time":4434000000000,"state":"active","ping":92},{"user_id":578,"name":"Dr. Pepper+","steam_id":76561198044362988,"connected_time":13809000000000,"state":"active","ping":74},{"user_id":561,"name":"chips","steam_id":76561198046650995,"connected_time":16070000000000,"state":"active","ping":53},{"user_id":700,"name":"Bucky Brown","steam_id":76561198163561871,"connected_time":2039000000000,"state":"active","ping":83},{"user_id":718,"name":"KillerHatDude","steam_id":76561198088322912,"connected_time":67000000000,"state":"active","ping":83},{"user_id":698,"name":"Magitrex","steam_id":76561199088811754,"connected_time":2340000000000,"state":"active","ping":55},{"user_id":691,"name":"{King}.Muffin(Tettk)","steam_id":76561198039646364,"connected_time":3181000000000,"state":"active","ping":101},{"user_id":684,"name":"BNewAce","steam_id":76561198846845737,"connected_time":3719000000000,"state":"active","ping":73},{"user_id":715,"name":"i ate atomic bomb","steam_id":76561198150406851,"connected_time":510000000000,"state":"active","ping":95},{"user_id":694,"name":"‚ù§Graphite Muncher‚ù§","steam_id":76561199200969139,"connected_time":2642000000000,"state":"active","ping":112}]},{"server_id":108,"name":"Uncletopia | Dallas | 2 | All Maps","name_short":"dal-2","host":"dal-1.us.uncletopia.com","port":27025,"enabled":true,"region":"us-central","cc":"us","latitude":32.779167,"longitude":-96.80889,"reserved":0,"last_update":"0001-01-01T00:00:00Z","name_a2s":"Uncletopia | Dallas | 2 | All Maps","protocol":17,"map":"pl_barnblitz","folder":"tf","game":"Team Fortress","app_id":440,"player_count":17,"max_players":24,"Bots":0,"server_type":"Dedicated","server_os":"Linux","password":true,"vac":true,"version":"7742253","steam_id":85568392924469988,"keywords":["nocrits","nodmgspread","payload","uncletopia"],"game_id":440,"stv_port":27026,"stv_name":"Uncletopia | Dallas | 2 | All Maps | STV","players":[{"user_id":551,"name":"Quantum Sauce","steam_id":76561198164034337,"connected_time":1697000000000,"state":"active","ping":53},{"user_id":568,"name":"Mr. Cock Sucker","steam_id":76561199403229056,"connected_time":827000000000,"state":"active","ping":228},{"user_id":572,"name":"dingus","steam_id":76561198190077399,"connected_time":489000000000,"state":"active","ping":75},{"user_id":573,"name":"trill. ‚ú∞","steam_id":76561198228182780,"connected_time":488000000000,"state":"active","ping":61},{"user_id":560,"name":"Jones","steam_id":76561198046037216,"connected_time":1280000000000,"state":"active","ping":128},{"user_id":569,"name":"Matches_                       ","steam_id":76561198048925904,"connected_time":797000000000,"state":"active","ping":88},{"user_id":566,"name":"DeckofDragons","steam_id":76561198057398213,"connected_time":891000000000,"state":"active","ping":57},{"user_id":571,"name":"beees?","steam_id":76561198024549500,"connected_time":650000000000,"state":"active","ping":109},{"user_id":531,"name":"Mecha_Void","steam_id":76561198209310121,"connected_time":2745000000000,"state":"active","ping":53},{"user_id":574,"name":"blehz","steam_id":76561198048429098,"connected_time":442000000000,"state":"active","ping":100},{"user_id":562,"name":"üê∫-Iwky-ü¶ä","steam_id":76561198185616311,"connected_time":1230000000000,"state":"active","ping":76},{"user_id":577,"name":"Chevapchichi","steam_id":76561199217371802,"connected_time":209000000000,"state":"active","ping":180},{"user_id":581,"name":"selvhat","steam_id":76561198114225509,"connected_time":67000000000,"state":"active","ping":76},{"user_id":579,"name":"Vinyl","steam_id":76561198264777865,"connected_time":141000000000,"state":"active","ping":99},{"user_id":580,"name":"Carnamate","steam_id":76561198138077990,"connected_time":140000000000,"state":"active","ping":58},{"user_id":582,"name":"Room","steam_id":76561199174579733,"connected_time":54000000000,"state":"spawning","ping":263},{"user_id":583,"name":"Owixan","steam_id":76561198074990070,"connected_time":25000000000,"state":"active","ping":194}]},{"server_id":5,"name":"Uncletopia | Frankfurt | 1 | All Maps","name_short":"frk-1","host":"frk-1.de.uncletopia.com","port":27015,"enabled":true,"region":"eu","cc":"de","latitude":50.110924,"longitude":8.682127,"reserved":0,"last_update":"0001-01-01T00:00:00Z","name_a2s":"Uncletopia | Frankfurt | 1 | All Maps","protocol":17,"map":"pl_badwater","folder":"tf","game":"Team Fortress","app_id":440,"player_count":10,"max_players":24,"Bots":0,"server_type":"Dedicated","server_os":"Linux","password":true,"vac":true,"version":"7742253","steam_id":85568392924469989,"keywords":["nocrits","nodmgspread","payload","uncletopia"],"game_id":440,"stv_port":27016,"stv_name":"Uncletopia | Frankfurt | 1 | All Maps | STV","players":[{"user_id":5,"name":"olddays","steam_id":76561198045889293,"connected_time":2308000000000,"state":"active","ping":96},{"user_id":6,"name":"ItachiBar","steam_id":76561198074188432,"connected_time":2060000000000,"state":"active","ping":71},{"user_id":17,"name":"Marioalexsan","steam_id":76561198125512367,"connected_time":314000000000,"state":"active","ping":70},{"user_id":8,"name":"Jofest1","steam_id":76561198013789719,"connected_time":1149000000000,"state":"active","ping":90},{"user_id":11,"name":"Carlgaming8","steam_id":76561199162576558,"connected_time":759000000000,"state":"active","ping":68},{"user_id":18,"name":"JGV","steam_id":76561198094654971,"connected_time":182000000000,"state":"active","ping":58},{"user_id":13,"name":"jonbob","steam_id":76561197963506620,"connected_time":682000000000,"state":"active","ping":55},{"user_id":19,"name":"xe_op","steam_id":76561199465718377,"connected_time":133000000000,"state":"active","ping":57},{"user_id":20,"name":"Jericho","steam_id":76561198444623072,"connected_time":121000000000,"state":"active","ping":75},{"user_id":21,"name":"Timidus Nix","steam_id":76561198105341037,"connected_time":24000000000,"state":"active","ping":63}]},{"server_id":110,"name":"Uncletopia | Frankfurt | 2 | All Maps","name_short":"frk-2","host":"frk-1.de.uncletopia.com","port":27025,"enabled":true,"region":"eu","cc":"de","latitude":50.110924,"longitude":8.682127,"reserved":0,"last_update":"0001-01-01T00:00:00Z","name_a2s":"Uncletopia | Frankfurt | 2 | All Maps","protocol":17,"map":"pl_swiftwater_final1","folder":"tf","game":"Team Fortress","app_id":440,"player_count":0,"max_players":24,"Bots":0,"server_type":"Dedicated","server_os":"Linux","password":true,"vac":true,"version":"7742253","steam_id":85568392924469990,"keywords":["nocrits","nodmgspread","payload","uncletopia"],"game_id":440,"stv_port":27026,"stv_name":"Uncletopia | Frankfurt | 2 | All Maps | STV","players":null},{"server_id":308,"name":"Uncletopia | Frankfurt | 3 | All Maps","name_short":"frk-3","host":"frk-1.de.uncletopia.com","port":27035,"enabled":true,"region":"eu","cc":"de","latitude":50.110924,"longitude":8.682127,"reserved":0,"last_update":"0001-01-01T00:00:00Z","name_a2s":"Uncletopia | Frankfurt | 3 | All Maps","protocol":17,"map":"koth_lakeside_final","folder":"tf","game":"Team Fortress","app_id":440,"player_count":0,"max_players":24,"Bots":0,"server_type":"Dedicated","server_os":"Linux","password":true,"vac":true,"version":"7742253","steam_id":85568392924504274,"keywords":["cp","nocrits","nodmgspread","uncletopia"],"game_id":440,"stv_port":27036,"stv_name":"Uncletopia | Frankfurt | 3 | All Maps | STV","players":null},{"server_id":309,"name":"Uncletopia | Frankfurt | 4 | All Maps","name_short":"frk-4","host":"frk-1.de.uncletopia.com","port":27045,"enabled":true,"region":"eu","cc":"de","latitude":50.110924,"longitude":8.682127,"reserved":0,"last_update":"0001-01-01T00:00:00Z","name_a2s":"Uncletopia | Frankfurt | 4 | All Maps","protocol":17,"map":"cp_sunshine","folder":"tf","game":"Team Fortress","app_id":440,"player_count":0,"max_players":24,"Bots":0,"server_type":"Dedicated","server_os":"Linux","password":true,"vac":true,"version":"7742253","steam_id":85568392924504275,"keywords":["cp","nocrits","nodmgspread","uncletopia"],"game_id":440,"stv_port":27046,"stv_name":"Uncletopia | Frankfurt | 4 | All Maps | STV","players":null},{"server_id":310,"name":"Uncletopia | Frankfurt | 5 | All Maps","name_short":"frk-5","host":"frk-1.de.uncletopia.com","port":27055,"enabled":true,"region":"eu","cc":"de","latitude":50.110924,"longitude":8.682127,"reserved":0,"last_update":"0001-01-01T00:00:00Z","name_a2s":"Uncletopia | Frankfurt | 5 | All Maps","protocol":17,"map":"cp_snakewater_final1","folder":"tf","game":"Team Fortress","app_id":440,"player_count":0,"max_players":24,"Bots":0,"server_type":"Dedicated","server_os":"Linux","password":true,"vac":true,"version":"7742253","steam_id":85568392924504277,"keywords":["cp","nocrits","nodmgspread","uncletopia"],"game_id":440,"stv_port":27056,"stv_name":"Uncletopia | Frankfurt | 5 | All Maps | STV","players":null},{"server_id":311,"name":"Uncletopia | Frankfurt | 6 | All Maps","name_short":"frk-6","host":"frk-1.de.uncletopia.com","port":27065,"enabled":true,"region":"eu","cc":"de","latitude":50.110924,"longitude":8.682127,"reserved":0,"last_update":"0001-01-01T00:00:00Z","name_a2s":"Uncletopia | Frankfurt | 6 | All Maps","protocol":17,"map":"koth_lakeside_final","folder":"tf","game":"Team Fortress","app_id":440,"player_count":0,"max_players":24,"Bots":0,"server_type":"Dedicated","server_os":"Linux","password":true,"vac":true,"version":"7742253","steam_id":85568392924504278,"keywords":["cp","nocrits","nodmgspread","uncletopia"],"game_id":440,"stv_port":27066,"stv_name":"Uncletopia | Frankfurt | 6 | All Maps | STV","players":null},{"server_id":23,"name":"Uncletopia | Frankfurt | 7 | Stopwatch Beta","name_short":"frk-7","host":"frk-1.de.uncletopia.com","port":27075,"enabled":true,"region":"eu","cc":"de","latitude":50.110924,"longitude":8.682127,"reserved":0,"last_update":"0001-01-01T00:00:00Z","name_a2s":"Uncletopia | Frankfurt | 7 | Stopwatch Beta","protocol":17,"map":"pl_badwater","folder":"tf","game":"Team Fortress","app_id":440,"player_count":0,"max_players":24,"Bots":0,"server_type":"Dedicated","server_os":"Linux","password":true,"vac":true,"version":"7742253","steam_id":85568392924742827,"keywords":["nocrits","nodmgspread","payload","uncletopia"],"game_id":440,"stv_port":27076,"stv_name":"Uncletopia | Frankfurt | 7 | Stopwatch Beta | STV","players":null},{"server_id":24,"name":"Uncletopia | Frankfurt | 8 | Community","name_short":"frk-8","host":"frk-1.de.uncletopia.com","port":27085,"enabled":true,"region":"eu","cc":"de","latitude":50.110924,"longitude":8.682127,"reserved":0,"last_update":"0001-01-01T00:00:00Z","name_a2s":"Uncletopia | Frankfurt | 8 | Community","protocol":17,"map":"koth_cascade","folder":"tf","game":"Team Fortress","app_id":440,"player_count":0,"max_players":24,"Bots":0,"server_type":"Dedicated","server_os":"Linux","password":true,"vac":true,"version":"7742253","steam_id":85568392924742828,"keywords":["cp","nocrits","nodmgspread","uncletopia"],"game_id":440,"stv_port":27086,"stv_name":"Uncletopia | Frankfurt | 8 | Community | STV","players":null},{"server_id":202,"name":"Uncletopia | Hong Kong | 1 | All Maps","name_short":"hgk-1","host":"hgk-1.hk.uncletopia.com","port":27015,"enabled":true,"region":"asia","cc":"hk","latitude":22.302711,"longitude":114.177216,"reserved":0,"last_update":"0001-01-01T00:00:00Z","name_a2s":"Uncletopia | Hong Kong | 1 | All Maps","protocol":17,"map":"pl_borneo","folder":"tf","game":"Team Fortress","app_id":440,"player_count":24,"max_players":24,"Bots":0,"server_type":"Dedicated","server_os":"Linux","password":true,"vac":true,"version":"7742253","steam_id":85568392924494504,"keywords":["nocrits","nodmgspread","payload","uncletopia"],"game_id":440,"stv_port":27016,"stv_name":"Uncletopia | Hong Kong | 1 | All Maps | STV","players":[{"user_id":368,"name":"screaming sniper","steam_id":76561199085568674,"connected_time":4067000000000,"state":"active","ping":57},{"user_id":519,"name":"DELL TOUCHPAD","steam_id":76561198397726720,"connected_time":1134000000000,"state":"active","ping":98},{"user_id":448,"name":"Smarks123","steam_id":76561198132170503,"connected_time":2300000000000,"state":"active","ping":127},{"user_id":520,"name":"alphakennybuddy","steam_id":76561199219625644,"connected_time":1030000000000,"state":"active","ping":105},{"user_id":342,"name":"ÁÖôÊµ∑ | Enkai","steam_id":76561198050460825,"connected_time":4616000000000,"state":"active","ping":77},{"user_id":145,"name":"pardo","steam_id":76561198230213828,"connected_time":12319000000000,"state":"active","ping":66},{"user_id":443,"name":"uptriste","steam_id":76561198158666692,"connected_time":2319000000000,"state":"active","ping":45},{"user_id":521,"name":"Cloud","steam_id":76561198272454184,"connected_time":983000000000,"state":"active","ping":89},{"user_id":527,"name":"Owmyn","steam_id":76561199239651098,"connected_time":850000000000,"state":"active","ping":105},{"user_id":522,"name":"VaporeonSimp69","steam_id":76561198823521095,"connected_time":962000000000,"state":"active","ping":46},{"user_id":414,"name":"Tyxant","steam_id":76561198091066056,"connected_time":2967000000000,"state":"active","ping":95},{"user_id":532,"name":"Urotsuki","steam_id":76561198074339034,"connected_time":359000000000,"state":"active","ping":74},{"user_id":288,"name":"Noyour","steam_id":76561198323259830,"connected_time":5805000000000,"state":"active","ping":120},{"user_id":316,"name":"TomProPlayer","steam_id":76561199223292521,"connected_time":5200000000000,"state":"active","ping":70},{"user_id":344,"name":"C√° Th√°ng 4","steam_id":76561198047162026,"connected_time":4605000000000,"state":"active","ping":75},{"user_id":523,"name":"Freeze tag","steam_id":76561198300383067,"connected_time":954000000000,"state":"active","ping":68},{"user_id":534,"name":"the entire population of lagos","steam_id":76561198292632824,"connected_time":65000000000,"state":"active","ping":41},{"user_id":530,"name":"East","steam_id":76561198857299051,"connected_time":686000000000,"state":"active","ping":80},{"user_id":531,"name":"renren","steam_id":76561199373304636,"connected_time":523000000000,"state":"active","ping":99},{"user_id":518,"name":"kyaru","steam_id":76561198811789790,"connected_time":1169000000000,"state":"active","ping":68},{"user_id":526,"name":"tick tock by joji","steam_id":76561198360192254,"connected_time":879000000000,"state":"active","ping":64},{"user_id":452,"name":"Shades on Goggles","steam_id":76561198406067629,"connected_time":2286000000000,"state":"active","ping":60},{"user_id":451,"name":"CoatedInFire","steam_id":76561199070760845,"connected_time":2291000000000,"state":"active","ping":135},{"user_id":454,"name":"Krayken","steam_id":76561197997933283,"connected_time":2276000000000,"state":"active","ping":135}]},{"server_id":1,"name":"Uncletopia | Los Angeles | 1 | All Maps","name_short":"lax-1","host":"lax-1.us.uncletopia.com","port":27015,"enabled":true,"region":"us-west","cc":"us","latitude":33.94279,"longitude":-118.41004,"reserved":0,"last_update":"0001-01-01T00:00:00Z","name_a2s":"Uncletopia | Los Angeles | 1 | All Maps","protocol":17,"map":"pl_barnblitz","folder":"tf","game":"Team Fortress","app_id":440,"player_count":0,"max_players":24,"Bots":0,"server_type":"Dedicated","server_os":"Linux","password":true,"vac":true,"version":"7742253","steam_id":85568392924469991,"keywords":["nocrits","nodmgspread","payload","uncletopia"],"game_id":440,"stv_port":27016,"stv_name":"Uncletopia | Los Angeles | 1 | All Maps | STV","players":null},{"server_id":112,"name":"Uncletopia | Los Angeles | 2 | All Maps","name_short":"lax-2","host":"lax-1.us.uncletopia.com","port":27025,"enabled":true,"region":"us-west","cc":"us","latitude":33.94279,"longitude":-118.41004,"reserved":0,"last_update":"0001-01-01T00:00:00Z","name_a2s":"Uncletopia | Los Angeles | 2 | All Maps","protocol":17,"map":"koth_lakeside_final","folder":"tf","game":"Team Fortress","app_id":440,"player_count":0,"max_players":24,"Bots":0,"server_type":"Dedicated","server_os":"Linux","password":true,"vac":true,"version":"7742253","steam_id":85568392924469992,"keywords":["cp","nocrits","nodmgspread","uncletopia"],"game_id":440,"stv_port":27026,"stv_name":"Uncletopia | Los Angeles | 2 | All Maps | STV","players":null},{"server_id":324,"name":"Uncletopia | Los Angeles | 3 | All Maps","name_short":"lax-3","host":"lax-1.us.uncletopia.com","port":27035,"enabled":true,"region":"us-west","cc":"us","latitude":33.94279,"longitude":-118.41004,"reserved":0,"last_update":"0001-01-01T00:00:00Z","name_a2s":"Uncletopia | Los Angeles | 3 | All Maps","protocol":17,"map":"cp_process_final","folder":"tf","game":"Team Fortress","app_id":440,"player_count":0,"max_players":24,"Bots":0,"server_type":"Dedicated","server_os":"Linux","password":true,"vac":true,"version":"7742253","steam_id":85568392924510198,"keywords":["cp","nocrits","nodmgspread","uncletopia"],"game_id":440,"stv_port":27036,"stv_name":"Uncletopia | Los Angeles | 3 | All Maps | STV","players":null},{"server_id":25,"name":"Uncletopia | Los Angeles | 4 | Stopwatch Beta","name_short":"lax-4","host":"lax-1.us.uncletopia.com","port":27045,"enabled":true,"region":"us-west","cc":"us","latitude":33.94279,"longitude":-118.41004,"reserved":0,"last_update":"0001-01-01T00:00:00Z","name_a2s":"Uncletopia | Los Angeles | 4 | Stopwatch Beta","protocol":17,"map":"pl_borneo","folder":"tf","game":"Team Fortress","app_id":440,"player_count":0,"max_players":24,"Bots":0,"server_type":"Dedicated","server_os":"Linux","password":true,"vac":true,"version":"7742253","steam_id":85568392924510199,"keywords":["nocrits","nodmgspread","payload","uncletopia"],"game_id":440,"stv_port":27046,"stv_name":"Uncletopia | Los Angeles | 4 | Stopwatch Beta | STV","players":null},{"server_id":11,"name":"Uncletopia | London | 1 | All Maps","name_short":"lon-1","host":"lon-1.uk.uncletopia.com","port":27015,"enabled":true,"region":"eu","cc":"gb","latitude":51.509865,"longitude":-0.118092,"reserved":0,"last_update":"0001-01-01T00:00:00Z","name_a2s":"Uncletopia | London | 1 | All Maps","protocol":17,"map":"plr_hightower","folder":"tf","game":"Team Fortress","app_id":440,"player_count":24,"max_players":24,"Bots":0,"server_type":"Dedicated","server_os":"Linux","password":true,"vac":true,"version":"7742253","steam_id":85568392924367362,"keywords":["nocrits","nodmgspread","payload","uncletopia"],"game_id":440,"stv_port":27016,"stv_name":"Uncletopia | London | 1 | All Maps | STV","players":[{"user_id":85,"name":"Chucky","steam_id":76561198891579362,"connected_time":3050000000000,"state":"active","ping":60},{"user_id":78,"name":"Zurwa","steam_id":76561198046043713,"connected_time":3536000000000,"state":"active","ping":53},{"user_id":5,"name":"Aras","steam_id":76561198160394046,"connected_time":8179000000000,"state":"active","ping":115},{"user_id":107,"name":"Summers","steam_id":76561199161028679,"connected_time":882000000000,"state":"active","ping":72},{"user_id":82,"name":"Spukky","steam_id":76561198133649308,"connected_time":3139000000000,"state":"active","ping":55},{"user_id":108,"name":"Clamor_","steam_id":76561198104368295,"connected_time":460000000000,"state":"active","ping":91},{"user_id":97,"name":"spxcy","steam_id":76561198080296853,"connected_time":2265000000000,"state":"active","ping":114},{"user_id":84,"name":"catboy trickster","steam_id":76561198075665211,"connected_time":3054000000000,"state":"active","ping":47},{"user_id":113,"name":"Mega Saturn","steam_id":76561198024750500,"connected_time":84000000000,"state":"active","ping":84},{"user_id":86,"name":"zen","steam_id":76561198160747675,"connected_time":3047000000000,"state":"active","ping":94},{"user_id":72,"name":"The Masterplan","steam_id":76561198158631465,"connected_time":4603000000000,"state":"active","ping":75},{"user_id":101,"name":"E-why","steam_id":76561198063270899,"connected_time":1811000000000,"state":"active","ping":44},{"user_id":106,"name":"PeePee PooPoo","steam_id":76561198305920952,"connected_time":1072000000000,"state":"active","ping":63},{"user_id":19,"name":"Mundane","steam_id":76561198312888496,"connected_time":7821000000000,"state":"active","ping":42},{"user_id":100,"name":"autistic luigi","steam_id":76561199218285040,"connected_time":1967000000000,"state":"active","ping":73},{"user_id":95,"name":"SubDragon","steam_id":76561199074530966,"connected_time":2644000000000,"state":"active","ping":126},{"user_id":58,"name":"shuttercrow","steam_id":76561198176855245,"connected_time":5822000000000,"state":"active","ping":65},{"user_id":88,"name":"kackboon","steam_id":76561198044189114,"connected_time":2997000000000,"state":"active","ping":68},{"user_id":89,"name":"ugly","steam_id":76561199050412617,"connected_time":2909000000000,"state":"active","ping":115},{"user_id":75,"name":"Accident","steam_id":76561198115160396,"connected_time":4180000000000,"state":"active","ping":73},{"user_id":92,"name":"Melon","steam_id":76561198150893860,"connected_time":2822000000000,"state":"active","ping":87},{"user_id":109,"name":"Dieu-Sama","steam_id":76561198002075862,"connected_time":237000000000,"state":"active","ping":64},{"user_id":96,"name":"grig_83","steam_id":76561198963325441,"connected_time":2560000000000,"state":"active","ping":121},{"user_id":112,"name":"unnamed","steam_id":76561199039394252,"connected_time":197000000000,"state":"active","ping":226}]},{"server_id":114,"name":"Uncletopia | London | 2 | All Maps","name_short":"lon-2","host":"lon-1.uk.uncletopia.com","port":27025,"enabled":true,"region":"eu","cc":"gb","latitude":51.509865,"longitude":-0.118092,"reserved":0,"last_update":"0001-01-01T00:00:00Z","name_a2s":"Uncletopia | London | 2 | All Maps","protocol":17,"map":"pl_snowycoast","folder":"tf","game":"Team Fortress","app_id":440,"player_count":24,"max_players":24,"Bots":0,"server_type":"Dedicated","server_os":"Linux","password":true,"vac":true,"version":"7742253","steam_id":85568392924470941,"keywords":["nocrits","nodmgspread","payload","uncletopia"],"game_id":440,"stv_port":27026,"stv_name":"Uncletopia | London | 2 | All Maps | STV","players":[{"user_id":32,"name":"Kodutah","steam_id":76561198203405574,"connected_time":3263000000000,"state":"active","ping":80},{"user_id":33,"name":"twitch.tv/aSpectVEVO","steam_id":76561198237799694,"connected_time":3259000000000,"state":"active","ping":81},{"user_id":71,"name":"waddle dork","steam_id":76561198297349985,"connected_time":840000000000,"state":"active","ping":60},{"user_id":61,"name":"SLoW","steam_id":76561198032650972,"connected_time":1361000000000,"state":"active","ping":105},{"user_id":58,"name":"Milk","steam_id":76561198125876588,"connected_time":1580000000000,"state":"active","ping":41},{"user_id":20,"name":"Lebri","steam_id":76561199017535766,"connected_time":4198000000000,"state":"active","ping":80},{"user_id":11,"name":"Homicidal Tendencies","steam_id":76561198828681043,"connected_time":5226000000000,"state":"active","ping":41},{"user_id":35,"name":"ChaserFogFi","steam_id":76561199119836596,"connected_time":3239000000000,"state":"active","ping":53},{"user_id":64,"name":"hichem","steam_id":76561198056197307,"connected_time":1144000000000,"state":"active","ping":53},{"user_id":23,"name":"ASS?!?!?!?!?","steam_id":76561199159262388,"connected_time":3824000000000,"state":"active","ping":99},{"user_id":36,"name":"RoffaUwU","steam_id":76561198235774954,"connected_time":3230000000000,"state":"active","ping":100},{"user_id":25,"name":"femboy gaming","steam_id":76561198199789938,"connected_time":3718000000000,"state":"active","ping":45},{"user_id":69,"name":"Mogens Lightyear","steam_id":76561198024703004,"connected_time":951000000000,"state":"active","ping":77},{"user_id":59,"name":"abigail","steam_id":76561198132932617,"connected_time":1580000000000,"state":"active","ping":75},{"user_id":37,"name":"Swag Messiah","steam_id":76561198334294330,"connected_time":3229000000000,"state":"active","ping":65},{"user_id":62,"name":"Komodo","steam_id":76561198103018845,"connected_time":1347000000000,"state":"active","ping":56},{"user_id":40,"name":"Icy ‚ùÖ","steam_id":76561198256787196,"connected_time":3179000000000,"state":"active","ping":88},{"user_id":63,"name":"HudRud","steam_id":76561198048378956,"connected_time":1336000000000,"state":"active","ping":90},{"user_id":65,"name":"Mortuus","steam_id":76561198040743288,"connected_time":1123000000000,"state":"active","ping":75},{"user_id":72,"name":"quadratura do c√≠rculo","steam_id":76561198063512694,"connected_time":388000000000,"state":"active","ping":53},{"user_id":51,"name":"Pingutaro","steam_id":76561198112803718,"connected_time":2549000000000,"state":"active","ping":60},{"user_id":48,"name":"pl4te","steam_id":76561199225397974,"connected_time":2701000000000,"state":"active","ping":160},{"user_id":70,"name":"traplover313","steam_id":76561198153611464,"connected_time":941000000000,"state":"active","ping":64},{"user_id":52,"name":"bowi","steam_id":76561198973389048,"connected_time":2122000000000,"state":"active","ping":69}]},{"server_id":320,"name":"Uncletopia | London | 3 | All Maps","name_short":"lon-3","host":"lon-1.uk.uncletopia.com","port":27035,"enabled":true,"region":"eu","cc":"gb","latitude":51.509865,"longitude":-0.118092,"reserved":0,"last_update":"0001-01-01T00:00:00Z","name_a2s":"Uncletopia | London | 3 | All Maps","protocol":17,"map":"pl_upward","folder":"tf","game":"Team Fortress","app_id":440,"player_count":0,"max_players":24,"Bots":0,"server_type":"Dedicated","server_os":"Linux","password":true,"vac":true,"version":"7742253","steam_id":85568392924510192,"keywords":["nocrits","nodmgspread","payload","uncletopia"],"game_id":440,"stv_port":27036,"stv_name":"Uncletopia | London | 3 | All Maps | STV","players":null},{"server_id":321,"name":"Uncletopia | London | 4 | All Maps","name_short":"lon-4","host":"lon-1.uk.uncletopia.com","port":27045,"enabled":true,"region":"eu","cc":"gb","latitude":51.509865,"longitude":-0.118092,"reserved":0,"last_update":"0001-01-01T00:00:00Z","name_a2s":"Uncletopia | London | 4 | All Maps","protocol":17,"map":"koth_highpass","folder":"tf","game":"Team Fortress","app_id":440,"player_count":0,"max_players":24,"Bots":0,"server_type":"Dedicated","server_os":"Linux","password":true,"vac":true,"version":"7742253","steam_id":85568392924510193,"keywords":["cp","nocrits","nodmgspread","uncletopia"],"game_id":440,"stv_port":27046,"stv_name":"Uncletopia | London | 4 | All Maps | STV","players":null},{"server_id":21,"name":"Uncletopia | London | 5 | All Maps","name_short":"lon-5","host":"lon-1.uk.uncletopia.com","port":27055,"enabled":true,"region":"eu","cc":"gb","latitude":51.509865,"longitude":-0.118092,"reserved":0,"last_update":"0001-01-01T00:00:00Z","name_a2s":"Uncletopia | London | 5 | All Maps","protocol":17,"map":"pl_frontier_final","folder":"tf","game":"Team Fortress","app_id":440,"player_count":0,"max_players":24,"Bots":0,"server_type":"Dedicated","server_os":"Linux","password":true,"vac":true,"version":"7742253","steam_id":85568392924742829,"keywords":["nocrits","nodmgspread","payload","uncletopia"],"game_id":440,"stv_port":27056,"stv_name":"Uncletopia | London | 5 | All Maps | STV","players":null},{"server_id":22,"name":"Uncletopia | London | 6 | All Maps","name_short":"lon-6","host":"lon-1.uk.uncletopia.com","port":27065,"enabled":true,"region":"eu","cc":"gb","latitude":51.509865,"longitude":-0.118092,"reserved":0,"last_update":"0001-01-01T00:00:00Z","name_a2s":"Uncletopia | London | 6 | All Maps","protocol":17,"map":"pl_borneo","folder":"tf","game":"Team Fortress","app_id":440,"player_count":0,"max_players":24,"Bots":0,"server_type":"Dedicated","server_os":"Linux","password":true,"vac":true,"version":"7742253","steam_id":85568392924742830,"keywords":["nocrits","nodmgspread","payload","uncletopia"],"game_id":440,"stv_port":27066,"stv_name":"Uncletopia | London | 6 | All Maps | STV","players":null},{"server_id":40,"name":"Uncletopia | London | 7 | No Payload","name_short":"lon-7","host":"lon-1.uk.uncletopia.com","port":27075,"enabled":true,"region":"eu","cc":"gb","latitude":51.509865,"longitude":-0.118092,"reserved":0,"last_update":"0001-01-01T00:00:00Z","name_a2s":"Uncletopia | London | 7 | No Payload","protocol":17,"map":"koth_viaduct","folder":"tf","game":"Team Fortress","app_id":440,"player_count":0,"max_players":24,"Bots":0,"server_type":"Dedicated","server_os":"Linux","password":true,"vac":true,"version":"7742253","steam_id":85568392924964314,"keywords":["cp","nocrits","nodmgspread","uncletopia"],"game_id":440,"stv_port":27076,"stv_name":"Uncletopia | London | 7 | No Payload | STV","players":null},{"server_id":41,"name":"Uncletopia | London | 8 | Community","name_short":"lon-8","host":"lon-1.uk.uncletopia.com","port":27085,"enabled":true,"region":"eu","cc":"gb","latitude":51.509865,"longitude":-0.118092,"reserved":0,"last_update":"0001-01-01T00:00:00Z","name_a2s":"Uncletopia | London | 8 | Community","protocol":17,"map":"cp_altitude","folder":"tf","game":"Team Fortress","app_id":440,"player_count":0,"max_players":24,"Bots":0,"server_type":"Dedicated","server_os":"Linux","password":true,"vac":true,"version":"7742253","steam_id":85568392924964315,"keywords":["cp","nocrits","nodmgspread","uncletopia"],"game_id":440,"stv_port":27086,"stv_name":"Uncletopia | London | 8 | Community | STV","players":null},{"server_id":300,"name":"Uncletopia | Montr√©al | 1 | All Maps","name_short":"mtl-1","host":"mtl-1.ca.uncletopia.com","port":27015,"enabled":true,"region":"us-east","cc":"ca","latitude":45.50889,"longitude":-73.56167,"reserved":0,"last_update":"0001-01-01T00:00:00Z","name_a2s":"Uncletopia | Montr√©al | 1 | All Maps","protocol":17,"map":"koth_highpass","folder":"tf","game":"Team Fortress","app_id":440,"player_count":3,"max_players":24,"Bots":0,"server_type":"Dedicated","server_os":"Linux","password":true,"vac":true,"version":"7742253","steam_id":85568392924500087,"keywords":["cp","nocrits","nodmgspread","uncletopia"],"game_id":440,"stv_port":27016,"stv_name":"Uncletopia | Montr√©al | 1 | All Maps | STV","players":[{"user_id":16,"name":"Kray-Z","steam_id":76561198797699901,"connected_time":11548000000000,"state":"active","ping":61},{"user_id":17,"name":"cookieman969","steam_id":76561199261928150,"connected_time":11494000000000,"state":"active","ping":74},{"user_id":19,"name":"Sonic Meerkat","steam_id":76561198839631940,"connected_time":6978000000000,"state":"active","ping":126}]},{"server_id":301,"name":"Uncletopia | Montr√©al | 2 | All Maps","name_short":"mtl-2","host":"mtl-1.ca.uncletopia.com","port":27025,"enabled":true,"region":"us-east","cc":"ca","latitude":45.50889,"longitude":-73.56167,"reserved":0,"last_update":"0001-01-01T00:00:00Z","name_a2s":"Uncletopia | Montr√©al | 2 | All Maps","protocol":17,"map":"koth_lakeside_final","folder":"tf","game":"Team Fortress","app_id":440,"player_count":0,"max_players":24,"Bots":0,"server_type":"Dedicated","server_os":"Linux","password":true,"vac":true,"version":"7742253","steam_id":85568392924500088,"keywords":["cp","nocrits","nodmgspread","uncletopia"],"game_id":440,"stv_port":27026,"stv_name":"Uncletopia | Montr√©al | 2 | All Maps | STV","players":null},{"server_id":302,"name":"Uncletopia | Montr√©al | 3 | All Maps","name_short":"mtl-3","host":"mtl-1.ca.uncletopia.com","port":27035,"enabled":true,"region":"us-east","cc":"ca","latitude":45.50889,"longitude":-73.56167,"reserved":0,"last_update":"0001-01-01T00:00:00Z","name_a2s":"Uncletopia | Montr√©al | 3 | All Maps","protocol":17,"map":"pl_upward","folder":"tf","game":"Team Fortress","app_id":440,"player_count":0,"max_players":24,"Bots":0,"server_type":"Dedicated","server_os":"Linux","password":true,"vac":true,"version":"7742253","steam_id":85568392924500089,"keywords":["nocrits","nodmgspread","payload","uncletopia"],"game_id":440,"stv_port":27036,"stv_name":"Uncletopia | Montr√©al | 3 | All Maps | STV","players":null},{"server_id":303,"name":"Uncletopia | Montr√©al | 4 | No Payload","name_short":"mtl-4","host":"mtl-1.ca.uncletopia.com","port":27045,"enabled":true,"region":"us-east","cc":"ca","latitude":45.50889,"longitude":-73.56167,"reserved":0,"last_update":"0001-01-01T00:00:00Z","name_a2s":"Uncletopia | Montr√©al | 4 | No Payload","protocol":17,"map":"plr_pipeline","folder":"tf","game":"Team Fortress","app_id":440,"player_count":0,"max_players":24,"Bots":0,"server_type":"Dedicated","server_os":"Linux","password":true,"vac":true,"version":"7742253","steam_id":85568392924500090,"keywords":["nocrits","nodmgspread","payload","uncletopia"],"game_id":440,"stv_port":27046,"stv_name":"Uncletopia | Montr√©al | 4 | No Payload | STV","players":null},{"server_id":13,"name":"Uncletopia | New York City | 1 | All Maps","name_short":"nyc-1","host":"nyc-1.us.uncletopia.com","port":27015,"enabled":true,"region":"us-east","cc":"us","latitude":40.73061,"longitude":-73.93524,"reserved":0,"last_update":"0001-01-01T00:00:00Z","name_a2s":"Uncletopia | New York City | 1 | All Maps","protocol":17,"map":"plr_bananabay","folder":"tf","game":"Team Fortress","app_id":440,"player_count":21,"max_players":24,"Bots":0,"server_type":"Dedicated","server_os":"Linux","password":true,"vac":true,"version":"7742253","steam_id":85568392924469993,"keywords":["cp","nocrits","nodmgspread","uncletopia"],"game_id":440,"stv_port":27016,"stv_name":"Uncletopia | New York City | 1 | All Maps | STV","players":[{"user_id":752,"name":"mom (infertile)","steam_id":76561198123056791,"connected_time":364000000000,"state":"connecting","ping":54},{"user_id":693,"name":"TinyFGC","steam_id":76561198127593000,"connected_time":6283000000000,"state":"connecting","ping":92},{"user_id":673,"name":"randomusername","steam_id":76561199078214700,"connected_time":8103000000000,"state":"connecting","ping":75},{"user_id":756,"name":"Tones","steam_id":76561198039572032,"connected_time":14000000000,"state":"connecting","ping":169},{"user_id":757,"name":"schizophrenic with a gun","steam_id":76561198016121536,"connected_time":6000000000,"state":"connecting","ping":123},{"user_id":724,"name":"Amelia","steam_id":76561198051011524,"connected_time":2682000000000,"state":"connecting","ping":94},{"user_id":731,"name":"FeelsAvokado","steam_id":76561198223660888,"connected_time":2300000000000,"state":"connecting","ping":177},{"user_id":737,"name":"akirajimbo","steam_id":76561197979960008,"connected_time":2055000000000,"state":"connecting","ping":53},{"user_id":742,"name":"evil jesus 05","steam_id":76561198419315893,"connected_time":1501000000000,"state":"connecting","ping":153},{"user_id":755,"name":"fretfulcrazykyan","steam_id":76561198042206401,"connected_time":161000000000,"state":"connecting","ping":79},{"user_id":722,"name":"Gooey Gaped Grannys","steam_id":76561198089731303,"connected_time":3579000000000,"state":"connecting","ping":62},{"user_id":700,"name":"Evillou","steam_id":76561198010395648,"connected_time":5449000000000,"state":"connecting","ping":87},{"user_id":740,"name":"Hippo Muncher","steam_id":76561198055411557,"connected_time":1736000000000,"state":"connecting","ping":65},{"user_id":651,"name":"MAXIMUS","steam_id":76561198085809453,"connected_time":10030000000000,"state":"connecting","ping":86},{"user_id":728,"name":"HumorlessButton","steam_id":76561198170128638,"connected_time":2645000000000,"state":"connecting","ping":72},{"user_id":750,"name":"Antwan","steam_id":76561198246200638,"connected_time":865000000000,"state":"connecting","ping":95},{"user_id":746,"name":"victordead121","steam_id":76561199180843121,"connected_time":1473000000000,"state":"connecting","ping":159},{"user_id":715,"name":"soy jury","steam_id":76561198026664629,"connected_time":4615000000000,"state":"connecting","ping":64},{"user_id":753,"name":"nnobi","steam_id":76561198878729277,"connected_time":272000000000,"state":"connecting","ping":104},{"user_id":748,"name":"Xylemon","steam_id":76561197965297420,"connected_time":1162000000000,"state":"connecting","ping":150},{"user_id":754,"name":"Halcyon","steam_id":76561197999409268,"connected_time":238000000000,"state":"connecting","ping":83}]},{"server_id":14,"name":"Uncletopia | New York City | 2 | All Maps","name_short":"nyc-2","host":"nyc-1.us.uncletopia.com","port":27025,"enabled":true,"region":"us-east","cc":"us","latitude":40.73061,"longitude":-73.93524,"reserved":0,"last_update":"0001-01-01T00:00:00Z","name_a2s":"Uncletopia | New York City | 2 | All Maps","protocol":17,"map":"pl_swiftwater_final1","folder":"tf","game":"Team Fortress","app_id":440,"player_count":0,"max_players":24,"Bots":0,"server_type":"Dedicated","server_os":"Linux","password":true,"vac":true,"version":"7742253","steam_id":85568392924469994,"keywords":["nocrits","nodmgspread","payload","uncletopia"],"game_id":440,"stv_port":27026,"stv_name":"Uncletopia | New York City | 2 | All Maps | STV","players":null},{"server_id":15,"name":"Uncletopia | New York City | 3 | Stopwatch Beta","name_short":"nyc-3","host":"nyc-1.us.uncletopia.com","port":27035,"enabled":true,"region":"us-east","cc":"us","latitude":40.73061,"longitude":-73.93524,"reserved":0,"last_update":"0001-01-01T00:00:00Z","name_a2s":"Uncletopia | New York City | 3 | Stopwatch Beta","protocol":17,"map":"workshop/pl_summercoast_rc8e.ugc1761528829","folder":"tf","game":"Team Fortress","app_id":440,"player_count":0,"max_players":24,"Bots":0,"server_type":"Dedicated","server_os":"Linux","password":true,"vac":true,"version":"7742253","steam_id":85568392924742820,"keywords":["nocrits","nodmgspread","payload","uncletopia"],"game_id":440,"stv_port":27036,"stv_name":"Uncletopia | New York City | 3 | Stopwatch Beta | STV","players":null},{"server_id":16,"name":"Uncletopia | New York City | 4 | Community","name_short":"nyc-4","host":"nyc-1.us.uncletopia.com","port":27045,"enabled":true,"region":"us-east","cc":"us","latitude":40.73061,"longitude":-73.93524,"reserved":0,"last_update":"0001-01-01T00:00:00Z","name_a2s":"Uncletopia | New York City | 4 | Community","protocol":17,"map":"workshop/koth_product_final.ugc454272353","folder":"tf","game":"Team Fortress","app_id":440,"player_count":0,"max_players":24,"Bots":0,"server_type":"Dedicated","server_os":"Linux","password":true,"vac":true,"version":"7742253","steam_id":85568392924742821,"keywords":["cp","nocrits","nodmgspread","uncletopia"],"game_id":440,"stv_port":27046,"stv_name":"Uncletopia | New York City | 4 | Community | STV","players":null},{"server_id":142,"name":"Uncletopia | S√£o Paulo | 1 | All Maps","name_short":"sao-1","host":"sao-1.br.uncletopia.com","port":27015,"enabled":true,"region":"sa","cc":"br","latitude":-23.533773,"longitude":-46.62529,"reserved":0,"last_update":"0001-01-01T00:00:00Z","name_a2s":"Uncletopia | S√£o Paulo | 1 | All Maps","protocol":17,"map":"cp_process_final","folder":"tf","game":"Team Fortress","app_id":440,"player_count":0,"max_players":24,"Bots":0,"server_type":"Dedicated","server_os":"Linux","password":true,"vac":true,"version":"7742253","steam_id":85568392924469996,"keywords":["cp","nocrits","nodmgspread","uncletopia"],"game_id":440,"stv_port":27016,"stv_name":"Uncletopia | S√£o Paulo | 1 | All Maps | STV","players":null},{"server_id":143,"name":"Uncletopia | S√£o Paulo | 2 | All Maps","name_short":"sao-2","host":"sao-2.br.uncletopia.com","port":27015,"enabled":true,"region":"sa","cc":"br","latitude":-23.533773,"longitude":-46.62529,"reserved":0,"last_update":"0001-01-01T00:00:00Z","name_a2s":"Uncletopia | S√£o Paulo | 2 | All Maps","protocol":17,"map":"koth_highpass","folder":"tf","game":"Team Fortress","app_id":440,"player_count":0,"max_players":24,"Bots":0,"server_type":"Dedicated","server_os":"Linux","password":true,"vac":true,"version":"7742253","steam_id":85568392924485349,"keywords":["cp","nocrits","nodmgspread","uncletopia"],"game_id":440,"stv_port":27016,"stv_name":"Uncletopia | S√£o Paulo | 2 | All Maps | STV","players":null},{"server_id":7,"name":"Uncletopia | Seattle | 1 | All Maps","name_short":"sea-1","host":"sea-1.us.uncletopia.com","port":27015,"enabled":true,"region":"us-west","cc":"us","latitude":47.608013,"longitude":-122.33517,"reserved":0,"last_update":"0001-01-01T00:00:00Z","name_a2s":"Uncletopia | Seattle | 1 | All Maps","protocol":17,"map":"cp_dustbowl","folder":"tf","game":"Team Fortress","app_id":440,"player_count":24,"max_players":24,"Bots":0,"server_type":"Dedicated","server_os":"Linux","password":true,"vac":true,"version":"7742253","steam_id":85568392924469997,"keywords":["cp","nocrits","nodmgspread","uncletopia"],"game_id":440,"stv_port":27016,"stv_name":"Uncletopia | Seattle | 1 | All Maps | STV","players":[{"user_id":699,"name":"Astroa","steam_id":76561199190565830,"connected_time":208000000000,"state":"active","ping":118},{"user_id":676,"name":"twitch.tv/ladyloki_ch","steam_id":76561198280150602,"connected_time":2692000000000,"state":"active","ping":39},{"user_id":677,"name":"That Guy","steam_id":76561197997444126,"connected_time":2331000000000,"state":"active","ping":49},{"user_id":659,"name":"scarfhero","steam_id":76561198257541502,"connected_time":4428000000000,"state":"active","ping":62},{"user_id":631,"name":"cool beans","steam_id":76561198045758072,"connected_time":6047000000000,"state":"active","ping":61},{"user_id":640,"name":"Ayayahuasca","steam_id":76561199002906056,"connected_time":5654000000000,"state":"active","ping":49},{"user_id":642,"name":"Casual Vore","steam_id":76561197999045683,"connected_time":5589000000000,"state":"active","ping":44},{"user_id":692,"name":"NeoN","steam_id":76561198117608366,"connected_time":508000000000,"state":"active","ping":63},{"user_id":656,"name":"Bagged Milk","steam_id":76561198814181124,"connected_time":4899000000000,"state":"active","ping":82},{"user_id":700,"name":"TurboRaspberry","steam_id":76561199215360629,"connected_time":154000000000,"state":"active","ping":47},{"user_id":691,"name":"An Old Lady","steam_id":76561198047480318,"connected_time":534000000000,"state":"active","ping":68},{"user_id":695,"name":"30 Curry","steam_id":76561197970747655,"connected_time":410000000000,"state":"active","ping":66},{"user_id":673,"name":"Sasu","steam_id":76561198893447505,"connected_time":3101000000000,"state":"active","ping":60},{"user_id":698,"name":"The Population of Sweden","steam_id":76561198202201644,"connected_time":314000000000,"state":"active","ping":87},{"user_id":683,"name":"Sly Marbo","steam_id":76561198135271741,"connected_time":952000000000,"state":"active","ping":58},{"user_id":534,"name":"Lord Hater","steam_id":76561199158148782,"connected_time":11398000000000,"state":"active","ping":67},{"user_id":652,"name":"Gary, 40, soul sucking 9-5","steam_id":76561198073812888,"connected_time":5112000000000,"state":"active","ping":39},{"user_id":619,"name":"Zenire","steam_id":76561199087298510,"connected_time":6564000000000,"state":"active","ping":49},{"user_id":665,"name":"mumbles","steam_id":76561197994528974,"connected_time":3927000000000,"state":"active","ping":77},{"user_id":651,"name":"mub","steam_id":76561197961943948,"connected_time":5133000000000,"state":"active","ping":50},{"user_id":696,"name":"Thequirka (not NC ready)","steam_id":76561198968058652,"connected_time":387000000000,"state":"active","ping":50},{"user_id":668,"name":"Checkmate","steam_id":76561199071968894,"connected_time":3878000000000,"state":"active","ping":50},{"user_id":690,"name":"Zigresho","steam_id":76561198063001589,"connected_time":541000000000,"state":"active","ping":63},{"user_id":669,"name":"mango cafe","steam_id":76561198142328193,"connected_time":3876000000000,"state":"active","ping":47}]},{"server_id":119,"name":"Uncletopia | Seattle | 2 | All Maps","name_short":"sea-2","host":"sea-1.us.uncletopia.com","port":27025,"enabled":true,"region":"us-west","cc":"us","latitude":47.608013,"longitude":-122.33517,"reserved":0,"last_update":"0001-01-01T00:00:00Z","name_a2s":"Uncletopia | Seattle | 2 | All Maps","protocol":17,"map":"pl_frontier_final","folder":"tf","game":"Team Fortress","app_id":440,"player_count":24,"max_players":24,"Bots":0,"server_type":"Dedicated","server_os":"Linux","password":true,"vac":true,"version":"7742253","steam_id":85568392924469998,"keywords":["nocrits","nodmgspread","payload","uncletopia"],"game_id":440,"stv_port":27026,"stv_name":"Uncletopia | Seattle | 2 | All Maps | STV","players":[{"user_id":563,"name":"SvicidalBug","steam_id":76561198221390504,"connected_time":758000000000,"state":"active","ping":66},{"user_id":549,"name":"Julien","steam_id":76561199389584938,"connected_time":1661000000000,"state":"active","ping":38},{"user_id":562,"name":"tweaker","steam_id":76561198115269587,"connected_time":784000000000,"state":"active","ping":128},{"user_id":552,"name":"Koald","steam_id":76561198090591070,"connected_time":1574000000000,"state":"active","ping":46},{"user_id":578,"name":"Foxtrot","steam_id":76561198084727585,"connected_time":170000000000,"state":"active","ping":81},{"user_id":531,"name":"Hindmost","steam_id":76561199081837220,"connected_time":3426000000000,"state":"active","ping":68},{"user_id":575,"name":"doopsies","steam_id":76561198083000867,"connected_time":342000000000,"state":"active","ping":56},{"user_id":537,"name":"a homeless cat","steam_id":76561198058388903,"connected_time":2583000000000,"state":"active","ping":48},{"user_id":574,"name":"Lore","steam_id":76561198098407538,"connected_time":371000000000,"state":"active","ping":106},{"user_id":510,"name":"The_Pacific_gamer","steam_id":76561198089491446,"connected_time":5157000000000,"state":"active","ping":47},{"user_id":569,"name":"hardfork","steam_id":76561197960958019,"connected_time":543000000000,"state":"active","ping":51},{"user_id":576,"name":"goldhed","steam_id":76561198051751133,"connected_time":306000000000,"state":"active","ping":62},{"user_id":448,"name":"lobercycle","steam_id":76561198106039862,"connected_time":9623000000000,"state":"active","ping":91},{"user_id":542,"name":"Google","steam_id":76561198857237473,"connected_time":1806000000000,"state":"active","ping":53},{"user_id":570,"name":"exephur","steam_id":76561198135763234,"connected_time":534000000000,"state":"active","ping":63},{"user_id":572,"name":"REDACTED_banana_887","steam_id":76561199224406093,"connected_time":493000000000,"state":"active","ping":103},{"user_id":567,"name":"p9es crembruelee torch","steam_id":76561198421913648,"connected_time":642000000000,"state":"active","ping":48},{"user_id":555,"name":"Seriously Bruh","steam_id":76561198070408485,"connected_time":1472000000000,"state":"active","ping":62},{"user_id":558,"name":"SmallErection","steam_id":76561198071770147,"connected_time":809000000000,"state":"active","ping":65},{"user_id":577,"name":"Koishi","steam_id":76561198869627569,"connected_time":303000000000,"state":"active","ping":60},{"user_id":539,"name":"\u003e\u003c","steam_id":76561198121268007,"connected_time":2548000000000,"state":"active","ping":71},{"user_id":557,"name":"Danger Dwarf","steam_id":76561198059490571,"connected_time":812000000000,"state":"active","ping":78},{"user_id":536,"name":"G. Howard Dee","steam_id":76561198058382812,"connected_time":2997000000000,"state":"active","ping":86},{"user_id":571,"name":"im thinkin arby's","steam_id":76561198083271257,"connected_time":515000000000,"state":"active","ping":126}]},{"server_id":406,"name":"Uncletopia | Seattle | 3 | Stopwatch Beta","name_short":"sea-3","host":"sea-1.us.uncletopia.com","port":27035,"enabled":true,"region":"us-west","cc":"us","latitude":47.608013,"longitude":-122.33517,"reserved":0,"last_update":"0001-01-01T00:00:00Z","name_a2s":"Uncletopia | Seattle | 3 | Stopwatch Beta","protocol":17,"map":"workshop/koth_ramjam_rc1.ugc459778887","folder":"tf","game":"Team Fortress","app_id":440,"player_count":0,"max_players":24,"Bots":0,"server_type":"Dedicated","server_os":"Linux","password":true,"vac":true,"version":"7742253","steam_id":85568392924515217,"keywords":["cp","nocrits","nodmgspread","uncletopia"],"game_id":440,"stv_port":27036,"stv_name":"Uncletopia | Seattle | 3 | Stopwatch Beta | STV","players":null},{"server_id":17,"name":"Uncletopia | San Francisco | 1 | All Maps","name_short":"sfo-1","host":"sfo-1.us.uncletopia.com","port":27015,"enabled":true,"region":"us-west","cc":"us","latitude":37.77397,"longitude":-122.4313,"reserved":0,"last_update":"0001-01-01T00:00:00Z","name_a2s":"Uncletopia | San Francisco | 1 | All Maps","protocol":17,"map":"koth_lakeside_final","folder":"tf","game":"Team Fortress","app_id":440,"player_count":6,"max_players":24,"Bots":0,"server_type":"Dedicated","server_os":"Linux","password":true,"vac":true,"version":"7742253","steam_id":85568392924469999,"keywords":["cp","nocrits","nodmgspread","uncletopia"],"game_id":440,"stv_port":27016,"stv_name":"Uncletopia | San Francisco | 1 | All Maps | STV","players":[{"user_id":300,"name":"teh mummy","steam_id":76561198044123636,"connected_time":1421000000000,"state":"active","ping":50},{"user_id":301,"name":"Schnitz","steam_id":76561198265484253,"connected_time":1393000000000,"state":"active","ping":61},{"user_id":311,"name":"Jesus Loves You57","steam_id":76561199058833769,"connected_time":121000000000,"state":"active","ping":47},{"user_id":306,"name":"Drewski","steam_id":76561198334969647,"connected_time":1006000000000,"state":"active","ping":55},{"user_id":256,"name":"G‡∂ûMER","steam_id":76561198340389876,"connected_time":6443000000000,"state":"active","ping":68},{"user_id":295,"name":"Whisper!","steam_id":76561198119609795,"connected_time":2523000000000,"state":"active","ping":53}]},{"server_id":18,"name":"Uncletopia | San Francisco | 2 | All Maps","name_short":"sfo-2","host":"sfo-1.us.uncletopia.com","port":27025,"enabled":true,"region":"us-west","cc":"us","latitude":37.77397,"longitude":-122.4313,"reserved":0,"last_update":"0001-01-01T00:00:00Z","name_a2s":"Uncletopia | San Francisco | 2 | All Maps","protocol":17,"map":"pl_pier","folder":"tf","game":"Team Fortress","app_id":440,"player_count":0,"max_players":24,"Bots":0,"server_type":"Dedicated","server_os":"Linux","password":true,"vac":true,"version":"7742253","steam_id":85568392924470000,"keywords":["nocrits","nodmgspread","payload","uncletopia"],"game_id":440,"stv_port":27026,"stv_name":"Uncletopia | San Francisco | 2 | All Maps | STV","players":null},{"server_id":19,"name":"Uncletopia | San Francisco | 3 | Stopwatch Beta","name_short":"sfo-3","host":"sfo-1.us.uncletopia.com","port":27035,"enabled":true,"region":"us-west","cc":"us","latitude":37.77397,"longitude":-122.4313,"reserved":0,"last_update":"0001-01-01T00:00:00Z","name_a2s":"Uncletopia | San Francisco | 3 | Stopwatch Beta","protocol":17,"map":"workshop/pl_badwater_pro_v12.ugc2142942074","folder":"tf","game":"Team Fortress","app_id":440,"player_count":0,"max_players":24,"Bots":0,"server_type":"Dedicated","server_os":"Linux","password":true,"vac":true,"version":"7742253","steam_id":85568392924742824,"keywords":["nocrits","nodmgspread","payload","uncletopia"],"game_id":440,"stv_port":27036,"stv_name":"Uncletopia | San Francisco | 3 | Stopwatch Beta | STV","players":null},{"server_id":20,"name":"Uncletopia | San Francisco | 4 | Community","name_short":"sfo-4","host":"sfo-1.us.uncletopia.com","port":27045,"enabled":true,"region":"us-west","cc":"us","latitude":37.77397,"longitude":-122.4313,"reserved":0,"last_update":"0001-01-01T00:00:00Z","name_a2s":"Uncletopia | San Francisco | 4 | Community","protocol":17,"map":"workshop/koth_synthetic_rc6a.ugc1549817316","folder":"tf","game":"Team Fortress","app_id":440,"player_count":0,"max_players":24,"Bots":0,"server_type":"Dedicated","server_os":"Linux","password":true,"vac":true,"version":"7742253","steam_id":85568392924742826,"keywords":["cp","nocrits","nodmgspread","uncletopia"],"game_id":440,"stv_port":27046,"stv_name":"Uncletopia | San Francisco | 4 | Community | STV","players":null},{"server_id":141,"name":"Uncletopia | Sydney | 1 | All Maps","name_short":"syd-1","host":"syd-1.au.uncletopia.com","port":27015,"enabled":true,"region":"au","cc":"au","latitude":-33.865143,"longitude":151.2099,"reserved":0,"last_update":"0001-01-01T00:00:00Z","name_a2s":"Uncletopia | Sydney | 1 | All Maps","protocol":17,"map":"pl_barnblitz","folder":"tf","game":"Team Fortress","app_id":440,"player_count":23,"max_players":24,"Bots":0,"server_type":"Dedicated","server_os":"Linux","password":true,"vac":true,"version":"7742253","steam_id":85568392924470001,"keywords":["nocrits","nodmgspread","payload","uncletopia"],"game_id":440,"stv_port":27016,"stv_name":"Uncletopia | Sydney | 1 | All Maps | STV","players":[{"user_id":541,"name":"Owlenstein‚Ñ¢","steam_id":76561198093983826,"connected_time":559000000000,"state":"active","ping":105},{"user_id":530,"name":"mrphy","steam_id":76561198251574728,"connected_time":1040000000000,"state":"active","ping":77},{"user_id":550,"name":"Chris","steam_id":76561198088227961,"connected_time":23000000000,"state":"active","ping":52},{"user_id":484,"name":"ben","steam_id":76561198223331996,"connected_time":5138000000000,"state":"active","ping":61},{"user_id":538,"name":"Ve√∞rf√∂lnir","steam_id":76561198105113720,"connected_time":692000000000,"state":"active","ping":80},{"user_id":518,"name":"hadouken","steam_id":76561198019740135,"connected_time":1668000000000,"state":"active","ping":60},{"user_id":521,"name":"Jonny","steam_id":76561198053391732,"connected_time":1595000000000,"state":"active","ping":72},{"user_id":519,"name":"BoboHleach","steam_id":76561198947368460,"connected_time":1649000000000,"state":"active","ping":44},{"user_id":429,"name":"MR Martian","steam_id":76561198157854561,"connected_time":8011000000000,"state":"active","ping":90},{"user_id":534,"name":"SassnCheeky","steam_id":76561197993875592,"connected_time":925000000000,"state":"active","ping":60},{"user_id":542,"name":"Bigrichard","steam_id":76561198032092945,"connected_time":538000000000,"state":"active","ping":74},{"user_id":487,"name":"Raypest","steam_id":76561197980678745,"connected_time":4872000000000,"state":"active","ping":44},{"user_id":524,"name":"michael","steam_id":76561198052848358,"connected_time":1335000000000,"state":"active","ping":55},{"user_id":549,"name":"Rucks_","steam_id":76561197993598021,"connected_time":221000000000,"state":"active","ping":38},{"user_id":254,"name":"FyreFeat","steam_id":76561198068428930,"connected_time":19348000000000,"state":"active","ping":50},{"user_id":469,"name":"Abraham Lincoln","steam_id":76561198095292515,"connected_time":5450000000000,"state":"active","ping":63},{"user_id":544,"name":"NewChris","steam_id":76561198254754182,"connected_time":514000000000,"state":"active","ping":61},{"user_id":529,"name":"4-Star Yelp Review","steam_id":76561197995258180,"connected_time":1116000000000,"state":"active","ping":47},{"user_id":545,"name":"Kanga Bangas civilnetworks.net","steam_id":76561198162187264,"connected_time":506000000000,"state":"active","ping":114},{"user_id":445,"name":"April","steam_id":76561198848287180,"connected_time":6828000000000,"state":"active","ping":47},{"user_id":546,"name":"Dryiop","steam_id":76561198168474253,"connected_time":502000000000,"state":"active","ping":46},{"user_id":528,"name":"Jy","steam_id":76561198104427524,"connected_time":1129000000000,"state":"active","ping":53},{"user_id":548,"name":"Green Ghost","steam_id":76561198307682938,"connected_time":473000000000,"state":"active","ping":43}]},{"server_id":123,"name":"Uncletopia | Sydney | 2 | All Maps","name_short":"syd-2","host":"syd-1.au.uncletopia.com","port":27025,"enabled":true,"region":"au","cc":"au","latitude":-33.865143,"longitude":151.2099,"reserved":0,"last_update":"0001-01-01T00:00:00Z","name_a2s":"Uncletopia | Sydney | 2 | All Maps","protocol":17,"map":"pl_upward","folder":"tf","game":"Team Fortress","app_id":440,"player_count":24,"max_players":24,"Bots":0,"server_type":"Dedicated","server_os":"Linux","password":true,"vac":true,"version":"7742253","steam_id":85568392924470002,"keywords":["nocrits","nodmgspread","payload","uncletopia"],"game_id":440,"stv_port":27026,"stv_name":"Uncletopia | Sydney | 2 | All Maps | STV","players":[{"user_id":227,"name":"Papa Hoovington III","steam_id":76561198106767420,"connected_time":1857000000000,"state":"active","ping":60},{"user_id":264,"name":"Iuca","steam_id":76561198207782305,"connected_time":236000000000,"state":"active","ping":67},{"user_id":248,"name":"[T√êK] KeRpaL","steam_id":76561197974427061,"connected_time":1036000000000,"state":"active","ping":55},{"user_id":228,"name":"Anejiru","steam_id":76561198969804471,"connected_time":1842000000000,"state":"active","ping":66},{"user_id":202,"name":"Cris.p bacon","steam_id":76561199230423491,"connected_time":2383000000000,"state":"active","ping":95},{"user_id":254,"name":"Mr Gottem","steam_id":76561198004006228,"connected_time":798000000000,"state":"active","ping":52},{"user_id":247,"name":"triip","steam_id":76561198009092833,"connected_time":1050000000000,"state":"active","ping":72},{"user_id":262,"name":"tweedie","steam_id":76561198063425523,"connected_time":330000000000,"state":"active","ping":59},{"user_id":251,"name":"Lord Oink","steam_id":76561198125237921,"connected_time":910000000000,"state":"active","ping":40},{"user_id":176,"name":"XTX","steam_id":76561198093828661,"connected_time":3589000000000,"state":"active","ping":77},{"user_id":177,"name":"OFFICIALcraigbishop","steam_id":76561198836003115,"connected_time":3583000000000,"state":"active","ping":63},{"user_id":233,"name":"J959","steam_id":76561198855585931,"connected_time":1600000000000,"state":"active","ping":61},{"user_id":259,"name":"Cup","steam_id":76561198038485845,"connected_time":626000000000,"state":"active","ping":30},{"user_id":268,"name":"james16","steam_id":76561198362678073,"connected_time":37000000000,"state":"spawning","ping":63},{"user_id":188,"name":"monocrumb","steam_id":76561199126588682,"connected_time":3112000000000,"state":"active","ping":63},{"user_id":265,"name":"evl","steam_id":76561197980015398,"connected_time":181000000000,"state":"active","ping":65},{"user_id":266,"name":"Piklz","steam_id":76561198043384139,"connected_time":173000000000,"state":"active","ping":54},{"user_id":241,"name":"JumpinDux","steam_id":76561198173610794,"connected_time":1433000000000,"state":"active","ping":60},{"user_id":269,"name":"FlyingSamurai7","steam_id":76561199177643730,"connected_time":5000000000,"state":"spawning","ping":89},{"user_id":256,"name":"Diavolo Diablo","steam_id":76561198166295333,"connected_time":761000000000,"state":"active","ping":165},{"user_id":263,"name":"Siderpy","steam_id":76561198090225463,"connected_time":311000000000,"state":"active","ping":61},{"user_id":257,"name":"electro599","steam_id":76561198058148858,"connected_time":740000000000,"state":"active","ping":60},{"user_id":258,"name":"Yuki","steam_id":76561199124788689,"connected_time":692000000000,"state":"active","ping":66},{"user_id":225,"name":"Coffee","steam_id":76561198072414195,"connected_time":1928000000000,"state":"active","ping":84}]},{"server_id":395,"name":"Uncletopia | Sydney | 3 | All Maps","name_short":"syd-3","host":"syd-1.au.uncletopia.com","port":27035,"enabled":true,"region":"au","cc":"au","latitude":-33.865143,"longitude":151.2099,"reserved":0,"last_update":"0001-01-01T00:00:00Z","name_a2s":"Uncletopia | Sydney | 3 | All Maps","protocol":17,"map":"cp_foundry","folder":"tf","game":"Team Fortress","app_id":440,"player_count":2,"max_players":24,"Bots":0,"server_type":"Dedicated","server_os":"Linux","password":true,"vac":true,"version":"7742253","steam_id":85568392925194467,"keywords":["cp","nocrits","nodmgspread","uncletopia"],"game_id":440,"stv_port":27036,"stv_name":"Uncletopia | Sydney | 3 | All Maps | STV","players":[{"user_id":63,"name":"squrrel","steam_id":76561198083429611,"connected_time":347000000000,"state":"active","ping":66},{"user_id":64,"name":"internetkittenz13","steam_id":76561198881042979,"connected_time":330000000000,"state":"active","ping":68}]},{"server_id":396,"name":"Uncletopia | Sydney | 4 | All Maps","name_short":"syd-4","host":"syd-1.au.uncletopia.com","port":27045,"enabled":true,"region":"au","cc":"au","latitude":-33.865143,"longitude":151.2099,"reserved":0,"last_update":"0001-01-01T00:00:00Z","name_a2s":"Uncletopia | Sydney | 4 | All Maps","protocol":17,"map":"koth_lakeside_final","folder":"tf","game":"Team Fortress","app_id":440,"player_count":0,"max_players":24,"Bots":0,"server_type":"Dedicated","server_os":"Linux","password":true,"vac":true,"version":"7742253","steam_id":85568392925397958,"keywords":["cp","nocrits","nodmgspread","uncletopia"],"game_id":440,"stv_port":27046,"stv_name":"Uncletopia | Sydney | 4 | All Maps | STV","players":null},{"server_id":58,"name":"Uncletopia | Sydney | 5 | Stopwatch Beta","name_short":"syd-5","host":"syd-1.au.uncletopia.com","port":27055,"enabled":true,"region":"au","cc":"au","latitude":-33.865143,"longitude":151.2099,"reserved":0,"last_update":"0001-01-01T00:00:00Z","name_a2s":"Uncletopia | Sydney | 5 | Stopwatch Beta","protocol":17,"map":"workshop/koth_ashville_final.ugc2130459942","folder":"tf","game":"Team Fortress","app_id":440,"player_count":0,"max_players":24,"Bots":0,"server_type":"Dedicated","server_os":"Linux","password":true,"vac":true,"version":"7742253","steam_id":85568392925397959,"keywords":["cp","nocrits","nodmgspread","uncletopia"],"game_id":440,"stv_port":27056,"stv_name":"Uncletopia | Sydney | 5 | Stopwatch Beta | STV","players":null},{"server_id":59,"name":"Uncletopia | Sydney | 6 | Community","name_short":"syd-6","host":"syd-1.au.uncletopia.com","port":27065,"enabled":true,"region":"au","cc":"au","latitude":-33.865143,"longitude":151.2099,"reserved":0,"last_update":"0001-01-01T00:00:00Z","name_a2s":"Uncletopia | Sydney | 6 | Community","protocol":17,"map":"workshop/koth_slaughter_rc1.ugc1712845210","folder":"tf","game":"Team Fortress","app_id":440,"player_count":2,"max_players":24,"Bots":0,"server_type":"Dedicated","server_os":"Linux","password":true,"vac":true,"version":"7742253","steam_id":85568392925397960,"keywords":["cp","nocrits","nodmgspread","uncletopia"],"game_id":440,"stv_port":27066,"stv_name":"Uncletopia | Sydney | 6 | Community | STV","players":[{"user_id":7,"name":"rylan.chen","steam_id":76561199152151734,"connected_time":596000000000,"state":"active","ping":62},{"user_id":8,"name":"WingedDragonRaa","steam_id":76561199446042806,"connected_time":576000000000,"state":"active","ping":74}]},{"server_id":49,"name":"Uncletopia | Warsaw | 1 | All Maps","name_short":"waw-1","host":"waw-1.pl.uncletopia.com","port":27015,"enabled":true,"region":"eu","cc":"pl","latitude":52.2297,"longitude":21.017532,"reserved":0,"last_update":"0001-01-01T00:00:00Z","name_a2s":"","protocol":0,"map":"","folder":"","game":"","app_id":0,"player_count":0,"max_players":0,"Bots":0,"server_type":"","server_os":"","password":false,"vac":false,"version":"","steam_id":0,"keywords":null,"game_id":0,"stv_port":0,"stv_name":"","players":null},{"server_id":50,"name":"Uncletopia | Warsaw | 2 | All Maps","name_short":"waw-2","host":"waw-1.pl.uncletopia.com","port":27025,"enabled":true,"region":"eu","cc":"pl","latitude":52.2297,"longitude":21.017532,"reserved":0,"last_update":"0001-01-01T00:00:00Z","name_a2s":"Uncletopia | Warsaw | 2 | All Maps","protocol":17,"map":"pl_upward","folder":"tf","game":"Team Fortress","app_id":440,"player_count":0,"max_players":24,"Bots":0,"server_type":"Dedicated","server_os":"Linux","password":true,"vac":true,"version":"7742253","steam_id":85568392925397851,"keywords":["nocrits","nodmgspread","payload","uncletopia"],"game_id":440,"stv_port":27026,"stv_name":"Uncletopia | Warsaw | 2 | All Maps | STV","players":null},{"server_id":51,"name":"Uncletopia | Warsaw | 3 | All Maps","name_short":"waw-3","host":"waw-1.pl.uncletopia.com","port":27035,"enabled":true,"region":"eu","cc":"pl","latitude":52.2297,"longitude":21.017532,"reserved":0,"last_update":"0001-01-01T00:00:00Z","name_a2s":"Uncletopia | Warsaw | 3 | All Maps","protocol":17,"map":"koth_lakeside_final","folder":"tf","game":"Team Fortress","app_id":440,"player_count":0,"max_players":24,"Bots":0,"server_type":"Dedicated","server_os":"Linux","password":true,"vac":true,"version":"7742253","steam_id":85568392925397852,"keywords":["cp","nocrits","nodmgspread","uncletopia"],"game_id":440,"stv_port":27036,"stv_name":"Uncletopia | Warsaw | 3 | All Maps | STV","players":null},{"server_id":52,"name":"Uncletopia | Warsaw | 4 | All Maps","name_short":"waw-4","host":"waw-1.pl.uncletopia.com","port":27045,"enabled":true,"region":"eu","cc":"pl","latitude":52.2297,"longitude":21.017532,"reserved":0,"last_update":"0001-01-01T00:00:00Z","name_a2s":"Uncletopia | Warsaw | 4 | All Maps","protocol":17,"map":"pl_upward","folder":"tf","game":"Team Fortress","app_id":440,"player_count":0,"max_players":24,"Bots":0,"server_type":"Dedicated","server_os":"Linux","password":true,"vac":true,"version":"7742253","steam_id":85568392925397853,"keywords":["nocrits","nodmgspread","payload","uncletopia"],"game_id":440,"stv_port":27046,"stv_name":"Uncletopia | Warsaw | 4 | All Maps | STV","players":null},{"server_id":53,"name":"Uncletopia | Warsaw | 5 | Stopwatch Beta","name_short":"waw-5","host":"waw-1.pl.uncletopia.com","port":27055,"enabled":true,"region":"eu","cc":"pl","latitude":52.2297,"longitude":21.017532,"reserved":0,"last_update":"0001-01-01T00:00:00Z","name_a2s":"Uncletopia | Warsaw | 5 | Stopwatch Beta","protocol":17,"map":"pl_swiftwater_final1","folder":"tf","game":"Team Fortress","app_id":440,"player_count":0,"max_players":24,"Bots":0,"server_type":"Dedicated","server_os":"Linux","password":true,"vac":true,"version":"7742253","steam_id":85568392925397854,"keywords":["nocrits","nodmgspread","payload","uncletopia"],"game_id":440,"stv_port":27056,"stv_name":"Uncletopia | Warsaw | 5 | Stopwatch Beta | STV","players":null},{"server_id":54,"name":"Uncletopia | Warsaw | 6 | Community","name_short":"waw-6","host":"waw-1.pl.uncletopia.com","port":27065,"enabled":true,"region":"eu","cc":"pl","latitude":52.2297,"longitude":21.017532,"reserved":0,"last_update":"0001-01-01T00:00:00Z","name_a2s":"Uncletopia | Warsaw | 6 | Community","protocol":17,"map":"koth_highpass","folder":"tf","game":"Team Fortress","app_id":440,"player_count":0,"max_players":24,"Bots":0,"server_type":"Dedicated","server_os":"Linux","password":true,"vac":true,"version":"7742253","steam_id":85568392925397856,"keywords":["cp","nocrits","nodmgspread","uncletopia"],"game_id":440,"stv_port":27066,"stv_name":"Uncletopia | Warsaw | 6 | Community | STV","players":null}]}