{"status":true,"message":"","result":[{"server_id":9,"name":"Uncletopia | Atlanta | 1 | All Maps","name_short":"atl-1","host":"atl-1.us.uncletopia.com","port":27015,"enabled":true,"region":"us-east","cc":"us","latitude":33.753746,"longitude":-84.38633,"reserved":0,"last_update":"0001-01-01T00:00:00Z","name_a2s":"Uncletopia | Atlanta | 1 | All Maps","protocol":17,"map":"pl_pier","folder":"tf","game":"Team Fortress","app_id":440,"player_count":15,"max_players":24,"Bots":0,"server_type":"Dedicated","server_os":"Linux","password":true,"vac":true,"version":"7961495","steam_id":85568392924469982,"keywords":["nocrits","nodmgspread","payload","uncletopia"],"game_id":440,"stv_port":27016,"stv_name":"Uncletopia | Atlanta | 1 | All Maps | STV","players":[{"user_id":666,"name":"Nasatron7","steam_id":76561198217185169,"connected_time":4803000000000,"state":"active","ping":59},{"user_id":612,"name":"rose","steam_id":76561198048882285,"connected_time":8094000000000,"state":"active","ping":74},{"user_id":697,"name":"Cherubi","steam_id":76561199015772917,"connected_time":2985000000000,"state":"active","ping":99},{"user_id":638,"name":"BIG HOG","steam_id":76561198079923652,"connected_time":7096000000000,"state":"active","ping":64},{"user_id":732,"name":"kaputon","steam_id":76561198146299782,"connected_time":568000000000,"state":"active","ping":61},{"user_id":717,"name":"jayyteeAT #fleon","steam_id":76561198059575962,"connected_time":1639000000000,"state":"active","ping":85},{"user_id":718,"name":"NexFrost","steam_id":76561197985774837,"connected_time":1629000000000,"state":"active","ping":59},{"user_id":731,"name":"Link","steam_id":76561198090113742,"connected_time":646000000000,"state":"active","ping":55},{"user_id":636,"name":"snail from ear AT(cochlea)","steam_id":76561198184900753,"connected_time":7151000000000,"state":"active","ping":71},{"user_id":649,"name":"Onyx","steam_id":76561198275349640,"connected_time":6282000000000,"state":"active","ping":88},{"user_id":729,"name":"Otael","steam_id":76561198040685975,"connected_time":730000000000,"state":"active","ping":78},{"user_id":723,"name":"werecat","steam_id":76561198005091213,"connected_time":1445000000000,"state":"active","ping":51},{"user_id":707,"name":"object permanence","steam_id":76561198050393061,"connected_time":2473000000000,"state":"active","ping":77},{"user_id":730,"name":"uweh","steam_id":76561198113707813,"connected_time":704000000000,"state":"active","ping":64},{"user_id":725,"name":"lil","steam_id":76561198143568367,"connected_time":1361000000000,"state":"active","ping":86}]},{"server_id":104,"name":"Uncletopia | Atlanta | 2 | All Maps","name_short":"atl-2","host":"atl-1.us.uncletopia.com","port":27025,"enabled":true,"region":"us-east","cc":"us","latitude":33.753746,"longitude":-84.38633,"reserved":0,"last_update":"0001-01-01T00:00:00Z","name_a2s":"Uncletopia | Atlanta | 2 | All Maps","protocol":17,"map":"cp_snakewater_final1","folder":"tf","game":"Team Fortress","app_id":440,"player_count":0,"max_players":24,"Bots":0,"server_type":"Dedicated","server_os":"Linux","password":true,"vac":true,"version":"7961495","steam_id":85568392924469983,"keywords":["cp","nocrits","nodmgspread","uncletopia"],"game_id":440,"stv_port":27026,"stv_name":"Uncletopia | Atlanta | 2 | All Maps | STV","players":null},{"server_id":400,"name":"Uncletopia | Atlanta | 3 | Stopwatch","name_short":"atl-3","host":"atl-1.us.uncletopia.com","port":27035,"enabled":true,"region":"us-east","cc":"us","latitude":33.753746,"longitude":-84.38633,"reserved":0,"last_update":"0001-01-01T00:00:00Z","name_a2s":"Uncletopia | Atlanta | 3 | Stopwatch","protocol":17,"map":"workshop/koth_clearcut_b15.ugc2107050255","folder":"tf","game":"Team Fortress","app_id":440,"player_count":0,"max_players":24,"Bots":0,"server_type":"Dedicated","server_os":"Linux","password":true,"vac":true,"version":"7961495","steam_id":85568392924515187,"keywords":["cp","nocrits","nodmgspread","uncletopia"],"game_id":440,"stv_port":27036,"stv_name":"Uncletopia | Atlanta | 3 | Stopwatch | STV","players":null},{"server_id":401,"name":"Uncletopia | Atlanta | 4 | Community","name_short":"atl-4","host":"atl-1.us.uncletopia.com","port":27045,"enabled":true,"region":"us-east","cc":"us","latitude":33.753746,"longitude":-84.38633,"reserved":0,"last_update":"0001-01-01T00:00:00Z","name_a2s":"Uncletopia | Atlanta | 4 | Community","protocol":17,"map":"cp_sunshine","folder":"tf","game":"Team Fortress","app_id":440,"player_count":0,"max_players":24,"Bots":0,"server_type":"Dedicated","server_os":"Linux","password":true,"vac":true,"version":"7961495","steam_id":85568392924515188,"keywords":["cp","nocrits","nodmgspread","uncletopia"],"game_id":440,"stv_port":27046,"stv_name":"Uncletopia | Atlanta | 4 | Community | STV","players":null},{"server_id":2,"name":"Uncletopia | Chicago | 1 | All Maps","name_short":"chi-1","host":"chi-1.us.uncletopia.com","port":27015,"enabled":true,"region":"us-central","cc":"us","latitude":41.881832,"longitude":-87.62318,"reserved":0,"last_update":"0001-01-01T00:00:00Z","name_a2s":"Uncletopia | Chicago | 1 | All Maps","protocol":17,"map":"pl_upward","folder":"tf","game":"Team Fortress","app_id":440,"player_count":24,"max_players":24,"Bots":0,"server_type":"Dedicated","server_os":"Linux","password":true,"vac":true,"version":"7961495","steam_id":85568392924469984,"keywords":["nocrits","nodmgspread","payload","uncletopia"],"game_id":440,"stv_port":27016,"stv_name":"Uncletopia | Chicago | 1 | All Maps | STV","players":[{"user_id":1015,"name":"fr3ak","steam_id":76561198108064846,"connected_time":114000000000,"state":"active","ping":93},{"user_id":984,"name":"Philomentus","steam_id":76561198067714196,"connected_time":4679000000000,"state":"active","ping":66},{"user_id":1018,"name":"Dr. Medicine","steam_id":76561198165309820,"connected_time":60000000000,"state":"active","ping":101},{"user_id":985,"name":"Eloi","steam_id":76561198081193565,"connected_time":4634000000000,"state":"active","ping":74},{"user_id":1009,"name":"Epifiny","steam_id":76561198027958086,"connected_time":1771000000000,"state":"active","ping":70},{"user_id":987,"name":"Larry Laffer","steam_id":76561198046832069,"connected_time":4192000000000,"state":"active","ping":60},{"user_id":1017,"name":"Mainframe","steam_id":76561198097154599,"connected_time":71000000000,"state":"active","ping":63},{"user_id":1007,"name":"cixcin","steam_id":76561199215821942,"connected_time":1790000000000,"state":"active","ping":69},{"user_id":988,"name":"JustANormalOlive-ia","steam_id":76561198809645656,"connected_time":4138000000000,"state":"active","ping":69},{"user_id":989,"name":"Quirinus","steam_id":76561198011516889,"connected_time":4011000000000,"state":"active","ping":49},{"user_id":991,"name":"Artic_Ryuu","steam_id":76561198182194918,"connected_time":3890000000000,"state":"active","ping":98},{"user_id":975,"name":"Ashton","steam_id":76561198300590302,"connected_time":5263000000000,"state":"active","ping":69},{"user_id":1016,"name":"ihaveahax","steam_id":76561198085542194,"connected_time":113000000000,"state":"active","ping":94},{"user_id":1012,"name":"gugcat","steam_id":76561198129822860,"connected_time":1516000000000,"state":"active","ping":76},{"user_id":1013,"name":"Åravii","steam_id":76561197985783813,"connected_time":133000000000,"state":"active","ping":39},{"user_id":994,"name":"SgtSardine","steam_id":76561198254729868,"connected_time":3770000000000,"state":"active","ping":102},{"user_id":1014,"name":"frank","steam_id":76561198137777483,"connected_time":128000000000,"state":"active","ping":63},{"user_id":1019,"name":"bring back upward","steam_id":76561199159928133,"connected_time":23000000000,"state":"spawning","ping":58},{"user_id":980,"name":"Rat Bastard","steam_id":76561198153443658,"connected_time":4880000000000,"state":"active","ping":86},{"user_id":996,"name":"TallBadUserName","steam_id":76561198399685508,"connected_time":3721000000000,"state":"active","ping":75},{"user_id":1005,"name":"Third Party","steam_id":76561198042821928,"connected_time":2080000000000,"state":"active","ping":104},{"user_id":998,"name":"MasterGoop","steam_id":76561198285594777,"connected_time":3715000000000,"state":"active","ping":83},{"user_id":1020,"name":"That girl with a K","steam_id":76561198317602350,"connected_time":21000000000,"state":"active","ping":102},{"user_id":978,"name":"Dunkle","steam_id":76561198041903573,"connected_time":5207000000000,"state":"active","ping":90}]},{"server_id":106,"name":"Uncletopia | Chicago | 2 | All Maps","name_short":"chi-2","host":"chi-1.us.uncletopia.com","port":27025,"enabled":true,"region":"us-central","cc":"us","latitude":41.881832,"longitude":-87.62318,"reserved":0,"last_update":"0001-01-01T00:00:00Z","name_a2s":"Uncletopia | Chicago | 2 | All Maps","protocol":17,"map":"pl_upward","folder":"tf","game":"Team Fortress","app_id":440,"player_count":24,"max_players":24,"Bots":0,"server_type":"Dedicated","server_os":"Linux","password":true,"vac":true,"version":"7961495","steam_id":85568392924469985,"keywords":["nocrits","nodmgspread","payload","uncletopia"],"game_id":440,"stv_port":27026,"stv_name":"Uncletopia | Chicago | 2 | All Maps | STV","players":[{"user_id":653,"name":"big ass baby ass head","steam_id":76561198353456379,"connected_time":3071000000000,"state":"active","ping":65},{"user_id":663,"name":"Goosy:3","steam_id":76561199386055962,"connected_time":2330000000000,"state":"active","ping":46},{"user_id":631,"name":"Jim The Stranger","steam_id":76561198075670724,"connected_time":4785000000000,"state":"active","ping":65},{"user_id":675,"name":"Kantamoe","steam_id":76561198046661611,"connected_time":1015000000000,"state":"active","ping":80},{"user_id":670,"name":"Galactamarx","steam_id":76561198028065755,"connected_time":1746000000000,"state":"active","ping":100},{"user_id":633,"name":"Dofyx18","steam_id":76561198065552899,"connected_time":4740000000000,"state":"active","ping":105},{"user_id":676,"name":"Rat God","steam_id":76561198066161598,"connected_time":1010000000000,"state":"active","ping":59},{"user_id":634,"name":"EggBoi","steam_id":76561198122691694,"connected_time":4719000000000,"state":"active","ping":141},{"user_id":521,"name":"zpalmtree","steam_id":76561198134307620,"connected_time":13782000000000,"state":"active","ping":57},{"user_id":686,"name":"Luke_Archer","steam_id":76561198083152623,"connected_time":809000000000,"state":"active","ping":46},{"user_id":695,"name":"KevilPo","steam_id":76561199244507267,"connected_time":160000000000,"state":"active","ping":64},{"user_id":678,"name":"★SmolGreyBirb★","steam_id":76561198010201046,"connected_time":1007000000000,"state":"active","ping":95},{"user_id":677,"name":"Luna","steam_id":76561198023352750,"connected_time":1007000000000,"state":"active","ping":86},{"user_id":679,"name":"Sun_Su","steam_id":76561198158458879,"connected_time":1006000000000,"state":"active","ping":108},{"user_id":528,"name":"Mufalito","steam_id":76561198951889482,"connected_time":13357000000000,"state":"active","ping":132},{"user_id":682,"name":"PhilipptheVI","steam_id":76561198037505721,"connected_time":894000000000,"state":"active","ping":160},{"user_id":691,"name":"roast pig with apple in mouth","steam_id":76561198051353647,"connected_time":377000000000,"state":"active","ping":63},{"user_id":687,"name":"anaidangel717","steam_id":76561199099121097,"connected_time":697000000000,"state":"active","ping":71},{"user_id":656,"name":"wetto makaveli","steam_id":76561198224811504,"connected_time":2963000000000,"state":"active","ping":64},{"user_id":683,"name":"Kyle","steam_id":76561198150061073,"connected_time":871000000000,"state":"active","ping":60},{"user_id":696,"name":"Kamin","steam_id":76561198255299559,"connected_time":58000000000,"state":"active","ping":85},{"user_id":697,"name":"Team Fartpiss Poo","steam_id":76561199163591880,"connected_time":11000000000,"state":"active","ping":97},{"user_id":665,"name":"t3nacity","steam_id":76561198082985099,"connected_time":2312000000000,"state":"active","ping":43},{"user_id":647,"name":"Lemon Soda","steam_id":76561198140208761,"connected_time":4460000000000,"state":"active","ping":70}]},{"server_id":402,"name":"Uncletopia | Chicago | 3 | All Maps","name_short":"chi-3","host":"chi-1.us.uncletopia.com","port":27035,"enabled":true,"region":"us-central","cc":"us","latitude":41.881832,"longitude":-87.62318,"reserved":0,"last_update":"0001-01-01T00:00:00Z","name_a2s":"Uncletopia | Chicago | 3 | All Maps","protocol":17,"map":"koth_highpass","folder":"tf","game":"Team Fortress","app_id":440,"player_count":0,"max_players":24,"Bots":0,"server_type":"Dedicated","server_os":"Linux","password":true,"vac":true,"version":"7961495","steam_id":85568392924515191,"keywords":["cp","nocrits","nodmgspread","uncletopia"],"game_id":440,"stv_port":27036,"stv_name":"Uncletopia | Chicago | 3 | All Maps | STV","players":null},{"server_id":403,"name":"Uncletopia | Chicago | 4 | All Maps","name_short":"chi-4","host":"chi-1.us.uncletopia.com","port":27045,"enabled":true,"region":"us-central","cc":"us","latitude":41.881832,"longitude":-87.62318,"reserved":0,"last_update":"0001-01-01T00:00:00Z","name_a2s":"Uncletopia | Chicago | 4 | All Maps","protocol":17,"map":"cp_altitude","folder":"tf","game":"Team Fortress","app_id":440,"player_count":0,"max_players":24,"Bots":0,"server_type":"Dedicated","server_os":"Linux","password":true,"vac":true,"version":"7961495","steam_id":85568392924515193,"keywords":["cp","nocrits","nodmgspread","uncletopia"],"game_id":440,"stv_port":27046,"stv_name":"Uncletopia | Chicago | 4 | All Maps | STV","players":null},{"server_id":36,"name":"Uncletopia | Chicago | 5 | All Maps","name_short":"chi-5","host":"chi-2.us.uncletopia.com","port":27015,"enabled":true,"region":"us-central","cc":"us","latitude":41.881832,"longitude":-87.62318,"reserved":0,"last_update":"0001-01-01T00:00:00Z","name_a2s":"Uncletopia | Chicago | 5 | All Maps","protocol":17,"map":"koth_lakeside_final","folder":"tf","game":"Team Fortress","app_id":440,"player_count":0,"max_players":24,"Bots":0,"server_type":"Dedicated","server_os":"Linux","password":true,"vac":true,"version":"7961495","steam_id":85568392924866362,"keywords":["cp","nocrits","nodmgspread","uncletopia"],"game_id":440,"stv_port":27016,"stv_name":"Uncletopia | Chicago | 5 | All Maps | STV","players":null},{"server_id":37,"name":"Uncletopia | Chicago | 6 | All Maps","name_short":"chi-6","host":"chi-2.us.uncletopia.com","port":27025,"enabled":true,"region":"us-central","cc":"us","latitude":41.881832,"longitude":-87.62318,"reserved":0,"last_update":"0001-01-01T00:00:00Z","name_a2s":"Uncletopia | Chicago | 6 | All Maps","protocol":17,"map":"pl_barnblitz","folder":"tf","game":"Team Fortress","app_id":440,"player_count":5,"max_players":24,"Bots":0,"server_type":"Dedicated","server_os":"Linux","password":true,"vac":true,"version":"7961495","steam_id":85568392924866363,"keywords":["nocrits","nodmgspread","payload","uncletopia"],"game_id":440,"stv_port":27026,"stv_name":"Uncletopia | Chicago | 6 | All Maps | STV","players":[{"user_id":483,"name":"Gummy","steam_id":76561199200969139,"connected_time":6776000000000,"state":"active","ping":107},{"user_id":486,"name":"Burny Sanders","steam_id":76561197961879048,"connected_time":4668000000000,"state":"active","ping":60},{"user_id":489,"name":"cajun thotsauce","steam_id":76561198101636066,"connected_time":2332000000000,"state":"active","ping":89},{"user_id":490,"name":"GENOCIDE","steam_id":76561198190587246,"connected_time":2168000000000,"state":"active","ping":67},{"user_id":420,"name":"tubby","steam_id":76561198174982661,"connected_time":13956000000000,"state":"active","ping":83}]},{"server_id":38,"name":"Uncletopia | Chicago | 7 | Stopwatch","name_short":"chi-7","host":"chi-2.us.uncletopia.com","port":27035,"enabled":true,"region":"us-central","cc":"us","latitude":41.881832,"longitude":-87.62318,"reserved":0,"last_update":"0001-01-01T00:00:00Z","name_a2s":"Uncletopia | Chicago | 7 | Stopwatch","protocol":17,"map":"workshop/koth_ramjam_rc1.ugc459778887","folder":"tf","game":"Team Fortress","app_id":440,"player_count":0,"max_players":24,"Bots":0,"server_type":"Dedicated","server_os":"Linux","password":true,"vac":true,"version":"7961495","steam_id":85568392924866364,"keywords":["cp","nocrits","nodmgspread","uncletopia"],"game_id":440,"stv_port":27036,"stv_name":"Uncletopia | Chicago | 7 | Stopwatch | STV","players":null},{"server_id":39,"name":"Uncletopia | Chicago | 8 | Community","name_short":"chi-8","host":"chi-2.us.uncletopia.com","port":27045,"enabled":true,"region":"us-central","cc":"us","latitude":41.881832,"longitude":-87.62318,"reserved":0,"last_update":"0001-01-01T00:00:00Z","name_a2s":"Uncletopia | Chicago | 8 | Community","protocol":17,"map":"workshop/pl_cactuscanyon_redux_final2.ugc2579644293","folder":"tf","game":"Team Fortress","app_id":440,"player_count":0,"max_players":24,"Bots":0,"server_type":"Dedicated","server_os":"Linux","password":true,"vac":true,"version":"7961495","steam_id":85568392924866365,"keywords":["nocrits","nodmgspread","payload","uncletopia"],"game_id":440,"stv_port":27046,"stv_name":"Uncletopia | Chicago | 8 | Community | STV","players":null},{"server_id":8,"name":"Uncletopia | Dallas | 1 | All Maps","name_short":"dal-1","host":"dal-1.us.uncletopia.com","port":27015,"enabled":true,"region":"us-central","cc":"us","latitude":32.779167,"longitude":-96.80889,"reserved":0,"last_update":"0001-01-01T00:00:00Z","name_a2s":"Uncletopia | Dallas | 1 | All Maps","protocol":17,"map":"pl_pier","folder":"tf","game":"Team Fortress","app_id":440,"player_count":0,"max_players":24,"Bots":0,"server_type":"Dedicated","server_os":"Linux","password":true,"vac":true,"version":"7961495","steam_id":85568392924469986,"keywords":["nocrits","nodmgspread","payload","uncletopia"],"game_id":440,"stv_port":27016,"stv_name":"Uncletopia | Dallas | 1 | All Maps | STV","players":null},{"server_id":108,"name":"Uncletopia | Dallas | 2 | All Maps","name_short":"dal-2","host":"dal-1.us.uncletopia.com","port":27025,"enabled":true,"region":"us-central","cc":"us","latitude":32.779167,"longitude":-96.80889,"reserved":0,"last_update":"0001-01-01T00:00:00Z","name_a2s":"Uncletopia | Dallas | 2 | All Maps","protocol":17,"map":"koth_highpass","folder":"tf","game":"Team Fortress","app_id":440,"player_count":3,"max_players":24,"Bots":0,"server_type":"Dedicated","server_os":"Linux","password":true,"vac":true,"version":"7961495","steam_id":85568392924469988,"keywords":["cp","nocrits","nodmgspread","uncletopia"],"game_id":440,"stv_port":27026,"stv_name":"Uncletopia | Dallas | 2 | All Maps | STV","players":[{"user_id":716,"name":"Jeremy","steam_id":76561198286240347,"connected_time":192000000000,"state":"active","ping":72},{"user_id":700,"name":"Strange Festive Femboy","steam_id":76561198050385093,"connected_time":3313000000000,"state":"active","ping":98},{"user_id":701,"name":"elder scrolls 6","steam_id":76561198113364714,"connected_time":3311000000000,"state":"active","ping":76}]},{"server_id":404,"name":"Uncletopia | Dallas | 3 | All Maps","name_short":"dal-3","host":"dal-1.us.uncletopia.com","port":27035,"enabled":true,"region":"us-central","cc":"us","latitude":32.779167,"longitude":-96.80889,"reserved":0,"last_update":"0001-01-01T00:00:00Z","name_a2s":"Uncletopia | Dallas | 3 | All Maps","protocol":17,"map":"ctf_doublecross","folder":"tf","game":"Team Fortress","app_id":440,"player_count":0,"max_players":24,"Bots":0,"server_type":"Dedicated","server_os":"Linux","password":true,"vac":true,"version":"7961495","steam_id":85568392924515219,"keywords":["ctf","nocrits","nodmgspread","uncletopia"],"game_id":440,"stv_port":27036,"stv_name":"Uncletopia | Dallas | 3 | All Maps | STV","players":null},{"server_id":405,"name":"Uncletopia | Dallas | 4 | Community","name_short":"dal-4","host":"dal-1.us.uncletopia.com","port":27045,"enabled":true,"region":"us-central","cc":"us","latitude":32.779167,"longitude":-96.80889,"reserved":0,"last_update":"0001-01-01T00:00:00Z","name_a2s":"Uncletopia | Dallas | 4 | Community","protocol":17,"map":"workshop/koth_bagel_rc6.ugc2514036946","folder":"tf","game":"Team Fortress","app_id":440,"player_count":0,"max_players":24,"Bots":0,"server_type":"Dedicated","server_os":"Linux","password":true,"vac":true,"version":"7961495","steam_id":85568392924515220,"keywords":["cp","nocrits","nodmgspread","uncletopia"],"game_id":440,"stv_port":27046,"stv_name":"Uncletopia | Dallas | 4 | Community | STV","players":null},{"server_id":5,"name":"Uncletopia | Frankfurt | 1 | All Maps","name_short":"frk-1","host":"frk-1.de.uncletopia.com","port":27015,"enabled":true,"region":"eu","cc":"de","latitude":50.110924,"longitude":8.682127,"reserved":0,"last_update":"0001-01-01T00:00:00Z","name_a2s":"Uncletopia | Frankfurt | 1 | All Maps","protocol":17,"map":"koth_highpass","folder":"tf","game":"Team Fortress","app_id":440,"player_count":0,"max_players":24,"Bots":0,"server_type":"Dedicated","server_os":"Linux","password":true,"vac":true,"version":"7961495","steam_id":85568392924469989,"keywords":["cp","nocrits","nodmgspread","uncletopia"],"game_id":440,"stv_port":27016,"stv_name":"Uncletopia | Frankfurt | 1 | All Maps | STV","players":null},{"server_id":110,"name":"Uncletopia | Frankfurt | 2 | All Maps","name_short":"frk-2","host":"frk-1.de.uncletopia.com","port":27025,"enabled":true,"region":"eu","cc":"de","latitude":50.110924,"longitude":8.682127,"reserved":0,"last_update":"0001-01-01T00:00:00Z","name_a2s":"Uncletopia | Frankfurt | 2 | All Maps","protocol":17,"map":"cp_dustbowl","folder":"tf","game":"Team Fortress","app_id":440,"player_count":0,"max_players":24,"Bots":0,"server_type":"Dedicated","server_os":"Linux","password":true,"vac":true,"version":"7961495","steam_id":85568392924469990,"keywords":["cp","nocrits","nodmgspread","uncletopia"],"game_id":440,"stv_port":27026,"stv_name":"Uncletopia | Frankfurt | 2 | All Maps | STV","players":null},{"server_id":308,"name":"Uncletopia | Frankfurt | 3 | All Maps","name_short":"frk-3","host":"frk-1.de.uncletopia.com","port":27035,"enabled":true,"region":"eu","cc":"de","latitude":50.110924,"longitude":8.682127,"reserved":0,"last_update":"0001-01-01T00:00:00Z","name_a2s":"Uncletopia | Frankfurt | 3 | All Maps","protocol":17,"map":"pl_barnblitz","folder":"tf","game":"Team Fortress","app_id":440,"player_count":0,"max_players":24,"Bots":0,"server_type":"Dedicated","server_os":"Linux","password":true,"vac":true,"version":"7961495","steam_id":85568392924504274,"keywords":["nocrits","nodmgspread","payload","uncletopia"],"game_id":440,"stv_port":27036,"stv_name":"Uncletopia | Frankfurt | 3 | All Maps | STV","players":null},{"server_id":309,"name":"Uncletopia | Frankfurt | 4 | All Maps","name_short":"frk-4","host":"frk-1.de.uncletopia.com","port":27045,"enabled":true,"region":"eu","cc":"de","latitude":50.110924,"longitude":8.682127,"reserved":0,"last_update":"0001-01-01T00:00:00Z","name_a2s":"Uncletopia | Frankfurt | 4 | All Maps","protocol":17,"map":"koth_highpass","folder":"tf","game":"Team Fortress","app_id":440,"player_count":0,"max_players":24,"Bots":0,"server_type":"Dedicated","server_os":"Linux","password":true,"vac":true,"version":"7961495","steam_id":85568392924504275,"keywords":["cp","nocrits","nodmgspread","uncletopia"],"game_id":440,"stv_port":27046,"stv_name":"Uncletopia | Frankfurt | 4 | All Maps | STV","players":null},{"server_id":310,"name":"Uncletopia | Frankfurt | 5 | All Maps","name_short":"frk-5","host":"frk-1.de.uncletopia.com","port":27055,"enabled":true,"region":"eu","cc":"de","latitude":50.110924,"longitude":8.682127,"reserved":0,"last_update":"0001-01-01T00:00:00Z","name_a2s":"Uncletopia | Frankfurt | 5 | All Maps","protocol":17,"map":"koth_highpass","folder":"tf","game":"Team Fortress","app_id":440,"player_count":0,"max_players":24,"Bots":0,"server_type":"Dedicated","server_os":"Linux","password":true,"vac":true,"version":"7961495","steam_id":85568392924504277,"keywords":["cp","nocrits","nodmgspread","uncletopia"],"game_id":440,"stv_port":27056,"stv_name":"Uncletopia | Frankfurt | 5 | All Maps | STV","players":null},{"server_id":311,"name":"Uncletopia | Frankfurt | 6 | All Maps","name_short":"frk-6","host":"frk-1.de.uncletopia.com","port":27065,"enabled":true,"region":"eu","cc":"de","latitude":50.110924,"longitude":8.682127,"reserved":0,"last_update":"0001-01-01T00:00:00Z","name_a2s":"Uncletopia | Frankfurt | 6 | All Maps","protocol":17,"map":"cp_altitude","folder":"tf","game":"Team Fortress","app_id":440,"player_count":0,"max_players":24,"Bots":0,"server_type":"Dedicated","server_os":"Linux","password":true,"vac":true,"version":"7961495","steam_id":85568392924504278,"keywords":["cp","nocrits","nodmgspread","uncletopia"],"game_id":440,"stv_port":27066,"stv_name":"Uncletopia | Frankfurt | 6 | All Maps | STV","players":null},{"server_id":23,"name":"Uncletopia | Frankfurt | 7 | Stopwatch","name_short":"frk-7","host":"frk-1.de.uncletopia.com","port":27075,"enabled":true,"region":"eu","cc":"de","latitude":50.110924,"longitude":8.682127,"reserved":0,"last_update":"0001-01-01T00:00:00Z","name_a2s":"Uncletopia | Frankfurt | 7 | Stopwatch","protocol":17,"map":"pl_frontier_final","folder":"tf","game":"Team Fortress","app_id":440,"player_count":0,"max_players":24,"Bots":0,"server_type":"Dedicated","server_os":"Linux","password":true,"vac":true,"version":"7961495","steam_id":85568392924742827,"keywords":["nocrits","nodmgspread","payload","uncletopia"],"game_id":440,"stv_port":27076,"stv_name":"Uncletopia | Frankfurt | 7 | Stopwatch | STV","players":null},{"server_id":24,"name":"Uncletopia | Frankfurt | 8 | Community","name_short":"frk-8","host":"frk-1.de.uncletopia.com","port":27085,"enabled":true,"region":"eu","cc":"de","latitude":50.110924,"longitude":8.682127,"reserved":0,"last_update":"0001-01-01T00:00:00Z","name_a2s":"Uncletopia | Frankfurt | 8 | Community","protocol":17,"map":"cp_mountainlab","folder":"tf","game":"Team Fortress","app_id":440,"player_count":0,"max_players":24,"Bots":0,"server_type":"Dedicated","server_os":"Linux","password":true,"vac":true,"version":"7961495","steam_id":85568392924742828,"keywords":["cp","nocrits","nodmgspread","uncletopia"],"game_id":440,"stv_port":27086,"stv_name":"Uncletopia | Frankfurt | 8 | Community | STV","players":null},{"server_id":202,"name":"Uncletopia | Hong Kong | 1 | All Maps","name_short":"hgk-1","host":"hgk-1.hk.uncletopia.com","port":27015,"enabled":true,"region":"asia","cc":"hk","latitude":22.302711,"longitude":114.177216,"reserved":0,"last_update":"0001-01-01T00:00:00Z","name_a2s":"Uncletopia | Hong Kong | 1 | All Maps","protocol":17,"map":"pl_snowycoast","folder":"tf","game":"Team Fortress","app_id":440,"player_count":0,"max_players":24,"Bots":0,"server_type":"Dedicated","server_os":"Linux","password":true,"vac":true,"version":"7961495","steam_id":85568392924494504,"keywords":["nocrits","nodmgspread","payload","uncletopia"],"game_id":440,"stv_port":27016,"stv_name":"Uncletopia | Hong Kong | 1 | All Maps | STV","players":null},{"server_id":1,"name":"Uncletopia | Los Angeles | 1 | All Maps","name_short":"lax-1","host":"lax-1.us.uncletopia.com","port":27015,"enabled":true,"region":"us-west","cc":"us","latitude":33.94279,"longitude":-118.41004,"reserved":0,"last_update":"0001-01-01T00:00:00Z","name_a2s":"Uncletopia | Los Angeles | 1 | All Maps","protocol":17,"map":"pl_swiftwater_final1","folder":"tf","game":"Team Fortress","app_id":440,"player_count":0,"max_players":24,"Bots":0,"server_type":"Dedicated","server_os":"Linux","password":true,"vac":true,"version":"7961495","steam_id":85568392924469991,"keywords":["nocrits","nodmgspread","payload","uncletopia"],"game_id":440,"stv_port":27016,"stv_name":"Uncletopia | Los Angeles | 1 | All Maps | STV","players":null},{"server_id":112,"name":"Uncletopia | Los Angeles | 2 | All Maps","name_short":"lax-2","host":"lax-1.us.uncletopia.com","port":27025,"enabled":true,"region":"us-west","cc":"us","latitude":33.94279,"longitude":-118.41004,"reserved":0,"last_update":"0001-01-01T00:00:00Z","name_a2s":"Uncletopia | Los Angeles | 2 | All Maps","protocol":17,"map":"pl_frontier_final","folder":"tf","game":"Team Fortress","app_id":440,"player_count":0,"max_players":24,"Bots":0,"server_type":"Dedicated","server_os":"Linux","password":true,"vac":true,"version":"7961495","steam_id":85568392924469992,"keywords":["nocrits","nodmgspread","payload","uncletopia"],"game_id":440,"stv_port":27026,"stv_name":"Uncletopia | Los Angeles | 2 | All Maps | STV","players":null},{"server_id":324,"name":"Uncletopia | Los Angeles | 3 | All Maps","name_short":"lax-3","host":"lax-1.us.uncletopia.com","port":27035,"enabled":true,"region":"us-west","cc":"us","latitude":33.94279,"longitude":-118.41004,"reserved":0,"last_update":"0001-01-01T00:00:00Z","name_a2s":"Uncletopia | Los Angeles | 3 | All Maps","protocol":17,"map":"koth_viaduct","folder":"tf","game":"Team Fortress","app_id":440,"player_count":0,"max_players":24,"Bots":0,"server_type":"Dedicated","server_os":"Linux","password":true,"vac":true,"version":"7961495","steam_id":85568392924510198,"keywords":["cp","nocrits","nodmgspread","uncletopia"],"game_id":440,"stv_port":27036,"stv_name":"Uncletopia | Los Angeles | 3 | All Maps | STV","players":null},{"server_id":25,"name":"Uncletopia | Los Angeles | 4 | Stopwatch","name_short":"lax-4","host":"lax-1.us.uncletopia.com","port":27045,"enabled":true,"region":"us-west","cc":"us","latitude":33.94279,"longitude":-118.41004,"reserved":0,"last_update":"0001-01-01T00:00:00Z","name_a2s":"Uncletopia | Los Angeles | 4 | Stopwatch","protocol":17,"map":"cp_process_final","folder":"tf","game":"Team Fortress","app_id":440,"player_count":0,"max_players":24,"Bots":0,"server_type":"Dedicated","server_os":"Linux","password":true,"vac":true,"version":"7961495","steam_id":85568392924510199,"keywords":["cp","nocrits","nodmgspread","uncletopia"],"game_id":440,"stv_port":27046,"stv_name":"Uncletopia | Los Angeles | 4 | Stopwatch | STV","players":null},{"server_id":11,"name":"Uncletopia | London | 1 | All Maps","name_short":"lon-1","host":"lon-1.uk.uncletopia.com","port":27015,"enabled":true,"region":"eu","cc":"gb","latitude":51.509865,"longitude":-0.118092,"reserved":0,"last_update":"0001-01-01T00:00:00Z","name_a2s":"Uncletopia | London | 1 | All Maps","protocol":17,"map":"pl_barnblitz","folder":"tf","game":"Team Fortress","app_id":440,"player_count":23,"max_players":24,"Bots":0,"server_type":"Dedicated","server_os":"Linux","password":true,"vac":true,"version":"7961495","steam_id":85568392924367362,"keywords":["nocrits","nodmgspread","payload","uncletopia"],"game_id":440,"stv_port":27016,"stv_name":"Uncletopia | London | 1 | All Maps | STV","players":[{"user_id":54,"name":"grr","steam_id":76561199429407130,"connected_time":2829000000000,"state":"active","ping":86},{"user_id":51,"name":"FurbyZone","steam_id":76561198268344503,"connected_time":3397000000000,"state":"active","ping":51},{"user_id":74,"name":"Rudoss","steam_id":76561198018415787,"connected_time":1659000000000,"state":"active","ping":74},{"user_id":104,"name":"PP_master69420","steam_id":76561199019913910,"connected_time":222000000000,"state":"active","ping":86},{"user_id":105,"name":"Пихсили","steam_id":76561198870763698,"connected_time":178000000000,"state":"active","ping":115},{"user_id":76,"name":"Average Water Fan","steam_id":76561199415989636,"connected_time":1463000000000,"state":"active","ping":91},{"user_id":61,"name":"aeriun","steam_id":76561198322862462,"connected_time":2341000000000,"state":"active","ping":60},{"user_id":77,"name":"Flying skyhigh","steam_id":76561198372971096,"connected_time":1409000000000,"state":"active","ping":69},{"user_id":103,"name":"KGiorgios_Bully","steam_id":76561198825392728,"connected_time":360000000000,"state":"active","ping":103},{"user_id":79,"name":"M41 2131","steam_id":76561198097789669,"connected_time":1362000000000,"state":"active","ping":70},{"user_id":93,"name":"haydar198112","steam_id":76561198131197590,"connected_time":619000000000,"state":"active","ping":140},{"user_id":82,"name":"Volodya","steam_id":76561198124484658,"connected_time":1267000000000,"state":"active","ping":130},{"user_id":72,"name":"space creep","steam_id":76561198025668545,"connected_time":1869000000000,"state":"active","ping":124},{"user_id":98,"name":"Detarin5000","steam_id":76561198864279558,"connected_time":492000000000,"state":"active","ping":84},{"user_id":85,"name":"Waltuh","steam_id":76561198079334270,"connected_time":1052000000000,"state":"active","ping":72},{"user_id":99,"name":"♦♦dabmich5♦♦","steam_id":76561198246557998,"connected_time":490000000000,"state":"active","ping":69},{"user_id":69,"name":"SaSSolino","steam_id":76561198011308018,"connected_time":2111000000000,"state":"active","ping":67},{"user_id":87,"name":"cns","steam_id":76561198928561658,"connected_time":1022000000000,"state":"active","ping":79},{"user_id":101,"name":"Seishidora","steam_id":76561198355587569,"connected_time":467000000000,"state":"active","ping":113},{"user_id":89,"name":"HumFreY","steam_id":76561198076639682,"connected_time":1010000000000,"state":"active","ping":127},{"user_id":90,"name":"yodel","steam_id":76561198138777659,"connected_time":1001000000000,"state":"active","ping":74},{"user_id":91,"name":"BOLAXA","steam_id":76561198228406008,"connected_time":994000000000,"state":"active","ping":75},{"user_id":92,"name":"Neimon","steam_id":76561198343485710,"connected_time":967000000000,"state":"active","ping":136}]},{"server_id":114,"name":"Uncletopia | London | 2 | All Maps","name_short":"lon-2","host":"lon-1.uk.uncletopia.com","port":27025,"enabled":true,"region":"eu","cc":"gb","latitude":51.509865,"longitude":-0.118092,"reserved":0,"last_update":"0001-01-01T00:00:00Z","name_a2s":"Uncletopia | London | 2 | All Maps","protocol":17,"map":"koth_lakeside_final","folder":"tf","game":"Team Fortress","app_id":440,"player_count":0,"max_players":24,"Bots":0,"server_type":"Dedicated","server_os":"Linux","password":true,"vac":true,"version":"7961495","steam_id":85568392924470941,"keywords":["cp","nocrits","nodmgspread","uncletopia"],"game_id":440,"stv_port":27026,"stv_name":"Uncletopia | London | 2 | All Maps | STV","players":null},{"server_id":320,"name":"Uncletopia | London | 3 | All Maps","name_short":"lon-3","host":"lon-1.uk.uncletopia.com","port":27035,"enabled":true,"region":"eu","cc":"gb","latitude":51.509865,"longitude":-0.118092,"reserved":0,"last_update":"0001-01-01T00:00:00Z","name_a2s":"Uncletopia | London | 3 | All Maps","protocol":17,"map":"cp_process_final","folder":"tf","game":"Team Fortress","app_id":440,"player_count":0,"max_players":24,"Bots":0,"server_type":"Dedicated","server_os":"Linux","password":true,"vac":true,"version":"7961495","steam_id":85568392924510192,"keywords":["cp","nocrits","nodmgspread","uncletopia"],"game_id":440,"stv_port":27036,"stv_name":"Uncletopia | London | 3 | All Maps | STV","players":null},{"server_id":321,"name":"Uncletopia | London | 4 | All Maps","name_short":"lon-4","host":"lon-1.uk.uncletopia.com","port":27045,"enabled":true,"region":"eu","cc":"gb","latitude":51.509865,"longitude":-0.118092,"reserved":0,"last_update":"0001-01-01T00:00:00Z","name_a2s":"Uncletopia | London | 4 | All Maps","protocol":17,"map":"koth_cascade","folder":"tf","game":"Team Fortress","app_id":440,"player_count":0,"max_players":24,"Bots":0,"server_type":"Dedicated","server_os":"Linux","password":true,"vac":true,"version":"7961495","steam_id":85568392924510193,"keywords":["cp","nocrits","nodmgspread","uncletopia"],"game_id":440,"stv_port":27046,"stv_name":"Uncletopia | London | 4 | All Maps | STV","players":null},{"server_id":21,"name":"Uncletopia | London | 5 | All Maps","name_short":"lon-5","host":"lon-1.uk.uncletopia.com","port":27055,"enabled":true,"region":"eu","cc":"gb","latitude":51.509865,"longitude":-0.118092,"reserved":0,"last_update":"0001-01-01T00:00:00Z","name_a2s":"Uncletopia | London | 5 | All Maps","protocol":17,"map":"koth_lakeside_final","folder":"tf","game":"Team Fortress","app_id":440,"player_count":0,"max_players":24,"Bots":0,"server_type":"Dedicated","server_os":"Linux","password":true,"vac":true,"version":"7961495","steam_id":85568392924742829,"keywords":["cp","nocrits","nodmgspread","uncletopia"],"game_id":440,"stv_port":27056,"stv_name":"Uncletopia | London | 5 | All Maps | STV","players":null},{"server_id":22,"name":"Uncletopia | London | 6 | All Maps","name_short":"lon-6","host":"lon-1.uk.uncletopia.com","port":27065,"enabled":true,"region":"eu","cc":"gb","latitude":51.509865,"longitude":-0.118092,"reserved":0,"last_update":"0001-01-01T00:00:00Z","name_a2s":"Uncletopia | London | 6 | All Maps","protocol":17,"map":"cp_dustbowl","folder":"tf","game":"Team Fortress","app_id":440,"player_count":0,"max_players":24,"Bots":0,"server_type":"Dedicated","server_os":"Linux","password":true,"vac":true,"version":"7961495","steam_id":85568392924742830,"keywords":["cp","nocrits","nodmgspread","uncletopia"],"game_id":440,"stv_port":27066,"stv_name":"Uncletopia | London | 6 | All Maps | STV","players":null},{"server_id":40,"name":"Uncletopia | London | 7 | Stopwatch","name_short":"lon-7","host":"lon-1.uk.uncletopia.com","port":27075,"enabled":true,"region":"eu","cc":"gb","latitude":51.509865,"longitude":-0.118092,"reserved":0,"last_update":"0001-01-01T00:00:00Z","name_a2s":"Uncletopia | London | 7 | Stopwatch","protocol":17,"map":"koth_lakeside_final","folder":"tf","game":"Team Fortress","app_id":440,"player_count":0,"max_players":24,"Bots":0,"server_type":"Dedicated","server_os":"Linux","password":true,"vac":true,"version":"7961495","steam_id":85568392924964314,"keywords":["cp","nocrits","nodmgspread","uncletopia"],"game_id":440,"stv_port":27076,"stv_name":"Uncletopia | London | 7 | Stopwatch | STV","players":null},{"server_id":41,"name":"Uncletopia | London | 8 | Community","name_short":"lon-8","host":"lon-1.uk.uncletopia.com","port":27085,"enabled":true,"region":"eu","cc":"gb","latitude":51.509865,"longitude":-0.118092,"reserved":0,"last_update":"0001-01-01T00:00:00Z","name_a2s":"Uncletopia | London | 8 | Community","protocol":17,"map":"cp_snakewater_final1","folder":"tf","game":"Team Fortress","app_id":440,"player_count":0,"max_players":24,"Bots":0,"server_type":"Dedicated","server_os":"Linux","password":true,"vac":true,"version":"7961495","steam_id":85568392924964315,"keywords":["cp","nocrits","nodmgspread","uncletopia"],"game_id":440,"stv_port":27086,"stv_name":"Uncletopia | London | 8 | Community | STV","players":null},{"server_id":300,"name":"Uncletopia | Montréal | 1 | One Thousand Uncles","name_short":"mtl-1","host":"mtl-1.ca.uncletopia.com","port":27015,"enabled":true,"region":"us-east","cc":"ca","latitude":45.50889,"longitude":-73.56167,"reserved":0,"last_update":"0001-01-01T00:00:00Z","name_a2s":"","protocol":0,"map":"","folder":"","game":"","app_id":0,"player_count":0,"max_players":0,"Bots":0,"server_type":"","server_os":"","password":false,"vac":false,"version":"","steam_id":0,"keywords":null,"game_id":0,"stv_port":0,"stv_name":"","players":null},{"server_id":301,"name":"Uncletopia | Montréal | 2 | One Thousand Uncles","name_short":"mtl-2","host":"mtl-1.ca.uncletopia.com","port":27025,"enabled":true,"region":"us-east","cc":"ca","latitude":45.50889,"longitude":-73.56167,"reserved":0,"last_update":"0001-01-01T00:00:00Z","name_a2s":"","protocol":0,"map":"","folder":"","game":"","app_id":0,"player_count":0,"max_players":0,"Bots":0,"server_type":"","server_os":"","password":false,"vac":false,"version":"","steam_id":0,"keywords":null,"game_id":0,"stv_port":0,"stv_name":"","players":null},{"server_id":302,"name":"Uncletopia | Montréal | 3 | One Thousand Uncles","name_short":"mtl-3","host":"mtl-1.ca.uncletopia.com","port":27035,"enabled":true,"region":"us-east","cc":"ca","latitude":45.50889,"longitude":-73.56167,"reserved":0,"last_update":"0001-01-01T00:00:00Z","name_a2s":"","protocol":0,"map":"","folder":"","game":"","app_id":0,"player_count":0,"max_players":0,"Bots":0,"server_type":"","server_os":"","password":false,"vac":false,"version":"","steam_id":0,"keywords":null,"game_id":0,"stv_port":0,"stv_name":"","players":null},{"server_id":13,"name":"Uncletopia | New York City | 1 | All Maps","name_short":"nyc-1","host":"nyc-1.us.uncletopia.com","port":27015,"enabled":true,"region":"us-east","cc":"us","latitude":40.73061,"longitude":-73.93524,"reserved":0,"last_update":"0001-01-01T00:00:00Z","name_a2s":"Uncletopia | New York City | 1 | All Maps","protocol":17,"map":"cp_mountainlab","folder":"tf","game":"Team Fortress","app_id":440,"player_count":0,"max_players":24,"Bots":0,"server_type":"Dedicated","server_os":"Linux","password":true,"vac":true,"version":"7961495","steam_id":85568392924469993,"keywords":["cp","nocrits","nodmgspread","uncletopia"],"game_id":440,"stv_port":27016,"stv_name":"Uncletopia | New York City | 1 | All Maps | STV","players":null},{"server_id":14,"name":"Uncletopia | New York City | 2 | All Maps","name_short":"nyc-2","host":"nyc-1.us.uncletopia.com","port":27025,"enabled":true,"region":"us-east","cc":"us","latitude":40.73061,"longitude":-73.93524,"reserved":0,"last_update":"0001-01-01T00:00:00Z","name_a2s":"Uncletopia | New York City | 2 | All Maps","protocol":17,"map":"pl_borneo","folder":"tf","game":"Team Fortress","app_id":440,"player_count":0,"max_players":24,"Bots":0,"server_type":"Dedicated","server_os":"Linux","password":true,"vac":true,"version":"7961495","steam_id":85568392924469994,"keywords":["nocrits","nodmgspread","payload","uncletopia"],"game_id":440,"stv_port":27026,"stv_name":"Uncletopia | New York City | 2 | All Maps | STV","players":null},{"server_id":15,"name":"Uncletopia | New York City | 3 | Stopwatch","name_short":"nyc-3","host":"nyc-1.us.uncletopia.com","port":27035,"enabled":true,"region":"us-east","cc":"us","latitude":40.73061,"longitude":-73.93524,"reserved":0,"last_update":"0001-01-01T00:00:00Z","name_a2s":"Uncletopia | New York City | 3 | Stopwatch","protocol":17,"map":"koth_highpass","folder":"tf","game":"Team Fortress","app_id":440,"player_count":0,"max_players":24,"Bots":0,"server_type":"Dedicated","server_os":"Linux","password":true,"vac":true,"version":"7961495","steam_id":85568392924742820,"keywords":["cp","nocrits","nodmgspread","uncletopia"],"game_id":440,"stv_port":27036,"stv_name":"Uncletopia | New York City | 3 | Stopwatch | STV","players":null},{"server_id":16,"name":"Uncletopia | New York City | 4 | Community","name_short":"nyc-4","host":"nyc-1.us.uncletopia.com","port":27045,"enabled":true,"region":"us-east","cc":"us","latitude":40.73061,"longitude":-73.93524,"reserved":0,"last_update":"0001-01-01T00:00:00Z","name_a2s":"Uncletopia | New York City | 4 | Community","protocol":17,"map":"workshop/koth_product_final.ugc454272353","folder":"tf","game":"Team Fortress","app_id":440,"player_count":0,"max_players":24,"Bots":0,"server_type":"Dedicated","server_os":"Linux","password":true,"vac":true,"version":"7961495","steam_id":85568392924742821,"keywords":["cp","nocrits","nodmgspread","uncletopia"],"game_id":440,"stv_port":27046,"stv_name":"Uncletopia | New York City | 4 | Community | STV","players":null},{"server_id":142,"name":"Uncletopia | São Paulo | 1 | All Maps","name_short":"sao-1","host":"sao-1.br.uncletopia.com","port":27015,"enabled":true,"region":"sa","cc":"br","latitude":-23.533773,"longitude":-46.62529,"reserved":0,"last_update":"0001-01-01T00:00:00Z","name_a2s":"Uncletopia | São Paulo | 1 | All Maps","protocol":17,"map":"koth_cascade","folder":"tf","game":"Team Fortress","app_id":440,"player_count":0,"max_players":24,"Bots":0,"server_type":"Dedicated","server_os":"Linux","password":true,"vac":true,"version":"7961495","steam_id":85568392924469996,"keywords":["cp","nocrits","nodmgspread","uncletopia"],"game_id":440,"stv_port":27016,"stv_name":"Uncletopia | São Paulo | 1 | All Maps | STV","players":null},{"server_id":143,"name":"Uncletopia | São Paulo | 2 | Community","name_short":"sao-2","host":"sao-2.br.uncletopia.com","port":27015,"enabled":true,"region":"sa","cc":"br","latitude":-23.533773,"longitude":-46.62529,"reserved":0,"last_update":"0001-01-01T00:00:00Z","name_a2s":"Uncletopia | São Paulo | 2 | Community","protocol":17,"map":"workshop/koth_slaughter_rc1.ugc1712845210","folder":"tf","game":"Team Fortress","app_id":440,"player_count":0,"max_players":24,"Bots":0,"server_type":"Dedicated","server_os":"Linux","password":true,"vac":true,"version":"7961495","steam_id":85568392924485349,"keywords":["cp","nocrits","nodmgspread","uncletopia"],"game_id":440,"stv_port":27016,"stv_name":"Uncletopia | São Paulo | 2 | Community | STV","players":null},{"server_id":7,"name":"Uncletopia | Seattle | 1 | All Maps","name_short":"sea-1","host":"sea-1.us.uncletopia.com","port":27015,"enabled":true,"region":"us-west","cc":"us","latitude":47.608013,"longitude":-122.33517,"reserved":0,"last_update":"0001-01-01T00:00:00Z","name_a2s":"Uncletopia | Seattle | 1 | All Maps","protocol":17,"map":"pl_upward","folder":"tf","game":"Team Fortress","app_id":440,"player_count":24,"max_players":24,"Bots":0,"server_type":"Dedicated","server_os":"Linux","password":true,"vac":true,"version":"7961495","steam_id":85568392924469997,"keywords":["nocrits","nodmgspread","payload","uncletopia"],"game_id":440,"stv_port":27016,"stv_name":"Uncletopia | Seattle | 1 | All Maps | STV","players":[{"user_id":735,"name":"Cat on the Moon","steam_id":76561198272661627,"connected_time":1509000000000,"state":"active","ping":76},{"user_id":737,"name":"Hopdon The Magic Bunny","steam_id":76561198051616613,"connected_time":1328000000000,"state":"active","ping":105},{"user_id":706,"name":"Kaiga","steam_id":76561198044052046,"connected_time":4201000000000,"state":"active","ping":121},{"user_id":717,"name":"Gruntilda Tim","steam_id":76561198000852537,"connected_time":3014000000000,"state":"active","ping":61},{"user_id":738,"name":"kill me","steam_id":76561198032625036,"connected_time":1224000000000,"state":"active","ping":56},{"user_id":709,"name":"Grand","steam_id":76561198290143399,"connected_time":3830000000000,"state":"active","ping":72},{"user_id":739,"name":"raspy","steam_id":76561198027298961,"connected_time":1188000000000,"state":"active","ping":115},{"user_id":698,"name":"Sweets","steam_id":76561198998446307,"connected_time":5175000000000,"state":"active","ping":64},{"user_id":721,"name":"Nom Skirrett","steam_id":76561198014600788,"connected_time":2552000000000,"state":"active","ping":62},{"user_id":747,"name":"peachy","steam_id":76561198028721790,"connected_time":652000000000,"state":"active","ping":67},{"user_id":750,"name":"RedlineRush","steam_id":76561198122437356,"connected_time":302000000000,"state":"active","ping":45},{"user_id":696,"name":"Brathic","steam_id":76561198966232163,"connected_time":5193000000000,"state":"active","ping":79},{"user_id":745,"name":"Ojen","steam_id":76561197998414482,"connected_time":922000000000,"state":"active","ping":105},{"user_id":681,"name":"Mr8bittripper","steam_id":76561198133894229,"connected_time":6479000000000,"state":"active","ping":42},{"user_id":682,"name":"Hawksgamer","steam_id":76561198152405941,"connected_time":6457000000000,"state":"active","ping":40},{"user_id":741,"name":"lavender","steam_id":76561199069518286,"connected_time":1158000000000,"state":"active","ping":71},{"user_id":710,"name":"poundcake","steam_id":76561198796548083,"connected_time":3670000000000,"state":"active","ping":45},{"user_id":742,"name":"Salt Syndrome","steam_id":76561198046584592,"connected_time":1089000000000,"state":"active","ping":118},{"user_id":743,"name":"mudspaw","steam_id":76561198101327448,"connected_time":1048000000000,"state":"active","ping":104},{"user_id":699,"name":"Tideflat","steam_id":76561198179850851,"connected_time":5161000000000,"state":"active","ping":49},{"user_id":746,"name":"[TrC] Dackstrus","steam_id":76561197973518509,"connected_time":887000000000,"state":"active","ping":59},{"user_id":716,"name":"gorlab","steam_id":76561198025089694,"connected_time":3491000000000,"state":"active","ping":60},{"user_id":544,"name":"baedeker","steam_id":76561199081837220,"connected_time":19718000000000,"state":"active","ping":107},{"user_id":749,"name":"Octopus","steam_id":76561198114639980,"connected_time":448000000000,"state":"active","ping":96}]},{"server_id":119,"name":"Uncletopia | Seattle | 2 | All Maps","name_short":"sea-2","host":"sea-1.us.uncletopia.com","port":27025,"enabled":true,"region":"us-west","cc":"us","latitude":47.608013,"longitude":-122.33517,"reserved":0,"last_update":"0001-01-01T00:00:00Z","name_a2s":"Uncletopia | Seattle | 2 | All Maps","protocol":17,"map":"koth_highpass","folder":"tf","game":"Team Fortress","app_id":440,"player_count":12,"max_players":24,"Bots":0,"server_type":"Dedicated","server_os":"Linux","password":true,"vac":true,"version":"7961495","steam_id":85568392924469998,"keywords":["cp","nocrits","nodmgspread","uncletopia"],"game_id":440,"stv_port":27026,"stv_name":"Uncletopia | Seattle | 2 | All Maps | STV","players":[{"user_id":548,"name":"muggyrhombus","steam_id":76561198832044501,"connected_time":347000000000,"state":"active","ping":108},{"user_id":539,"name":"PS plus","steam_id":76561198852855840,"connected_time":931000000000,"state":"active","ping":73},{"user_id":545,"name":"foxmagic","steam_id":76561198163167495,"connected_time":543000000000,"state":"active","ping":37},{"user_id":544,"name":"|Ash|","steam_id":76561198278034104,"connected_time":560000000000,"state":"active","ping":53},{"user_id":556,"name":"FCKGW-RHQQ2-YXRKT-8TG6W-2B7Q8","steam_id":76561197993138592,"connected_time":28000000000,"state":"active","ping":45},{"user_id":508,"name":"NightGhost1400","steam_id":76561198810730471,"connected_time":3633000000000,"state":"active","ping":61},{"user_id":557,"name":"Mtn. Mama","steam_id":76561198065752835,"connected_time":2000000000,"state":"spawning","ping":102},{"user_id":550,"name":"WillowWisp","steam_id":76561198049104842,"connected_time":317000000000,"state":"active","ping":45},{"user_id":553,"name":"I love you","steam_id":76561198250371792,"connected_time":250000000000,"state":"active","ping":107},{"user_id":515,"name":"ZonedIn","steam_id":76561198042395286,"connected_time":2878000000000,"state":"active","ping":71},{"user_id":555,"name":"SuperRPGgamer","steam_id":76561198288017834,"connected_time":73000000000,"state":"active","ping":85},{"user_id":538,"name":"the pizza","steam_id":76561198221331476,"connected_time":956000000000,"state":"active","ping":45}]},{"server_id":406,"name":"Uncletopia | Seattle | 3 | Stopwatch","name_short":"sea-3","host":"sea-1.us.uncletopia.com","port":27035,"enabled":true,"region":"us-west","cc":"us","latitude":47.608013,"longitude":-122.33517,"reserved":0,"last_update":"0001-01-01T00:00:00Z","name_a2s":"Uncletopia | Seattle | 3 | Stopwatch","protocol":17,"map":"workshop/koth_ashville_final.ugc2130459942","folder":"tf","game":"Team Fortress","app_id":440,"player_count":0,"max_players":24,"Bots":0,"server_type":"Dedicated","server_os":"Linux","password":true,"vac":true,"version":"7961495","steam_id":85568392924515217,"keywords":["cp","nocrits","nodmgspread","uncletopia"],"game_id":440,"stv_port":27036,"stv_name":"Uncletopia | Seattle | 3 | Stopwatch | STV","players":null},{"server_id":17,"name":"Uncletopia | San Francisco | 1 | All Maps","name_short":"sfo-1","host":"sfo-1.us.uncletopia.com","port":27015,"enabled":true,"region":"us-west","cc":"us","latitude":37.77397,"longitude":-122.4313,"reserved":0,"last_update":"0001-01-01T00:00:00Z","name_a2s":"Uncletopia | San Francisco | 1 | All Maps","protocol":17,"map":"koth_cascade","folder":"tf","game":"Team Fortress","app_id":440,"player_count":0,"max_players":24,"Bots":0,"server_type":"Dedicated","server_os":"Linux","password":true,"vac":true,"version":"7961495","steam_id":85568392924469999,"keywords":["cp","nocrits","nodmgspread","uncletopia"],"game_id":440,"stv_port":27016,"stv_name":"Uncletopia | San Francisco | 1 | All Maps | STV","players":null},{"server_id":18,"name":"Uncletopia | San Francisco | 2 | All Maps","name_short":"sfo-2","host":"sfo-1.us.uncletopia.com","port":27025,"enabled":true,"region":"us-west","cc":"us","latitude":37.77397,"longitude":-122.4313,"reserved":0,"last_update":"0001-01-01T00:00:00Z","name_a2s":"Uncletopia | San Francisco | 2 | All Maps","protocol":17,"map":"pl_upward","folder":"tf","game":"Team Fortress","app_id":440,"player_count":24,"max_players":24,"Bots":0,"server_type":"Dedicated","server_os":"Linux","password":true,"vac":true,"version":"7961495","steam_id":85568392924470000,"keywords":["nocrits","nodmgspread","payload","uncletopia"],"game_id":440,"stv_port":27026,"stv_name":"Uncletopia | San Francisco | 2 | All Maps | STV","players":[{"user_id":149,"name":"amalgam","steam_id":76561198159058576,"connected_time":2276000000000,"state":"active","ping":116},{"user_id":131,"name":"Chocc-_-","steam_id":76561198068070211,"connected_time":3786000000000,"state":"active","ping":61},{"user_id":169,"name":"roach :3","steam_id":76561198354811369,"connected_time":811000000000,"state":"active","ping":55},{"user_id":120,"name":"Mud Goblin","steam_id":76561198839118505,"connected_time":4202000000000,"state":"active","ping":60},{"user_id":121,"name":"NEBULA","steam_id":76561198086878595,"connected_time":4184000000000,"state":"active","ping":49},{"user_id":159,"name":"SneekiCheekiQbone","steam_id":76561198045077980,"connected_time":1728000000000,"state":"active","ping":52},{"user_id":122,"name":"jorts","steam_id":76561199041179985,"connected_time":4178000000000,"state":"active","ping":66},{"user_id":170,"name":"Anon","steam_id":76561198109740776,"connected_time":237000000000,"state":"active","ping":64},{"user_id":162,"name":"Keamy","steam_id":76561199471434875,"connected_time":1373000000000,"state":"active","ping":62},{"user_id":144,"name":"Matches_                       ","steam_id":76561198048925904,"connected_time":2987000000000,"state":"active","ping":68},{"user_id":163,"name":"Zero-Xyfer","steam_id":76561198351621003,"connected_time":1344000000000,"state":"active","ping":130},{"user_id":148,"name":"pup","steam_id":76561198206523304,"connected_time":2324000000000,"state":"active","ping":68},{"user_id":127,"name":"rorywashere /ᐠ - ˕ -マ Ⳋ","steam_id":76561198065825165,"connected_time":4125000000000,"state":"active","ping":91},{"user_id":150,"name":"pinkytoe","steam_id":76561198254052870,"connected_time":2243000000000,"state":"active","ping":90},{"user_id":128,"name":"delight","steam_id":76561197980280272,"connected_time":4124000000000,"state":"active","ping":65},{"user_id":161,"name":"Rattlesnake","steam_id":76561198321044152,"connected_time":1626000000000,"state":"active","ping":63},{"user_id":168,"name":"johnny","steam_id":76561198050225055,"connected_time":825000000000,"state":"active","ping":59},{"user_id":166,"name":"butt cummer","steam_id":76561198878711921,"connected_time":1136000000000,"state":"active","ping":90},{"user_id":151,"name":"MASHUP KREEPS !!!","steam_id":76561198114269880,"connected_time":2236000000000,"state":"active","ping":64},{"user_id":172,"name":"HOMELESS MILLIONAIRE","steam_id":76561198145669711,"connected_time":179000000000,"state":"active","ping":47},{"user_id":153,"name":"Always Here for You","steam_id":76561198219252313,"connected_time":2132000000000,"state":"active","ping":116},{"user_id":158,"name":"Western_dragon","steam_id":76561198130456105,"connected_time":1899000000000,"state":"active","ping":60},{"user_id":155,"name":"hart","steam_id":76561198046073848,"connected_time":2004000000000,"state":"active","ping":64},{"user_id":146,"name":"smeasly","steam_id":76561198028718812,"connected_time":2345000000000,"state":"active","ping":60}]},{"server_id":19,"name":"Uncletopia | San Francisco | 3 | Stopwatch","name_short":"sfo-3","host":"sfo-1.us.uncletopia.com","port":27035,"enabled":true,"region":"us-west","cc":"us","latitude":37.77397,"longitude":-122.4313,"reserved":0,"last_update":"0001-01-01T00:00:00Z","name_a2s":"Uncletopia | San Francisco | 3 | Stopwatch","protocol":17,"map":"workshop/cp_reckoner_rc6.ugc674719999","folder":"tf","game":"Team Fortress","app_id":440,"player_count":0,"max_players":24,"Bots":0,"server_type":"Dedicated","server_os":"Linux","password":true,"vac":true,"version":"7961495","steam_id":85568392924742824,"keywords":["cp","nocrits","nodmgspread","uncletopia"],"game_id":440,"stv_port":27036,"stv_name":"Uncletopia | San Francisco | 3 | Stopwatch | STV","players":null},{"server_id":20,"name":"Uncletopia | San Francisco | 4 | Community","name_short":"sfo-4","host":"sfo-1.us.uncletopia.com","port":27045,"enabled":true,"region":"us-west","cc":"us","latitude":37.77397,"longitude":-122.4313,"reserved":0,"last_update":"0001-01-01T00:00:00Z","name_a2s":"Uncletopia | San Francisco | 4 | Community","protocol":17,"map":"workshop/pl_emerge_rc2.ugc888027758","folder":"tf","game":"Team Fortress","app_id":440,"player_count":0,"max_players":24,"Bots":0,"server_type":"Dedicated","server_os":"Linux","password":true,"vac":true,"version":"7961495","steam_id":85568392924742826,"keywords":["nocrits","nodmgspread","payload","uncletopia"],"game_id":440,"stv_port":27046,"stv_name":"Uncletopia | San Francisco | 4 | Community | STV","players":null},{"server_id":141,"name":"Uncletopia | Sydney | 1 | All Maps","name_short":"syd-1","host":"syd-1.au.uncletopia.com","port":27015,"enabled":true,"region":"au","cc":"au","latitude":-33.865143,"longitude":151.2099,"reserved":0,"last_update":"0001-01-01T00:00:00Z","name_a2s":"Uncletopia | Sydney | 1 | All Maps","protocol":17,"map":"pl_borneo","folder":"tf","game":"Team Fortress","app_id":440,"player_count":11,"max_players":24,"Bots":0,"server_type":"Dedicated","server_os":"Linux","password":true,"vac":true,"version":"7961495","steam_id":85568392924470001,"keywords":["nocrits","nodmgspread","payload","uncletopia"],"game_id":440,"stv_port":27016,"stv_name":"Uncletopia | Sydney | 1 | All Maps | STV","players":[{"user_id":15,"name":"tren","steam_id":76561199184547017,"connected_time":1840000000000,"state":"active","ping":41},{"user_id":21,"name":"FortSkin","steam_id":76561198306660831,"connected_time":1023000000000,"state":"active","ping":75},{"user_id":17,"name":"Mr Lorpso","steam_id":76561199123218251,"connected_time":1482000000000,"state":"active","ping":81},{"user_id":18,"name":"Me when tryhards kill me","steam_id":76561199209207003,"connected_time":1396000000000,"state":"active","ping":307},{"user_id":19,"name":"Furball","steam_id":76561198123732428,"connected_time":1120000000000,"state":"active","ping":68},{"user_id":22,"name":"Finlania","steam_id":76561198329983691,"connected_time":676000000000,"state":"active","ping":66},{"user_id":23,"name":"little raw meat boy","steam_id":76561199248254676,"connected_time":666000000000,"state":"active","ping":70},{"user_id":29,"name":"precious.","steam_id":76561198054804209,"connected_time":73000000000,"state":"active","ping":90},{"user_id":25,"name":"Massira","steam_id":76561199445907962,"connected_time":554000000000,"state":"active","ping":55},{"user_id":30,"name":"Toastie","steam_id":76561197990059475,"connected_time":41000000000,"state":"spawning","ping":36},{"user_id":31,"name":"Wolfdad Duke","steam_id":76561197986442930,"connected_time":27000000000,"state":"active","ping":316}]},{"server_id":123,"name":"Uncletopia | Sydney | 2 | All Maps","name_short":"syd-2","host":"syd-1.au.uncletopia.com","port":27025,"enabled":true,"region":"au","cc":"au","latitude":-33.865143,"longitude":151.2099,"reserved":0,"last_update":"0001-01-01T00:00:00Z","name_a2s":"Uncletopia | Sydney | 2 | All Maps","protocol":17,"map":"koth_lakeside_final","folder":"tf","game":"Team Fortress","app_id":440,"player_count":2,"max_players":24,"Bots":0,"server_type":"Dedicated","server_os":"Linux","password":true,"vac":true,"version":"7961495","steam_id":85568392924470002,"keywords":["cp","nocrits","nodmgspread","uncletopia"],"game_id":440,"stv_port":27026,"stv_name":"Uncletopia | Sydney | 2 | All Maps | STV","players":[{"user_id":9,"name":"Mpdacey","steam_id":76561198045063665,"connected_time":667000000000,"state":"active","ping":48},{"user_id":10,"name":"TazzyDevil","steam_id":76561198449396730,"connected_time":477000000000,"state":"active","ping":56}]},{"server_id":395,"name":"Uncletopia | Sydney | 3 | All Maps","name_short":"syd-3","host":"syd-1.au.uncletopia.com","port":27035,"enabled":true,"region":"au","cc":"au","latitude":-33.865143,"longitude":151.2099,"reserved":0,"last_update":"0001-01-01T00:00:00Z","name_a2s":"Uncletopia | Sydney | 3 | All Maps","protocol":17,"map":"pl_goldrush","folder":"tf","game":"Team Fortress","app_id":440,"player_count":23,"max_players":24,"Bots":0,"server_type":"Dedicated","server_os":"Linux","password":true,"vac":true,"version":"7961495","steam_id":85568392925194467,"keywords":["nocrits","nodmgspread","payload","uncletopia"],"game_id":440,"stv_port":27036,"stv_name":"Uncletopia | Sydney | 3 | All Maps | STV","players":[{"user_id":67,"name":"Teamfighting","steam_id":76561198160135508,"connected_time":3325000000000,"state":"active","ping":55},{"user_id":56,"name":"Snowy","steam_id":76561198255720598,"connected_time":3827000000000,"state":"active","ping":46},{"user_id":32,"name":"qpekejdj","steam_id":76561198933010635,"connected_time":5367000000000,"state":"active","ping":44},{"user_id":92,"name":"Pompadouraus","steam_id":76561198327530525,"connected_time":1528000000000,"state":"active","ping":75},{"user_id":51,"name":"P. Ness (Length/Girth)","steam_id":76561198037664265,"connected_time":4188000000000,"state":"active","ping":61},{"user_id":98,"name":"krandlez` (Any/All)","steam_id":76561198044839726,"connected_time":478000000000,"state":"active","ping":37},{"user_id":82,"name":"LaFleur","steam_id":76561198869499113,"connected_time":2197000000000,"state":"active","ping":59},{"user_id":89,"name":"GuyAwesome","steam_id":76561198042805792,"connected_time":1961000000000,"state":"active","ping":99},{"user_id":94,"name":"no teles 4 u","steam_id":76561198018478297,"connected_time":1228000000000,"state":"active","ping":73},{"user_id":96,"name":"[TÐK] KeRpaL","steam_id":76561197974427061,"connected_time":1024000000000,"state":"active","ping":60},{"user_id":93,"name":"whitebronco32","steam_id":76561197990814265,"connected_time":1478000000000,"state":"active","ping":45},{"user_id":97,"name":"JP","steam_id":76561198026221737,"connected_time":888000000000,"state":"active","ping":52},{"user_id":54,"name":"Overlold","steam_id":76561197978635495,"connected_time":4087000000000,"state":"active","ping":87},{"user_id":78,"name":"pathway","steam_id":76561198346674092,"connected_time":2329000000000,"state":"active","ping":71},{"user_id":99,"name":"Dr. D Snutts","steam_id":76561198049290016,"connected_time":368000000000,"state":"active","ping":40},{"user_id":60,"name":"Emerald the Snake","steam_id":76561199013344853,"connected_time":3711000000000,"state":"active","ping":101},{"user_id":84,"name":"TonySans24986","steam_id":76561199145580541,"connected_time":2149000000000,"state":"active","ping":185},{"user_id":73,"name":"piratespy22","steam_id":76561198042198744,"connected_time":2752000000000,"state":"active","ping":51},{"user_id":74,"name":"Muffin MacGuffin","steam_id":76561198062460947,"connected_time":2594000000000,"state":"active","ping":58},{"user_id":101,"name":"Gas Passer (sliced toast)","steam_id":76561199220276252,"connected_time":165000000000,"state":"active","ping":71},{"user_id":80,"name":"Granoler","steam_id":76561198059129270,"connected_time":2262000000000,"state":"active","ping":66},{"user_id":86,"name":"webbadon, the horrid ᘛ⁐̤\ufffd\ufffd","steam_id":76561198061998379,"connected_time":2095000000000,"state":"active","ping":47},{"user_id":90,"name":"tama","steam_id":76561197963485175,"connected_time":1897000000000,"state":"active","ping":62}]},{"server_id":396,"name":"Uncletopia | Sydney | 4 | All Maps","name_short":"syd-4","host":"syd-1.au.uncletopia.com","port":27045,"enabled":true,"region":"au","cc":"au","latitude":-33.865143,"longitude":151.2099,"reserved":0,"last_update":"0001-01-01T00:00:00Z","name_a2s":"Uncletopia | Sydney | 4 | All Maps","protocol":17,"map":"cp_process_final","folder":"tf","game":"Team Fortress","app_id":440,"player_count":0,"max_players":24,"Bots":0,"server_type":"Dedicated","server_os":"Linux","password":true,"vac":true,"version":"7961495","steam_id":85568392925397958,"keywords":["cp","nocrits","nodmgspread","uncletopia"],"game_id":440,"stv_port":27046,"stv_name":"Uncletopia | Sydney | 4 | All Maps | STV","players":null},{"server_id":58,"name":"Uncletopia | Sydney | 5 | Stopwatch","name_short":"syd-5","host":"syd-1.au.uncletopia.com","port":27055,"enabled":true,"region":"au","cc":"au","latitude":-33.865143,"longitude":151.2099,"reserved":0,"last_update":"0001-01-01T00:00:00Z","name_a2s":"Uncletopia | Sydney | 5 | Stopwatch","protocol":17,"map":"workshop/koth_ashville_final.ugc2130459942","folder":"tf","game":"Team Fortress","app_id":440,"player_count":0,"max_players":24,"Bots":0,"server_type":"Dedicated","server_os":"Linux","password":true,"vac":true,"version":"7961495","steam_id":85568392925397959,"keywords":["cp","nocrits","nodmgspread","uncletopia"],"game_id":440,"stv_port":27056,"stv_name":"Uncletopia | Sydney | 5 | Stopwatch | STV","players":null},{"server_id":59,"name":"Uncletopia | Sydney | 6 | Community","name_short":"syd-6","host":"syd-1.au.uncletopia.com","port":27065,"enabled":true,"region":"au","cc":"au","latitude":-33.865143,"longitude":151.2099,"reserved":0,"last_update":"0001-01-01T00:00:00Z","name_a2s":"Uncletopia | Sydney | 6 | Community","protocol":17,"map":"workshop/rd_asteroid_redux_b1.ugc2154902912","folder":"tf","game":"Team Fortress","app_id":440,"player_count":0,"max_players":24,"Bots":0,"server_type":"Dedicated","server_os":"Linux","password":true,"vac":true,"version":"7961495","steam_id":85568392925397960,"keywords":["beta","nocrits","nodmgspread","rd","uncletopia"],"game_id":440,"stv_port":27066,"stv_name":"Uncletopia | Sydney | 6 | Community | STV","players":null},{"server_id":49,"name":"Uncletopia | Warsaw | 1 | One Thousand Uncles","name_short":"waw-1","host":"waw-1.pl.uncletopia.com","port":27015,"enabled":true,"region":"eu","cc":"pl","latitude":52.2297,"longitude":21.017532,"reserved":0,"last_update":"0001-01-01T00:00:00Z","name_a2s":"Uncletopia | Warsaw | 1 | One Thousand Uncles","protocol":17,"map":"cp_mossrock","folder":"tf","game":"Team Fortress","app_id":440,"player_count":24,"max_players":32,"Bots":16,"server_type":"Dedicated","server_os":"Linux","password":true,"vac":true,"version":"7961495","steam_id":85568392925397850,"keywords":["alltalk","bots","cp","danepve","increased_maxplayers","nocrits","norespawntime","uncletopia"],"game_id":440,"stv_port":0,"stv_name":"","players":[{"user_id":78,"name":"KIRSON","steam_id":76561199372227807,"connected_time":1830000000000,"state":"active","ping":103},{"user_id":71,"name":"jackthegreenlade","steam_id":76561199468264132,"connected_time":4087000000000,"state":"active","ping":113},{"user_id":76,"name":"Pascal Darras","steam_id":76561198052136478,"connected_time":2220000000000,"state":"active","ping":74},{"user_id":79,"name":"korea","steam_id":76561198120520111,"connected_time":1686000000000,"state":"active","ping":66},{"user_id":80,"name":"The","steam_id":76561199378865926,"connected_time":1414000000000,"state":"active","ping":116},{"user_id":83,"name":"sisraell","steam_id":76561198296874355,"connected_time":799000000000,"state":"active","ping":120},{"user_id":84,"name":"Kreiser_VII","steam_id":76561198153832178,"connected_time":305000000000,"state":"active","ping":282},{"user_id":85,"name":"TheJustTeaPlayer","steam_id":76561198980203796,"connected_time":60000000000,"state":"active","ping":113}]},{"server_id":50,"name":"Uncletopia | Warsaw | 2 | One Thousand Uncles","name_short":"waw-2","host":"waw-1.pl.uncletopia.com","port":27025,"enabled":true,"region":"eu","cc":"pl","latitude":52.2297,"longitude":21.017532,"reserved":0,"last_update":"0001-01-01T00:00:00Z","name_a2s":"Uncletopia | Warsaw | 2 | One Thousand Uncles","protocol":17,"map":"pl_goldrush","folder":"tf","game":"Team Fortress","app_id":440,"player_count":0,"max_players":32,"Bots":0,"server_type":"Dedicated","server_os":"Linux","password":true,"vac":true,"version":"7961495","steam_id":85568392925397851,"keywords":["alltalk","danepve","increased_maxplayers","nocrits","norespawntime","payload","uncletopia"],"game_id":440,"stv_port":0,"stv_name":"","players":null},{"server_id":51,"name":"Uncletopia | Warsaw | 3 | All Maps","name_short":"waw-3","host":"waw-1.pl.uncletopia.com","port":27035,"enabled":true,"region":"eu","cc":"pl","latitude":52.2297,"longitude":21.017532,"reserved":0,"last_update":"0001-01-01T00:00:00Z","name_a2s":"Uncletopia | Warsaw | 3 | All Maps","protocol":17,"map":"plr_pipeline","folder":"tf","game":"Team Fortress","app_id":440,"player_count":0,"max_players":24,"Bots":0,"server_type":"Dedicated","server_os":"Linux","password":true,"vac":true,"version":"7961495","steam_id":85568392925397852,"keywords":["nocrits","nodmgspread","payload","uncletopia"],"game_id":440,"stv_port":27036,"stv_name":"Uncletopia | Warsaw | 3 | All Maps | STV","players":null},{"server_id":52,"name":"Uncletopia | Warsaw | 4 | All Maps","name_short":"waw-4","host":"waw-1.pl.uncletopia.com","port":27045,"enabled":true,"region":"eu","cc":"pl","latitude":52.2297,"longitude":21.017532,"reserved":0,"last_update":"0001-01-01T00:00:00Z","name_a2s":"Uncletopia | Warsaw | 4 | All Maps","protocol":17,"map":"cp_coldfront","folder":"tf","game":"Team Fortress","app_id":440,"player_count":0,"max_players":24,"Bots":0,"server_type":"Dedicated","server_os":"Linux","password":true,"vac":true,"version":"7961495","steam_id":85568392925397853,"keywords":["cp","nocrits","nodmgspread","uncletopia"],"game_id":440,"stv_port":27046,"stv_name":"Uncletopia | Warsaw | 4 | All Maps | STV","players":null},{"server_id":53,"name":"Uncletopia | Warsaw | 5 | Stopwatch","name_short":"waw-5","host":"waw-1.pl.uncletopia.com","port":27055,"enabled":true,"region":"eu","cc":"pl","latitude":52.2297,"longitude":21.017532,"reserved":0,"last_update":"0001-01-01T00:00:00Z","name_a2s":"Uncletopia | Warsaw | 5 | Stopwatch","protocol":17,"map":"workshop/koth_bagel_rc6.ugc2514036946","folder":"tf","game":"Team Fortress","app_id":440,"player_count":0,"max_players":24,"Bots":0,"server_type":"Dedicated","server_os":"Linux","password":true,"vac":true,"version":"7961495","steam_id":85568392925397854,"keywords":["cp","nocrits","nodmgspread","uncletopia"],"game_id":440,"stv_port":27056,"stv_name":"Uncletopia | Warsaw | 5 | Stopwatch | STV","players":null},{"server_id":54,"name":"Uncletopia | Warsaw | 6 | Community","name_short":"waw-6","host":"waw-1.pl.uncletopia.com","port":27065,"enabled":true,"region":"eu","cc":"pl","latitude":52.2297,"longitude":21.017532,"reserved":0,"last_update":"0001-01-01T00:00:00Z","name_a2s":"Uncletopia | Warsaw | 6 | Community","protocol":17,"map":"workshop/pl_badwater_pro_v12.ugc2142942074","folder":"tf","game":"Team Fortress","app_id":440,"player_count":0,"max_players":24,"Bots":0,"server_type":"Dedicated","server_os":"Linux","password":true,"vac":true,"version":"7961495","steam_id":85568392925397856,"keywords":["nocrits","nodmgspread","payload","uncletopia"],"game_id":440,"stv_port":27066,"stv_name":"Uncletopia | Warsaw | 6 | Community | STV","players":null}]}