{"status":true,"message":"","result":[{"server_id":9,"name":"Uncletopia | Atlanta | 1 | All Maps","name_short":"atl-1","host":"atl-1.us.uncletopia.com","port":27015,"enabled":true,"region":"us-east","cc":"us","latitude":33.753746,"longitude":-84.38633,"reserved":0,"last_update":"0001-01-01T00:00:00Z","name_a2s":"Uncletopia | Atlanta | 1 | All Maps","protocol":17,"map":"pl_barnblitz","folder":"tf","game":"Team Fortress","app_id":440,"player_count":24,"max_players":24,"Bots":0,"server_type":"Dedicated","server_os":"Linux","password":true,"vac":true,"version":"7757534","steam_id":85568392924469982,"keywords":["nocrits","nodmgspread","payload","uncletopia"],"game_id":440,"stv_port":27016,"stv_name":"Uncletopia | Atlanta | 1 | All Maps | STV","players":[{"user_id":453,"name":"RoboWarrior0410a","steam_id":76561199106531261,"connected_time":2388000000000,"state":"active","ping":64},{"user_id":465,"name":"lker","steam_id":76561197976975075,"connected_time":1442000000000,"state":"active","ping":45},{"user_id":468,"name":"ATL1 | Bandicario","steam_id":76561198432036026,"connected_time":1183000000000,"state":"active","ping":51},{"user_id":414,"name":"Thotimus Begonimus","steam_id":76561197970275938,"connected_time":5623000000000,"state":"active","ping":40},{"user_id":423,"name":"ash","steam_id":76561198127890645,"connected_time":5052000000000,"state":"active","ping":69},{"user_id":463,"name":"Enron Hubbard","steam_id":76561198012951411,"connected_time":1448000000000,"state":"active","ping":72},{"user_id":466,"name":"ATL1 | Kramer","steam_id":76561198083595936,"connected_time":1304000000000,"state":"active","ping":84},{"user_id":470,"name":"cheeks","steam_id":76561197993371179,"connected_time":1037000000000,"state":"active","ping":58},{"user_id":425,"name":"PerpetuaForever","steam_id":76561198347444353,"connected_time":4514000000000,"state":"active","ping":71},{"user_id":464,"name":"Ojen","steam_id":76561197998414482,"connected_time":1448000000000,"state":"active","ping":96},{"user_id":471,"name":"ClutchyDeClutcher","steam_id":76561198043850269,"connected_time":943000000000,"state":"active","ping":31},{"user_id":387,"name":"RED1 | nomad","steam_id":76561197998740399,"connected_time":7757000000000,"state":"active","ping":66},{"user_id":452,"name":"RED1 | p4ka","steam_id":76561198315291317,"connected_time":2430000000000,"state":"active","ping":77},{"user_id":449,"name":"erwebomio","steam_id":76561198071152924,"connected_time":2471000000000,"state":"active","ping":114},{"user_id":476,"name":"Moxxee","steam_id":76561199295411880,"connected_time":188000000000,"state":"active","ping":95},{"user_id":433,"name":"number 4","steam_id":76561198066867150,"connected_time":3372000000000,"state":"active","ping":62},{"user_id":436,"name":"RED1 | mayhem","steam_id":76561199246637881,"connected_time":3305000000000,"state":"active","ping":57},{"user_id":469,"name":"no-longer-festive pork trooper","steam_id":76561198150327877,"connected_time":1181000000000,"state":"active","ping":41},{"user_id":456,"name":"⇌ StriKeR ⇋","steam_id":76561199389089862,"connected_time":2120000000000,"state":"active","ping":152},{"user_id":384,"name":"RED1 | eish","steam_id":76561198089463603,"connected_time":8209000000000,"state":"active","ping":118},{"user_id":378,"name":"blu lil hog","steam_id":76561199230929836,"connected_time":8876000000000,"state":"active","ping":90},{"user_id":444,"name":"OddSlaush","steam_id":76561198043898488,"connected_time":2937000000000,"state":"active","ping":93},{"user_id":461,"name":"BotchyAlarm8","steam_id":76561198092682129,"connected_time":1475000000000,"state":"active","ping":119},{"user_id":475,"name":"RED1 | Mug","steam_id":76561199282207802,"connected_time":935000000000,"state":"active","ping":79}]},{"server_id":400,"name":"Uncletopia | Atlanta | 3 | Community","name_short":"atl-3","host":"atl-1.us.uncletopia.com","port":27035,"enabled":true,"region":"us-east","cc":"us","latitude":33.753746,"longitude":-84.38633,"reserved":0,"last_update":"0001-01-01T00:00:00Z","name_a2s":"Uncletopia | Atlanta | 3 | Community","protocol":17,"map":"workshop/cp_bruhstbowl_b5.ugc2878604990","folder":"tf","game":"Team Fortress","app_id":440,"player_count":0,"max_players":24,"Bots":0,"server_type":"Dedicated","server_os":"Linux","password":true,"vac":true,"version":"7757534","steam_id":85568392924515187,"keywords":["cp","nocrits","nodmgspread","uncletopia"],"game_id":440,"stv_port":27036,"stv_name":"Uncletopia | Atlanta | 3 | Community | STV","players":null},{"server_id":401,"name":"Uncletopia | Atlanta | 4 | No Payload","name_short":"atl-4","host":"atl-1.us.uncletopia.com","port":27045,"enabled":true,"region":"us-east","cc":"us","latitude":33.753746,"longitude":-84.38633,"reserved":0,"last_update":"0001-01-01T00:00:00Z","name_a2s":"","protocol":0,"map":"","folder":"","game":"","app_id":0,"player_count":0,"max_players":0,"Bots":0,"server_type":"","server_os":"","password":false,"vac":false,"version":"","steam_id":0,"keywords":null,"game_id":0,"stv_port":0,"stv_name":"","players":null},{"server_id":2,"name":"Uncletopia | Chicago | 1 | All Maps","name_short":"chi-1","host":"chi-1.us.uncletopia.com","port":27015,"enabled":true,"region":"us-central","cc":"us","latitude":41.881832,"longitude":-87.62318,"reserved":0,"last_update":"0001-01-01T00:00:00Z","name_a2s":"Uncletopia | Chicago | 1 | All Maps","protocol":17,"map":"pl_badwater","folder":"tf","game":"Team Fortress","app_id":440,"player_count":24,"max_players":24,"Bots":0,"server_type":"Dedicated","server_os":"Linux","password":true,"vac":true,"version":"7757534","steam_id":85568392924469984,"keywords":["nocrits","nodmgspread","payload","uncletopia"],"game_id":440,"stv_port":27016,"stv_name":"Uncletopia | Chicago | 1 | All Maps | STV","players":[{"user_id":700,"name":"Ademar","steam_id":76561199391802581,"connected_time":1212000000000,"state":"active","ping":58},{"user_id":703,"name":"blob","steam_id":76561198122375328,"connected_time":739000000000,"state":"active","ping":65},{"user_id":710,"name":"kite","steam_id":76561198346516392,"connected_time":616000000000,"state":"active","ping":66},{"user_id":670,"name":"Hi, I'm Jesus","steam_id":76561198015327152,"connected_time":4524000000000,"state":"active","ping":67},{"user_id":711,"name":"Sorbet Shark Cookie","steam_id":76561198133082665,"connected_time":494000000000,"state":"active","ping":63},{"user_id":674,"name":"the deadliest pyroshark","steam_id":76561198374227766,"connected_time":4295000000000,"state":"active","ping":78},{"user_id":691,"name":"Totally","steam_id":76561198126511227,"connected_time":2465000000000,"state":"active","ping":53},{"user_id":707,"name":"MaggotMilk (Real)","steam_id":76561198181328519,"connected_time":727000000000,"state":"active","ping":65},{"user_id":668,"name":"Sick Lia :c","steam_id":76561198151569597,"connected_time":4570000000000,"state":"active","ping":136},{"user_id":692,"name":"Doinnoid","steam_id":76561198262276139,"connected_time":2463000000000,"state":"active","ping":73},{"user_id":701,"name":"Adam (Cursed Confetti Creature)","steam_id":76561198317690197,"connected_time":1196000000000,"state":"active","ping":44},{"user_id":705,"name":"PuzzlePuddles","steam_id":76561198856494882,"connected_time":730000000000,"state":"active","ping":68},{"user_id":676,"name":"Xavibite","steam_id":76561198209380493,"connected_time":3957000000000,"state":"active","ping":61},{"user_id":702,"name":"Silly Scientist","steam_id":76561199199886079,"connected_time":1087000000000,"state":"active","ping":71},{"user_id":706,"name":"Sailor","steam_id":76561199081983517,"connected_time":730000000000,"state":"active","ping":98},{"user_id":684,"name":"pearous","steam_id":76561198152600344,"connected_time":3131000000000,"state":"active","ping":76},{"user_id":708,"name":"Craig Isonychia","steam_id":76561198272013678,"connected_time":723000000000,"state":"active","ping":74},{"user_id":698,"name":"Snom","steam_id":76561198333827920,"connected_time":1498000000000,"state":"active","ping":100},{"user_id":682,"name":"Gabinator32","steam_id":76561198872467183,"connected_time":3334000000000,"state":"active","ping":46},{"user_id":642,"name":"PinkLemonade","steam_id":76561198799286228,"connected_time":6588000000000,"state":"active","ping":72},{"user_id":709,"name":"Bungalow Bill","steam_id":76561198033536404,"connected_time":676000000000,"state":"active","ping":90},{"user_id":713,"name":"Fobby #Savetf2","steam_id":76561198047681469,"connected_time":440000000000,"state":"active","ping":76},{"user_id":680,"name":"Bond","steam_id":76561198089262776,"connected_time":3873000000000,"state":"active","ping":82},{"user_id":632,"name":"Lucon","steam_id":76561198067147724,"connected_time":7431000000000,"state":"active","ping":56}]},{"server_id":106,"name":"Uncletopia | Chicago | 2 | All Maps","name_short":"chi-2","host":"chi-1.us.uncletopia.com","port":27025,"enabled":true,"region":"us-central","cc":"us","latitude":41.881832,"longitude":-87.62318,"reserved":0,"last_update":"0001-01-01T00:00:00Z","name_a2s":"Uncletopia | Chicago | 2 | All Maps","protocol":17,"map":"cp_5gorge","folder":"tf","game":"Team Fortress","app_id":440,"player_count":24,"max_players":24,"Bots":0,"server_type":"Dedicated","server_os":"Linux","password":true,"vac":true,"version":"7757534","steam_id":85568392924469985,"keywords":["cp","nocrits","nodmgspread","uncletopia"],"game_id":440,"stv_port":27026,"stv_name":"Uncletopia | Chicago | 2 | All Maps | STV","players":[{"user_id":369,"name":"radiohead enjoyer","steam_id":76561198397662124,"connected_time":923000000000,"state":"active","ping":82},{"user_id":357,"name":"the","steam_id":76561198311446636,"connected_time":2801000000000,"state":"active","ping":56},{"user_id":360,"name":"Pan Wizard","steam_id":76561198031939694,"connected_time":2234000000000,"state":"active","ping":73},{"user_id":345,"name":"a table","steam_id":76561198158461279,"connected_time":3127000000000,"state":"active","ping":66},{"user_id":354,"name":"Aviyarn","steam_id":76561199074194652,"connected_time":2963000000000,"state":"active","ping":83},{"user_id":339,"name":"Broadsword","steam_id":76561198011160411,"connected_time":4079000000000,"state":"active","ping":95},{"user_id":346,"name":"Queen Frau the Round","steam_id":76561197999942134,"connected_time":3054000000000,"state":"active","ping":43},{"user_id":256,"name":"Psydoux","steam_id":76561198059831125,"connected_time":9892000000000,"state":"active","ping":62},{"user_id":370,"name":"godtierJack.jpeg","steam_id":76561198089827454,"connected_time":312000000000,"state":"active","ping":65},{"user_id":359,"name":"drugger. (cochlear implant)","steam_id":76561198353463585,"connected_time":2310000000000,"state":"active","ping":76},{"user_id":253,"name":"hunterbunney (TRUE BUT REAL)","steam_id":76561198070672899,"connected_time":10052000000000,"state":"active","ping":70},{"user_id":303,"name":"BROMBRE","steam_id":76561198011062026,"connected_time":6040000000000,"state":"active","ping":75},{"user_id":371,"name":"Fredrick","steam_id":76561197981419964,"connected_time":219000000000,"state":"active","ping":69},{"user_id":364,"name":"Ironaka","steam_id":76561198029993183,"connected_time":1424000000000,"state":"active","ping":85},{"user_id":350,"name":"Uncle Meat","steam_id":76561198012534850,"connected_time":3020000000000,"state":"active","ping":61},{"user_id":352,"name":"Fraklin","steam_id":76561198136451087,"connected_time":2998000000000,"state":"active","ping":37},{"user_id":358,"name":"Humper","steam_id":76561198272961376,"connected_time":2489000000000,"state":"active","ping":84},{"user_id":368,"name":"sebjzy","steam_id":76561198009959034,"connected_time":1010000000000,"state":"active","ping":73},{"user_id":353,"name":"Pineapple Pancakes","steam_id":76561198860470713,"connected_time":2971000000000,"state":"active","ping":74},{"user_id":290,"name":"Morgster","steam_id":76561198131697761,"connected_time":6934000000000,"state":"active","ping":88},{"user_id":305,"name":"Quaker Oats","steam_id":76561197992800293,"connected_time":5999000000000,"state":"active","ping":96},{"user_id":362,"name":"barker bill","steam_id":76561198018451994,"connected_time":1521000000000,"state":"active","ping":76},{"user_id":344,"name":"RaddahRaddah","steam_id":76561198194462829,"connected_time":3285000000000,"state":"active","ping":63},{"user_id":310,"name":"Stew Eater","steam_id":76561198978307159,"connected_time":5685000000000,"state":"active","ping":67}]},{"server_id":402,"name":"Uncletopia | Chicago | 3 | All Maps","name_short":"chi-3","host":"chi-1.us.uncletopia.com","port":27035,"enabled":true,"region":"us-central","cc":"us","latitude":41.881832,"longitude":-87.62318,"reserved":0,"last_update":"0001-01-01T00:00:00Z","name_a2s":"Uncletopia | Chicago | 3 | All Maps","protocol":17,"map":"pl_badwater","folder":"tf","game":"Team Fortress","app_id":440,"player_count":24,"max_players":24,"Bots":0,"server_type":"Dedicated","server_os":"Linux","password":true,"vac":true,"version":"7757534","steam_id":85568392924515191,"keywords":["nocrits","nodmgspread","payload","uncletopia"],"game_id":440,"stv_port":27036,"stv_name":"Uncletopia | Chicago | 3 | All Maps | STV","players":[{"user_id":102,"name":"wb98","steam_id":76561198048979801,"connected_time":370000000000,"state":"active","ping":49},{"user_id":24,"name":"Sage","steam_id":76561198143101697,"connected_time":5558000000000,"state":"active","ping":99},{"user_id":96,"name":"Cucumber Gaming","steam_id":76561198982680715,"connected_time":740000000000,"state":"active","ping":52},{"user_id":61,"name":"DeckofDragons","steam_id":76561198057398213,"connected_time":4300000000000,"state":"active","ping":77},{"user_id":105,"name":"FMJ","steam_id":76561198056871257,"connected_time":334000000000,"state":"active","ping":72},{"user_id":84,"name":"katryna","steam_id":76561198023440304,"connected_time":2648000000000,"state":"active","ping":52},{"user_id":101,"name":"Pep Seeman","steam_id":76561198038393007,"connected_time":384000000000,"state":"active","ping":50},{"user_id":103,"name":"Lampshade","steam_id":76561198082925095,"connected_time":356000000000,"state":"active","ping":56},{"user_id":88,"name":"K","steam_id":76561198125357358,"connected_time":1706000000000,"state":"active","ping":65},{"user_id":104,"name":"Sovereign","steam_id":76561198018841787,"connected_time":356000000000,"state":"active","ping":91},{"user_id":89,"name":"Raniel Dicciardo","steam_id":76561198053859538,"connected_time":1696000000000,"state":"active","ping":72},{"user_id":106,"name":"phone","steam_id":76561198029268743,"connected_time":311000000000,"state":"active","ping":60},{"user_id":108,"name":"Ethana","steam_id":76561199243359064,"connected_time":283000000000,"state":"active","ping":88},{"user_id":95,"name":"yodieland","steam_id":76561198143727547,"connected_time":1106000000000,"state":"active","ping":100},{"user_id":97,"name":"Pebbles","steam_id":76561197985155770,"connected_time":730000000000,"state":"active","ping":66},{"user_id":85,"name":"DeadErebus","steam_id":76561198286117045,"connected_time":2498000000000,"state":"active","ping":32},{"user_id":99,"name":"VixianUwU","steam_id":76561198948815060,"connected_time":703000000000,"state":"active","ping":87},{"user_id":98,"name":"Frodo T Baggins","steam_id":76561198048090297,"connected_time":730000000000,"state":"active","ping":54},{"user_id":91,"name":"JHLO","steam_id":76561198074359967,"connected_time":1692000000000,"state":"active","ping":72},{"user_id":109,"name":"young sheldon","steam_id":76561198380018244,"connected_time":276000000000,"state":"active","ping":76},{"user_id":70,"name":"A Puppy","steam_id":76561198828184456,"connected_time":4138000000000,"state":"active","ping":60},{"user_id":112,"name":"MEATBALL","steam_id":76561198028499312,"connected_time":248000000000,"state":"active","ping":60},{"user_id":75,"name":"Draconic Ballad","steam_id":76561198027191515,"connected_time":3035000000000,"state":"active","ping":56},{"user_id":111,"name":"Alize","steam_id":76561198173285423,"connected_time":261000000000,"state":"active","ping":72}]},{"server_id":403,"name":"Uncletopia | Chicago | 4 | All Maps","name_short":"chi-4","host":"chi-1.us.uncletopia.com","port":27045,"enabled":true,"region":"us-central","cc":"us","latitude":41.881832,"longitude":-87.62318,"reserved":0,"last_update":"0001-01-01T00:00:00Z","name_a2s":"Uncletopia | Chicago | 4 | All Maps","protocol":17,"map":"cp_foundry","folder":"tf","game":"Team Fortress","app_id":440,"player_count":24,"max_players":24,"Bots":0,"server_type":"Dedicated","server_os":"Linux","password":true,"vac":true,"version":"7757534","steam_id":85568392924515193,"keywords":["cp","nocrits","nodmgspread","uncletopia"],"game_id":440,"stv_port":27046,"stv_name":"Uncletopia | Chicago | 4 | All Maps | STV","players":[{"user_id":445,"name":"MoonWolf","steam_id":76561198095735033,"connected_time":359000000000,"state":"active","ping":77},{"user_id":432,"name":"hellstar","steam_id":76561198065877269,"connected_time":1159000000000,"state":"active","ping":63},{"user_id":380,"name":"Reversed","steam_id":76561198136433466,"connected_time":5619000000000,"state":"active","ping":53},{"user_id":434,"name":"Coupon","steam_id":76561198111947598,"connected_time":734000000000,"state":"active","ping":83},{"user_id":436,"name":"Rudy","steam_id":76561198013456828,"connected_time":721000000000,"state":"active","ping":66},{"user_id":431,"name":"YaBoyUlyssesG","steam_id":76561198042482742,"connected_time":1331000000000,"state":"active","ping":82},{"user_id":433,"name":"Mitchu The Bidness Man","steam_id":76561198102494381,"connected_time":1024000000000,"state":"active","ping":67},{"user_id":426,"name":"Rx Auntie","steam_id":76561198051618393,"connected_time":1675000000000,"state":"active","ping":65},{"user_id":437,"name":"Chimpanzee","steam_id":76561198850387282,"connected_time":675000000000,"state":"active","ping":79},{"user_id":409,"name":"Dwaggy","steam_id":76561198027369555,"connected_time":3535000000000,"state":"active","ping":73},{"user_id":420,"name":"Dat Franklin Pierce Do","steam_id":76561198027749453,"connected_time":2333000000000,"state":"active","ping":73},{"user_id":438,"name":"neet","steam_id":76561197968115168,"connected_time":661000000000,"state":"active","ping":60},{"user_id":418,"name":"GC.sibling bane","steam_id":76561198196769297,"connected_time":2556000000000,"state":"active","ping":58},{"user_id":430,"name":"sleepychungus45","steam_id":76561198215559840,"connected_time":1478000000000,"state":"active","ping":67},{"user_id":439,"name":"Pink","steam_id":76561198042140694,"connected_time":659000000000,"state":"active","ping":57},{"user_id":415,"name":"Wild_Rumpus","steam_id":76561198066393719,"connected_time":3021000000000,"state":"active","ping":71},{"user_id":421,"name":"Richard \"Waterhate'n\" Nixon","steam_id":76561198092161655,"connected_time":2249000000000,"state":"active","ping":92},{"user_id":440,"name":"1 Great Wooden Dad","steam_id":76561198377126974,"connected_time":656000000000,"state":"active","ping":68},{"user_id":443,"name":"Caboom","steam_id":76561198040221007,"connected_time":555000000000,"state":"active","ping":96},{"user_id":419,"name":"Teddy \"The Bear\" Roosevelt","steam_id":76561198022397601,"connected_time":2523000000000,"state":"active","ping":72},{"user_id":441,"name":"Dieu-Sama","steam_id":76561198002075862,"connected_time":637000000000,"state":"active","ping":85},{"user_id":444,"name":"ExtremeDucks","steam_id":76561198351756464,"connected_time":444000000000,"state":"active","ping":78},{"user_id":416,"name":"hyly","steam_id":76561198079504588,"connected_time":2571000000000,"state":"active","ping":78},{"user_id":424,"name":"ADHDking","steam_id":76561198116099017,"connected_time":2024000000000,"state":"active","ping":52}]},{"server_id":36,"name":"Uncletopia | Chicago | 5 | All Maps","name_short":"chi-5","host":"chi-2.us.uncletopia.com","port":27015,"enabled":true,"region":"us-central","cc":"us","latitude":41.881832,"longitude":-87.62318,"reserved":0,"last_update":"0001-01-01T00:00:00Z","name_a2s":"Uncletopia | Chicago | 5 | All Maps","protocol":17,"map":"pl_borneo","folder":"tf","game":"Team Fortress","app_id":440,"player_count":24,"max_players":24,"Bots":0,"server_type":"Dedicated","server_os":"Linux","password":true,"vac":true,"version":"7757534","steam_id":85568392924866362,"keywords":["nocrits","nodmgspread","payload","uncletopia"],"game_id":440,"stv_port":27016,"stv_name":"Uncletopia | Chicago | 5 | All Maps | STV","players":[{"user_id":46,"name":"ambrotos","steam_id":76561198042600523,"connected_time":2082000000000,"state":"active","ping":64},{"user_id":67,"name":"Spiffle","steam_id":76561199089811047,"connected_time":1046000000000,"state":"active","ping":100},{"user_id":15,"name":"BIGGEST MAC","steam_id":76561198847517098,"connected_time":4560000000000,"state":"active","ping":87},{"user_id":82,"name":"BernardBull","steam_id":76561198036138813,"connected_time":360000000000,"state":"active","ping":73},{"user_id":61,"name":"yeayea","steam_id":76561198118498882,"connected_time":1215000000000,"state":"active","ping":61},{"user_id":85,"name":"conscripted monk","steam_id":76561199029246232,"connected_time":215000000000,"state":"active","ping":64},{"user_id":88,"name":"Johnny Lawrence #JohnnyMaxxing","steam_id":76561199367141671,"connected_time":8000000000,"state":"active","ping":77},{"user_id":86,"name":"Demoman With One Joke","steam_id":76561197993467034,"connected_time":16000000000,"state":"spawning","ping":89},{"user_id":65,"name":"potty trained","steam_id":76561198141557766,"connected_time":1133000000000,"state":"active","ping":73},{"user_id":64,"name":"Cam(era)","steam_id":76561198285054047,"connected_time":1145000000000,"state":"active","ping":81},{"user_id":71,"name":"totoro","steam_id":76561198210420871,"connected_time":836000000000,"state":"active","ping":37},{"user_id":27,"name":"MrhobbitRequiem","steam_id":76561198976215013,"connected_time":2506000000000,"state":"active","ping":70},{"user_id":28,"name":"PackedGorgon","steam_id":76561198042686806,"connected_time":2495000000000,"state":"active","ping":79},{"user_id":87,"name":"Public library warrior","steam_id":76561198274715109,"connected_time":11000000000,"state":"spawning","ping":75},{"user_id":55,"name":"nalezinik","steam_id":76561198030026119,"connected_time":1635000000000,"state":"active","ping":55},{"user_id":34,"name":"jrdoran","steam_id":76561197984753094,"connected_time":2366000000000,"state":"active","ping":56},{"user_id":76,"name":"Bubingi","steam_id":76561197961743506,"connected_time":642000000000,"state":"active","ping":55},{"user_id":36,"name":"Fudgely","steam_id":76561198039425862,"connected_time":2325000000000,"state":"active","ping":69},{"user_id":78,"name":"Doober","steam_id":76561198056661095,"connected_time":624000000000,"state":"active","ping":81},{"user_id":39,"name":"Zultrafury","steam_id":76561198099284163,"connected_time":2271000000000,"state":"active","ping":69},{"user_id":79,"name":"Skip","steam_id":76561199014240063,"connected_time":617000000000,"state":"active","ping":55},{"user_id":80,"name":"Lionel Messi","steam_id":76561198226207032,"connected_time":574000000000,"state":"active","ping":55},{"user_id":81,"name":"AverageRundownJoe.ttv","steam_id":76561198059359620,"connected_time":555000000000,"state":"active","ping":69},{"user_id":44,"name":"MaximusPrime","steam_id":76561198114949521,"connected_time":2200000000000,"state":"active","ping":83}]},{"server_id":37,"name":"Uncletopia | Chicago | 6 | All Maps","name_short":"chi-6","host":"chi-2.us.uncletopia.com","port":27025,"enabled":true,"region":"us-central","cc":"us","latitude":41.881832,"longitude":-87.62318,"reserved":0,"last_update":"0001-01-01T00:00:00Z","name_a2s":"Uncletopia | Chicago | 6 | All Maps","protocol":17,"map":"cp_mountainlab","folder":"tf","game":"Team Fortress","app_id":440,"player_count":26,"max_players":24,"Bots":0,"server_type":"Dedicated","server_os":"Linux","password":true,"vac":true,"version":"7757534","steam_id":85568392924866363,"keywords":["cp","nocrits","nodmgspread","uncletopia"],"game_id":440,"stv_port":27026,"stv_name":"Uncletopia | Chicago | 6 | All Maps | STV","players":[{"user_id":728,"name":"dalton_dean96","steam_id":76561198198287667,"connected_time":873000000000,"state":"active","ping":45},{"user_id":738,"name":"Wwaz","steam_id":76561198000240092,"connected_time":778000000000,"state":"active","ping":46},{"user_id":686,"name":"Cog","steam_id":76561198119812649,"connected_time":3473000000000,"state":"active","ping":57},{"user_id":739,"name":"Obamacare","steam_id":76561198018894553,"connected_time":746000000000,"state":"active","ping":99},{"user_id":743,"name":"ahh","steam_id":76561198083271257,"connected_time":573000000000,"state":"active","ping":72},{"user_id":710,"name":"Emails","steam_id":76561198836919458,"connected_time":1984000000000,"state":"active","ping":87},{"user_id":750,"name":"Gluten-Free Toast","steam_id":76561198426287971,"connected_time":323000000000,"state":"active","ping":77},{"user_id":723,"name":"Peepster","steam_id":76561198297854733,"connected_time":935000000000,"state":"active","ping":76},{"user_id":664,"name":"Your Local Jester","steam_id":76561199120223717,"connected_time":5065000000000,"state":"active","ping":77},{"user_id":752,"name":"Strangelove","steam_id":76561198353773611,"connected_time":162000000000,"state":"connecting","ping":0},{"user_id":712,"name":"Dispenser","steam_id":76561198334676366,"connected_time":1963000000000,"state":"active","ping":72},{"user_id":749,"name":"KristoffersonHater96","steam_id":76561198364485830,"connected_time":349000000000,"state":"active","ping":65},{"user_id":751,"name":"minecraft","steam_id":76561198023595873,"connected_time":298000000000,"state":"active","ping":82},{"user_id":726,"name":"Nevu","steam_id":76561198378240571,"connected_time":902000000000,"state":"active","ping":120},{"user_id":741,"name":"Mimt1111","steam_id":76561198392370897,"connected_time":669000000000,"state":"active","ping":70},{"user_id":731,"name":"Kirby","steam_id":76561199161858008,"connected_time":863000000000,"state":"active","ping":74},{"user_id":732,"name":"gamerboy8233","steam_id":76561198228605388,"connected_time":850000000000,"state":"active","ping":46},{"user_id":745,"name":"dansal","steam_id":76561197997042510,"connected_time":491000000000,"state":"active","ping":84},{"user_id":704,"name":"Teleporter  (Entrance, Level 3)","steam_id":76561198316927664,"connected_time":3038000000000,"state":"active","ping":71},{"user_id":746,"name":"gamerthebuck83","steam_id":76561198402429691,"connected_time":483000000000,"state":"active","ping":52},{"user_id":736,"name":"Toaster","steam_id":76561198110748463,"connected_time":825000000000,"state":"active","ping":60},{"user_id":748,"name":"I Lead MLB In \"Bats Eaten\"","steam_id":76561198034079853,"connected_time":425000000000,"state":"active","ping":71},{"user_id":717,"name":"Blades_87","steam_id":76561198150870338,"connected_time":1257000000000,"state":"active","ping":49},{"user_id":697,"name":"Dr. Dick","steam_id":76561198138011922,"connected_time":3334000000000,"state":"active","ping":79},{"user_id":753,"name":"hyuck","steam_id":76561198319990195,"connected_time":148000000000,"state":"active","ping":76},{"user_id":754,"name":"hi, welcome","steam_id":76561198301021424,"connected_time":64000000000,"state":"spawning","ping":66}]},{"server_id":38,"name":"Uncletopia | Chicago | 7 | Stopwatch Beta","name_short":"chi-7","host":"chi-2.us.uncletopia.com","port":27035,"enabled":true,"region":"us-central","cc":"us","latitude":41.881832,"longitude":-87.62318,"reserved":0,"last_update":"0001-01-01T00:00:00Z","name_a2s":"Uncletopia | Chicago | 7 | Stopwatch Beta","protocol":17,"map":"cp_sunshine","folder":"tf","game":"Team Fortress","app_id":440,"player_count":0,"max_players":24,"Bots":0,"server_type":"Dedicated","server_os":"Linux","password":true,"vac":true,"version":"7757534","steam_id":85568392924866364,"keywords":["cp","nocrits","nodmgspread","uncletopia"],"game_id":440,"stv_port":27036,"stv_name":"Uncletopia | Chicago | 7 | Stopwatch Beta | STV","players":null},{"server_id":39,"name":"Uncletopia | Chicago | 8 | Community","name_short":"chi-8","host":"chi-2.us.uncletopia.com","port":27045,"enabled":true,"region":"us-central","cc":"us","latitude":41.881832,"longitude":-87.62318,"reserved":0,"last_update":"0001-01-01T00:00:00Z","name_a2s":"Uncletopia | Chicago | 8 | Community","protocol":17,"map":"workshop/cp_propaganda_b18.ugc1603743849","folder":"tf","game":"Team Fortress","app_id":440,"player_count":6,"max_players":24,"Bots":0,"server_type":"Dedicated","server_os":"Linux","password":true,"vac":true,"version":"7757534","steam_id":85568392924866365,"keywords":["cp","nocrits","nodmgspread","uncletopia"],"game_id":440,"stv_port":27046,"stv_name":"Uncletopia | Chicago | 8 | Community | STV","players":[{"user_id":16,"name":"Mr.Momo","steam_id":76561199013406551,"connected_time":2542000000000,"state":"active","ping":106},{"user_id":17,"name":"Wolfiefanggirl","steam_id":76561198808840101,"connected_time":2538000000000,"state":"active","ping":81},{"user_id":22,"name":"Lemur2016","steam_id":76561198194372906,"connected_time":798000000000,"state":"active","ping":75},{"user_id":19,"name":"Ze_Über_Nerd","steam_id":76561198091148675,"connected_time":1823000000000,"state":"active","ping":60},{"user_id":23,"name":"weeb_232","steam_id":76561199250055131,"connected_time":515000000000,"state":"active","ping":85},{"user_id":25,"name":"Zin","steam_id":76561199041369507,"connected_time":112000000000,"state":"active","ping":71}]},{"server_id":8,"name":"Uncletopia | Dallas | 1 | All Maps","name_short":"dal-1","host":"dal-1.us.uncletopia.com","port":27015,"enabled":true,"region":"us-central","cc":"us","latitude":32.779167,"longitude":-96.80889,"reserved":0,"last_update":"0001-01-01T00:00:00Z","name_a2s":"Uncletopia | Dallas | 1 | All Maps","protocol":17,"map":"pl_swiftwater_final1","folder":"tf","game":"Team Fortress","app_id":440,"player_count":24,"max_players":24,"Bots":0,"server_type":"Dedicated","server_os":"Linux","password":true,"vac":true,"version":"7757534","steam_id":85568392924469986,"keywords":["nocrits","nodmgspread","payload","uncletopia"],"game_id":440,"stv_port":27016,"stv_name":"Uncletopia | Dallas | 1 | All Maps | STV","players":[{"user_id":179,"name":"the uncle youtuber guy","steam_id":76561199059257565,"connected_time":3106000000000,"state":"active","ping":84},{"user_id":230,"name":"Tannenbaum Trotsky","steam_id":76561199101638460,"connected_time":204000000000,"state":"active","ping":45},{"user_id":229,"name":"Ojama Lime","steam_id":76561198035637736,"connected_time":666000000000,"state":"active","ping":96},{"user_id":163,"name":"Legal Name Change","steam_id":76561198045309016,"connected_time":3699000000000,"state":"active","ping":68},{"user_id":227,"name":"Tommy Pickles is (Very Cool)","steam_id":76561198391261463,"connected_time":898000000000,"state":"active","ping":90},{"user_id":212,"name":"DrBenjas","steam_id":76561198345883103,"connected_time":1203000000000,"state":"active","ping":109},{"user_id":174,"name":"Murgatroyd","steam_id":76561198077350331,"connected_time":3308000000000,"state":"active","ping":90},{"user_id":216,"name":"bengineer","steam_id":76561198171912174,"connected_time":1172000000000,"state":"active","ping":111},{"user_id":217,"name":"TaterNoots","steam_id":76561198079513450,"connected_time":1158000000000,"state":"active","ping":63},{"user_id":225,"name":"Vibey","steam_id":76561198342873474,"connected_time":922000000000,"state":"active","ping":101},{"user_id":178,"name":"teh mummy","steam_id":76561198044123636,"connected_time":3135000000000,"state":"active","ping":61},{"user_id":214,"name":"iluvtoust","steam_id":76561198869269207,"connected_time":1199000000000,"state":"active","ping":47},{"user_id":205,"name":"Zigadox","steam_id":76561198079813479,"connected_time":2339000000000,"state":"active","ping":87},{"user_id":228,"name":"MeMyBongusAndTheGreatOutdoors","steam_id":76561198097708978,"connected_time":785000000000,"state":"active","ping":87},{"user_id":224,"name":"thebestman982","steam_id":76561199001698710,"connected_time":952000000000,"state":"active","ping":81},{"user_id":215,"name":"Bobbn","steam_id":76561198876124683,"connected_time":1194000000000,"state":"active","ping":93},{"user_id":190,"name":"karbomb","steam_id":76561198120744480,"connected_time":2757000000000,"state":"active","ping":45},{"user_id":220,"name":"Mrs. Noots","steam_id":76561198453729283,"connected_time":1110000000000,"state":"active","ping":86},{"user_id":222,"name":"Meatball1106","steam_id":76561199008238301,"connected_time":1052000000000,"state":"active","ping":53},{"user_id":223,"name":"Final_MarioXD","steam_id":76561199184862419,"connected_time":1043000000000,"state":"active","ping":81},{"user_id":226,"name":"CSharp","steam_id":76561199185191710,"connected_time":917000000000,"state":"active","ping":137},{"user_id":208,"name":"Voids","steam_id":76561198128386726,"connected_time":2280000000000,"state":"active","ping":86},{"user_id":231,"name":"Pinetree w/ apples.","steam_id":76561198105411709,"connected_time":198000000000,"state":"active","ping":111},{"user_id":198,"name":"inzang","steam_id":76561198088318074,"connected_time":2621000000000,"state":"active","ping":58}]},{"server_id":108,"name":"Uncletopia | Dallas | 2 | All Maps","name_short":"dal-2","host":"dal-1.us.uncletopia.com","port":27025,"enabled":true,"region":"us-central","cc":"us","latitude":32.779167,"longitude":-96.80889,"reserved":0,"last_update":"0001-01-01T00:00:00Z","name_a2s":"Uncletopia | Dallas | 2 | All Maps","protocol":17,"map":"cp_altitude","folder":"tf","game":"Team Fortress","app_id":440,"player_count":24,"max_players":24,"Bots":0,"server_type":"Dedicated","server_os":"Linux","password":true,"vac":true,"version":"7757534","steam_id":85568392924469988,"keywords":["cp","nocrits","nodmgspread","uncletopia"],"game_id":440,"stv_port":27026,"stv_name":"Uncletopia | Dallas | 2 | All Maps | STV","players":[{"user_id":229,"name":"heimdall","steam_id":76561198069380992,"connected_time":82000000000,"state":"active","ping":69},{"user_id":191,"name":"Pongallow","steam_id":76561198146876078,"connected_time":2822000000000,"state":"active","ping":60},{"user_id":225,"name":"Icaras","steam_id":76561198416724843,"connected_time":534000000000,"state":"active","ping":150},{"user_id":165,"name":"purple","steam_id":76561198239286750,"connected_time":3792000000000,"state":"active","ping":83},{"user_id":169,"name":"kangaroo wife","steam_id":76561198040455711,"connected_time":3650000000000,"state":"active","ping":69},{"user_id":188,"name":"Tree52","steam_id":76561198046763622,"connected_time":3142000000000,"state":"active","ping":81},{"user_id":207,"name":"gary","steam_id":76561197999779377,"connected_time":1408000000000,"state":"active","ping":61},{"user_id":209,"name":"BurnN8or101","steam_id":76561198132668224,"connected_time":1311000000000,"state":"active","ping":79},{"user_id":226,"name":"derpcat","steam_id":76561198062539161,"connected_time":444000000000,"state":"active","ping":65},{"user_id":210,"name":"SuperFresh","steam_id":76561198200723198,"connected_time":1310000000000,"state":"active","ping":63},{"user_id":170,"name":"f0xh0le 0ne","steam_id":76561199471269566,"connected_time":3645000000000,"state":"active","ping":48},{"user_id":215,"name":"mola","steam_id":76561198036283992,"connected_time":1081000000000,"state":"active","ping":77},{"user_id":230,"name":"Bottle","steam_id":76561198044031558,"connected_time":67000000000,"state":"active","ping":90},{"user_id":131,"name":"creeeeeee","steam_id":76561198392539722,"connected_time":6761000000000,"state":"active","ping":90},{"user_id":224,"name":"gulch","steam_id":76561199227946025,"connected_time":536000000000,"state":"active","ping":70},{"user_id":216,"name":"Nanza","steam_id":76561198103496593,"connected_time":972000000000,"state":"active","ping":67},{"user_id":227,"name":"Mortimer Khan","steam_id":76561197968829990,"connected_time":430000000000,"state":"active","ping":327},{"user_id":161,"name":"bocchi the rock","steam_id":76561198249206656,"connected_time":3830000000000,"state":"active","ping":81},{"user_id":221,"name":"Zamboni","steam_id":76561199084964927,"connected_time":682000000000,"state":"active","ping":73},{"user_id":223,"name":"Bastee1021","steam_id":76561199456141163,"connected_time":564000000000,"state":"active","ping":102},{"user_id":190,"name":"0:-)","steam_id":76561198142056100,"connected_time":2996000000000,"state":"active","ping":76},{"user_id":231,"name":"mel","steam_id":76561198019820977,"connected_time":59000000000,"state":"active","ping":45},{"user_id":232,"name":"KEEN","steam_id":76561197988436984,"connected_time":0,"state":"spawning","ping":0},{"user_id":199,"name":"giveit5","steam_id":76561198030815437,"connected_time":1807000000000,"state":"active","ping":71}]},{"server_id":5,"name":"Uncletopia | Frankfurt | 1 | All Maps","name_short":"frk-1","host":"frk-1.de.uncletopia.com","port":27015,"enabled":true,"region":"eu","cc":"de","latitude":50.110924,"longitude":8.682127,"reserved":0,"last_update":"0001-01-01T00:00:00Z","name_a2s":"Uncletopia | Frankfurt | 1 | All Maps","protocol":17,"map":"cp_sunshine","folder":"tf","game":"Team Fortress","app_id":440,"player_count":0,"max_players":24,"Bots":0,"server_type":"Dedicated","server_os":"Linux","password":true,"vac":true,"version":"7757534","steam_id":85568392924469989,"keywords":["cp","nocrits","nodmgspread","uncletopia"],"game_id":440,"stv_port":27016,"stv_name":"Uncletopia | Frankfurt | 1 | All Maps | STV","players":null},{"server_id":110,"name":"Uncletopia | Frankfurt | 2 | All Maps","name_short":"frk-2","host":"frk-1.de.uncletopia.com","port":27025,"enabled":true,"region":"eu","cc":"de","latitude":50.110924,"longitude":8.682127,"reserved":0,"last_update":"0001-01-01T00:00:00Z","name_a2s":"Uncletopia | Frankfurt | 2 | All Maps","protocol":17,"map":"pl_snowycoast","folder":"tf","game":"Team Fortress","app_id":440,"player_count":16,"max_players":24,"Bots":0,"server_type":"Dedicated","server_os":"Linux","password":true,"vac":true,"version":"7757534","steam_id":85568392924469990,"keywords":["nocrits","nodmgspread","payload","uncletopia"],"game_id":440,"stv_port":27026,"stv_name":"Uncletopia | Frankfurt | 2 | All Maps | STV","players":[{"user_id":802,"name":"eon","steam_id":76561197971360276,"connected_time":2082000000000,"state":"active","ping":82},{"user_id":766,"name":"noire","steam_id":76561198426604784,"connected_time":4553000000000,"state":"active","ping":60},{"user_id":816,"name":"Lemmy","steam_id":76561199038870751,"connected_time":637000000000,"state":"active","ping":76},{"user_id":794,"name":"Carl Gustav Jung","steam_id":76561198284558039,"connected_time":2284000000000,"state":"active","ping":109},{"user_id":815,"name":"beababaododoebebeee","steam_id":76561198031325797,"connected_time":687000000000,"state":"active","ping":52},{"user_id":829,"name":"Mr Ass","steam_id":76561199262625492,"connected_time":34000000000,"state":"active","ping":87},{"user_id":812,"name":"Flopphalla","steam_id":76561198160705564,"connected_time":1375000000000,"state":"active","ping":65},{"user_id":810,"name":"mr. smile","steam_id":76561199121990046,"connected_time":1725000000000,"state":"active","ping":171},{"user_id":817,"name":"blindwaffle12","steam_id":76561198134723718,"connected_time":636000000000,"state":"active","ping":68},{"user_id":785,"name":"sam-","steam_id":76561198013770973,"connected_time":3271000000000,"state":"active","ping":71},{"user_id":820,"name":"Hyperek","steam_id":76561198130797464,"connected_time":576000000000,"state":"active","ping":64},{"user_id":792,"name":"Artik","steam_id":76561198038991453,"connected_time":2409000000000,"state":"active","ping":54},{"user_id":828,"name":"Doctor Pyro","steam_id":76561198240400118,"connected_time":284000000000,"state":"active","ping":194},{"user_id":824,"name":"Jack Horner","steam_id":76561199127127984,"connected_time":509000000000,"state":"active","ping":76},{"user_id":825,"name":"Lewylow","steam_id":76561198005425686,"connected_time":503000000000,"state":"active","ping":62},{"user_id":798,"name":"kiki","steam_id":76561198838277022,"connected_time":2251000000000,"state":"active","ping":71}]},{"server_id":308,"name":"Uncletopia | Frankfurt | 3 | All Maps","name_short":"frk-3","host":"frk-1.de.uncletopia.com","port":27035,"enabled":true,"region":"eu","cc":"de","latitude":50.110924,"longitude":8.682127,"reserved":0,"last_update":"0001-01-01T00:00:00Z","name_a2s":"Uncletopia | Frankfurt | 3 | All Maps","protocol":17,"map":"koth_lakeside_final","folder":"tf","game":"Team Fortress","app_id":440,"player_count":0,"max_players":24,"Bots":0,"server_type":"Dedicated","server_os":"Linux","password":true,"vac":true,"version":"7757534","steam_id":85568392924504274,"keywords":["cp","nocrits","nodmgspread","uncletopia"],"game_id":440,"stv_port":27036,"stv_name":"Uncletopia | Frankfurt | 3 | All Maps | STV","players":null},{"server_id":309,"name":"Uncletopia | Frankfurt | 4 | All Maps","name_short":"frk-4","host":"frk-1.de.uncletopia.com","port":27045,"enabled":true,"region":"eu","cc":"de","latitude":50.110924,"longitude":8.682127,"reserved":0,"last_update":"0001-01-01T00:00:00Z","name_a2s":"Uncletopia | Frankfurt | 4 | All Maps","protocol":17,"map":"pl_upward","folder":"tf","game":"Team Fortress","app_id":440,"player_count":0,"max_players":24,"Bots":0,"server_type":"Dedicated","server_os":"Linux","password":true,"vac":true,"version":"7757534","steam_id":85568392924504275,"keywords":["nocrits","nodmgspread","payload","uncletopia"],"game_id":440,"stv_port":27046,"stv_name":"Uncletopia | Frankfurt | 4 | All Maps | STV","players":null},{"server_id":310,"name":"Uncletopia | Frankfurt | 5 | All Maps","name_short":"frk-5","host":"frk-1.de.uncletopia.com","port":27055,"enabled":true,"region":"eu","cc":"de","latitude":50.110924,"longitude":8.682127,"reserved":0,"last_update":"0001-01-01T00:00:00Z","name_a2s":"Uncletopia | Frankfurt | 5 | All Maps","protocol":17,"map":"cp_mountainlab","folder":"tf","game":"Team Fortress","app_id":440,"player_count":0,"max_players":24,"Bots":0,"server_type":"Dedicated","server_os":"Linux","password":true,"vac":true,"version":"7757534","steam_id":85568392924504277,"keywords":["cp","nocrits","nodmgspread","uncletopia"],"game_id":440,"stv_port":27056,"stv_name":"Uncletopia | Frankfurt | 5 | All Maps | STV","players":null},{"server_id":311,"name":"Uncletopia | Frankfurt | 6 | All Maps","name_short":"frk-6","host":"frk-1.de.uncletopia.com","port":27065,"enabled":true,"region":"eu","cc":"de","latitude":50.110924,"longitude":8.682127,"reserved":0,"last_update":"0001-01-01T00:00:00Z","name_a2s":"Uncletopia | Frankfurt | 6 | All Maps","protocol":17,"map":"koth_highpass","folder":"tf","game":"Team Fortress","app_id":440,"player_count":0,"max_players":24,"Bots":0,"server_type":"Dedicated","server_os":"Linux","password":true,"vac":true,"version":"7757534","steam_id":85568392924504278,"keywords":["cp","nocrits","nodmgspread","uncletopia"],"game_id":440,"stv_port":27066,"stv_name":"Uncletopia | Frankfurt | 6 | All Maps | STV","players":null},{"server_id":23,"name":"Uncletopia | Frankfurt | 7 | Stopwatch Beta","name_short":"frk-7","host":"frk-1.de.uncletopia.com","port":27075,"enabled":true,"region":"eu","cc":"de","latitude":50.110924,"longitude":8.682127,"reserved":0,"last_update":"0001-01-01T00:00:00Z","name_a2s":"Uncletopia | Frankfurt | 7 | Stopwatch Beta","protocol":17,"map":"pl_frontier_final","folder":"tf","game":"Team Fortress","app_id":440,"player_count":0,"max_players":24,"Bots":0,"server_type":"Dedicated","server_os":"Linux","password":true,"vac":true,"version":"7757534","steam_id":85568392924742827,"keywords":["nocrits","nodmgspread","payload","uncletopia"],"game_id":440,"stv_port":27076,"stv_name":"Uncletopia | Frankfurt | 7 | Stopwatch Beta | STV","players":null},{"server_id":24,"name":"Uncletopia | Frankfurt | 8 | Community","name_short":"frk-8","host":"frk-1.de.uncletopia.com","port":27085,"enabled":true,"region":"eu","cc":"de","latitude":50.110924,"longitude":8.682127,"reserved":0,"last_update":"0001-01-01T00:00:00Z","name_a2s":"Uncletopia | Frankfurt | 8 | Community","protocol":17,"map":"workshop/rd_asteroid_redux_b1.ugc2154902912","folder":"tf","game":"Team Fortress","app_id":440,"player_count":0,"max_players":24,"Bots":0,"server_type":"Dedicated","server_os":"Linux","password":true,"vac":true,"version":"7757534","steam_id":85568392924742828,"keywords":["beta","nocrits","nodmgspread","rd","uncletopia"],"game_id":440,"stv_port":27086,"stv_name":"Uncletopia | Frankfurt | 8 | Community | STV","players":null},{"server_id":202,"name":"Uncletopia | Hong Kong | 1 | All Maps","name_short":"hgk-1","host":"hgk-1.hk.uncletopia.com","port":27015,"enabled":true,"region":"asia","cc":"hk","latitude":22.302711,"longitude":114.177216,"reserved":0,"last_update":"0001-01-01T00:00:00Z","name_a2s":"Uncletopia | Hong Kong | 1 | All Maps","protocol":17,"map":"cp_dustbowl","folder":"tf","game":"Team Fortress","app_id":440,"player_count":0,"max_players":24,"Bots":0,"server_type":"Dedicated","server_os":"Linux","password":true,"vac":true,"version":"7757534","steam_id":85568392924494504,"keywords":["cp","nocrits","nodmgspread","uncletopia"],"game_id":440,"stv_port":27016,"stv_name":"Uncletopia | Hong Kong | 1 | All Maps | STV","players":null},{"server_id":1,"name":"Uncletopia | Los Angeles | 1 | All Maps","name_short":"lax-1","host":"lax-1.us.uncletopia.com","port":27015,"enabled":true,"region":"us-west","cc":"us","latitude":33.94279,"longitude":-118.41004,"reserved":0,"last_update":"0001-01-01T00:00:00Z","name_a2s":"Uncletopia | Los Angeles | 1 | All Maps","protocol":17,"map":"pl_frontier_final","folder":"tf","game":"Team Fortress","app_id":440,"player_count":24,"max_players":24,"Bots":0,"server_type":"Dedicated","server_os":"Linux","password":true,"vac":true,"version":"7757534","steam_id":85568392924469991,"keywords":["nocrits","nodmgspread","payload","uncletopia"],"game_id":440,"stv_port":27016,"stv_name":"Uncletopia | Los Angeles | 1 | All Maps | STV","players":[{"user_id":246,"name":"Phillip Jeffries","steam_id":76561198064052174,"connected_time":1189000000000,"state":"active","ping":109},{"user_id":258,"name":"Krakula","steam_id":76561199080315974,"connected_time":562000000000,"state":"active","ping":47},{"user_id":261,"name":"PixelatedAfro","steam_id":76561198322595276,"connected_time":409000000000,"state":"active","ping":50},{"user_id":266,"name":"ryghehn","steam_id":76561198195359229,"connected_time":39000000000,"state":"active","ping":74},{"user_id":232,"name":"vanillain","steam_id":76561198058617608,"connected_time":1972000000000,"state":"active","ping":48},{"user_id":259,"name":"Percules 2024","steam_id":76561198195220521,"connected_time":490000000000,"state":"active","ping":116},{"user_id":267,"name":"RockDoctor","steam_id":76561198965756070,"connected_time":17000000000,"state":"active","ping":59},{"user_id":239,"name":"Altruisticailuridae","steam_id":76561198335295596,"connected_time":1393000000000,"state":"active","ping":52},{"user_id":247,"name":"pasta","steam_id":76561198084719895,"connected_time":1163000000000,"state":"active","ping":105},{"user_id":208,"name":"Painkiller","steam_id":76561198049787400,"connected_time":3113000000000,"state":"active","ping":56},{"user_id":235,"name":"Coffee","steam_id":76561198154646418,"connected_time":1873000000000,"state":"active","ping":76},{"user_id":243,"name":"Primordial","steam_id":76561198304922710,"connected_time":1263000000000,"state":"active","ping":119},{"user_id":210,"name":"c49aa4","steam_id":76561199099537250,"connected_time":3051000000000,"state":"active","ping":90},{"user_id":248,"name":"dash23™","steam_id":76561198314951185,"connected_time":1018000000000,"state":"active","ping":82},{"user_id":256,"name":"TOTO By Africa","steam_id":76561198089385204,"connected_time":674000000000,"state":"active","ping":110},{"user_id":251,"name":"SneekiCheekiQbone","steam_id":76561198045077980,"connected_time":747000000000,"state":"active","ping":44},{"user_id":213,"name":"chunkysquare","steam_id":76561199076468383,"connected_time":2981000000000,"state":"active","ping":45},{"user_id":249,"name":"darkness.danny3481","steam_id":76561198132808002,"connected_time":874000000000,"state":"active","ping":48},{"user_id":253,"name":"Furious George","steam_id":76561198405111646,"connected_time":719000000000,"state":"active","ping":66},{"user_id":264,"name":"rmbl","steam_id":76561198150137369,"connected_time":102000000000,"state":"active","ping":45},{"user_id":174,"name":"Zero","steam_id":76561199383267408,"connected_time":6829000000000,"state":"active","ping":80},{"user_id":250,"name":"Beanssss","steam_id":76561198976050984,"connected_time":750000000000,"state":"active","ping":122},{"user_id":254,"name":"Navigatxr","steam_id":76561199185153789,"connected_time":693000000000,"state":"active","ping":54},{"user_id":257,"name":"Batso","steam_id":76561198106589452,"connected_time":671000000000,"state":"active","ping":55}]},{"server_id":112,"name":"Uncletopia | Los Angeles | 2 | All Maps","name_short":"lax-2","host":"lax-1.us.uncletopia.com","port":27025,"enabled":true,"region":"us-west","cc":"us","latitude":33.94279,"longitude":-118.41004,"reserved":0,"last_update":"0001-01-01T00:00:00Z","name_a2s":"Uncletopia | Los Angeles | 2 | All Maps","protocol":17,"map":"koth_highpass","folder":"tf","game":"Team Fortress","app_id":440,"player_count":0,"max_players":24,"Bots":0,"server_type":"Dedicated","server_os":"Linux","password":true,"vac":true,"version":"7757534","steam_id":85568392924469992,"keywords":["cp","nocrits","nodmgspread","uncletopia"],"game_id":440,"stv_port":27026,"stv_name":"Uncletopia | Los Angeles | 2 | All Maps | STV","players":null},{"server_id":324,"name":"Uncletopia | Los Angeles | 3 | All Maps","name_short":"lax-3","host":"lax-1.us.uncletopia.com","port":27035,"enabled":true,"region":"us-west","cc":"us","latitude":33.94279,"longitude":-118.41004,"reserved":0,"last_update":"0001-01-01T00:00:00Z","name_a2s":"Uncletopia | Los Angeles | 3 | All Maps","protocol":17,"map":"cp_snakewater_final1","folder":"tf","game":"Team Fortress","app_id":440,"player_count":0,"max_players":24,"Bots":0,"server_type":"Dedicated","server_os":"Linux","password":true,"vac":true,"version":"7757534","steam_id":85568392924510198,"keywords":["cp","nocrits","nodmgspread","uncletopia"],"game_id":440,"stv_port":27036,"stv_name":"Uncletopia | Los Angeles | 3 | All Maps | STV","players":null},{"server_id":25,"name":"Uncletopia | Los Angeles | 4 | Stopwatch Beta","name_short":"lax-4","host":"lax-1.us.uncletopia.com","port":27045,"enabled":true,"region":"us-west","cc":"us","latitude":33.94279,"longitude":-118.41004,"reserved":0,"last_update":"0001-01-01T00:00:00Z","name_a2s":"Uncletopia | Los Angeles | 4 | Stopwatch Beta","protocol":17,"map":"pl_frontier_final","folder":"tf","game":"Team Fortress","app_id":440,"player_count":0,"max_players":24,"Bots":0,"server_type":"Dedicated","server_os":"Linux","password":true,"vac":true,"version":"7757534","steam_id":85568392924510199,"keywords":["nocrits","nodmgspread","payload","uncletopia"],"game_id":440,"stv_port":27046,"stv_name":"Uncletopia | Los Angeles | 4 | Stopwatch Beta | STV","players":null},{"server_id":11,"name":"Uncletopia | London | 1 | All Maps","name_short":"lon-1","host":"lon-1.uk.uncletopia.com","port":27015,"enabled":true,"region":"eu","cc":"gb","latitude":51.509865,"longitude":-0.118092,"reserved":0,"last_update":"0001-01-01T00:00:00Z","name_a2s":"Uncletopia | London | 1 | All Maps","protocol":17,"map":"pl_frontier_final","folder":"tf","game":"Team Fortress","app_id":440,"player_count":7,"max_players":24,"Bots":0,"server_type":"Dedicated","server_os":"Linux","password":true,"vac":true,"version":"7757534","steam_id":85568392924367362,"keywords":["nocrits","nodmgspread","payload","uncletopia"],"game_id":440,"stv_port":27016,"stv_name":"Uncletopia | London | 1 | All Maps | STV","players":[{"user_id":935,"name":"_DrunkenGibberish_","steam_id":76561199123070071,"connected_time":1357000000000,"state":"active","ping":185},{"user_id":941,"name":"It's a me Malario","steam_id":76561198176546013,"connected_time":22000000000,"state":"active","ping":46},{"user_id":938,"name":"acuifex","steam_id":76561198106266513,"connected_time":1236000000000,"state":"active","ping":74},{"user_id":939,"name":"Ruralchain","steam_id":76561198803915402,"connected_time":768000000000,"state":"active","ping":85},{"user_id":937,"name":"Momovsky","steam_id":76561198005738407,"connected_time":1321000000000,"state":"active","ping":76},{"user_id":917,"name":"posht0 @_@","steam_id":76561198106182078,"connected_time":3542000000000,"state":"active","ping":104},{"user_id":918,"name":"sabaka jebanoia","steam_id":76561198147249160,"connected_time":3531000000000,"state":"active","ping":96}]},{"server_id":114,"name":"Uncletopia | London | 2 | All Maps","name_short":"lon-2","host":"lon-1.uk.uncletopia.com","port":27025,"enabled":true,"region":"eu","cc":"gb","latitude":51.509865,"longitude":-0.118092,"reserved":0,"last_update":"0001-01-01T00:00:00Z","name_a2s":"Uncletopia | London | 2 | All Maps","protocol":17,"map":"cp_dustbowl","folder":"tf","game":"Team Fortress","app_id":440,"player_count":0,"max_players":24,"Bots":0,"server_type":"Dedicated","server_os":"Linux","password":true,"vac":true,"version":"7757534","steam_id":85568392924470941,"keywords":["cp","nocrits","nodmgspread","uncletopia"],"game_id":440,"stv_port":27026,"stv_name":"Uncletopia | London | 2 | All Maps | STV","players":null},{"server_id":320,"name":"Uncletopia | London | 3 | All Maps","name_short":"lon-3","host":"lon-1.uk.uncletopia.com","port":27035,"enabled":true,"region":"eu","cc":"gb","latitude":51.509865,"longitude":-0.118092,"reserved":0,"last_update":"0001-01-01T00:00:00Z","name_a2s":"Uncletopia | London | 3 | All Maps","protocol":17,"map":"koth_sawmill","folder":"tf","game":"Team Fortress","app_id":440,"player_count":0,"max_players":24,"Bots":0,"server_type":"Dedicated","server_os":"Linux","password":true,"vac":true,"version":"7757534","steam_id":85568392924510192,"keywords":["cp","nocrits","nodmgspread","uncletopia"],"game_id":440,"stv_port":27036,"stv_name":"Uncletopia | London | 3 | All Maps | STV","players":null},{"server_id":321,"name":"Uncletopia | London | 4 | All Maps","name_short":"lon-4","host":"lon-1.uk.uncletopia.com","port":27045,"enabled":true,"region":"eu","cc":"gb","latitude":51.509865,"longitude":-0.118092,"reserved":0,"last_update":"0001-01-01T00:00:00Z","name_a2s":"Uncletopia | London | 4 | All Maps","protocol":17,"map":"pl_pier","folder":"tf","game":"Team Fortress","app_id":440,"player_count":23,"max_players":24,"Bots":0,"server_type":"Dedicated","server_os":"Linux","password":true,"vac":true,"version":"7757534","steam_id":85568392924510193,"keywords":["nocrits","nodmgspread","payload","uncletopia"],"game_id":440,"stv_port":27046,"stv_name":"Uncletopia | London | 4 | All Maps | STV","players":[{"user_id":359,"name":"Dreadnawght","steam_id":76561198000973506,"connected_time":2375000000000,"state":"active","ping":56},{"user_id":386,"name":"Mondocane","steam_id":76561199233979726,"connected_time":67000000000,"state":"active","ping":90},{"user_id":347,"name":"joe","steam_id":76561198026484403,"connected_time":2859000000000,"state":"active","ping":55},{"user_id":372,"name":"Johnny Cockroach","steam_id":76561198049648277,"connected_time":1514000000000,"state":"active","ping":98},{"user_id":376,"name":"Gang Garrison 2","steam_id":76561197983908081,"connected_time":1263000000000,"state":"active","ping":39},{"user_id":373,"name":"Paulo [PT]","steam_id":76561198023169899,"connected_time":1415000000000,"state":"active","ping":80},{"user_id":377,"name":"Rezzarezz","steam_id":76561198092020043,"connected_time":1246000000000,"state":"active","ping":75},{"user_id":378,"name":"Osiris x Saint-14 9k Page Fanfi","steam_id":76561198133063760,"connected_time":1189000000000,"state":"active","ping":79},{"user_id":384,"name":"akage","steam_id":76561198095685185,"connected_time":541000000000,"state":"active","ping":46},{"user_id":302,"name":"Zerfesh","steam_id":76561198117534358,"connected_time":6352000000000,"state":"active","ping":96},{"user_id":315,"name":"nedilya","steam_id":76561198039692077,"connected_time":5661000000000,"state":"active","ping":60},{"user_id":379,"name":"Taste","steam_id":76561197994506978,"connected_time":1160000000000,"state":"active","ping":51},{"user_id":350,"name":"Tanyan","steam_id":76561198132162098,"connected_time":2732000000000,"state":"active","ping":47},{"user_id":368,"name":"Borat","steam_id":76561198122226417,"connected_time":1697000000000,"state":"active","ping":37},{"user_id":342,"name":"E1s (Neo-Kemalist)","steam_id":76561198894958917,"connected_time":3161000000000,"state":"active","ping":53},{"user_id":382,"name":"skittle","steam_id":76561198073814263,"connected_time":695000000000,"state":"active","ping":52},{"user_id":370,"name":"Kris","steam_id":76561198240638652,"connected_time":1634000000000,"state":"active","ping":43},{"user_id":352,"name":"neriah","steam_id":76561198115617236,"connected_time":2685000000000,"state":"active","ping":79},{"user_id":355,"name":"Proto-arc","steam_id":76561198012776747,"connected_time":2431000000000,"state":"active","ping":52},{"user_id":356,"name":"Bubbel","steam_id":76561198059540376,"connected_time":2428000000000,"state":"active","ping":74},{"user_id":374,"name":"Frazzle","steam_id":76561198262577951,"connected_time":1395000000000,"state":"active","ping":67},{"user_id":318,"name":"Dinges360","steam_id":76561198042032834,"connected_time":5376000000000,"state":"active","ping":56},{"user_id":385,"name":"Piellino","steam_id":76561198156873276,"connected_time":124000000000,"state":"active","ping":116}]},{"server_id":21,"name":"Uncletopia | London | 5 | All Maps","name_short":"lon-5","host":"lon-1.uk.uncletopia.com","port":27055,"enabled":true,"region":"eu","cc":"gb","latitude":51.509865,"longitude":-0.118092,"reserved":0,"last_update":"0001-01-01T00:00:00Z","name_a2s":"Uncletopia | London | 5 | All Maps","protocol":17,"map":"koth_cascade","folder":"tf","game":"Team Fortress","app_id":440,"player_count":0,"max_players":24,"Bots":0,"server_type":"Dedicated","server_os":"Linux","password":true,"vac":true,"version":"7757534","steam_id":85568392924742829,"keywords":["cp","nocrits","nodmgspread","uncletopia"],"game_id":440,"stv_port":27056,"stv_name":"Uncletopia | London | 5 | All Maps | STV","players":null},{"server_id":22,"name":"Uncletopia | London | 6 | All Maps","name_short":"lon-6","host":"lon-1.uk.uncletopia.com","port":27065,"enabled":true,"region":"eu","cc":"gb","latitude":51.509865,"longitude":-0.118092,"reserved":0,"last_update":"0001-01-01T00:00:00Z","name_a2s":"Uncletopia | London | 6 | All Maps","protocol":17,"map":"pl_swiftwater_final1","folder":"tf","game":"Team Fortress","app_id":440,"player_count":0,"max_players":24,"Bots":0,"server_type":"Dedicated","server_os":"Linux","password":true,"vac":true,"version":"7757534","steam_id":85568392924742830,"keywords":["nocrits","nodmgspread","payload","uncletopia"],"game_id":440,"stv_port":27066,"stv_name":"Uncletopia | London | 6 | All Maps | STV","players":null},{"server_id":40,"name":"Uncletopia | London | 7 | No Payload","name_short":"lon-7","host":"lon-1.uk.uncletopia.com","port":27075,"enabled":true,"region":"eu","cc":"gb","latitude":51.509865,"longitude":-0.118092,"reserved":0,"last_update":"0001-01-01T00:00:00Z","name_a2s":"Uncletopia | London | 7 | No Payload","protocol":17,"map":"plr_pipeline","folder":"tf","game":"Team Fortress","app_id":440,"player_count":0,"max_players":24,"Bots":0,"server_type":"Dedicated","server_os":"Linux","password":true,"vac":true,"version":"7757534","steam_id":85568392924964314,"keywords":["nocrits","nodmgspread","payload","uncletopia"],"game_id":440,"stv_port":27076,"stv_name":"Uncletopia | London | 7 | No Payload | STV","players":null},{"server_id":41,"name":"Uncletopia | London | 8 | Community","name_short":"lon-8","host":"lon-1.uk.uncletopia.com","port":27085,"enabled":true,"region":"eu","cc":"gb","latitude":51.509865,"longitude":-0.118092,"reserved":0,"last_update":"0001-01-01T00:00:00Z","name_a2s":"Uncletopia | London | 8 | Community","protocol":17,"map":"workshop/cp_croissant_final.ugc458840209","folder":"tf","game":"Team Fortress","app_id":440,"player_count":0,"max_players":24,"Bots":0,"server_type":"Dedicated","server_os":"Linux","password":true,"vac":true,"version":"7757534","steam_id":85568392924964315,"keywords":["cp","nocrits","nodmgspread","uncletopia"],"game_id":440,"stv_port":27086,"stv_name":"Uncletopia | London | 8 | Community | STV","players":null},{"server_id":300,"name":"Uncletopia | Montréal | 1 | All Maps","name_short":"mtl-1","host":"mtl-1.ca.uncletopia.com","port":27015,"enabled":true,"region":"us-east","cc":"ca","latitude":45.50889,"longitude":-73.56167,"reserved":0,"last_update":"0001-01-01T00:00:00Z","name_a2s":"Uncletopia | Montréal | 1 | All Maps","protocol":17,"map":"pl_borneo","folder":"tf","game":"Team Fortress","app_id":440,"player_count":0,"max_players":24,"Bots":0,"server_type":"Dedicated","server_os":"Linux","password":true,"vac":true,"version":"7757534","steam_id":85568392924500087,"keywords":["nocrits","nodmgspread","payload","uncletopia"],"game_id":440,"stv_port":27016,"stv_name":"Uncletopia | Montréal | 1 | All Maps | STV","players":null},{"server_id":301,"name":"Uncletopia | Montréal | 2 | All Maps","name_short":"mtl-2","host":"mtl-1.ca.uncletopia.com","port":27025,"enabled":true,"region":"us-east","cc":"ca","latitude":45.50889,"longitude":-73.56167,"reserved":0,"last_update":"0001-01-01T00:00:00Z","name_a2s":"Uncletopia | Montréal | 2 | All Maps","protocol":17,"map":"pl_frontier_final","folder":"tf","game":"Team Fortress","app_id":440,"player_count":0,"max_players":24,"Bots":0,"server_type":"Dedicated","server_os":"Linux","password":true,"vac":true,"version":"7757534","steam_id":85568392924500088,"keywords":["nocrits","nodmgspread","payload","uncletopia"],"game_id":440,"stv_port":27026,"stv_name":"Uncletopia | Montréal | 2 | All Maps | STV","players":null},{"server_id":302,"name":"Uncletopia | Montréal | 3 | All Maps","name_short":"mtl-3","host":"mtl-1.ca.uncletopia.com","port":27035,"enabled":true,"region":"us-east","cc":"ca","latitude":45.50889,"longitude":-73.56167,"reserved":0,"last_update":"0001-01-01T00:00:00Z","name_a2s":"Uncletopia | Montréal | 3 | All Maps","protocol":17,"map":"koth_highpass","folder":"tf","game":"Team Fortress","app_id":440,"player_count":0,"max_players":24,"Bots":0,"server_type":"Dedicated","server_os":"Linux","password":true,"vac":true,"version":"7757534","steam_id":85568392924500089,"keywords":["cp","nocrits","nodmgspread","uncletopia"],"game_id":440,"stv_port":27036,"stv_name":"Uncletopia | Montréal | 3 | All Maps | STV","players":null},{"server_id":303,"name":"Uncletopia | Montréal | 4 | No Payload","name_short":"mtl-4","host":"mtl-1.ca.uncletopia.com","port":27045,"enabled":true,"region":"us-east","cc":"ca","latitude":45.50889,"longitude":-73.56167,"reserved":0,"last_update":"0001-01-01T00:00:00Z","name_a2s":"Uncletopia | Montréal | 4 | No Payload","protocol":17,"map":"pl_borneo","folder":"tf","game":"Team Fortress","app_id":440,"player_count":0,"max_players":24,"Bots":0,"server_type":"Dedicated","server_os":"Linux","password":true,"vac":true,"version":"7757534","steam_id":85568392924500090,"keywords":["nocrits","nodmgspread","payload","uncletopia"],"game_id":440,"stv_port":27046,"stv_name":"Uncletopia | Montréal | 4 | No Payload | STV","players":null},{"server_id":13,"name":"Uncletopia | New York City | 1 | All Maps","name_short":"nyc-1","host":"nyc-1.us.uncletopia.com","port":27015,"enabled":true,"region":"us-east","cc":"us","latitude":40.73061,"longitude":-73.93524,"reserved":0,"last_update":"0001-01-01T00:00:00Z","name_a2s":"Uncletopia | New York City | 1 | All Maps","protocol":17,"map":"koth_viaduct","folder":"tf","game":"Team Fortress","app_id":440,"player_count":24,"max_players":24,"Bots":0,"server_type":"Dedicated","server_os":"Linux","password":true,"vac":true,"version":"7757534","steam_id":85568392924469993,"keywords":["cp","nocrits","nodmgspread","uncletopia"],"game_id":440,"stv_port":27016,"stv_name":"Uncletopia | New York City | 1 | All Maps | STV","players":[{"user_id":509,"name":"TheDarkTitan","steam_id":76561198304794068,"connected_time":1575000000000,"state":"active","ping":59},{"user_id":530,"name":"Snugboo","steam_id":76561198147970327,"connected_time":674000000000,"state":"active","ping":36},{"user_id":482,"name":"miner","steam_id":76561198073035221,"connected_time":3601000000000,"state":"active","ping":69},{"user_id":500,"name":"al","steam_id":76561198117181511,"connected_time":2059000000000,"state":"active","ping":69},{"user_id":528,"name":"Buttons :)","steam_id":76561198139478534,"connected_time":767000000000,"state":"active","ping":128},{"user_id":537,"name":"Kurt Biscuitmaker","steam_id":76561198331701823,"connected_time":4000000000,"state":"spawning","ping":45},{"user_id":506,"name":"WibbyOne","steam_id":76561198052843846,"connected_time":1982000000000,"state":"active","ping":34},{"user_id":481,"name":"jnv1013","steam_id":76561198965549228,"connected_time":3730000000000,"state":"active","ping":58},{"user_id":515,"name":"The Joke","steam_id":76561198053046161,"connected_time":1215000000000,"state":"active","ping":50},{"user_id":460,"name":"CobyNoHoes","steam_id":76561198122236594,"connected_time":5362000000000,"state":"active","ping":76},{"user_id":526,"name":"flappyflap2","steam_id":76561198285048973,"connected_time":932000000000,"state":"active","ping":42},{"user_id":532,"name":"Chombo Cheeto","steam_id":76561198051638630,"connected_time":346000000000,"state":"active","ping":67},{"user_id":503,"name":"Black Hole Sus (Amongus)","steam_id":76561198006261751,"connected_time":2043000000000,"state":"active","ping":66},{"user_id":536,"name":"Vault Tec★Guy","steam_id":76561198247572280,"connected_time":89000000000,"state":"active","ping":69},{"user_id":483,"name":"Amogus The Sussy Baka ඞ","steam_id":76561198008577961,"connected_time":3568000000000,"state":"active","ping":58},{"user_id":504,"name":"Kasane","steam_id":76561198209006780,"connected_time":2033000000000,"state":"active","ping":82},{"user_id":535,"name":"craig","steam_id":76561198402235691,"connected_time":244000000000,"state":"active","ping":71},{"user_id":527,"name":"Unneeded Player(F2P)","steam_id":76561199388826335,"connected_time":818000000000,"state":"active","ping":64},{"user_id":492,"name":"pest","steam_id":76561198052571208,"connected_time":2957000000000,"state":"active","ping":42},{"user_id":507,"name":"Horse","steam_id":76561199112075552,"connected_time":1768000000000,"state":"active","ping":46},{"user_id":522,"name":"beatrix","steam_id":76561199057103062,"connected_time":1075000000000,"state":"active","ping":106},{"user_id":523,"name":"matthew.caffee","steam_id":76561199069898310,"connected_time":1069000000000,"state":"active","ping":86},{"user_id":525,"name":"Drake the Pixel","steam_id":76561198131824401,"connected_time":963000000000,"state":"active","ping":44},{"user_id":531,"name":"Ceiling Man","steam_id":76561198003959902,"connected_time":538000000000,"state":"active","ping":41}]},{"server_id":14,"name":"Uncletopia | New York City | 2 | All Maps","name_short":"nyc-2","host":"nyc-1.us.uncletopia.com","port":27025,"enabled":true,"region":"us-east","cc":"us","latitude":40.73061,"longitude":-73.93524,"reserved":0,"last_update":"0001-01-01T00:00:00Z","name_a2s":"Uncletopia | New York City | 2 | All Maps","protocol":17,"map":"pl_badwater","folder":"tf","game":"Team Fortress","app_id":440,"player_count":24,"max_players":24,"Bots":0,"server_type":"Dedicated","server_os":"Linux","password":true,"vac":true,"version":"7757534","steam_id":85568392924469994,"keywords":["nocrits","nodmgspread","payload","uncletopia"],"game_id":440,"stv_port":27026,"stv_name":"Uncletopia | New York City | 2 | All Maps | STV","players":[{"user_id":309,"name":"1971 Dodge Challenger R/T","steam_id":76561198370956616,"connected_time":1136000000000,"state":"active","ping":97},{"user_id":314,"name":"dodge1214","steam_id":76561198020431237,"connected_time":838000000000,"state":"active","ping":42},{"user_id":285,"name":"Vegerot","steam_id":76561197997843710,"connected_time":2724000000000,"state":"active","ping":44},{"user_id":315,"name":"DazzlingMaggot","steam_id":76561197972716928,"connected_time":324000000000,"state":"active","ping":67},{"user_id":310,"name":"NeutralGamer","steam_id":76561198095908590,"connected_time":1129000000000,"state":"active","ping":72},{"user_id":305,"name":"Local","steam_id":76561198069537437,"connected_time":1587000000000,"state":"active","ping":129},{"user_id":268,"name":"The Menace 2023","steam_id":76561199197961413,"connected_time":4564000000000,"state":"active","ping":36},{"user_id":294,"name":"Russell Crowe's Renaissance","steam_id":76561197970834547,"connected_time":2428000000000,"state":"active","ping":77},{"user_id":313,"name":"klevin","steam_id":76561198799106535,"connected_time":873000000000,"state":"active","ping":124},{"user_id":287,"name":"RatedM4Matt","steam_id":76561198086141042,"connected_time":2720000000000,"state":"active","ping":60},{"user_id":297,"name":"quatelhelix","steam_id":76561198066708113,"connected_time":2213000000000,"state":"active","ping":73},{"user_id":291,"name":"Polygunner","steam_id":76561199165741650,"connected_time":2648000000000,"state":"active","ping":54},{"user_id":316,"name":"Vince Offer","steam_id":76561198991008825,"connected_time":311000000000,"state":"active","ping":72},{"user_id":271,"name":"no.1 dragonvale player","steam_id":76561198124365349,"connected_time":3990000000000,"state":"active","ping":90},{"user_id":248,"name":"Adorable Cat","steam_id":76561198165453127,"connected_time":6198000000000,"state":"active","ping":64},{"user_id":270,"name":"gettysburg","steam_id":76561198016157051,"connected_time":4253000000000,"state":"active","ping":76},{"user_id":284,"name":"Vivid Hut 64","steam_id":76561198170050059,"connected_time":3366000000000,"state":"active","ping":59},{"user_id":311,"name":"Casual Pyro Main","steam_id":76561198978958802,"connected_time":1124000000000,"state":"active","ping":96},{"user_id":301,"name":"Sir Iasis","steam_id":76561198035666760,"connected_time":2157000000000,"state":"active","ping":86},{"user_id":308,"name":"gallowsCalibrator","steam_id":76561198076388445,"connected_time":1167000000000,"state":"active","ping":74},{"user_id":319,"name":"frank","steam_id":76561198045436159,"connected_time":95000000000,"state":"active","ping":65},{"user_id":295,"name":"CraigHawksbill","steam_id":76561199000670185,"connected_time":2324000000000,"state":"active","ping":110},{"user_id":317,"name":"Kevin the Chicken God","steam_id":76561198049834485,"connected_time":294000000000,"state":"active","ping":59},{"user_id":312,"name":"\u003cDET\u003e Zetsyuk","steam_id":76561197979474818,"connected_time":1113000000000,"state":"active","ping":80}]},{"server_id":15,"name":"Uncletopia | New York City | 3 | Stopwatch Beta","name_short":"nyc-3","host":"nyc-1.us.uncletopia.com","port":27035,"enabled":true,"region":"us-east","cc":"us","latitude":40.73061,"longitude":-73.93524,"reserved":0,"last_update":"0001-01-01T00:00:00Z","name_a2s":"Uncletopia | New York City | 3 | Stopwatch Beta","protocol":17,"map":"koth_lakeside_final","folder":"tf","game":"Team Fortress","app_id":440,"player_count":24,"max_players":24,"Bots":0,"server_type":"Dedicated","server_os":"Linux","password":true,"vac":true,"version":"7757534","steam_id":85568392924742820,"keywords":["cp","nocrits","nodmgspread","uncletopia"],"game_id":440,"stv_port":27036,"stv_name":"Uncletopia | New York City | 3 | Stopwatch Beta | STV","players":[{"user_id":181,"name":"Rein","steam_id":76561198300340427,"connected_time":515000000000,"state":"active","ping":73},{"user_id":179,"name":"☼Barracuda☼","steam_id":76561198013022083,"connected_time":916000000000,"state":"active","ping":90},{"user_id":134,"name":"Your Local NPR Station","steam_id":76561198143830279,"connected_time":3108000000000,"state":"active","ping":60},{"user_id":182,"name":"RectalExam","steam_id":76561197970502312,"connected_time":410000000000,"state":"active","ping":136},{"user_id":183,"name":"Puke Skyfucker","steam_id":76561198012846213,"connected_time":398000000000,"state":"active","ping":87},{"user_id":173,"name":"The Chimperor","steam_id":76561198042091884,"connected_time":1707000000000,"state":"active","ping":78},{"user_id":176,"name":"toastman","steam_id":76561198207073088,"connected_time":1441000000000,"state":"active","ping":86},{"user_id":177,"name":"◄Nyko►","steam_id":76561198035475444,"connected_time":1435000000000,"state":"active","ping":72},{"user_id":103,"name":"willferrellfan117","steam_id":76561198331027373,"connected_time":4491000000000,"state":"active","ping":78},{"user_id":186,"name":"pel","steam_id":76561198021224745,"connected_time":102000000000,"state":"active","ping":33},{"user_id":170,"name":".9 lg","steam_id":76561198092238353,"connected_time":1738000000000,"state":"active","ping":92},{"user_id":122,"name":"creamgravy573","steam_id":76561198093308746,"connected_time":3725000000000,"state":"active","ping":62},{"user_id":141,"name":"Havok","steam_id":76561198063455003,"connected_time":2996000000000,"state":"active","ping":51},{"user_id":184,"name":"b4rry","steam_id":76561198365887154,"connected_time":358000000000,"state":"active","ping":48},{"user_id":178,"name":"Chrome Knight","steam_id":76561198851348871,"connected_time":1431000000000,"state":"active","ping":74},{"user_id":129,"name":"Claw","steam_id":76561198309244890,"connected_time":3178000000000,"state":"active","ping":44},{"user_id":180,"name":"Primis Richtofen","steam_id":76561198273783149,"connected_time":670000000000,"state":"active","ping":131},{"user_id":132,"name":"mothsprings","steam_id":76561198928604937,"connected_time":3117000000000,"state":"active","ping":69},{"user_id":175,"name":"Mushroom","steam_id":76561198796710129,"connected_time":1577000000000,"state":"active","ping":95},{"user_id":168,"name":"Trans Bumblebee","steam_id":76561198119393205,"connected_time":1772000000000,"state":"active","ping":79},{"user_id":153,"name":"Nosferatu","steam_id":76561198048205270,"connected_time":2226000000000,"state":"active","ping":64},{"user_id":187,"name":"Dr. Strangelove","steam_id":76561198014593467,"connected_time":61000000000,"state":"active","ping":75},{"user_id":185,"name":"eryn 🗺","steam_id":76561198004433070,"connected_time":195000000000,"state":"active","ping":92},{"user_id":143,"name":"Ginger Jesus","steam_id":76561198052386458,"connected_time":2987000000000,"state":"active","ping":46}]},{"server_id":16,"name":"Uncletopia | New York City | 4 | Community","name_short":"nyc-4","host":"nyc-1.us.uncletopia.com","port":27045,"enabled":true,"region":"us-east","cc":"us","latitude":40.73061,"longitude":-73.93524,"reserved":0,"last_update":"0001-01-01T00:00:00Z","name_a2s":"Uncletopia | New York City | 4 | Community","protocol":17,"map":"workshop/cp_hazyfort_rc6.ugc1365963729","folder":"tf","game":"Team Fortress","app_id":440,"player_count":23,"max_players":24,"Bots":0,"server_type":"Dedicated","server_os":"Linux","password":true,"vac":true,"version":"7757534","steam_id":85568392924742821,"keywords":["cp","nocrits","nodmgspread","uncletopia"],"game_id":440,"stv_port":27046,"stv_name":"Uncletopia | New York City | 4 | Community | STV","players":[{"user_id":185,"name":"✰ DOC ROBOT K-176 ✰","steam_id":76561198280315202,"connected_time":714000000000,"state":"active","ping":89},{"user_id":139,"name":"Cooldogjoe","steam_id":76561198105543698,"connected_time":3007000000000,"state":"active","ping":84},{"user_id":176,"name":"Kael","steam_id":76561198041277031,"connected_time":920000000000,"state":"active","ping":76},{"user_id":177,"name":"offensive rick and morty memes","steam_id":76561198367019006,"connected_time":841000000000,"state":"active","ping":65},{"user_id":146,"name":"DolphiN | RGL.gg","steam_id":76561198048614515,"connected_time":2666000000000,"state":"active","ping":44},{"user_id":172,"name":"nav","steam_id":76561198872608266,"connected_time":1096000000000,"state":"active","ping":72},{"user_id":178,"name":"Phat Cat","steam_id":76561198123017274,"connected_time":797000000000,"state":"active","ping":40},{"user_id":191,"name":"Dr.Long","steam_id":76561198930316713,"connected_time":377000000000,"state":"active","ping":87},{"user_id":169,"name":"Mr. Rogers","steam_id":76561198296190438,"connected_time":1260000000000,"state":"active","ping":46},{"user_id":179,"name":"evolNapper","steam_id":76561197976889812,"connected_time":793000000000,"state":"active","ping":54},{"user_id":192,"name":"uVeins","steam_id":76561198067445528,"connected_time":336000000000,"state":"active","ping":60},{"user_id":196,"name":"Public Library Warrior","steam_id":76561198817866879,"connected_time":110000000000,"state":"spawning","ping":167},{"user_id":162,"name":"IGuy","steam_id":76561197996590728,"connected_time":1873000000000,"state":"active","ping":62},{"user_id":187,"name":"Foxtrot Uniform","steam_id":76561199236576844,"connected_time":517000000000,"state":"active","ping":73},{"user_id":173,"name":"bass player","steam_id":76561198203357580,"connected_time":1043000000000,"state":"active","ping":88},{"user_id":194,"name":"HellRaiser","steam_id":76561199051660033,"connected_time":191000000000,"state":"active","ping":100},{"user_id":134,"name":"AER0.exe","steam_id":76561198062940197,"connected_time":3272000000000,"state":"active","ping":81},{"user_id":182,"name":"Vexed","steam_id":76561198157557477,"connected_time":756000000000,"state":"active","ping":115},{"user_id":171,"name":"guyinatophat51","steam_id":76561198180230694,"connected_time":1225000000000,"state":"active","ping":54},{"user_id":157,"name":"twix","steam_id":76561198040912048,"connected_time":2253000000000,"state":"active","ping":63},{"user_id":158,"name":"Large Man","steam_id":76561198880396651,"connected_time":2240000000000,"state":"active","ping":85},{"user_id":188,"name":"Brainfreezzzzz","steam_id":76561198068496884,"connected_time":499000000000,"state":"active","ping":53},{"user_id":184,"name":"Super D Duper","steam_id":76561198078203677,"connected_time":744000000000,"state":"active","ping":52}]},{"server_id":142,"name":"Uncletopia | São Paulo | 1 | All Maps","name_short":"sao-1","host":"sao-1.br.uncletopia.com","port":27015,"enabled":true,"region":"sa","cc":"br","latitude":-23.533773,"longitude":-46.62529,"reserved":0,"last_update":"0001-01-01T00:00:00Z","name_a2s":"Uncletopia | São Paulo | 1 | All Maps","protocol":17,"map":"koth_lakeside_final","folder":"tf","game":"Team Fortress","app_id":440,"player_count":0,"max_players":24,"Bots":0,"server_type":"Dedicated","server_os":"Linux","password":true,"vac":true,"version":"7757534","steam_id":85568392924469996,"keywords":["cp","nocrits","nodmgspread","uncletopia"],"game_id":440,"stv_port":27016,"stv_name":"Uncletopia | São Paulo | 1 | All Maps | STV","players":null},{"server_id":143,"name":"Uncletopia | São Paulo | 2 | All Maps","name_short":"sao-2","host":"sao-2.br.uncletopia.com","port":27015,"enabled":true,"region":"sa","cc":"br","latitude":-23.533773,"longitude":-46.62529,"reserved":0,"last_update":"0001-01-01T00:00:00Z","name_a2s":"Uncletopia | São Paulo | 2 | All Maps","protocol":17,"map":"koth_cascade","folder":"tf","game":"Team Fortress","app_id":440,"player_count":0,"max_players":24,"Bots":0,"server_type":"Dedicated","server_os":"Linux","password":true,"vac":true,"version":"7757534","steam_id":85568392924485349,"keywords":["cp","nocrits","nodmgspread","uncletopia"],"game_id":440,"stv_port":27016,"stv_name":"Uncletopia | São Paulo | 2 | All Maps | STV","players":null},{"server_id":7,"name":"Uncletopia | Seattle | 1 | All Maps","name_short":"sea-1","host":"sea-1.us.uncletopia.com","port":27015,"enabled":true,"region":"us-west","cc":"us","latitude":47.608013,"longitude":-122.33517,"reserved":0,"last_update":"0001-01-01T00:00:00Z","name_a2s":"Uncletopia | Seattle | 1 | All Maps","protocol":17,"map":"koth_viaduct","folder":"tf","game":"Team Fortress","app_id":440,"player_count":24,"max_players":24,"Bots":0,"server_type":"Dedicated","server_os":"Linux","password":true,"vac":true,"version":"7757534","steam_id":85568392924469997,"keywords":["cp","nocrits","nodmgspread","uncletopia"],"game_id":440,"stv_port":27016,"stv_name":"Uncletopia | Seattle | 1 | All Maps | STV","players":[{"user_id":589,"name":"AlohaGnome","steam_id":76561198082595306,"connected_time":2066000000000,"state":"active","ping":87},{"user_id":528,"name":"Winter the Witchie","steam_id":76561198151971178,"connected_time":7483000000000,"state":"active","ping":101},{"user_id":606,"name":"Skabbety","steam_id":76561198168044257,"connected_time":672000000000,"state":"active","ping":38},{"user_id":608,"name":"〣dust〣 -she/her-","steam_id":76561198045218909,"connected_time":651000000000,"state":"active","ping":43},{"user_id":601,"name":"HideOnTate","steam_id":76561198209880837,"connected_time":1069000000000,"state":"active","ping":44},{"user_id":609,"name":"AmiableNebula","steam_id":76561198094306627,"connected_time":589000000000,"state":"active","ping":75},{"user_id":602,"name":"[TrC] Dackstrus","steam_id":76561197973518509,"connected_time":976000000000,"state":"active","ping":59},{"user_id":610,"name":"Dauntless Duelist","steam_id":76561198025056018,"connected_time":579000000000,"state":"active","ping":53},{"user_id":570,"name":"nzippy","steam_id":76561199048618678,"connected_time":3434000000000,"state":"active","ping":43},{"user_id":562,"name":"Yogurt Raisins","steam_id":76561198172748357,"connected_time":3843000000000,"state":"active","ping":63},{"user_id":612,"name":"misterjozo","steam_id":76561198012300755,"connected_time":471000000000,"state":"active","ping":59},{"user_id":580,"name":"Thecatsmith4you","steam_id":76561197963010784,"connected_time":2339000000000,"state":"active","ping":69},{"user_id":597,"name":"blizz","steam_id":76561199139715539,"connected_time":1271000000000,"state":"active","ping":68},{"user_id":564,"name":"weegeebad","steam_id":76561198280841437,"connected_time":3731000000000,"state":"active","ping":121},{"user_id":596,"name":"Void","steam_id":76561198308290211,"connected_time":1432000000000,"state":"active","ping":93},{"user_id":616,"name":"li","steam_id":76561198077260471,"connected_time":116000000000,"state":"active","ping":59},{"user_id":613,"name":"mimelle","steam_id":76561199471474219,"connected_time":448000000000,"state":"active","ping":82},{"user_id":598,"name":"Heh?!","steam_id":76561198067717452,"connected_time":1258000000000,"state":"active","ping":51},{"user_id":586,"name":"ClosetBotany","steam_id":76561198088324821,"connected_time":2231000000000,"state":"active","ping":55},{"user_id":614,"name":"Asolator0","steam_id":76561198095809798,"connected_time":390000000000,"state":"active","ping":50},{"user_id":605,"name":"[TrC] Nosy","steam_id":76561197978859310,"connected_time":684000000000,"state":"active","ping":57},{"user_id":587,"name":"sand mountain sam","steam_id":76561198929605128,"connected_time":2201000000000,"state":"active","ping":104},{"user_id":615,"name":"off","steam_id":76561198053513128,"connected_time":374000000000,"state":"active","ping":146},{"user_id":526,"name":"Mignyanne :3","steam_id":76561198048754056,"connected_time":7637000000000,"state":"active","ping":66}]},{"server_id":119,"name":"Uncletopia | Seattle | 2 | All Maps","name_short":"sea-2","host":"sea-1.us.uncletopia.com","port":27025,"enabled":true,"region":"us-west","cc":"us","latitude":47.608013,"longitude":-122.33517,"reserved":0,"last_update":"0001-01-01T00:00:00Z","name_a2s":"Uncletopia | Seattle | 2 | All Maps","protocol":17,"map":"cp_dustbowl","folder":"tf","game":"Team Fortress","app_id":440,"player_count":23,"max_players":24,"Bots":0,"server_type":"Dedicated","server_os":"Linux","password":true,"vac":true,"version":"7757534","steam_id":85568392924469998,"keywords":["cp","nocrits","nodmgspread","uncletopia"],"game_id":440,"stv_port":27026,"stv_name":"Uncletopia | Seattle | 2 | All Maps | STV","players":[{"user_id":198,"name":"Greskrendtregk","steam_id":76561197969553142,"connected_time":337000000000,"state":"active","ping":53},{"user_id":180,"name":"we did it mate","steam_id":76561199471434875,"connected_time":1434000000000,"state":"active","ping":37},{"user_id":114,"name":"discord kitten","steam_id":76561198210322871,"connected_time":4034000000000,"state":"active","ping":74},{"user_id":194,"name":"Robert","steam_id":76561198091171326,"connected_time":711000000000,"state":"active","ping":59},{"user_id":179,"name":"Algibruh","steam_id":76561199221599415,"connected_time":1458000000000,"state":"active","ping":56},{"user_id":191,"name":"DAS SCHNITZELSTIEN","steam_id":76561198051137159,"connected_time":898000000000,"state":"active","ping":55},{"user_id":92,"name":"Thexx ❤","steam_id":76561198113823050,"connected_time":6616000000000,"state":"active","ping":49},{"user_id":201,"name":"Windows1800s","steam_id":76561198145093014,"connected_time":129000000000,"state":"active","ping":75},{"user_id":192,"name":"Iron","steam_id":76561198115269587,"connected_time":884000000000,"state":"active","ping":117},{"user_id":186,"name":"doopsies","steam_id":76561198083000867,"connected_time":1137000000000,"state":"active","ping":55},{"user_id":107,"name":"aon135","steam_id":76561197966931637,"connected_time":4603000000000,"state":"active","ping":59},{"user_id":177,"name":"NiJesus","steam_id":76561197973145852,"connected_time":1686000000000,"state":"active","ping":104},{"user_id":109,"name":"Court Wizard, Sir Dr. Clydesdal","steam_id":76561198149267697,"connected_time":4450000000000,"state":"active","ping":70},{"user_id":181,"name":"Harley [Ramiel]","steam_id":76561198079510840,"connected_time":1410000000000,"state":"active","ping":50},{"user_id":111,"name":"Derpydude2002 #SaveTf2","steam_id":76561198811719519,"connected_time":4404000000000,"state":"active","ping":113},{"user_id":115,"name":"Haydob13","steam_id":76561198110378191,"connected_time":4028000000000,"state":"active","ping":59},{"user_id":193,"name":"Bendidy","steam_id":76561198041964300,"connected_time":862000000000,"state":"active","ping":71},{"user_id":200,"name":"MrLeftTurn","steam_id":76561198856743969,"connected_time":215000000000,"state":"active","ping":86},{"user_id":187,"name":"BrightOrangeMango","steam_id":76561198023144607,"connected_time":1125000000000,"state":"active","ping":98},{"user_id":197,"name":"Village","steam_id":76561198402089732,"connected_time":389000000000,"state":"active","ping":77},{"user_id":126,"name":"dougrocks421","steam_id":76561198165063918,"connected_time":3290000000000,"state":"active","ping":40},{"user_id":182,"name":"Harold","steam_id":76561198057317770,"connected_time":1393000000000,"state":"active","ping":59},{"user_id":105,"name":"Robogineer","steam_id":76561198026994739,"connected_time":5530000000000,"state":"active","ping":78}]},{"server_id":406,"name":"Uncletopia | Seattle | 3 | Stopwatch Beta","name_short":"sea-3","host":"sea-1.us.uncletopia.com","port":27035,"enabled":true,"region":"us-west","cc":"us","latitude":47.608013,"longitude":-122.33517,"reserved":0,"last_update":"0001-01-01T00:00:00Z","name_a2s":"Uncletopia | Seattle | 3 | Stopwatch Beta","protocol":17,"map":"workshop/cp_reckoner_rc6.ugc674719999","folder":"tf","game":"Team Fortress","app_id":440,"player_count":4,"max_players":24,"Bots":0,"server_type":"Dedicated","server_os":"Linux","password":true,"vac":true,"version":"7757534","steam_id":85568392924515217,"keywords":["cp","nocrits","nodmgspread","uncletopia"],"game_id":440,"stv_port":27036,"stv_name":"Uncletopia | Seattle | 3 | Stopwatch Beta | STV","players":[{"user_id":8,"name":"January","steam_id":76561199100225735,"connected_time":894000000000,"state":"active","ping":45},{"user_id":9,"name":"RoxyWoah!","steam_id":76561199158410575,"connected_time":871000000000,"state":"active","ping":141},{"user_id":10,"name":"Flyingcat9000","steam_id":76561198179561797,"connected_time":755000000000,"state":"active","ping":47},{"user_id":13,"name":"Dosario","steam_id":76561198298095535,"connected_time":144000000000,"state":"active","ping":49}]},{"server_id":17,"name":"Uncletopia | San Francisco | 1 | All Maps","name_short":"sfo-1","host":"sfo-1.us.uncletopia.com","port":27015,"enabled":true,"region":"us-west","cc":"us","latitude":37.77397,"longitude":-122.4313,"reserved":0,"last_update":"0001-01-01T00:00:00Z","name_a2s":"Uncletopia | San Francisco | 1 | All Maps","protocol":17,"map":"pl_goldrush","folder":"tf","game":"Team Fortress","app_id":440,"player_count":23,"max_players":24,"Bots":0,"server_type":"Dedicated","server_os":"Linux","password":true,"vac":true,"version":"7757534","steam_id":85568392924469999,"keywords":["nocrits","nodmgspread","payload","uncletopia"],"game_id":440,"stv_port":27016,"stv_name":"Uncletopia | San Francisco | 1 | All Maps | STV","players":[{"user_id":457,"name":"Scrotum Stealer","steam_id":76561198362839738,"connected_time":46000000000,"state":"active","ping":74},{"user_id":449,"name":"Atol","steam_id":76561199011393398,"connected_time":304000000000,"state":"active","ping":74},{"user_id":427,"name":"SwineFlu","steam_id":76561197989014109,"connected_time":765000000000,"state":"active","ping":85},{"user_id":456,"name":"StiffSock9000","steam_id":76561198851593473,"connected_time":126000000000,"state":"active","ping":122},{"user_id":432,"name":"Private.TwinkleToes","steam_id":76561198276974275,"connected_time":714000000000,"state":"active","ping":82},{"user_id":453,"name":"Jonatello","steam_id":76561198045699189,"connected_time":198000000000,"state":"active","ping":66},{"user_id":401,"name":"BarelyAnimateObject","steam_id":76561198986264116,"connected_time":2318000000000,"state":"active","ping":52},{"user_id":431,"name":"Room","steam_id":76561199174579733,"connected_time":731000000000,"state":"active","ping":125},{"user_id":433,"name":"Real Pete the cat","steam_id":76561199153114723,"connected_time":683000000000,"state":"active","ping":41},{"user_id":422,"name":"Slugfest","steam_id":76561197998699642,"connected_time":857000000000,"state":"active","ping":90},{"user_id":435,"name":"Dentivent","steam_id":76561197971953043,"connected_time":629000000000,"state":"active","ping":60},{"user_id":418,"name":"DJ Wicked","steam_id":76561198258264645,"connected_time":932000000000,"state":"active","ping":70},{"user_id":458,"name":"themankeys","steam_id":76561198149339536,"connected_time":28000000000,"state":"active","ping":125},{"user_id":437,"name":"Jennifer❤","steam_id":76561198068691618,"connected_time":615000000000,"state":"active","ping":90},{"user_id":384,"name":"Bavi Ratto","steam_id":76561198333569494,"connected_time":3118000000000,"state":"active","ping":64},{"user_id":438,"name":"Kaluka","steam_id":76561198036861445,"connected_time":553000000000,"state":"active","ping":106},{"user_id":439,"name":"Project Dusk","steam_id":76561198193521149,"connected_time":543000000000,"state":"active","ping":104},{"user_id":440,"name":"Big kahuna","steam_id":76561198142024812,"connected_time":521000000000,"state":"active","ping":117},{"user_id":423,"name":"truck freak [euclid]","steam_id":76561198062712676,"connected_time":837000000000,"state":"active","ping":70},{"user_id":454,"name":"Cade","steam_id":76561199076193300,"connected_time":187000000000,"state":"active","ping":117},{"user_id":447,"name":"【 caden / karma 】","steam_id":76561198072276429,"connected_time":385000000000,"state":"active","ping":121},{"user_id":455,"name":"Spicy Boi","steam_id":76561198229274528,"connected_time":177000000000,"state":"active","ping":86},{"user_id":448,"name":"Bullwinkle J. Moose","steam_id":76561198075977196,"connected_time":350000000000,"state":"active","ping":100}]},{"server_id":18,"name":"Uncletopia | San Francisco | 2 | All Maps","name_short":"sfo-2","host":"sfo-1.us.uncletopia.com","port":27025,"enabled":true,"region":"us-west","cc":"us","latitude":37.77397,"longitude":-122.4313,"reserved":0,"last_update":"0001-01-01T00:00:00Z","name_a2s":"Uncletopia | San Francisco | 2 | All Maps","protocol":17,"map":"pl_snowycoast","folder":"tf","game":"Team Fortress","app_id":440,"player_count":21,"max_players":24,"Bots":0,"server_type":"Dedicated","server_os":"Linux","password":true,"vac":true,"version":"7757534","steam_id":85568392924470000,"keywords":["nocrits","nodmgspread","payload","uncletopia"],"game_id":440,"stv_port":27026,"stv_name":"Uncletopia | San Francisco | 2 | All Maps | STV","players":[{"user_id":69,"name":"Red Orbama","steam_id":76561198047002366,"connected_time":710000000000,"state":"active","ping":60},{"user_id":74,"name":"Tbon't","steam_id":76561198853993391,"connected_time":369000000000,"state":"active","ping":54},{"user_id":33,"name":"tweet","steam_id":76561198166515735,"connected_time":1645000000000,"state":"active","ping":47},{"user_id":34,"name":"Jhon Xina","steam_id":76561198411174051,"connected_time":1608000000000,"state":"active","ping":60},{"user_id":80,"name":"jrmadmallard","steam_id":76561198275994616,"connected_time":114000000000,"state":"active","ping":76},{"user_id":51,"name":"Sjsparrow","steam_id":76561197995352435,"connected_time":1358000000000,"state":"active","ping":99},{"user_id":47,"name":"crumblejon","steam_id":76561198111273302,"connected_time":1440000000000,"state":"active","ping":74},{"user_id":17,"name":"Mall","steam_id":76561198436085386,"connected_time":3371000000000,"state":"active","ping":103},{"user_id":71,"name":"blatgotyahat","steam_id":76561198186630357,"connected_time":601000000000,"state":"active","ping":60},{"user_id":73,"name":"shadow wizard money gang","steam_id":76561198150406851,"connected_time":519000000000,"state":"active","ping":56},{"user_id":68,"name":"AceSea","steam_id":76561198851176490,"connected_time":777000000000,"state":"active","ping":38},{"user_id":75,"name":"Laxoloni","steam_id":76561199197045700,"connected_time":301000000000,"state":"active","ping":94},{"user_id":82,"name":"Ubuntu Phone","steam_id":76561198008110407,"connected_time":35000000000,"state":"active","ping":105},{"user_id":81,"name":"choi","steam_id":76561198053669887,"connected_time":51000000000,"state":"active","ping":60},{"user_id":78,"name":"Strangelove","steam_id":76561198353773611,"connected_time":148000000000,"state":"active","ping":129},{"user_id":53,"name":"The Alien","steam_id":76561198185817713,"connected_time":1349000000000,"state":"active","ping":106},{"user_id":79,"name":"Get a Cleu","steam_id":76561198060665397,"connected_time":135000000000,"state":"active","ping":117},{"user_id":67,"name":"machomelon","steam_id":76561198043683564,"connected_time":835000000000,"state":"active","ping":30},{"user_id":56,"name":"Vierzehn","steam_id":76561198070479927,"connected_time":1332000000000,"state":"active","ping":115},{"user_id":59,"name":"ronald","steam_id":76561197960691622,"connected_time":1314000000000,"state":"active","ping":53},{"user_id":60,"name":"DarthJiggles","steam_id":76561198088383875,"connected_time":1300000000000,"state":"active","ping":44}]},{"server_id":19,"name":"Uncletopia | San Francisco | 3 | Stopwatch Beta","name_short":"sfo-3","host":"sfo-1.us.uncletopia.com","port":27035,"enabled":true,"region":"us-west","cc":"us","latitude":37.77397,"longitude":-122.4313,"reserved":0,"last_update":"0001-01-01T00:00:00Z","name_a2s":"Uncletopia | San Francisco | 3 | Stopwatch Beta","protocol":17,"map":"pl_borneo","folder":"tf","game":"Team Fortress","app_id":440,"player_count":0,"max_players":24,"Bots":0,"server_type":"Dedicated","server_os":"Linux","password":true,"vac":true,"version":"7757534","steam_id":85568392924742824,"keywords":["nocrits","nodmgspread","payload","uncletopia"],"game_id":440,"stv_port":27036,"stv_name":"Uncletopia | San Francisco | 3 | Stopwatch Beta | STV","players":null},{"server_id":20,"name":"Uncletopia | San Francisco | 4 | Community","name_short":"sfo-4","host":"sfo-1.us.uncletopia.com","port":27045,"enabled":true,"region":"us-west","cc":"us","latitude":37.77397,"longitude":-122.4313,"reserved":0,"last_update":"0001-01-01T00:00:00Z","name_a2s":"Uncletopia | San Francisco | 4 | Community","protocol":17,"map":"workshop/pl_barnblitz_pro7.ugc582280235","folder":"tf","game":"Team Fortress","app_id":440,"player_count":0,"max_players":24,"Bots":0,"server_type":"Dedicated","server_os":"Linux","password":true,"vac":true,"version":"7757534","steam_id":85568392924742826,"keywords":["nocrits","nodmgspread","payload","uncletopia"],"game_id":440,"stv_port":27046,"stv_name":"Uncletopia | San Francisco | 4 | Community | STV","players":null},{"server_id":141,"name":"Uncletopia | Sydney | 1 | All Maps","name_short":"syd-1","host":"syd-1.au.uncletopia.com","port":27015,"enabled":true,"region":"au","cc":"au","latitude":-33.865143,"longitude":151.2099,"reserved":0,"last_update":"0001-01-01T00:00:00Z","name_a2s":"Uncletopia | Sydney | 1 | All Maps","protocol":17,"map":"koth_viaduct","folder":"tf","game":"Team Fortress","app_id":440,"player_count":0,"max_players":24,"Bots":0,"server_type":"Dedicated","server_os":"Linux","password":true,"vac":true,"version":"7757534","steam_id":85568392924470001,"keywords":["cp","nocrits","nodmgspread","uncletopia"],"game_id":440,"stv_port":27016,"stv_name":"Uncletopia | Sydney | 1 | All Maps | STV","players":null},{"server_id":123,"name":"Uncletopia | Sydney | 2 | All Maps","name_short":"syd-2","host":"syd-1.au.uncletopia.com","port":27025,"enabled":true,"region":"au","cc":"au","latitude":-33.865143,"longitude":151.2099,"reserved":0,"last_update":"0001-01-01T00:00:00Z","name_a2s":"Uncletopia | Sydney | 2 | All Maps","protocol":17,"map":"koth_highpass","folder":"tf","game":"Team Fortress","app_id":440,"player_count":0,"max_players":24,"Bots":0,"server_type":"Dedicated","server_os":"Linux","password":true,"vac":true,"version":"7757534","steam_id":85568392924470002,"keywords":["cp","nocrits","nodmgspread","uncletopia"],"game_id":440,"stv_port":27026,"stv_name":"Uncletopia | Sydney | 2 | All Maps | STV","players":null},{"server_id":395,"name":"Uncletopia | Sydney | 3 | All Maps","name_short":"syd-3","host":"syd-1.au.uncletopia.com","port":27035,"enabled":true,"region":"au","cc":"au","latitude":-33.865143,"longitude":151.2099,"reserved":0,"last_update":"0001-01-01T00:00:00Z","name_a2s":"Uncletopia | Sydney | 3 | All Maps","protocol":17,"map":"koth_highpass","folder":"tf","game":"Team Fortress","app_id":440,"player_count":4,"max_players":24,"Bots":0,"server_type":"Dedicated","server_os":"Linux","password":true,"vac":true,"version":"7757534","steam_id":85568392925194467,"keywords":["cp","nocrits","nodmgspread","uncletopia"],"game_id":440,"stv_port":27036,"stv_name":"Uncletopia | Sydney | 3 | All Maps | STV","players":[{"user_id":5,"name":"SaltierThanYou","steam_id":76561198444395188,"connected_time":1622000000000,"state":"active","ping":75},{"user_id":6,"name":"banan consumer","steam_id":76561199446773766,"connected_time":1229000000000,"state":"active","ping":85},{"user_id":7,"name":"DS Ripley","steam_id":76561198238031616,"connected_time":439000000000,"state":"active","ping":78},{"user_id":8,"name":"Lord Oink","steam_id":76561198125237921,"connected_time":278000000000,"state":"active","ping":34}]},{"server_id":396,"name":"Uncletopia | Sydney | 4 | All Maps","name_short":"syd-4","host":"syd-1.au.uncletopia.com","port":27045,"enabled":true,"region":"au","cc":"au","latitude":-33.865143,"longitude":151.2099,"reserved":0,"last_update":"0001-01-01T00:00:00Z","name_a2s":"Uncletopia | Sydney | 4 | All Maps","protocol":17,"map":"koth_lakeside_final","folder":"tf","game":"Team Fortress","app_id":440,"player_count":0,"max_players":24,"Bots":0,"server_type":"Dedicated","server_os":"Linux","password":true,"vac":true,"version":"7757534","steam_id":85568392925397958,"keywords":["cp","nocrits","nodmgspread","uncletopia"],"game_id":440,"stv_port":27046,"stv_name":"Uncletopia | Sydney | 4 | All Maps | STV","players":null},{"server_id":58,"name":"Uncletopia | Sydney | 5 | Stopwatch Beta","name_short":"syd-5","host":"syd-1.au.uncletopia.com","port":27055,"enabled":true,"region":"au","cc":"au","latitude":-33.865143,"longitude":151.2099,"reserved":0,"last_update":"0001-01-01T00:00:00Z","name_a2s":"Uncletopia | Sydney | 5 | Stopwatch Beta","protocol":17,"map":"koth_highpass","folder":"tf","game":"Team Fortress","app_id":440,"player_count":0,"max_players":24,"Bots":0,"server_type":"Dedicated","server_os":"Linux","password":true,"vac":true,"version":"7757534","steam_id":85568392925397959,"keywords":["cp","nocrits","nodmgspread","uncletopia"],"game_id":440,"stv_port":27056,"stv_name":"Uncletopia | Sydney | 5 | Stopwatch Beta | STV","players":null},{"server_id":59,"name":"Uncletopia | Sydney | 6 | Community","name_short":"syd-6","host":"syd-1.au.uncletopia.com","port":27065,"enabled":true,"region":"au","cc":"au","latitude":-33.865143,"longitude":151.2099,"reserved":0,"last_update":"0001-01-01T00:00:00Z","name_a2s":"Uncletopia | Sydney | 6 | Community","protocol":17,"map":"workshop/cp_villa_b19.ugc2113052569","folder":"tf","game":"Team Fortress","app_id":440,"player_count":0,"max_players":24,"Bots":0,"server_type":"Dedicated","server_os":"Linux","password":true,"vac":true,"version":"7757534","steam_id":85568392925397960,"keywords":["cp","nocrits","nodmgspread","uncletopia"],"game_id":440,"stv_port":27066,"stv_name":"Uncletopia | Sydney | 6 | Community | STV","players":null},{"server_id":49,"name":"Uncletopia | Warsaw | 1 | All Maps","name_short":"waw-1","host":"waw-1.pl.uncletopia.com","port":27015,"enabled":true,"region":"eu","cc":"pl","latitude":52.2297,"longitude":21.017532,"reserved":0,"last_update":"0001-01-01T00:00:00Z","name_a2s":"","protocol":0,"map":"","folder":"","game":"","app_id":0,"player_count":0,"max_players":0,"Bots":0,"server_type":"","server_os":"","password":false,"vac":false,"version":"","steam_id":0,"keywords":null,"game_id":0,"stv_port":0,"stv_name":"","players":null},{"server_id":50,"name":"Uncletopia | Warsaw | 2 | All Maps","name_short":"waw-2","host":"waw-1.pl.uncletopia.com","port":27025,"enabled":true,"region":"eu","cc":"pl","latitude":52.2297,"longitude":21.017532,"reserved":0,"last_update":"0001-01-01T00:00:00Z","name_a2s":"Uncletopia | Warsaw | 2 | All Maps","protocol":17,"map":"pl_badwater","folder":"tf","game":"Team Fortress","app_id":440,"player_count":0,"max_players":24,"Bots":0,"server_type":"Dedicated","server_os":"Linux","password":true,"vac":true,"version":"7757534","steam_id":85568392925397851,"keywords":["nocrits","nodmgspread","payload","uncletopia"],"game_id":440,"stv_port":27026,"stv_name":"Uncletopia | Warsaw | 2 | All Maps | STV","players":null},{"server_id":51,"name":"Uncletopia | Warsaw | 3 | All Maps","name_short":"waw-3","host":"waw-1.pl.uncletopia.com","port":27035,"enabled":true,"region":"eu","cc":"pl","latitude":52.2297,"longitude":21.017532,"reserved":0,"last_update":"0001-01-01T00:00:00Z","name_a2s":"Uncletopia | Warsaw | 3 | All Maps","protocol":17,"map":"pl_badwater","folder":"tf","game":"Team Fortress","app_id":440,"player_count":0,"max_players":24,"Bots":0,"server_type":"Dedicated","server_os":"Linux","password":true,"vac":true,"version":"7757534","steam_id":85568392925397852,"keywords":["nocrits","nodmgspread","payload","uncletopia"],"game_id":440,"stv_port":27036,"stv_name":"Uncletopia | Warsaw | 3 | All Maps | STV","players":null},{"server_id":52,"name":"Uncletopia | Warsaw | 4 | All Maps","name_short":"waw-4","host":"waw-1.pl.uncletopia.com","port":27045,"enabled":true,"region":"eu","cc":"pl","latitude":52.2297,"longitude":21.017532,"reserved":0,"last_update":"0001-01-01T00:00:00Z","name_a2s":"Uncletopia | Warsaw | 4 | All Maps","protocol":17,"map":"cp_mountainlab","folder":"tf","game":"Team Fortress","app_id":440,"player_count":0,"max_players":24,"Bots":0,"server_type":"Dedicated","server_os":"Linux","password":true,"vac":true,"version":"7757534","steam_id":85568392925397853,"keywords":["cp","nocrits","nodmgspread","uncletopia"],"game_id":440,"stv_port":27046,"stv_name":"Uncletopia | Warsaw | 4 | All Maps | STV","players":null},{"server_id":53,"name":"Uncletopia | Warsaw | 5 | Stopwatch Beta","name_short":"waw-5","host":"waw-1.pl.uncletopia.com","port":27055,"enabled":true,"region":"eu","cc":"pl","latitude":52.2297,"longitude":21.017532,"reserved":0,"last_update":"0001-01-01T00:00:00Z","name_a2s":"Uncletopia | Warsaw | 5 | Stopwatch Beta","protocol":17,"map":"pl_barnblitz","folder":"tf","game":"Team Fortress","app_id":440,"player_count":0,"max_players":24,"Bots":0,"server_type":"Dedicated","server_os":"Linux","password":true,"vac":true,"version":"7757534","steam_id":85568392925397854,"keywords":["nocrits","nodmgspread","payload","uncletopia"],"game_id":440,"stv_port":27056,"stv_name":"Uncletopia | Warsaw | 5 | Stopwatch Beta | STV","players":null},{"server_id":54,"name":"Uncletopia | Warsaw | 6 | Community","name_short":"waw-6","host":"waw-1.pl.uncletopia.com","port":27065,"enabled":true,"region":"eu","cc":"pl","latitude":52.2297,"longitude":21.017532,"reserved":0,"last_update":"0001-01-01T00:00:00Z","name_a2s":"Uncletopia | Warsaw | 6 | Community","protocol":17,"map":"workshop/pl_barnblitz_pro7.ugc582280235","folder":"tf","game":"Team Fortress","app_id":440,"player_count":0,"max_players":24,"Bots":0,"server_type":"Dedicated","server_os":"Linux","password":true,"vac":true,"version":"7757534","steam_id":85568392925397856,"keywords":["nocrits","nodmgspread","payload","uncletopia"],"game_id":440,"stv_port":27066,"stv_name":"Uncletopia | Warsaw | 6 | Community | STV","players":null}]}