{"status":true,"message":"","result":[{"server_id":9,"name":"Uncletopia | Atlanta | 1 | All Maps","name_short":"atl-1","host":"atl-1.us.uncletopia.com","port":27015,"enabled":true,"region":"us-east","cc":"us","latitude":33.753746,"longitude":-84.38633,"reserved":0,"last_update":"0001-01-01T00:00:00Z","name_a2s":"Uncletopia | Atlanta | 1 | All Maps","protocol":17,"map":"cp_mercenarypark","folder":"tf","game":"Team Fortress","app_id":440,"player_count":24,"max_players":24,"Bots":0,"server_type":"Dedicated","server_os":"Linux","password":true,"vac":true,"version":"7757534","steam_id":85568392924469982,"keywords":["cp","nocrits","nodmgspread","uncletopia"],"game_id":440,"stv_port":27016,"stv_name":"Uncletopia | Atlanta | 1 | All Maps | STV","players":[{"user_id":56,"name":"SomeScuffedKid","steam_id":76561198086113234,"connected_time":6468000000000,"state":"active","ping":74},{"user_id":132,"name":"Traffic Cone Collector","steam_id":76561199021463213,"connected_time":555000000000,"state":"active","ping":127},{"user_id":108,"name":"turd ferguson","steam_id":76561198071620782,"connected_time":2657000000000,"state":"active","ping":192},{"user_id":128,"name":"moonie","steam_id":76561198148782880,"connected_time":634000000000,"state":"active","ping":76},{"user_id":133,"name":"CopperBox","steam_id":76561198068217248,"connected_time":550000000000,"state":"active","ping":108},{"user_id":134,"name":"Sergeant Joker #savetf2","steam_id":76561198854616604,"connected_time":543000000000,"state":"active","ping":80},{"user_id":135,"name":"smoose","steam_id":76561198134321792,"connected_time":541000000000,"state":"active","ping":78},{"user_id":141,"name":"Tomoscones","steam_id":76561198813586588,"connected_time":287000000000,"state":"active","ping":115},{"user_id":120,"name":"catrinaisahuman","steam_id":76561198281355729,"connected_time":2197000000000,"state":"active","ping":81},{"user_id":136,"name":"Eggie","steam_id":76561199018655610,"connected_time":529000000000,"state":"active","ping":72},{"user_id":129,"name":"Zymiren","steam_id":76561198054985471,"connected_time":587000000000,"state":"active","ping":76},{"user_id":121,"name":"Sexual Butt","steam_id":76561198102241399,"connected_time":2177000000000,"state":"active","ping":84},{"user_id":122,"name":"Bladelight","steam_id":76561198323108270,"connected_time":2121000000000,"state":"active","ping":106},{"user_id":114,"name":"l8rsxx","steam_id":76561198803030993,"connected_time":2462000000000,"state":"active","ping":113},{"user_id":137,"name":"Trolldier 76","steam_id":76561198036504161,"connected_time":523000000000,"state":"active","ping":105},{"user_id":143,"name":"Just PYE","steam_id":76561199439622967,"connected_time":86000000000,"state":"active","ping":82},{"user_id":112,"name":"Saggy","steam_id":76561198166706479,"connected_time":2635000000000,"state":"active","ping":85},{"user_id":138,"name":"RileyNiko","steam_id":76561198162093639,"connected_time":521000000000,"state":"active","ping":62},{"user_id":100,"name":"Genetic Komodo (He/Him)","steam_id":76561198174806758,"connected_time":3953000000000,"state":"active","ping":58},{"user_id":142,"name":"sevanial","steam_id":76561198071532126,"connected_time":250000000000,"state":"active","ping":66},{"user_id":124,"name":"BackwardsEagle","steam_id":76561199013712612,"connected_time":1891000000000,"state":"active","ping":75},{"user_id":104,"name":"Actually retarded","steam_id":76561198276513608,"connected_time":3533000000000,"state":"active","ping":175},{"user_id":131,"name":"Nullman","steam_id":76561199069169835,"connected_time":582000000000,"state":"active","ping":59},{"user_id":91,"name":"Weerk","steam_id":76561199209543551,"connected_time":4537000000000,"state":"active","ping":71}]},{"server_id":104,"name":"Uncletopia | Atlanta | 2 | All Maps","name_short":"atl-2","host":"atl-1.us.uncletopia.com","port":27025,"enabled":true,"region":"us-east","cc":"us","latitude":33.753746,"longitude":-84.38633,"reserved":0,"last_update":"0001-01-01T00:00:00Z","name_a2s":"Uncletopia | Atlanta | 2 | All Maps","protocol":17,"map":"pl_barnblitz","folder":"tf","game":"Team Fortress","app_id":440,"player_count":1,"max_players":24,"Bots":0,"server_type":"Dedicated","server_os":"Linux","password":true,"vac":true,"version":"7757534","steam_id":85568392924469983,"keywords":["nocrits","nodmgspread","payload","uncletopia"],"game_id":440,"stv_port":27026,"stv_name":"Uncletopia | Atlanta | 2 | All Maps | STV","players":[{"user_id":6,"name":"gt","steam_id":76561198033033884,"connected_time":137000000000,"state":"active","ping":64}]},{"server_id":400,"name":"Uncletopia | Atlanta | 3 | Community","name_short":"atl-3","host":"atl-1.us.uncletopia.com","port":27035,"enabled":true,"region":"us-east","cc":"us","latitude":33.753746,"longitude":-84.38633,"reserved":0,"last_update":"0001-01-01T00:00:00Z","name_a2s":"Uncletopia | Atlanta | 3 | Community","protocol":17,"map":"workshop/cp_villa_b19.ugc2113052569","folder":"tf","game":"Team Fortress","app_id":440,"player_count":0,"max_players":24,"Bots":0,"server_type":"Dedicated","server_os":"Linux","password":true,"vac":true,"version":"7757534","steam_id":85568392924515187,"keywords":["cp","nocrits","nodmgspread","uncletopia"],"game_id":440,"stv_port":27036,"stv_name":"Uncletopia | Atlanta | 3 | Community | STV","players":null},{"server_id":401,"name":"Uncletopia | Atlanta | 4 | No Payload","name_short":"atl-4","host":"atl-1.us.uncletopia.com","port":27045,"enabled":true,"region":"us-east","cc":"us","latitude":33.753746,"longitude":-84.38633,"reserved":0,"last_update":"0001-01-01T00:00:00Z","name_a2s":"","protocol":0,"map":"","folder":"","game":"","app_id":0,"player_count":0,"max_players":0,"Bots":0,"server_type":"","server_os":"","password":false,"vac":false,"version":"","steam_id":0,"keywords":null,"game_id":0,"stv_port":0,"stv_name":"","players":null},{"server_id":2,"name":"Uncletopia | Chicago | 1 | All Maps","name_short":"chi-1","host":"chi-1.us.uncletopia.com","port":27015,"enabled":true,"region":"us-central","cc":"us","latitude":41.881832,"longitude":-87.62318,"reserved":0,"last_update":"0001-01-01T00:00:00Z","name_a2s":"Uncletopia | Chicago | 1 | All Maps","protocol":17,"map":"pl_swiftwater_final1","folder":"tf","game":"Team Fortress","app_id":440,"player_count":24,"max_players":24,"Bots":0,"server_type":"Dedicated","server_os":"Linux","password":true,"vac":true,"version":"7757534","steam_id":85568392924469984,"keywords":["nocrits","nodmgspread","payload","uncletopia"],"game_id":440,"stv_port":27016,"stv_name":"Uncletopia | Chicago | 1 | All Maps | STV","players":[{"user_id":266,"name":"mel","steam_id":76561198019820977,"connected_time":620000000000,"state":"active","ping":70},{"user_id":254,"name":"Loading...","steam_id":76561198124898032,"connected_time":1970000000000,"state":"active","ping":47},{"user_id":243,"name":"AnonymousCritter","steam_id":76561198864475187,"connected_time":2894000000000,"state":"active","ping":49},{"user_id":258,"name":"Tlaloc","steam_id":76561198375215983,"connected_time":1592000000000,"state":"active","ping":119},{"user_id":61,"name":"HOODEDLAWYER285","steam_id":76561198156496197,"connected_time":17141000000000,"state":"active","ping":51},{"user_id":270,"name":"Ras","steam_id":76561198123546775,"connected_time":81000000000,"state":"active","ping":58},{"user_id":256,"name":"cold bones","steam_id":76561198059665627,"connected_time":1910000000000,"state":"active","ping":53},{"user_id":186,"name":"ceo of sex 2","steam_id":76561198097328127,"connected_time":6181000000000,"state":"active","ping":100},{"user_id":251,"name":"Diet Water","steam_id":76561198125058777,"connected_time":2447000000000,"state":"active","ping":67},{"user_id":229,"name":"Indicative","steam_id":76561199076612537,"connected_time":3910000000000,"state":"active","ping":59},{"user_id":192,"name":"Magechaos","steam_id":76561198026852227,"connected_time":5671000000000,"state":"active","ping":77},{"user_id":262,"name":"radical larry","steam_id":76561198172246829,"connected_time":1178000000000,"state":"active","ping":39},{"user_id":265,"name":"wheres my drink?","steam_id":76561198031675881,"connected_time":1147000000000,"state":"active","ping":66},{"user_id":250,"name":"crack crisis","steam_id":76561198332519926,"connected_time":2603000000000,"state":"active","ping":86},{"user_id":200,"name":"[DEEP] Danmar33","steam_id":76561198056453091,"connected_time":5351000000000,"state":"active","ping":52},{"user_id":267,"name":"pelt","steam_id":76561197993593754,"connected_time":105000000000,"state":"active","ping":48},{"user_id":263,"name":"A Shiny Meat Bicycle","steam_id":76561198358757709,"connected_time":1176000000000,"state":"active","ping":93},{"user_id":264,"name":"Quark","steam_id":76561198328155605,"connected_time":1171000000000,"state":"active","ping":47},{"user_id":253,"name":"Garfield","steam_id":76561198037803087,"connected_time":1992000000000,"state":"active","ping":70},{"user_id":261,"name":"Raniel Dicciardo","steam_id":76561198053859538,"connected_time":1216000000000,"state":"active","ping":74},{"user_id":239,"name":"alv√∂ru","steam_id":76561198273488925,"connected_time":3206000000000,"state":"active","ping":79},{"user_id":168,"name":"Krellah","steam_id":76561198287045069,"connected_time":7583000000000,"state":"active","ping":57},{"user_id":268,"name":"John","steam_id":76561197960965850,"connected_time":105000000000,"state":"active","ping":178},{"user_id":272,"name":"Vanny","steam_id":76561198297961039,"connected_time":79000000000,"state":"active","ping":82}]},{"server_id":106,"name":"Uncletopia | Chicago | 2 | All Maps","name_short":"chi-2","host":"chi-1.us.uncletopia.com","port":27025,"enabled":true,"region":"us-central","cc":"us","latitude":41.881832,"longitude":-87.62318,"reserved":0,"last_update":"0001-01-01T00:00:00Z","name_a2s":"Uncletopia | Chicago | 2 | All Maps","protocol":17,"map":"pl_swiftwater_final1","folder":"tf","game":"Team Fortress","app_id":440,"player_count":0,"max_players":24,"Bots":0,"server_type":"Dedicated","server_os":"Linux","password":true,"vac":true,"version":"7757534","steam_id":85568392924469985,"keywords":["nocrits","nodmgspread","payload","uncletopia"],"game_id":440,"stv_port":27026,"stv_name":"Uncletopia | Chicago | 2 | All Maps | STV","players":null},{"server_id":402,"name":"Uncletopia | Chicago | 3 | All Maps","name_short":"chi-3","host":"chi-1.us.uncletopia.com","port":27035,"enabled":true,"region":"us-central","cc":"us","latitude":41.881832,"longitude":-87.62318,"reserved":0,"last_update":"0001-01-01T00:00:00Z","name_a2s":"Uncletopia | Chicago | 3 | All Maps","protocol":17,"map":"koth_cascade","folder":"tf","game":"Team Fortress","app_id":440,"player_count":9,"max_players":24,"Bots":0,"server_type":"Dedicated","server_os":"Linux","password":true,"vac":true,"version":"7757534","steam_id":85568392924515191,"keywords":["cp","nocrits","nodmgspread","uncletopia"],"game_id":440,"stv_port":27036,"stv_name":"Uncletopia | Chicago | 3 | All Maps | STV","players":[{"user_id":5,"name":"Turtlin'","steam_id":76561198885096042,"connected_time":1151000000000,"state":"active","ping":69},{"user_id":9,"name":"spimtmot733","steam_id":76561199029189825,"connected_time":455000000000,"state":"active","ping":69},{"user_id":7,"name":"Reaper","steam_id":76561198435826103,"connected_time":1082000000000,"state":"active","ping":74},{"user_id":11,"name":"Link the Hero of Chime","steam_id":76561198157945850,"connected_time":405000000000,"state":"active","ping":77},{"user_id":16,"name":"‚ñ≤‚ñº‚ñ≤ Paul Atreideeznuts","steam_id":76561198015714075,"connected_time":57000000000,"state":"active","ping":79},{"user_id":13,"name":"Bismarck‚Ñ¢","steam_id":76561198804867695,"connected_time":359000000000,"state":"active","ping":93},{"user_id":15,"name":"The Pizza Man","steam_id":76561198805921294,"connected_time":287000000000,"state":"active","ping":100},{"user_id":18,"name":"Henry Ota-Clay","steam_id":76561198053232470,"connected_time":43000000000,"state":"active","ping":59},{"user_id":19,"name":"Sentient Sandvich","steam_id":76561197995714103,"connected_time":43000000000,"state":"active","ping":95}]},{"server_id":403,"name":"Uncletopia | Chicago | 4 | All Maps","name_short":"chi-4","host":"chi-1.us.uncletopia.com","port":27045,"enabled":true,"region":"us-central","cc":"us","latitude":41.881832,"longitude":-87.62318,"reserved":0,"last_update":"0001-01-01T00:00:00Z","name_a2s":"Uncletopia | Chicago | 4 | All Maps","protocol":17,"map":"pl_borneo","folder":"tf","game":"Team Fortress","app_id":440,"player_count":24,"max_players":24,"Bots":0,"server_type":"Dedicated","server_os":"Linux","password":true,"vac":true,"version":"7757534","steam_id":85568392924515193,"keywords":["nocrits","nodmgspread","payload","uncletopia"],"game_id":440,"stv_port":27046,"stv_name":"Uncletopia | Chicago | 4 | All Maps | STV","players":[{"user_id":197,"name":"Nuts","steam_id":76561198373596269,"connected_time":427000000000,"state":"active","ping":63},{"user_id":202,"name":"stardust","steam_id":76561198413930183,"connected_time":354000000000,"state":"active","ping":59},{"user_id":203,"name":"DiscoTraveler","steam_id":76561199240168088,"connected_time":294000000000,"state":"active","ping":72},{"user_id":172,"name":"goongremlin","steam_id":76561198278196215,"connected_time":2353000000000,"state":"active","ping":91},{"user_id":186,"name":"MoiMoi","steam_id":76561198873850038,"connected_time":1347000000000,"state":"active","ping":75},{"user_id":207,"name":"lwyr","steam_id":76561198007982579,"connected_time":78000000000,"state":"spawning","ping":63},{"user_id":184,"name":"sagekiss","steam_id":76561198038831240,"connected_time":1595000000000,"state":"active","ping":107},{"user_id":194,"name":"Tusk","steam_id":76561199066977033,"connected_time":456000000000,"state":"active","ping":69},{"user_id":181,"name":"Ursus Ludius","steam_id":76561198025470722,"connected_time":1817000000000,"state":"active","ping":89},{"user_id":182,"name":"Joe Grumbo","steam_id":76561198048485190,"connected_time":1787000000000,"state":"active","ping":71},{"user_id":200,"name":"jbrd4761","steam_id":76561199242047421,"connected_time":395000000000,"state":"active","ping":73},{"user_id":195,"name":"TwoBit","steam_id":76561198062437559,"connected_time":454000000000,"state":"active","ping":75},{"user_id":196,"name":"minimalpair","steam_id":76561198071788709,"connected_time":450000000000,"state":"active","ping":109},{"user_id":201,"name":"Pathara44","steam_id":76561198048238620,"connected_time":378000000000,"state":"active","ping":56},{"user_id":176,"name":"Raizen","steam_id":76561199092445367,"connected_time":2297000000000,"state":"active","ping":45},{"user_id":189,"name":"Not Markscavious","steam_id":76561199012205536,"connected_time":1066000000000,"state":"active","ping":84},{"user_id":192,"name":"Your Femboy Bf","steam_id":76561198810879322,"connected_time":627000000000,"state":"active","ping":84},{"user_id":204,"name":"SeymourAsses","steam_id":76561198046560991,"connected_time":277000000000,"state":"active","ping":84},{"user_id":205,"name":"Worm","steam_id":76561198005069060,"connected_time":275000000000,"state":"active","ping":57},{"user_id":187,"name":"Erious","steam_id":76561198431446386,"connected_time":1247000000000,"state":"active","ping":67},{"user_id":191,"name":"Ejaculation Zach","steam_id":76561198203765200,"connected_time":1002000000000,"state":"active","ping":62},{"user_id":180,"name":"[BBW] Justario","steam_id":76561198016095410,"connected_time":2153000000000,"state":"active","ping":71},{"user_id":58,"name":"I Am Alpharius","steam_id":76561198799197135,"connected_time":10222000000000,"state":"active","ping":55},{"user_id":185,"name":"assign explanation","steam_id":76561198110152060,"connected_time":1595000000000,"state":"active","ping":89}]},{"server_id":36,"name":"Uncletopia | Chicago | 5 | All Maps","name_short":"chi-5","host":"chi-2.us.uncletopia.com","port":27015,"enabled":true,"region":"us-central","cc":"us","latitude":41.881832,"longitude":-87.62318,"reserved":0,"last_update":"0001-01-01T00:00:00Z","name_a2s":"Uncletopia | Chicago | 5 | All Maps","protocol":17,"map":"koth_lakeside_final","folder":"tf","game":"Team Fortress","app_id":440,"player_count":0,"max_players":24,"Bots":0,"server_type":"Dedicated","server_os":"Linux","password":true,"vac":true,"version":"7757534","steam_id":85568392924866362,"keywords":["cp","nocrits","nodmgspread","uncletopia"],"game_id":440,"stv_port":27016,"stv_name":"Uncletopia | Chicago | 5 | All Maps | STV","players":null},{"server_id":37,"name":"Uncletopia | Chicago | 6 | All Maps","name_short":"chi-6","host":"chi-2.us.uncletopia.com","port":27025,"enabled":true,"region":"us-central","cc":"us","latitude":41.881832,"longitude":-87.62318,"reserved":0,"last_update":"0001-01-01T00:00:00Z","name_a2s":"Uncletopia | Chicago | 6 | All Maps","protocol":17,"map":"pl_snowycoast","folder":"tf","game":"Team Fortress","app_id":440,"player_count":0,"max_players":24,"Bots":0,"server_type":"Dedicated","server_os":"Linux","password":true,"vac":true,"version":"7757534","steam_id":85568392924866363,"keywords":["nocrits","nodmgspread","payload","uncletopia"],"game_id":440,"stv_port":27026,"stv_name":"Uncletopia | Chicago | 6 | All Maps | STV","players":null},{"server_id":38,"name":"Uncletopia | Chicago | 7 | Stopwatch Beta","name_short":"chi-7","host":"chi-2.us.uncletopia.com","port":27035,"enabled":true,"region":"us-central","cc":"us","latitude":41.881832,"longitude":-87.62318,"reserved":0,"last_update":"0001-01-01T00:00:00Z","name_a2s":"Uncletopia | Chicago | 7 | Stopwatch Beta","protocol":17,"map":"koth_viaduct","folder":"tf","game":"Team Fortress","app_id":440,"player_count":0,"max_players":24,"Bots":0,"server_type":"Dedicated","server_os":"Linux","password":true,"vac":true,"version":"7757534","steam_id":85568392924866364,"keywords":["cp","nocrits","nodmgspread","uncletopia"],"game_id":440,"stv_port":27036,"stv_name":"Uncletopia | Chicago | 7 | Stopwatch Beta | STV","players":null},{"server_id":39,"name":"Uncletopia | Chicago | 8 | Community","name_short":"chi-8","host":"chi-2.us.uncletopia.com","port":27045,"enabled":true,"region":"us-central","cc":"us","latitude":41.881832,"longitude":-87.62318,"reserved":0,"last_update":"0001-01-01T00:00:00Z","name_a2s":"Uncletopia | Chicago | 8 | Community","protocol":17,"map":"koth_lakeside_final","folder":"tf","game":"Team Fortress","app_id":440,"player_count":0,"max_players":24,"Bots":0,"server_type":"Dedicated","server_os":"Linux","password":true,"vac":true,"version":"7757534","steam_id":85568392924866365,"keywords":["cp","nocrits","nodmgspread","uncletopia"],"game_id":440,"stv_port":27046,"stv_name":"Uncletopia | Chicago | 8 | Community | STV","players":null},{"server_id":8,"name":"Uncletopia | Dallas | 1 | All Maps","name_short":"dal-1","host":"dal-1.us.uncletopia.com","port":27015,"enabled":true,"region":"us-central","cc":"us","latitude":32.779167,"longitude":-96.80889,"reserved":0,"last_update":"0001-01-01T00:00:00Z","name_a2s":"Uncletopia | Dallas | 1 | All Maps","protocol":17,"map":"koth_highpass","folder":"tf","game":"Team Fortress","app_id":440,"player_count":0,"max_players":24,"Bots":0,"server_type":"Dedicated","server_os":"Linux","password":true,"vac":true,"version":"7757534","steam_id":85568392924469986,"keywords":["cp","nocrits","nodmgspread","uncletopia"],"game_id":440,"stv_port":27016,"stv_name":"Uncletopia | Dallas | 1 | All Maps | STV","players":null},{"server_id":108,"name":"Uncletopia | Dallas | 2 | All Maps","name_short":"dal-2","host":"dal-1.us.uncletopia.com","port":27025,"enabled":true,"region":"us-central","cc":"us","latitude":32.779167,"longitude":-96.80889,"reserved":0,"last_update":"0001-01-01T00:00:00Z","name_a2s":"Uncletopia | Dallas | 2 | All Maps","protocol":17,"map":"cp_altitude","folder":"tf","game":"Team Fortress","app_id":440,"player_count":23,"max_players":24,"Bots":0,"server_type":"Dedicated","server_os":"Linux","password":true,"vac":true,"version":"7757534","steam_id":85568392924469988,"keywords":["cp","nocrits","nodmgspread","uncletopia"],"game_id":440,"stv_port":27026,"stv_name":"Uncletopia | Dallas | 2 | All Maps | STV","players":[{"user_id":266,"name":"R√∂ntgen","steam_id":76561197993492325,"connected_time":136000000000,"state":"active","ping":75},{"user_id":205,"name":"Broadsword","steam_id":76561198011160411,"connected_time":3176000000000,"state":"active","ping":81},{"user_id":267,"name":"Si1entSn1pa","steam_id":76561198170095479,"connected_time":81000000000,"state":"active","ping":89},{"user_id":233,"name":"skill issues","steam_id":76561198069033704,"connected_time":610000000000,"state":"active","ping":63},{"user_id":268,"name":"Orca?","steam_id":76561198164341099,"connected_time":78000000000,"state":"active","ping":72},{"user_id":269,"name":"Paulie Walnuts","steam_id":76561198148078451,"connected_time":75000000000,"state":"active","ping":78},{"user_id":238,"name":"thedittoguy","steam_id":76561199013129784,"connected_time":503000000000,"state":"active","ping":58},{"user_id":209,"name":"junki","steam_id":76561198353456379,"connected_time":2474000000000,"state":"active","ping":60},{"user_id":270,"name":"JohnnyDev","steam_id":76561198210288963,"connected_time":60000000000,"state":"active","ping":96},{"user_id":271,"name":"Herothroughtime","steam_id":76561198104355231,"connected_time":57000000000,"state":"active","ping":133},{"user_id":272,"name":"Darth Bismarck","steam_id":76561198919324747,"connected_time":48000000000,"state":"spawning","ping":68},{"user_id":263,"name":"Cofi","steam_id":76561199026721822,"connected_time":193000000000,"state":"active","ping":84},{"user_id":82,"name":"dmdr1969","steam_id":76561198080469611,"connected_time":14401000000000,"state":"active","ping":76},{"user_id":273,"name":"e","steam_id":76561198131245396,"connected_time":39000000000,"state":"active","ping":77},{"user_id":240,"name":"Sir Iasis","steam_id":76561198035666760,"connected_time":476000000000,"state":"active","ping":84},{"user_id":118,"name":"Joe Swanson","steam_id":76561199089907740,"connected_time":12136000000000,"state":"active","ping":73},{"user_id":230,"name":"Dewgong (real)","steam_id":76561198045999391,"connected_time":622000000000,"state":"active","ping":86},{"user_id":232,"name":"I can't heal","steam_id":76561198039763676,"connected_time":615000000000,"state":"active","ping":76},{"user_id":144,"name":"Romanian Officer B Dingling","steam_id":76561198831997540,"connected_time":9211000000000,"state":"active","ping":69},{"user_id":223,"name":"momb","steam_id":76561198142234038,"connected_time":1571000000000,"state":"active","ping":86},{"user_id":215,"name":"Cresant Ape","steam_id":76561198127425559,"connected_time":2329000000000,"state":"active","ping":45},{"user_id":220,"name":"cjip","steam_id":76561198261703372,"connected_time":1907000000000,"state":"active","ping":71},{"user_id":229,"name":"inzang","steam_id":76561198088318074,"connected_time":625000000000,"state":"active","ping":56}]},{"server_id":5,"name":"Uncletopia | Frankfurt | 1 | All Maps","name_short":"frk-1","host":"frk-1.de.uncletopia.com","port":27015,"enabled":true,"region":"eu","cc":"de","latitude":50.110924,"longitude":8.682127,"reserved":0,"last_update":"0001-01-01T00:00:00Z","name_a2s":"Uncletopia | Frankfurt | 1 | All Maps","protocol":17,"map":"koth_suijin","folder":"tf","game":"Team Fortress","app_id":440,"player_count":0,"max_players":24,"Bots":0,"server_type":"Dedicated","server_os":"Linux","password":true,"vac":true,"version":"7757534","steam_id":85568392924469989,"keywords":["cp","nocrits","nodmgspread","uncletopia"],"game_id":440,"stv_port":27016,"stv_name":"Uncletopia | Frankfurt | 1 | All Maps | STV","players":null},{"server_id":110,"name":"Uncletopia | Frankfurt | 2 | All Maps","name_short":"frk-2","host":"frk-1.de.uncletopia.com","port":27025,"enabled":true,"region":"eu","cc":"de","latitude":50.110924,"longitude":8.682127,"reserved":0,"last_update":"0001-01-01T00:00:00Z","name_a2s":"Uncletopia | Frankfurt | 2 | All Maps","protocol":17,"map":"cp_powerhouse","folder":"tf","game":"Team Fortress","app_id":440,"player_count":24,"max_players":24,"Bots":0,"server_type":"Dedicated","server_os":"Linux","password":true,"vac":true,"version":"7757534","steam_id":85568392924469990,"keywords":["cp","nocrits","nodmgspread","uncletopia"],"game_id":440,"stv_port":27026,"stv_name":"Uncletopia | Frankfurt | 2 | All Maps | STV","players":[{"user_id":252,"name":"Bad Guy [‚áÑ] #SaveTF2","steam_id":76561199039772329,"connected_time":882000000000,"state":"active","ping":79},{"user_id":208,"name":"zvekan","steam_id":76561198381101196,"connected_time":3795000000000,"state":"active","ping":62},{"user_id":207,"name":"Kotlet schabowy","steam_id":76561198048983509,"connected_time":3917000000000,"state":"active","ping":75},{"user_id":242,"name":"tapeworms!","steam_id":76561198069649097,"connected_time":1164000000000,"state":"active","ping":62},{"user_id":259,"name":"medium rare chicken enjoyer","steam_id":76561198050214002,"connected_time":441000000000,"state":"active","ping":57},{"user_id":248,"name":"nyanezt","steam_id":76561198253734265,"connected_time":1021000000000,"state":"active","ping":94},{"user_id":170,"name":"Adrenaline","steam_id":76561197970852048,"connected_time":5723000000000,"state":"active","ping":62},{"user_id":229,"name":"av x","steam_id":76561198062699350,"connected_time":2778000000000,"state":"active","ping":55},{"user_id":174,"name":"wasps","steam_id":76561198049485054,"connected_time":5580000000000,"state":"active","ping":76},{"user_id":212,"name":"m√®x","steam_id":76561197975951572,"connected_time":3729000000000,"state":"active","ping":58},{"user_id":257,"name":"Dogwalker","steam_id":76561197985561055,"connected_time":747000000000,"state":"active","ping":65},{"user_id":250,"name":"jovi_","steam_id":76561198449280552,"connected_time":903000000000,"state":"active","ping":61},{"user_id":225,"name":"NicatsCage","steam_id":76561198067271076,"connected_time":3178000000000,"state":"active","ping":85},{"user_id":261,"name":"Terhen","steam_id":76561198218299273,"connected_time":262000000000,"state":"active","ping":105},{"user_id":216,"name":"powej","steam_id":76561198056381418,"connected_time":3672000000000,"state":"active","ping":47},{"user_id":251,"name":"morco3420","steam_id":76561199360257938,"connected_time":895000000000,"state":"active","ping":77},{"user_id":234,"name":"Evelyn","steam_id":76561198013247608,"connected_time":2527000000000,"state":"active","ping":62},{"user_id":262,"name":"pond","steam_id":76561198214849363,"connected_time":64000000000,"state":"active","ping":90},{"user_id":239,"name":"The Cook","steam_id":76561198048250715,"connected_time":1699000000000,"state":"active","ping":46},{"user_id":253,"name":"malink√Ω","steam_id":76561198048683488,"connected_time":863000000000,"state":"active","ping":56},{"user_id":226,"name":"noodlehairronaldoprime","steam_id":76561199471954402,"connected_time":3174000000000,"state":"active","ping":69},{"user_id":254,"name":"Hamza Gaming","steam_id":76561198150448445,"connected_time":852000000000,"state":"active","ping":58},{"user_id":256,"name":"Xx_„Åà„Å™„Å™„Çì_xX69","steam_id":76561199427679148,"connected_time":786000000000,"state":"active","ping":152},{"user_id":240,"name":"–î–û–í–ò–¢–û–§–§","steam_id":76561198313372925,"connected_time":1561000000000,"state":"active","ping":71}]},{"server_id":308,"name":"Uncletopia | Frankfurt | 3 | All Maps","name_short":"frk-3","host":"frk-1.de.uncletopia.com","port":27035,"enabled":true,"region":"eu","cc":"de","latitude":50.110924,"longitude":8.682127,"reserved":0,"last_update":"0001-01-01T00:00:00Z","name_a2s":"Uncletopia | Frankfurt | 3 | All Maps","protocol":17,"map":"koth_suijin","folder":"tf","game":"Team Fortress","app_id":440,"player_count":0,"max_players":24,"Bots":0,"server_type":"Dedicated","server_os":"Linux","password":true,"vac":true,"version":"7757534","steam_id":85568392924504274,"keywords":["cp","nocrits","nodmgspread","uncletopia"],"game_id":440,"stv_port":27036,"stv_name":"Uncletopia | Frankfurt | 3 | All Maps | STV","players":null},{"server_id":309,"name":"Uncletopia | Frankfurt | 4 | All Maps","name_short":"frk-4","host":"frk-1.de.uncletopia.com","port":27045,"enabled":true,"region":"eu","cc":"de","latitude":50.110924,"longitude":8.682127,"reserved":0,"last_update":"0001-01-01T00:00:00Z","name_a2s":"Uncletopia | Frankfurt | 4 | All Maps","protocol":17,"map":"pl_barnblitz","folder":"tf","game":"Team Fortress","app_id":440,"player_count":24,"max_players":24,"Bots":0,"server_type":"Dedicated","server_os":"Linux","password":true,"vac":true,"version":"7757534","steam_id":85568392924504275,"keywords":["nocrits","nodmgspread","payload","uncletopia"],"game_id":440,"stv_port":27046,"stv_name":"Uncletopia | Frankfurt | 4 | All Maps | STV","players":[{"user_id":116,"name":"I AM THE ONE WHO BUILDS","steam_id":76561199438413886,"connected_time":4518000000000,"state":"active","ping":164},{"user_id":182,"name":"Xriasp","steam_id":76561198104721321,"connected_time":299000000000,"state":"active","ping":72},{"user_id":131,"name":"Cheff","steam_id":76561198011475333,"connected_time":3547000000000,"state":"active","ping":68},{"user_id":115,"name":"rz-/Atomic Punch","steam_id":76561199195508541,"connected_time":4524000000000,"state":"active","ping":79},{"user_id":103,"name":"Sigma Bale","steam_id":76561198365750503,"connected_time":5775000000000,"state":"active","ping":45},{"user_id":185,"name":"ger√∂steteK√ºrbiskerne","steam_id":76561198077484975,"connected_time":248000000000,"state":"active","ping":66},{"user_id":44,"name":"Birdseye","steam_id":76561198025852216,"connected_time":8259000000000,"state":"active","ping":63},{"user_id":160,"name":"not∆íreshprince","steam_id":76561198012239150,"connected_time":1994000000000,"state":"active","ping":54},{"user_id":177,"name":"X45Y","steam_id":76561198112534025,"connected_time":946000000000,"state":"active","ping":44},{"user_id":47,"name":"Carrot Arc","steam_id":76561198164957006,"connected_time":8230000000000,"state":"active","ping":86},{"user_id":167,"name":"Littleyoshifan","steam_id":76561198445491045,"connected_time":1627000000000,"state":"active","ping":56},{"user_id":169,"name":"Zm4j","steam_id":76561198259465946,"connected_time":1167000000000,"state":"active","ping":74},{"user_id":173,"name":"KingofCubes","steam_id":76561198258037513,"connected_time":988000000000,"state":"active","ping":76},{"user_id":184,"name":"jaime8D","steam_id":76561197980590671,"connected_time":269000000000,"state":"active","ping":77},{"user_id":183,"name":"Pepegi","steam_id":76561198001230113,"connected_time":279000000000,"state":"active","ping":676},{"user_id":168,"name":"Gimli","steam_id":76561198004149706,"connected_time":1498000000000,"state":"active","ping":78},{"user_id":128,"name":"antlionguard","steam_id":76561198072747143,"connected_time":3748000000000,"state":"active","ping":87},{"user_id":179,"name":"pablo","steam_id":76561198089285014,"connected_time":905000000000,"state":"active","ping":74},{"user_id":130,"name":"Space","steam_id":76561198021572167,"connected_time":3625000000000,"state":"active","ping":59},{"user_id":166,"name":"Kitfist","steam_id":76561198048559338,"connected_time":1645000000000,"state":"active","ping":60},{"user_id":186,"name":"babel","steam_id":76561198118412910,"connected_time":110000000000,"state":"active","ping":71},{"user_id":127,"name":"saiboT","steam_id":76561198300404049,"connected_time":3757000000000,"state":"active","ping":72},{"user_id":181,"name":"jail or the grave","steam_id":76561198274105878,"connected_time":821000000000,"state":"active","ping":89},{"user_id":154,"name":"soupcanneet","steam_id":76561199477038885,"connected_time":2472000000000,"state":"active","ping":70}]},{"server_id":310,"name":"Uncletopia | Frankfurt | 5 | All Maps","name_short":"frk-5","host":"frk-1.de.uncletopia.com","port":27055,"enabled":true,"region":"eu","cc":"de","latitude":50.110924,"longitude":8.682127,"reserved":0,"last_update":"0001-01-01T00:00:00Z","name_a2s":"Uncletopia | Frankfurt | 5 | All Maps","protocol":17,"map":"koth_viaduct","folder":"tf","game":"Team Fortress","app_id":440,"player_count":24,"max_players":24,"Bots":0,"server_type":"Dedicated","server_os":"Linux","password":true,"vac":true,"version":"7757534","steam_id":85568392924504277,"keywords":["cp","nocrits","nodmgspread","uncletopia"],"game_id":440,"stv_port":27056,"stv_name":"Uncletopia | Frankfurt | 5 | All Maps | STV","players":[{"user_id":260,"name":"BUREK od Sira","steam_id":76561198092589818,"connected_time":4637000000000,"state":"active","ping":71},{"user_id":237,"name":"Kira","steam_id":76561198204168909,"connected_time":6871000000000,"state":"active","ping":117},{"user_id":265,"name":"BUREK od Mesa","steam_id":76561198357064725,"connected_time":3922000000000,"state":"active","ping":74},{"user_id":330,"name":"MRLOLENO","steam_id":76561198450911838,"connected_time":438000000000,"state":"active","ping":62},{"user_id":262,"name":"Breizbuc","steam_id":76561198118220633,"connected_time":4387000000000,"state":"active","ping":66},{"user_id":316,"name":"Forgetful","steam_id":76561198147445965,"connected_time":740000000000,"state":"active","ping":71},{"user_id":305,"name":"OrangeBanana","steam_id":76561199230233875,"connected_time":939000000000,"state":"active","ping":68},{"user_id":253,"name":"LemonLeCitron","steam_id":76561198215545267,"connected_time":5414000000000,"state":"active","ping":66},{"user_id":322,"name":"Hotgamerdad","steam_id":76561198085940613,"connected_time":668000000000,"state":"active","ping":76},{"user_id":323,"name":"The Bean Man","steam_id":76561198046932811,"connected_time":664000000000,"state":"active","ping":73},{"user_id":325,"name":"Reiyo the Interloper","steam_id":76561198155092485,"connected_time":571000000000,"state":"active","ping":46},{"user_id":259,"name":"Gnarville","steam_id":76561198006373329,"connected_time":4912000000000,"state":"active","ping":62},{"user_id":306,"name":"tank","steam_id":76561198068027379,"connected_time":934000000000,"state":"active","ping":69},{"user_id":220,"name":"HOT LOIS","steam_id":76561198302623594,"connected_time":7993000000000,"state":"active","ping":92},{"user_id":326,"name":"Deckard","steam_id":76561198004704647,"connected_time":551000000000,"state":"active","ping":75},{"user_id":307,"name":"Deacon Dracul","steam_id":76561198046880663,"connected_time":924000000000,"state":"active","ping":119},{"user_id":314,"name":"Gorgeous George","steam_id":76561198144256544,"connected_time":752000000000,"state":"active","ping":68},{"user_id":310,"name":"Flostro","steam_id":76561198259793697,"connected_time":815000000000,"state":"active","ping":74},{"user_id":318,"name":"Relix18144","steam_id":76561199202454318,"connected_time":737000000000,"state":"active","ping":99},{"user_id":328,"name":"Violet","steam_id":76561198030395513,"connected_time":541000000000,"state":"active","ping":83},{"user_id":296,"name":"Semyr","steam_id":76561198125655939,"connected_time":1703000000000,"state":"active","ping":166},{"user_id":319,"name":"Sphinx","steam_id":76561198874511283,"connected_time":732000000000,"state":"active","ping":78},{"user_id":334,"name":"Kati","steam_id":76561198007231088,"connected_time":117000000000,"state":"active","ping":59},{"user_id":287,"name":"Thors","steam_id":76561197968739075,"connected_time":2148000000000,"state":"active","ping":57}]},{"server_id":311,"name":"Uncletopia | Frankfurt | 6 | All Maps","name_short":"frk-6","host":"frk-1.de.uncletopia.com","port":27065,"enabled":true,"region":"eu","cc":"de","latitude":50.110924,"longitude":8.682127,"reserved":0,"last_update":"0001-01-01T00:00:00Z","name_a2s":"Uncletopia | Frankfurt | 6 | All Maps","protocol":17,"map":"koth_harvest_final","folder":"tf","game":"Team Fortress","app_id":440,"player_count":24,"max_players":24,"Bots":0,"server_type":"Dedicated","server_os":"Linux","password":true,"vac":true,"version":"7757534","steam_id":85568392924504278,"keywords":["cp","nocrits","nodmgspread","uncletopia"],"game_id":440,"stv_port":27066,"stv_name":"Uncletopia | Frankfurt | 6 | All Maps | STV","players":[{"user_id":211,"name":"flora","steam_id":76561197994492154,"connected_time":4040000000000,"state":"active","ping":60},{"user_id":237,"name":"nedilya","steam_id":76561198039692077,"connected_time":2010000000000,"state":"active","ping":50},{"user_id":245,"name":"wtabs","steam_id":76561198831766743,"connected_time":705000000000,"state":"active","ping":73},{"user_id":225,"name":"lie raw","steam_id":76561198190583242,"connected_time":3287000000000,"state":"active","ping":69},{"user_id":243,"name":"‚ò£Strale‚ò£","steam_id":76561198026578820,"connected_time":750000000000,"state":"active","ping":69},{"user_id":248,"name":"Bisago!","steam_id":76561198181794353,"connected_time":668000000000,"state":"active","ping":56},{"user_id":231,"name":"MoeruKurowassan","steam_id":76561198319349647,"connected_time":2113000000000,"state":"active","ping":80},{"user_id":241,"name":"CAR DOOR","steam_id":76561198055283295,"connected_time":781000000000,"state":"active","ping":45},{"user_id":224,"name":"Lyra","steam_id":76561198043601838,"connected_time":3296000000000,"state":"active","ping":60},{"user_id":250,"name":"$n√òw","steam_id":76561198238781028,"connected_time":533000000000,"state":"active","ping":92},{"user_id":165,"name":"GMsU | AuxiliusM","steam_id":76561198071903356,"connected_time":7114000000000,"state":"active","ping":39},{"user_id":227,"name":"Average","steam_id":76561198158411479,"connected_time":2904000000000,"state":"active","ping":77},{"user_id":197,"name":"just peed a lil :3","steam_id":76561198058012525,"connected_time":4641000000000,"state":"active","ping":74},{"user_id":208,"name":"Kristall_54","steam_id":76561199405759756,"connected_time":4335000000000,"state":"active","ping":76},{"user_id":140,"name":"d-_-b","steam_id":76561198805804754,"connected_time":8801000000000,"state":"active","ping":116},{"user_id":247,"name":"kektuse","steam_id":76561198088426580,"connected_time":688000000000,"state":"active","ping":60},{"user_id":253,"name":"Captain HandicappedCock","steam_id":76561198109850402,"connected_time":381000000000,"state":"active","ping":71},{"user_id":238,"name":"Milosz52","steam_id":76561199060940204,"connected_time":1996000000000,"state":"active","ping":82},{"user_id":251,"name":"üòà COCKDESTROYER üòà","steam_id":76561198042846999,"connected_time":458000000000,"state":"active","ping":72},{"user_id":214,"name":"Hookiest Owler","steam_id":76561198872013525,"connected_time":3897000000000,"state":"active","ping":135},{"user_id":239,"name":"gŒ±–≤—î Œ∑œÉ√´‚Ñì","steam_id":76561198067342352,"connected_time":1943000000000,"state":"active","ping":74},{"user_id":233,"name":"KFD","steam_id":76561198157183003,"connected_time":2039000000000,"state":"active","ping":81},{"user_id":210,"name":"IceDreamer","steam_id":76561197997569989,"connected_time":4284000000000,"state":"active","ping":56},{"user_id":236,"name":"Merc","steam_id":76561198044864067,"connected_time":2028000000000,"state":"active","ping":70}]},{"server_id":23,"name":"Uncletopia | Frankfurt | 7 | Stopwatch Beta","name_short":"frk-7","host":"frk-1.de.uncletopia.com","port":27075,"enabled":true,"region":"eu","cc":"de","latitude":50.110924,"longitude":8.682127,"reserved":0,"last_update":"0001-01-01T00:00:00Z","name_a2s":"Uncletopia | Frankfurt | 7 | Stopwatch Beta","protocol":17,"map":"pl_borneo","folder":"tf","game":"Team Fortress","app_id":440,"player_count":0,"max_players":24,"Bots":0,"server_type":"Dedicated","server_os":"Linux","password":true,"vac":true,"version":"7757534","steam_id":85568392924742827,"keywords":["nocrits","nodmgspread","payload","uncletopia"],"game_id":440,"stv_port":27076,"stv_name":"Uncletopia | Frankfurt | 7 | Stopwatch Beta | STV","players":null},{"server_id":24,"name":"Uncletopia | Frankfurt | 8 | Community","name_short":"frk-8","host":"frk-1.de.uncletopia.com","port":27085,"enabled":true,"region":"eu","cc":"de","latitude":50.110924,"longitude":8.682127,"reserved":0,"last_update":"0001-01-01T00:00:00Z","name_a2s":"Uncletopia | Frankfurt | 8 | Community","protocol":17,"map":"koth_viaduct","folder":"tf","game":"Team Fortress","app_id":440,"player_count":0,"max_players":24,"Bots":0,"server_type":"Dedicated","server_os":"Linux","password":true,"vac":true,"version":"7757534","steam_id":85568392924742828,"keywords":["cp","nocrits","nodmgspread","uncletopia"],"game_id":440,"stv_port":27086,"stv_name":"Uncletopia | Frankfurt | 8 | Community | STV","players":null},{"server_id":202,"name":"Uncletopia | Hong Kong | 1 | All Maps","name_short":"hgk-1","host":"hgk-1.hk.uncletopia.com","port":27015,"enabled":true,"region":"asia","cc":"hk","latitude":22.302711,"longitude":114.177216,"reserved":0,"last_update":"0001-01-01T00:00:00Z","name_a2s":"Uncletopia | Hong Kong | 1 | All Maps","protocol":17,"map":"koth_cascade","folder":"tf","game":"Team Fortress","app_id":440,"player_count":0,"max_players":24,"Bots":0,"server_type":"Dedicated","server_os":"Linux","password":true,"vac":true,"version":"7757534","steam_id":85568392924494504,"keywords":["cp","nocrits","nodmgspread","uncletopia"],"game_id":440,"stv_port":27016,"stv_name":"Uncletopia | Hong Kong | 1 | All Maps | STV","players":null},{"server_id":1,"name":"Uncletopia | Los Angeles | 1 | All Maps","name_short":"lax-1","host":"lax-1.us.uncletopia.com","port":27015,"enabled":true,"region":"us-west","cc":"us","latitude":33.94279,"longitude":-118.41004,"reserved":0,"last_update":"0001-01-01T00:00:00Z","name_a2s":"Uncletopia | Los Angeles | 1 | All Maps","protocol":17,"map":"koth_harvest_final","folder":"tf","game":"Team Fortress","app_id":440,"player_count":0,"max_players":24,"Bots":0,"server_type":"Dedicated","server_os":"Linux","password":true,"vac":true,"version":"7757534","steam_id":85568392924469991,"keywords":["cp","nocrits","nodmgspread","uncletopia"],"game_id":440,"stv_port":27016,"stv_name":"Uncletopia | Los Angeles | 1 | All Maps | STV","players":null},{"server_id":112,"name":"Uncletopia | Los Angeles | 2 | All Maps","name_short":"lax-2","host":"lax-1.us.uncletopia.com","port":27025,"enabled":true,"region":"us-west","cc":"us","latitude":33.94279,"longitude":-118.41004,"reserved":0,"last_update":"0001-01-01T00:00:00Z","name_a2s":"Uncletopia | Los Angeles | 2 | All Maps","protocol":17,"map":"koth_viaduct","folder":"tf","game":"Team Fortress","app_id":440,"player_count":0,"max_players":24,"Bots":0,"server_type":"Dedicated","server_os":"Linux","password":true,"vac":true,"version":"7757534","steam_id":85568392924469992,"keywords":["cp","nocrits","nodmgspread","uncletopia"],"game_id":440,"stv_port":27026,"stv_name":"Uncletopia | Los Angeles | 2 | All Maps | STV","players":null},{"server_id":324,"name":"Uncletopia | Los Angeles | 3 | All Maps","name_short":"lax-3","host":"lax-1.us.uncletopia.com","port":27035,"enabled":true,"region":"us-west","cc":"us","latitude":33.94279,"longitude":-118.41004,"reserved":0,"last_update":"0001-01-01T00:00:00Z","name_a2s":"Uncletopia | Los Angeles | 3 | All Maps","protocol":17,"map":"pl_borneo","folder":"tf","game":"Team Fortress","app_id":440,"player_count":0,"max_players":24,"Bots":0,"server_type":"Dedicated","server_os":"Linux","password":true,"vac":true,"version":"7757534","steam_id":85568392924510198,"keywords":["nocrits","nodmgspread","payload","uncletopia"],"game_id":440,"stv_port":27036,"stv_name":"Uncletopia | Los Angeles | 3 | All Maps | STV","players":null},{"server_id":25,"name":"Uncletopia | Los Angeles | 4 | Stopwatch Beta","name_short":"lax-4","host":"lax-1.us.uncletopia.com","port":27045,"enabled":true,"region":"us-west","cc":"us","latitude":33.94279,"longitude":-118.41004,"reserved":0,"last_update":"0001-01-01T00:00:00Z","name_a2s":"Uncletopia | Los Angeles | 4 | Stopwatch Beta","protocol":17,"map":"cp_dustbowl","folder":"tf","game":"Team Fortress","app_id":440,"player_count":0,"max_players":24,"Bots":0,"server_type":"Dedicated","server_os":"Linux","password":true,"vac":true,"version":"7757534","steam_id":85568392924510199,"keywords":["cp","nocrits","nodmgspread","uncletopia"],"game_id":440,"stv_port":27046,"stv_name":"Uncletopia | Los Angeles | 4 | Stopwatch Beta | STV","players":null},{"server_id":11,"name":"Uncletopia | London | 1 | All Maps","name_short":"lon-1","host":"lon-1.uk.uncletopia.com","port":27015,"enabled":true,"region":"eu","cc":"gb","latitude":51.509865,"longitude":-0.118092,"reserved":0,"last_update":"0001-01-01T00:00:00Z","name_a2s":"Uncletopia | London | 1 | All Maps","protocol":17,"map":"cp_process_final","folder":"tf","game":"Team Fortress","app_id":440,"player_count":24,"max_players":24,"Bots":0,"server_type":"Dedicated","server_os":"Linux","password":true,"vac":true,"version":"7757534","steam_id":85568392924367362,"keywords":["cp","nocrits","nodmgspread","uncletopia"],"game_id":440,"stv_port":27016,"stv_name":"Uncletopia | London | 1 | All Maps | STV","players":[{"user_id":646,"name":"Robbie","steam_id":76561198017504503,"connected_time":1203000000000,"state":"active","ping":43},{"user_id":511,"name":"Taking souls","steam_id":76561198060012688,"connected_time":5188000000000,"state":"active","ping":58},{"user_id":640,"name":"Camo Leaf","steam_id":76561197999456575,"connected_time":1365000000000,"state":"active","ping":49},{"user_id":635,"name":"the foe","steam_id":76561198065743977,"connected_time":1846000000000,"state":"active","ping":59},{"user_id":633,"name":"jameso","steam_id":76561198064042970,"connected_time":2034000000000,"state":"active","ping":60},{"user_id":482,"name":"kojitori","steam_id":76561198838072150,"connected_time":5851000000000,"state":"active","ping":47},{"user_id":629,"name":"Icaras","steam_id":76561198416724843,"connected_time":2336000000000,"state":"active","ping":38},{"user_id":596,"name":"Wuffington","steam_id":76561198033762881,"connected_time":3156000000000,"state":"active","ping":54},{"user_id":573,"name":"Serton‚ôù","steam_id":76561198011061126,"connected_time":3624000000000,"state":"active","ping":75},{"user_id":540,"name":"artdss","steam_id":76561198853485124,"connected_time":4467000000000,"state":"active","ping":87},{"user_id":652,"name":"Bobirulez","steam_id":76561198009125458,"connected_time":277000000000,"state":"active","ping":73},{"user_id":654,"name":"Cosmonaut","steam_id":76561198239514504,"connected_time":110000000000,"state":"active","ping":67},{"user_id":625,"name":"Aaron","steam_id":76561197990046953,"connected_time":2464000000000,"state":"active","ping":53},{"user_id":645,"name":"peku","steam_id":76561198082074666,"connected_time":1236000000000,"state":"active","ping":89},{"user_id":375,"name":"god's eepiest girl","steam_id":76561198128327529,"connected_time":10846000000000,"state":"active","ping":51},{"user_id":637,"name":"Gangster spongbob","steam_id":76561199121162524,"connected_time":1495000000000,"state":"active","ping":146},{"user_id":655,"name":"femboy enjoyer","steam_id":76561199068665492,"connected_time":69000000000,"state":"active","ping":98},{"user_id":647,"name":"JC","steam_id":76561198029213352,"connected_time":1129000000000,"state":"active","ping":43},{"user_id":643,"name":"Kvicha Kvaratskhelia","steam_id":76561198179339326,"connected_time":1320000000000,"state":"active","ping":84},{"user_id":328,"name":"EdSuedi","steam_id":76561199387956486,"connected_time":14551000000000,"state":"active","ping":63},{"user_id":644,"name":"regimiro","steam_id":76561198120457008,"connected_time":1314000000000,"state":"active","ping":56},{"user_id":539,"name":"bANji","steam_id":76561198108898161,"connected_time":4482000000000,"state":"active","ping":58},{"user_id":326,"name":"LarsInABox","steam_id":76561198028329262,"connected_time":15089000000000,"state":"active","ping":72},{"user_id":651,"name":"xavier","steam_id":76561198076494034,"connected_time":324000000000,"state":"active","ping":53}]},{"server_id":114,"name":"Uncletopia | London | 2 | All Maps","name_short":"lon-2","host":"lon-1.uk.uncletopia.com","port":27025,"enabled":true,"region":"eu","cc":"gb","latitude":51.509865,"longitude":-0.118092,"reserved":0,"last_update":"0001-01-01T00:00:00Z","name_a2s":"Uncletopia | London | 2 | All Maps","protocol":17,"map":"koth_highpass","folder":"tf","game":"Team Fortress","app_id":440,"player_count":21,"max_players":24,"Bots":0,"server_type":"Dedicated","server_os":"Linux","password":true,"vac":true,"version":"7757534","steam_id":85568392924470941,"keywords":["cp","nocrits","nodmgspread","uncletopia"],"game_id":440,"stv_port":27026,"stv_name":"Uncletopia | London | 2 | All Maps | STV","players":[{"user_id":18,"name":"Dov","steam_id":76561198856685379,"connected_time":3109000000000,"state":"active","ping":64},{"user_id":22,"name":"Karambolic","steam_id":76561198830036923,"connected_time":2909000000000,"state":"active","ping":74},{"user_id":21,"name":"Darth Jar Jar","steam_id":76561199025319778,"connected_time":2954000000000,"state":"active","ping":86},{"user_id":49,"name":"PASTAMANIA!","steam_id":76561197967858558,"connected_time":1134000000000,"state":"active","ping":42},{"user_id":50,"name":"hourglass","steam_id":76561198166613799,"connected_time":1117000000000,"state":"active","ping":75},{"user_id":69,"name":"DogeDudeFX #savetf2","steam_id":76561199154459568,"connected_time":111000000000,"state":"active","ping":96},{"user_id":27,"name":"Asfreild","steam_id":76561198055901120,"connected_time":2083000000000,"state":"active","ping":75},{"user_id":57,"name":"fucking Muscovites","steam_id":76561198065009070,"connected_time":774000000000,"state":"active","ping":81},{"user_id":30,"name":"HurmaSok","steam_id":76561198211471049,"connected_time":1892000000000,"state":"active","ping":78},{"user_id":32,"name":"Milca_11 [Original Onslaught]","steam_id":76561198848650365,"connected_time":1783000000000,"state":"active","ping":76},{"user_id":33,"name":"Lux","steam_id":76561198060417740,"connected_time":1690000000000,"state":"active","ping":51},{"user_id":34,"name":"Nassu","steam_id":76561198147367577,"connected_time":1680000000000,"state":"active","ping":160},{"user_id":64,"name":"[\u003e\u003c] OTP Uncle Sam","steam_id":76561198186666399,"connected_time":332000000000,"state":"active","ping":59},{"user_id":65,"name":"Ar|es","steam_id":76561198819160313,"connected_time":322000000000,"state":"active","ping":110},{"user_id":68,"name":"Kenaga","steam_id":76561198052927473,"connected_time":170000000000,"state":"active","ping":113},{"user_id":53,"name":"‚òÅ Lou1smeister ‚òÅ","steam_id":76561198004032968,"connected_time":1048000000000,"state":"active","ping":74},{"user_id":42,"name":"Dr. Le Quack","steam_id":76561197995711176,"connected_time":1431000000000,"state":"active","ping":88},{"user_id":58,"name":"Tzujko","steam_id":76561198414707694,"connected_time":767000000000,"state":"active","ping":83},{"user_id":44,"name":"Who?","steam_id":76561198271901063,"connected_time":1388000000000,"state":"active","ping":61},{"user_id":55,"name":"Setter Ball Gaul","steam_id":76561198130427881,"connected_time":978000000000,"state":"active","ping":173},{"user_id":70,"name":"Rat Kisser","steam_id":76561198129883955,"connected_time":19000000000,"state":"active","ping":144}]},{"server_id":320,"name":"Uncletopia | London | 3 | All Maps","name_short":"lon-3","host":"lon-1.uk.uncletopia.com","port":27035,"enabled":true,"region":"eu","cc":"gb","latitude":51.509865,"longitude":-0.118092,"reserved":0,"last_update":"0001-01-01T00:00:00Z","name_a2s":"Uncletopia | London | 3 | All Maps","protocol":17,"map":"pl_upward","folder":"tf","game":"Team Fortress","app_id":440,"player_count":24,"max_players":24,"Bots":0,"server_type":"Dedicated","server_os":"Linux","password":true,"vac":true,"version":"7757534","steam_id":85568392924510192,"keywords":["nocrits","nodmgspread","payload","uncletopia"],"game_id":440,"stv_port":27036,"stv_name":"Uncletopia | London | 3 | All Maps | STV","players":[{"user_id":305,"name":"cursedbygod‚ô°","steam_id":76561198318291047,"connected_time":4575000000000,"state":"active","ping":116},{"user_id":352,"name":"Painkiller (real)‚òë","steam_id":76561199036837091,"connected_time":1870000000000,"state":"active","ping":88},{"user_id":353,"name":"hades","steam_id":76561199435854673,"connected_time":1861000000000,"state":"active","ping":44},{"user_id":347,"name":"gGABEsz","steam_id":76561198117199068,"connected_time":1935000000000,"state":"active","ping":72},{"user_id":322,"name":"KFC Enjoyer","steam_id":76561198840259819,"connected_time":3367000000000,"state":"active","ping":58},{"user_id":360,"name":"COFFEE","steam_id":76561198869355986,"connected_time":1498000000000,"state":"active","ping":74},{"user_id":368,"name":"Dog ?","steam_id":76561198347020945,"connected_time":704000000000,"state":"active","ping":89},{"user_id":346,"name":"Washburne","steam_id":76561198032810579,"connected_time":1973000000000,"state":"active","ping":56},{"user_id":370,"name":"YourNeighbourhoodHobo","steam_id":76561198072756392,"connected_time":403000000000,"state":"active","ping":63},{"user_id":374,"name":"fallingpencil","steam_id":76561199230233148,"connected_time":230000000000,"state":"active","ping":58},{"user_id":372,"name":"elchi","steam_id":76561198009531752,"connected_time":367000000000,"state":"active","ping":45},{"user_id":373,"name":"SKFBoge","steam_id":76561198269038278,"connected_time":364000000000,"state":"active","ping":81},{"user_id":358,"name":"subway vergil","steam_id":76561199110064166,"connected_time":1673000000000,"state":"active","ping":171},{"user_id":319,"name":"DocTwoEight","steam_id":76561198153488940,"connected_time":3641000000000,"state":"active","ping":74},{"user_id":359,"name":"BTD","steam_id":76561199046044993,"connected_time":1521000000000,"state":"active","ping":60},{"user_id":365,"name":"Reisen","steam_id":76561199174579733,"connected_time":1370000000000,"state":"active","ping":115},{"user_id":375,"name":"Dwevy","steam_id":76561198090379437,"connected_time":40000000000,"state":"active","ping":50},{"user_id":363,"name":"One Shiny Boi‚Ñ¢","steam_id":76561198199193627,"connected_time":1473000000000,"state":"active","ping":66},{"user_id":351,"name":"2BCD","steam_id":76561198178254946,"connected_time":1914000000000,"state":"active","ping":64},{"user_id":357,"name":"Tort","steam_id":76561198329646769,"connected_time":1732000000000,"state":"active","ping":57},{"user_id":301,"name":"Arti","steam_id":76561197983352845,"connected_time":4667000000000,"state":"active","ping":60},{"user_id":356,"name":"beheading video from 2009","steam_id":76561198834897089,"connected_time":1789000000000,"state":"active","ping":70},{"user_id":371,"name":"Obamna","steam_id":76561199242950301,"connected_time":398000000000,"state":"active","ping":147}]},{"server_id":321,"name":"Uncletopia | London | 4 | All Maps","name_short":"lon-4","host":"lon-1.uk.uncletopia.com","port":27045,"enabled":true,"region":"eu","cc":"gb","latitude":51.509865,"longitude":-0.118092,"reserved":0,"last_update":"0001-01-01T00:00:00Z","name_a2s":"Uncletopia | London | 4 | All Maps","protocol":17,"map":"cp_snakewater_final1","folder":"tf","game":"Team Fortress","app_id":440,"player_count":0,"max_players":24,"Bots":0,"server_type":"Dedicated","server_os":"Linux","password":true,"vac":true,"version":"7757534","steam_id":85568392924510193,"keywords":["cp","nocrits","nodmgspread","uncletopia"],"game_id":440,"stv_port":27046,"stv_name":"Uncletopia | London | 4 | All Maps | STV","players":null},{"server_id":21,"name":"Uncletopia | London | 5 | All Maps","name_short":"lon-5","host":"lon-1.uk.uncletopia.com","port":27055,"enabled":true,"region":"eu","cc":"gb","latitude":51.509865,"longitude":-0.118092,"reserved":0,"last_update":"0001-01-01T00:00:00Z","name_a2s":"Uncletopia | London | 5 | All Maps","protocol":17,"map":"pl_borneo","folder":"tf","game":"Team Fortress","app_id":440,"player_count":24,"max_players":24,"Bots":0,"server_type":"Dedicated","server_os":"Linux","password":true,"vac":true,"version":"7757534","steam_id":85568392924742829,"keywords":["nocrits","nodmgspread","payload","uncletopia"],"game_id":440,"stv_port":27056,"stv_name":"Uncletopia | London | 5 | All Maps | STV","players":[{"user_id":571,"name":"After8","steam_id":76561198090750865,"connected_time":1133000000000,"state":"active","ping":76},{"user_id":524,"name":"Bonerfart","steam_id":76561199039212537,"connected_time":4656000000000,"state":"active","ping":102},{"user_id":569,"name":"‚ú™Kritz","steam_id":76561198110226775,"connected_time":1190000000000,"state":"active","ping":67},{"user_id":541,"name":"Baki ‡∂û","steam_id":76561198193615529,"connected_time":4128000000000,"state":"active","ping":67},{"user_id":577,"name":"kotamine","steam_id":76561198068907991,"connected_time":364000000000,"state":"active","ping":75},{"user_id":564,"name":"DeCypher [She/Her]","steam_id":76561198171992619,"connected_time":2312000000000,"state":"active","ping":72},{"user_id":561,"name":"e36 1.8","steam_id":76561198134203031,"connected_time":3050000000000,"state":"active","ping":64},{"user_id":566,"name":"Schizophrenic Tyrant","steam_id":76561199011576146,"connected_time":1689000000000,"state":"active","ping":103},{"user_id":550,"name":"mt","steam_id":76561197961319303,"connected_time":3524000000000,"state":"active","ping":61},{"user_id":581,"name":"Pingutaro","steam_id":76561198112803718,"connected_time":72000000000,"state":"active","ping":50},{"user_id":567,"name":"hora","steam_id":76561198404470526,"connected_time":1232000000000,"state":"active","ping":87},{"user_id":568,"name":"sup3rfr3ddy.","steam_id":76561198119371683,"connected_time":1231000000000,"state":"active","ping":53},{"user_id":570,"name":"UFeindschiff[CW]","steam_id":76561198026514712,"connected_time":1180000000000,"state":"active","ping":69},{"user_id":515,"name":"Woa","steam_id":76561198345683201,"connected_time":5207000000000,"state":"active","ping":56},{"user_id":551,"name":"jm","steam_id":76561197996774870,"connected_time":3513000000000,"state":"active","ping":127},{"user_id":573,"name":"Daikon","steam_id":76561198044017083,"connected_time":1127000000000,"state":"active","ping":75},{"user_id":578,"name":"holykyckling","steam_id":76561198040661615,"connected_time":359000000000,"state":"active","ping":77},{"user_id":579,"name":"Markein","steam_id":76561198360754280,"connected_time":356000000000,"state":"active","ping":54},{"user_id":552,"name":"FunnyCool","steam_id":76561198029843142,"connected_time":3506000000000,"state":"active","ping":61},{"user_id":576,"name":"Uno","steam_id":76561198023465646,"connected_time":990000000000,"state":"active","ping":70},{"user_id":574,"name":"Datenegassie","steam_id":76561198089417032,"connected_time":1124000000000,"state":"active","ping":69},{"user_id":537,"name":"twitch.tv/red_naxela","steam_id":76561197998803950,"connected_time":4453000000000,"state":"active","ping":76},{"user_id":575,"name":"khey","steam_id":76561198035380064,"connected_time":1120000000000,"state":"active","ping":60},{"user_id":580,"name":"very_cool_gamer","steam_id":76561199376433147,"connected_time":339000000000,"state":"active","ping":49}]},{"server_id":22,"name":"Uncletopia | London | 6 | All Maps","name_short":"lon-6","host":"lon-1.uk.uncletopia.com","port":27065,"enabled":true,"region":"eu","cc":"gb","latitude":51.509865,"longitude":-0.118092,"reserved":0,"last_update":"0001-01-01T00:00:00Z","name_a2s":"Uncletopia | London | 6 | All Maps","protocol":17,"map":"koth_highpass","folder":"tf","game":"Team Fortress","app_id":440,"player_count":0,"max_players":24,"Bots":0,"server_type":"Dedicated","server_os":"Linux","password":true,"vac":true,"version":"7757534","steam_id":85568392924742830,"keywords":["cp","nocrits","nodmgspread","uncletopia"],"game_id":440,"stv_port":27066,"stv_name":"Uncletopia | London | 6 | All Maps | STV","players":null},{"server_id":40,"name":"Uncletopia | London | 7 | No Payload","name_short":"lon-7","host":"lon-1.uk.uncletopia.com","port":27075,"enabled":true,"region":"eu","cc":"gb","latitude":51.509865,"longitude":-0.118092,"reserved":0,"last_update":"0001-01-01T00:00:00Z","name_a2s":"Uncletopia | London | 7 | No Payload","protocol":17,"map":"koth_suijin","folder":"tf","game":"Team Fortress","app_id":440,"player_count":23,"max_players":24,"Bots":0,"server_type":"Dedicated","server_os":"Linux","password":true,"vac":true,"version":"7757534","steam_id":85568392924964314,"keywords":["cp","nocrits","nodmgspread","uncletopia"],"game_id":440,"stv_port":27076,"stv_name":"Uncletopia | London | 7 | No Payload | STV","players":[{"user_id":72,"name":"Raccoon gal","steam_id":76561198200607926,"connected_time":356000000000,"state":"active","ping":91},{"user_id":71,"name":"Claw","steam_id":76561198060985181,"connected_time":405000000000,"state":"active","ping":59},{"user_id":10,"name":"the","steam_id":76561198293567489,"connected_time":3172000000000,"state":"active","ping":75},{"user_id":31,"name":"weed fairy","steam_id":76561197998843096,"connected_time":1928000000000,"state":"active","ping":86},{"user_id":66,"name":"TylowStar","steam_id":76561198357107806,"connected_time":788000000000,"state":"active","ping":64},{"user_id":34,"name":"big tiddy goth bf","steam_id":76561198170609049,"connected_time":1772000000000,"state":"active","ping":60},{"user_id":73,"name":"Stu","steam_id":76561198131449281,"connected_time":272000000000,"state":"active","ping":48},{"user_id":30,"name":"kinimon","steam_id":76561198178453270,"connected_time":1941000000000,"state":"active","ping":34},{"user_id":33,"name":"Frone","steam_id":76561198043528853,"connected_time":1882000000000,"state":"active","ping":86},{"user_id":35,"name":"boobin","steam_id":76561198097507847,"connected_time":1731000000000,"state":"active","ping":79},{"user_id":39,"name":"Into Boobin'","steam_id":76561198067204908,"connected_time":1702000000000,"state":"active","ping":54},{"user_id":78,"name":"Liza–Ødl–ß","steam_id":76561198176750238,"connected_time":55000000000,"state":"active","ping":63},{"user_id":75,"name":"Dooble donk man look at me donk","steam_id":76561198225523596,"connected_time":141000000000,"state":"active","ping":146},{"user_id":76,"name":"The Man of Myriad","steam_id":76561198273702611,"connected_time":130000000000,"state":"active","ping":61},{"user_id":48,"name":"jerf(god i want estrogen)","steam_id":76561199213901239,"connected_time":1604000000000,"state":"active","ping":47},{"user_id":40,"name":"Kutuzov","steam_id":76561198060988694,"connected_time":1697000000000,"state":"active","ping":115},{"user_id":67,"name":"‚éù‚ßπpolar_bear‚ß∏‚é†","steam_id":76561198409154467,"connected_time":766000000000,"state":"active","ping":110},{"user_id":42,"name":"Drekad√≥ttir","steam_id":76561198119979169,"connected_time":1684000000000,"state":"active","ping":74},{"user_id":77,"name":"LMAO","steam_id":76561198339723822,"connected_time":119000000000,"state":"active","ping":73},{"user_id":68,"name":"Goonz","steam_id":76561198161546490,"connected_time":721000000000,"state":"active","ping":38},{"user_id":59,"name":"Robs","steam_id":76561198078355830,"connected_time":1247000000000,"state":"active","ping":63},{"user_id":70,"name":"bl√•haj","steam_id":76561198094268619,"connected_time":496000000000,"state":"active","ping":75},{"user_id":61,"name":":D","steam_id":76561198304902462,"connected_time":1223000000000,"state":"active","ping":53}]},{"server_id":41,"name":"Uncletopia | London | 8 | Community","name_short":"lon-8","host":"lon-1.uk.uncletopia.com","port":27085,"enabled":true,"region":"eu","cc":"gb","latitude":51.509865,"longitude":-0.118092,"reserved":0,"last_update":"0001-01-01T00:00:00Z","name_a2s":"Uncletopia | London | 8 | Community","protocol":17,"map":"workshop/pl_badwater_pro_v12.ugc2142942074","folder":"tf","game":"Team Fortress","app_id":440,"player_count":21,"max_players":24,"Bots":0,"server_type":"Dedicated","server_os":"Linux","password":true,"vac":true,"version":"7757534","steam_id":85568392924964315,"keywords":["nocrits","nodmgspread","payload","uncletopia"],"game_id":440,"stv_port":27086,"stv_name":"Uncletopia | London | 8 | Community | STV","players":[{"user_id":227,"name":"FatalRyhme","steam_id":76561198018713483,"connected_time":7000000000,"state":"spawning","ping":128},{"user_id":225,"name":"Laurie","steam_id":76561198082951750,"connected_time":50000000000,"state":"connecting","ping":464},{"user_id":200,"name":"ÀπFate's¬∑MarionetteÀº","steam_id":76561198034197381,"connected_time":2928000000000,"state":"spawning","ping":131},{"user_id":217,"name":"Jonathan","steam_id":76561198087988880,"connected_time":1219000000000,"state":"active","ping":55},{"user_id":170,"name":"Egor Pomidor","steam_id":76561199175688390,"connected_time":4263000000000,"state":"active","ping":85},{"user_id":221,"name":"ayu","steam_id":76561198871342329,"connected_time":779000000000,"state":"active","ping":96},{"user_id":153,"name":"silicon based life form","steam_id":76561199127121346,"connected_time":5726000000000,"state":"active","ping":208},{"user_id":223,"name":"PizzaPete123","steam_id":76561198089478290,"connected_time":585000000000,"state":"active","ping":41},{"user_id":210,"name":"Topme","steam_id":76561198091734693,"connected_time":1898000000000,"state":"active","ping":60},{"user_id":171,"name":"X-tis","steam_id":76561198043837480,"connected_time":4253000000000,"state":"active","ping":75},{"user_id":211,"name":"Spetse","steam_id":76561197990649972,"connected_time":1886000000000,"state":"active","ping":85},{"user_id":197,"name":"player","steam_id":76561198054474684,"connected_time":3002000000000,"state":"active","ping":75},{"user_id":172,"name":"‚ú™ m_br3","steam_id":76561198044981990,"connected_time":4211000000000,"state":"active","ping":76},{"user_id":224,"name":"Speeder Mingus","steam_id":76561198106841910,"connected_time":499000000000,"state":"active","ping":184},{"user_id":218,"name":"Cypher","steam_id":76561197996967254,"connected_time":1006000000000,"state":"spawning","ping":99},{"user_id":226,"name":"Donnie","steam_id":76561198396050604,"connected_time":39000000000,"state":"spawning","ping":203},{"user_id":183,"name":"Fat Pigeon","steam_id":76561198817940142,"connected_time":3836000000000,"state":"active","ping":60},{"user_id":186,"name":"Borat","steam_id":76561198122226417,"connected_time":3739000000000,"state":"active","ping":35},{"user_id":219,"name":"quickfast","steam_id":76561199438900919,"connected_time":965000000000,"state":"active","ping":40},{"user_id":215,"name":"Sneikijs","steam_id":76561198052549308,"connected_time":1553000000000,"state":"active","ping":47},{"user_id":90,"name":"akakez","steam_id":76561198095432821,"connected_time":8569000000000,"state":"spawning","ping":426}]},{"server_id":300,"name":"Uncletopia | Montr√©al | 1 | All Maps","name_short":"mtl-1","host":"mtl-1.ca.uncletopia.com","port":27015,"enabled":true,"region":"us-east","cc":"ca","latitude":45.50889,"longitude":-73.56167,"reserved":0,"last_update":"0001-01-01T00:00:00Z","name_a2s":"Uncletopia | Montr√©al | 1 | All Maps","protocol":17,"map":"pl_pier","folder":"tf","game":"Team Fortress","app_id":440,"player_count":0,"max_players":24,"Bots":0,"server_type":"Dedicated","server_os":"Linux","password":true,"vac":true,"version":"7757534","steam_id":85568392924500087,"keywords":["nocrits","nodmgspread","payload","uncletopia"],"game_id":440,"stv_port":27016,"stv_name":"Uncletopia | Montr√©al | 1 | All Maps | STV","players":null},{"server_id":301,"name":"Uncletopia | Montr√©al | 2 | All Maps","name_short":"mtl-2","host":"mtl-1.ca.uncletopia.com","port":27025,"enabled":true,"region":"us-east","cc":"ca","latitude":45.50889,"longitude":-73.56167,"reserved":0,"last_update":"0001-01-01T00:00:00Z","name_a2s":"Uncletopia | Montr√©al | 2 | All Maps","protocol":17,"map":"koth_viaduct","folder":"tf","game":"Team Fortress","app_id":440,"player_count":0,"max_players":24,"Bots":0,"server_type":"Dedicated","server_os":"Linux","password":true,"vac":true,"version":"7757534","steam_id":85568392924500088,"keywords":["cp","nocrits","nodmgspread","uncletopia"],"game_id":440,"stv_port":27026,"stv_name":"Uncletopia | Montr√©al | 2 | All Maps | STV","players":null},{"server_id":302,"name":"Uncletopia | Montr√©al | 3 | All Maps","name_short":"mtl-3","host":"mtl-1.ca.uncletopia.com","port":27035,"enabled":true,"region":"us-east","cc":"ca","latitude":45.50889,"longitude":-73.56167,"reserved":0,"last_update":"0001-01-01T00:00:00Z","name_a2s":"Uncletopia | Montr√©al | 3 | All Maps","protocol":17,"map":"pl_snowycoast","folder":"tf","game":"Team Fortress","app_id":440,"player_count":0,"max_players":24,"Bots":0,"server_type":"Dedicated","server_os":"Linux","password":true,"vac":true,"version":"7757534","steam_id":85568392924500089,"keywords":["nocrits","nodmgspread","payload","uncletopia"],"game_id":440,"stv_port":27036,"stv_name":"Uncletopia | Montr√©al | 3 | All Maps | STV","players":null},{"server_id":303,"name":"Uncletopia | Montr√©al | 4 | No Payload","name_short":"mtl-4","host":"mtl-1.ca.uncletopia.com","port":27045,"enabled":true,"region":"us-east","cc":"ca","latitude":45.50889,"longitude":-73.56167,"reserved":0,"last_update":"0001-01-01T00:00:00Z","name_a2s":"Uncletopia | Montr√©al | 4 | No Payload","protocol":17,"map":"pl_pier","folder":"tf","game":"Team Fortress","app_id":440,"player_count":0,"max_players":24,"Bots":0,"server_type":"Dedicated","server_os":"Linux","password":true,"vac":true,"version":"7757534","steam_id":85568392924500090,"keywords":["nocrits","nodmgspread","payload","uncletopia"],"game_id":440,"stv_port":27046,"stv_name":"Uncletopia | Montr√©al | 4 | No Payload | STV","players":null},{"server_id":13,"name":"Uncletopia | New York City | 1 | All Maps","name_short":"nyc-1","host":"nyc-1.us.uncletopia.com","port":27015,"enabled":true,"region":"us-east","cc":"us","latitude":40.73061,"longitude":-73.93524,"reserved":0,"last_update":"0001-01-01T00:00:00Z","name_a2s":"Uncletopia | New York City | 1 | All Maps","protocol":17,"map":"cp_mountainlab","folder":"tf","game":"Team Fortress","app_id":440,"player_count":24,"max_players":24,"Bots":0,"server_type":"Dedicated","server_os":"Linux","password":true,"vac":true,"version":"7757534","steam_id":85568392924469993,"keywords":["cp","nocrits","nodmgspread","uncletopia"],"game_id":440,"stv_port":27016,"stv_name":"Uncletopia | New York City | 1 | All Maps | STV","players":[{"user_id":141,"name":"Horse","steam_id":76561199112075552,"connected_time":1843000000000,"state":"active","ping":48},{"user_id":146,"name":"DapperCrab","steam_id":76561198259054766,"connected_time":1021000000000,"state":"active","ping":89},{"user_id":158,"name":"schmukkk","steam_id":76561198047421778,"connected_time":194000000000,"state":"active","ping":76},{"user_id":129,"name":"Hyden da kobobl","steam_id":76561198837931725,"connected_time":2460000000000,"state":"active","ping":107},{"user_id":166,"name":"alipaull2010","steam_id":76561199059853573,"connected_time":13000000000,"state":"spawning","ping":94},{"user_id":94,"name":"SDL","steam_id":76561198859719985,"connected_time":4313000000000,"state":"active","ping":100},{"user_id":156,"name":"LuBzEur0b3ats","steam_id":76561199041041574,"connected_time":201000000000,"state":"active","ping":60},{"user_id":160,"name":"mata","steam_id":76561198083884120,"connected_time":189000000000,"state":"active","ping":70},{"user_id":151,"name":"The Notorious RBG","steam_id":76561198014275148,"connected_time":561000000000,"state":"active","ping":57},{"user_id":100,"name":"Induceddata","steam_id":76561198868302455,"connected_time":3479000000000,"state":"active","ping":58},{"user_id":165,"name":"Cursed mario","steam_id":76561198971168093,"connected_time":46000000000,"state":"active","ping":164},{"user_id":15,"name":"Sentry Gun (Maple!)","steam_id":76561199315167502,"connected_time":10471000000000,"state":"active","ping":59},{"user_id":106,"name":"Skullypoo","steam_id":76561198067912022,"connected_time":3300000000000,"state":"active","ping":62},{"user_id":138,"name":"quint","steam_id":76561198046797995,"connected_time":2086000000000,"state":"active","ping":72},{"user_id":164,"name":"reanimator","steam_id":76561198085830470,"connected_time":142000000000,"state":"active","ping":46},{"user_id":143,"name":"cheeser","steam_id":76561198281772700,"connected_time":1733000000000,"state":"active","ping":45},{"user_id":162,"name":"Mendo","steam_id":76561198068884273,"connected_time":176000000000,"state":"active","ping":52},{"user_id":148,"name":"Bear Who BLOWS!!!","steam_id":76561198063970639,"connected_time":896000000000,"state":"active","ping":50},{"user_id":150,"name":"aiden","steam_id":76561198449527009,"connected_time":626000000000,"state":"active","ping":61},{"user_id":167,"name":"fortnitejimmy2015","steam_id":76561198381841894,"connected_time":8000000000,"state":"spawning","ping":59},{"user_id":56,"name":"BerthaEartha","steam_id":76561198799428743,"connected_time":7251000000000,"state":"active","ping":45},{"user_id":132,"name":"∆ê’å—¥∆≥","steam_id":76561198099470277,"connected_time":2397000000000,"state":"active","ping":75},{"user_id":57,"name":"Mango","steam_id":76561199209533440,"connected_time":6912000000000,"state":"active","ping":66},{"user_id":99,"name":"The Drunk Clown","steam_id":76561197986850426,"connected_time":3843000000000,"state":"active","ping":78}]},{"server_id":14,"name":"Uncletopia | New York City | 2 | All Maps","name_short":"nyc-2","host":"nyc-1.us.uncletopia.com","port":27025,"enabled":true,"region":"us-east","cc":"us","latitude":40.73061,"longitude":-73.93524,"reserved":0,"last_update":"0001-01-01T00:00:00Z","name_a2s":"Uncletopia | New York City | 2 | All Maps","protocol":17,"map":"cp_dustbowl","folder":"tf","game":"Team Fortress","app_id":440,"player_count":24,"max_players":24,"Bots":0,"server_type":"Dedicated","server_os":"Linux","password":true,"vac":true,"version":"7757534","steam_id":85568392924469994,"keywords":["cp","nocrits","nodmgspread","uncletopia"],"game_id":440,"stv_port":27026,"stv_name":"Uncletopia | New York City | 2 | All Maps | STV","players":[{"user_id":292,"name":"The Heart","steam_id":76561198371123185,"connected_time":3063000000000,"state":"active","ping":79},{"user_id":315,"name":"HighJingo","steam_id":76561198846814390,"connected_time":1659000000000,"state":"active","ping":88},{"user_id":316,"name":"kaleb","steam_id":76561198997126286,"connected_time":1656000000000,"state":"active","ping":100},{"user_id":313,"name":"Wique","steam_id":76561198071217597,"connected_time":2009000000000,"state":"active","ping":67},{"user_id":323,"name":"Magik","steam_id":76561198200169706,"connected_time":987000000000,"state":"active","ping":52},{"user_id":322,"name":"Violet42","steam_id":76561198072927887,"connected_time":1401000000000,"state":"active","ping":45},{"user_id":251,"name":"Germ_X","steam_id":76561198228835180,"connected_time":6794000000000,"state":"active","ping":80},{"user_id":303,"name":"Effie","steam_id":76561198261842068,"connected_time":2836000000000,"state":"active","ping":89},{"user_id":299,"name":"TI-83 Plus","steam_id":76561198316134443,"connected_time":2881000000000,"state":"active","ping":75},{"user_id":312,"name":"British Zoner","steam_id":76561198977330214,"connected_time":2309000000000,"state":"active","ping":111},{"user_id":319,"name":"ExEm","steam_id":76561198832738000,"connected_time":1623000000000,"state":"active","ping":71},{"user_id":325,"name":"JoeCrisp7","steam_id":76561199110575819,"connected_time":288000000000,"state":"active","ping":58},{"user_id":305,"name":"BubbaBasher","steam_id":76561198829909547,"connected_time":2802000000000,"state":"active","ping":72},{"user_id":317,"name":"Rat_king","steam_id":76561199465689129,"connected_time":1651000000000,"state":"active","ping":87},{"user_id":308,"name":"Voodo133","steam_id":76561198042670351,"connected_time":2671000000000,"state":"active","ping":78},{"user_id":320,"name":"KapooyaCat","steam_id":76561198170055881,"connected_time":1438000000000,"state":"active","ping":65},{"user_id":307,"name":"mothsprings","steam_id":76561198928604937,"connected_time":2787000000000,"state":"active","ping":68},{"user_id":324,"name":"Admiral Angry","steam_id":76561198058199206,"connected_time":531000000000,"state":"active","ping":75},{"user_id":294,"name":"M@verick","steam_id":76561198006363519,"connected_time":3028000000000,"state":"active","ping":68},{"user_id":318,"name":"BasicPeaches","steam_id":76561198190890150,"connected_time":1641000000000,"state":"active","ping":62},{"user_id":295,"name":"10KO!","steam_id":76561199134895220,"connected_time":3019000000000,"state":"active","ping":57},{"user_id":283,"name":"white ray","steam_id":76561198026664629,"connected_time":3843000000000,"state":"active","ping":49},{"user_id":314,"name":"juanjoesc","steam_id":76561198186368430,"connected_time":1846000000000,"state":"active","ping":122},{"user_id":296,"name":"Dark Cultist","steam_id":76561198343350151,"connected_time":2969000000000,"state":"active","ping":55}]},{"server_id":15,"name":"Uncletopia | New York City | 3 | Stopwatch Beta","name_short":"nyc-3","host":"nyc-1.us.uncletopia.com","port":27035,"enabled":true,"region":"us-east","cc":"us","latitude":40.73061,"longitude":-73.93524,"reserved":0,"last_update":"0001-01-01T00:00:00Z","name_a2s":"Uncletopia | New York City | 3 | Stopwatch Beta","protocol":17,"map":"koth_cascade","folder":"tf","game":"Team Fortress","app_id":440,"player_count":0,"max_players":24,"Bots":0,"server_type":"Dedicated","server_os":"Linux","password":true,"vac":true,"version":"7757534","steam_id":85568392924742820,"keywords":["cp","nocrits","nodmgspread","uncletopia"],"game_id":440,"stv_port":27036,"stv_name":"Uncletopia | New York City | 3 | Stopwatch Beta | STV","players":null},{"server_id":16,"name":"Uncletopia | New York City | 4 | Community","name_short":"nyc-4","host":"nyc-1.us.uncletopia.com","port":27045,"enabled":true,"region":"us-east","cc":"us","latitude":40.73061,"longitude":-73.93524,"reserved":0,"last_update":"0001-01-01T00:00:00Z","name_a2s":"Uncletopia | New York City | 4 | Community","protocol":17,"map":"workshop/cp_indulge.ugc528106646","folder":"tf","game":"Team Fortress","app_id":440,"player_count":0,"max_players":24,"Bots":0,"server_type":"Dedicated","server_os":"Linux","password":true,"vac":true,"version":"7757534","steam_id":85568392924742821,"keywords":["cp","nocrits","nodmgspread","uncletopia"],"game_id":440,"stv_port":27046,"stv_name":"Uncletopia | New York City | 4 | Community | STV","players":null},{"server_id":142,"name":"Uncletopia | S√£o Paulo | 1 | All Maps","name_short":"sao-1","host":"sao-1.br.uncletopia.com","port":27015,"enabled":true,"region":"sa","cc":"br","latitude":-23.533773,"longitude":-46.62529,"reserved":0,"last_update":"0001-01-01T00:00:00Z","name_a2s":"Uncletopia | S√£o Paulo | 1 | All Maps","protocol":17,"map":"koth_lakeside_final","folder":"tf","game":"Team Fortress","app_id":440,"player_count":0,"max_players":24,"Bots":0,"server_type":"Dedicated","server_os":"Linux","password":true,"vac":true,"version":"7757534","steam_id":85568392924469996,"keywords":["cp","nocrits","nodmgspread","uncletopia"],"game_id":440,"stv_port":27016,"stv_name":"Uncletopia | S√£o Paulo | 1 | All Maps | STV","players":null},{"server_id":143,"name":"Uncletopia | S√£o Paulo | 2 | All Maps","name_short":"sao-2","host":"sao-2.br.uncletopia.com","port":27015,"enabled":true,"region":"sa","cc":"br","latitude":-23.533773,"longitude":-46.62529,"reserved":0,"last_update":"0001-01-01T00:00:00Z","name_a2s":"Uncletopia | S√£o Paulo | 2 | All Maps","protocol":17,"map":"koth_viaduct","folder":"tf","game":"Team Fortress","app_id":440,"player_count":0,"max_players":24,"Bots":0,"server_type":"Dedicated","server_os":"Linux","password":true,"vac":true,"version":"7757534","steam_id":85568392924485349,"keywords":["cp","nocrits","nodmgspread","uncletopia"],"game_id":440,"stv_port":27016,"stv_name":"Uncletopia | S√£o Paulo | 2 | All Maps | STV","players":null},{"server_id":7,"name":"Uncletopia | Seattle | 1 | All Maps","name_short":"sea-1","host":"sea-1.us.uncletopia.com","port":27015,"enabled":true,"region":"us-west","cc":"us","latitude":47.608013,"longitude":-122.33517,"reserved":0,"last_update":"0001-01-01T00:00:00Z","name_a2s":"Uncletopia | Seattle | 1 | All Maps","protocol":17,"map":"pl_badwater","folder":"tf","game":"Team Fortress","app_id":440,"player_count":24,"max_players":24,"Bots":0,"server_type":"Dedicated","server_os":"Linux","password":true,"vac":true,"version":"7757534","steam_id":85568392924469997,"keywords":["nocrits","nodmgspread","payload","uncletopia"],"game_id":440,"stv_port":27016,"stv_name":"Uncletopia | Seattle | 1 | All Maps | STV","players":[{"user_id":24,"name":"nth derivative","steam_id":76561198081971317,"connected_time":4533000000000,"state":"active","ping":85},{"user_id":4,"name":"dust | she/it","steam_id":76561198045218909,"connected_time":4743000000000,"state":"active","ping":44},{"user_id":26,"name":"jawnymac","steam_id":76561198179529599,"connected_time":4481000000000,"state":"active","ping":69},{"user_id":62,"name":"The Pepsi¬Æ Superbowl¬Æ!","steam_id":76561198080828981,"connected_time":1677000000000,"state":"active","ping":77},{"user_id":7,"name":"shy guy","steam_id":76561198151246059,"connected_time":4740000000000,"state":"active","ping":74},{"user_id":14,"name":"forest","steam_id":76561198157960257,"connected_time":4682000000000,"state":"active","ping":41},{"user_id":67,"name":"moose","steam_id":76561198248625526,"connected_time":773000000000,"state":"active","ping":66},{"user_id":71,"name":"shiadyne","steam_id":76561198271939793,"connected_time":461000000000,"state":"active","ping":46},{"user_id":51,"name":"fimble","steam_id":76561198080301085,"connected_time":3062000000000,"state":"active","ping":55},{"user_id":49,"name":"KC","steam_id":76561198088935545,"connected_time":3127000000000,"state":"active","ping":90},{"user_id":70,"name":"Tomato Soup","steam_id":76561198051834684,"connected_time":562000000000,"state":"active","ping":65},{"user_id":21,"name":"Mr8bittripper","steam_id":76561198133894229,"connected_time":4572000000000,"state":"active","ping":50},{"user_id":63,"name":"medic who makes fun of your aim","steam_id":76561198062529055,"connected_time":1641000000000,"state":"active","ping":39},{"user_id":53,"name":"Cloud","steam_id":76561198272454184,"connected_time":2287000000000,"state":"active","ping":175},{"user_id":41,"name":"BolognaWithOlives","steam_id":76561198101262668,"connected_time":3772000000000,"state":"active","ping":87},{"user_id":66,"name":"ChipE","steam_id":76561198137146627,"connected_time":802000000000,"state":"active","ping":73},{"user_id":69,"name":"kivee","steam_id":76561198838223023,"connected_time":706000000000,"state":"active","ping":102},{"user_id":73,"name":"All Tomorrow's Parties","steam_id":76561197995936212,"connected_time":382000000000,"state":"active","ping":75},{"user_id":43,"name":"mobe","steam_id":76561198121633820,"connected_time":3532000000000,"state":"active","ping":79},{"user_id":35,"name":"Chimpanzee","steam_id":76561198850387282,"connected_time":4326000000000,"state":"active","ping":130},{"user_id":61,"name":"Moth","steam_id":76561198170253694,"connected_time":1987000000000,"state":"active","ping":69},{"user_id":46,"name":"dark luigi","steam_id":76561198048007844,"connected_time":3444000000000,"state":"active","ping":75},{"user_id":72,"name":"My Pet Polar Bear","steam_id":76561198052902058,"connected_time":453000000000,"state":"active","ping":76},{"user_id":54,"name":"jadene11","steam_id":76561199369221113,"connected_time":2279000000000,"state":"active","ping":77}]},{"server_id":119,"name":"Uncletopia | Seattle | 2 | All Maps","name_short":"sea-2","host":"sea-1.us.uncletopia.com","port":27025,"enabled":true,"region":"us-west","cc":"us","latitude":47.608013,"longitude":-122.33517,"reserved":0,"last_update":"0001-01-01T00:00:00Z","name_a2s":"Uncletopia | Seattle | 2 | All Maps","protocol":17,"map":"cp_dustbowl","folder":"tf","game":"Team Fortress","app_id":440,"player_count":24,"max_players":24,"Bots":0,"server_type":"Dedicated","server_os":"Linux","password":true,"vac":true,"version":"7757534","steam_id":85568392924469998,"keywords":["cp","nocrits","nodmgspread","uncletopia"],"game_id":440,"stv_port":27026,"stv_name":"Uncletopia | Seattle | 2 | All Maps | STV","players":[{"user_id":5,"name":"Jeb \"The Captain\" Bush","steam_id":76561198095134205,"connected_time":1923000000000,"state":"active","ping":59},{"user_id":41,"name":"Voon","steam_id":76561198166843533,"connected_time":375000000000,"state":"active","ping":131},{"user_id":40,"name":"Hindmost","steam_id":76561199081837220,"connected_time":524000000000,"state":"active","ping":111},{"user_id":47,"name":"Saber","steam_id":76561198070621901,"connected_time":260000000000,"state":"active","ping":60},{"user_id":27,"name":"Tmiracle","steam_id":76561198052375275,"connected_time":967000000000,"state":"active","ping":76},{"user_id":43,"name":"sufzu","steam_id":76561198112186325,"connected_time":304000000000,"state":"active","ping":105},{"user_id":11,"name":"Seru","steam_id":76561199219827214,"connected_time":1384000000000,"state":"active","ping":129},{"user_id":51,"name":"June","steam_id":76561198141803658,"connected_time":35000000000,"state":"active","ping":63},{"user_id":14,"name":"pluto","steam_id":76561198199079731,"connected_time":1259000000000,"state":"active","ping":103},{"user_id":44,"name":"XxDragon4321xX","steam_id":76561198046705735,"connected_time":300000000000,"state":"active","ping":101},{"user_id":36,"name":"‚ô• Femboy‚ô•Ventily ‚ô•","steam_id":76561198157260335,"connected_time":710000000000,"state":"active","ping":75},{"user_id":48,"name":"Gwaah","steam_id":76561198124463140,"connected_time":183000000000,"state":"active","ping":142},{"user_id":18,"name":"Good 'ol Eggs Benedict","steam_id":76561198981570921,"connected_time":1183000000000,"state":"active","ping":90},{"user_id":28,"name":"Rusty","steam_id":76561198055585129,"connected_time":953000000000,"state":"active","ping":45},{"user_id":45,"name":"Jt","steam_id":76561198049853548,"connected_time":298000000000,"state":"active","ping":119},{"user_id":22,"name":"ribbonborn","steam_id":76561198001195423,"connected_time":1070000000000,"state":"active","ping":103},{"user_id":24,"name":"AuzzieJZ","steam_id":76561198134430439,"connected_time":1046000000000,"state":"active","ping":122},{"user_id":52,"name":"Cryshire","steam_id":76561198857908089,"connected_time":6000000000,"state":"spawning","ping":117},{"user_id":26,"name":"mumbles","steam_id":76561197994528974,"connected_time":985000000000,"state":"active","ping":88},{"user_id":37,"name":"SuaveFrenchman","steam_id":76561198043762683,"connected_time":642000000000,"state":"active","ping":60},{"user_id":30,"name":"merge without looking","steam_id":76561198056702628,"connected_time":942000000000,"state":"active","ping":90},{"user_id":50,"name":"oxbudy","steam_id":76561198022120207,"connected_time":56000000000,"state":"active","ping":73},{"user_id":46,"name":"stboncho","steam_id":76561198172275301,"connected_time":295000000000,"state":"active","ping":81},{"user_id":34,"name":"Eosson","steam_id":76561198108642113,"connected_time":909000000000,"state":"active","ping":64}]},{"server_id":406,"name":"Uncletopia | Seattle | 3 | Stopwatch Beta","name_short":"sea-3","host":"sea-1.us.uncletopia.com","port":27035,"enabled":true,"region":"us-west","cc":"us","latitude":47.608013,"longitude":-122.33517,"reserved":0,"last_update":"0001-01-01T00:00:00Z","name_a2s":"Uncletopia | Seattle | 3 | Stopwatch Beta","protocol":17,"map":"cp_process_final","folder":"tf","game":"Team Fortress","app_id":440,"player_count":0,"max_players":24,"Bots":0,"server_type":"Dedicated","server_os":"Linux","password":true,"vac":true,"version":"7757534","steam_id":85568392924515217,"keywords":["cp","nocrits","nodmgspread","uncletopia"],"game_id":440,"stv_port":27036,"stv_name":"Uncletopia | Seattle | 3 | Stopwatch Beta | STV","players":null},{"server_id":17,"name":"Uncletopia | San Francisco | 1 | All Maps","name_short":"sfo-1","host":"sfo-1.us.uncletopia.com","port":27015,"enabled":true,"region":"us-west","cc":"us","latitude":37.77397,"longitude":-122.4313,"reserved":0,"last_update":"0001-01-01T00:00:00Z","name_a2s":"Uncletopia | San Francisco | 1 | All Maps","protocol":17,"map":"koth_lakeside_final","folder":"tf","game":"Team Fortress","app_id":440,"player_count":0,"max_players":24,"Bots":0,"server_type":"Dedicated","server_os":"Linux","password":true,"vac":true,"version":"7757534","steam_id":85568392924469999,"keywords":["cp","nocrits","nodmgspread","uncletopia"],"game_id":440,"stv_port":27016,"stv_name":"Uncletopia | San Francisco | 1 | All Maps | STV","players":null},{"server_id":18,"name":"Uncletopia | San Francisco | 2 | All Maps","name_short":"sfo-2","host":"sfo-1.us.uncletopia.com","port":27025,"enabled":true,"region":"us-west","cc":"us","latitude":37.77397,"longitude":-122.4313,"reserved":0,"last_update":"0001-01-01T00:00:00Z","name_a2s":"Uncletopia | San Francisco | 2 | All Maps","protocol":17,"map":"pl_badwater","folder":"tf","game":"Team Fortress","app_id":440,"player_count":3,"max_players":24,"Bots":0,"server_type":"Dedicated","server_os":"Linux","password":true,"vac":true,"version":"7757534","steam_id":85568392924470000,"keywords":["nocrits","nodmgspread","payload","uncletopia"],"game_id":440,"stv_port":27026,"stv_name":"Uncletopia | San Francisco | 2 | All Maps | STV","players":[{"user_id":6,"name":"N0Ne","steam_id":76561198376822522,"connected_time":732000000000,"state":"active","ping":70},{"user_id":8,"name":"StarGuyVI","steam_id":76561199366304746,"connected_time":446000000000,"state":"active","ping":112},{"user_id":9,"name":"Smodr","steam_id":76561198920728092,"connected_time":430000000000,"state":"active","ping":73}]},{"server_id":19,"name":"Uncletopia | San Francisco | 3 | Stopwatch Beta","name_short":"sfo-3","host":"sfo-1.us.uncletopia.com","port":27035,"enabled":true,"region":"us-west","cc":"us","latitude":37.77397,"longitude":-122.4313,"reserved":0,"last_update":"0001-01-01T00:00:00Z","name_a2s":"Uncletopia | San Francisco | 3 | Stopwatch Beta","protocol":17,"map":"workshop/pl_vigil_rc9.ugc1266210012","folder":"tf","game":"Team Fortress","app_id":440,"player_count":0,"max_players":24,"Bots":0,"server_type":"Dedicated","server_os":"Linux","password":true,"vac":true,"version":"7757534","steam_id":85568392924742824,"keywords":["nocrits","nodmgspread","payload","uncletopia"],"game_id":440,"stv_port":27036,"stv_name":"Uncletopia | San Francisco | 3 | Stopwatch Beta | STV","players":null},{"server_id":20,"name":"Uncletopia | San Francisco | 4 | Community","name_short":"sfo-4","host":"sfo-1.us.uncletopia.com","port":27045,"enabled":true,"region":"us-west","cc":"us","latitude":37.77397,"longitude":-122.4313,"reserved":0,"last_update":"0001-01-01T00:00:00Z","name_a2s":"Uncletopia | San Francisco | 4 | Community","protocol":17,"map":"workshop/pl_corrode_rc2.ugc546577989","folder":"tf","game":"Team Fortress","app_id":440,"player_count":0,"max_players":24,"Bots":0,"server_type":"Dedicated","server_os":"Linux","password":true,"vac":true,"version":"7757534","steam_id":85568392924742826,"keywords":["nocrits","nodmgspread","payload","uncletopia"],"game_id":440,"stv_port":27046,"stv_name":"Uncletopia | San Francisco | 4 | Community | STV","players":null},{"server_id":141,"name":"Uncletopia | Sydney | 1 | All Maps","name_short":"syd-1","host":"syd-1.au.uncletopia.com","port":27015,"enabled":true,"region":"au","cc":"au","latitude":-33.865143,"longitude":151.2099,"reserved":0,"last_update":"0001-01-01T00:00:00Z","name_a2s":"Uncletopia | Sydney | 1 | All Maps","protocol":17,"map":"pl_borneo","folder":"tf","game":"Team Fortress","app_id":440,"player_count":0,"max_players":24,"Bots":0,"server_type":"Dedicated","server_os":"Linux","password":true,"vac":true,"version":"7757534","steam_id":85568392924470001,"keywords":["nocrits","nodmgspread","payload","uncletopia"],"game_id":440,"stv_port":27016,"stv_name":"Uncletopia | Sydney | 1 | All Maps | STV","players":null},{"server_id":123,"name":"Uncletopia | Sydney | 2 | All Maps","name_short":"syd-2","host":"syd-1.au.uncletopia.com","port":27025,"enabled":true,"region":"au","cc":"au","latitude":-33.865143,"longitude":151.2099,"reserved":0,"last_update":"0001-01-01T00:00:00Z","name_a2s":"Uncletopia | Sydney | 2 | All Maps","protocol":17,"map":"cp_snakewater_final1","folder":"tf","game":"Team Fortress","app_id":440,"player_count":0,"max_players":24,"Bots":0,"server_type":"Dedicated","server_os":"Linux","password":true,"vac":true,"version":"7757534","steam_id":85568392924470002,"keywords":["cp","nocrits","nodmgspread","uncletopia"],"game_id":440,"stv_port":27026,"stv_name":"Uncletopia | Sydney | 2 | All Maps | STV","players":null},{"server_id":395,"name":"Uncletopia | Sydney | 3 | All Maps","name_short":"syd-3","host":"syd-1.au.uncletopia.com","port":27035,"enabled":true,"region":"au","cc":"au","latitude":-33.865143,"longitude":151.2099,"reserved":0,"last_update":"0001-01-01T00:00:00Z","name_a2s":"Uncletopia | Sydney | 3 | All Maps","protocol":17,"map":"pl_borneo","folder":"tf","game":"Team Fortress","app_id":440,"player_count":0,"max_players":24,"Bots":0,"server_type":"Dedicated","server_os":"Linux","password":true,"vac":true,"version":"7757534","steam_id":85568392925194467,"keywords":["nocrits","nodmgspread","payload","uncletopia"],"game_id":440,"stv_port":27036,"stv_name":"Uncletopia | Sydney | 3 | All Maps | STV","players":null},{"server_id":396,"name":"Uncletopia | Sydney | 4 | All Maps","name_short":"syd-4","host":"syd-1.au.uncletopia.com","port":27045,"enabled":true,"region":"au","cc":"au","latitude":-33.865143,"longitude":151.2099,"reserved":0,"last_update":"0001-01-01T00:00:00Z","name_a2s":"Uncletopia | Sydney | 4 | All Maps","protocol":17,"map":"cp_process_final","folder":"tf","game":"Team Fortress","app_id":440,"player_count":0,"max_players":24,"Bots":0,"server_type":"Dedicated","server_os":"Linux","password":true,"vac":true,"version":"7757534","steam_id":85568392925397958,"keywords":["cp","nocrits","nodmgspread","uncletopia"],"game_id":440,"stv_port":27046,"stv_name":"Uncletopia | Sydney | 4 | All Maps | STV","players":null},{"server_id":58,"name":"Uncletopia | Sydney | 5 | Stopwatch Beta","name_short":"syd-5","host":"syd-1.au.uncletopia.com","port":27055,"enabled":true,"region":"au","cc":"au","latitude":-33.865143,"longitude":151.2099,"reserved":0,"last_update":"0001-01-01T00:00:00Z","name_a2s":"Uncletopia | Sydney | 5 | Stopwatch Beta","protocol":17,"map":"koth_cascade","folder":"tf","game":"Team Fortress","app_id":440,"player_count":0,"max_players":24,"Bots":0,"server_type":"Dedicated","server_os":"Linux","password":true,"vac":true,"version":"7757534","steam_id":85568392925397959,"keywords":["cp","nocrits","nodmgspread","uncletopia"],"game_id":440,"stv_port":27056,"stv_name":"Uncletopia | Sydney | 5 | Stopwatch Beta | STV","players":null},{"server_id":59,"name":"Uncletopia | Sydney | 6 | Community","name_short":"syd-6","host":"syd-1.au.uncletopia.com","port":27065,"enabled":true,"region":"au","cc":"au","latitude":-33.865143,"longitude":151.2099,"reserved":0,"last_update":"0001-01-01T00:00:00Z","name_a2s":"Uncletopia | Sydney | 6 | Community","protocol":17,"map":"pl_badwater","folder":"tf","game":"Team Fortress","app_id":440,"player_count":0,"max_players":24,"Bots":0,"server_type":"Dedicated","server_os":"Linux","password":true,"vac":true,"version":"7757534","steam_id":85568392925397960,"keywords":["nocrits","nodmgspread","payload","uncletopia"],"game_id":440,"stv_port":27066,"stv_name":"Uncletopia | Sydney | 6 | Community | STV","players":null},{"server_id":49,"name":"Uncletopia | Warsaw | 1 | All Maps","name_short":"waw-1","host":"waw-1.pl.uncletopia.com","port":27015,"enabled":true,"region":"eu","cc":"pl","latitude":52.2297,"longitude":21.017532,"reserved":0,"last_update":"0001-01-01T00:00:00Z","name_a2s":"","protocol":0,"map":"","folder":"","game":"","app_id":0,"player_count":0,"max_players":0,"Bots":0,"server_type":"","server_os":"","password":false,"vac":false,"version":"","steam_id":0,"keywords":null,"game_id":0,"stv_port":0,"stv_name":"","players":null},{"server_id":50,"name":"Uncletopia | Warsaw | 2 | All Maps","name_short":"waw-2","host":"waw-1.pl.uncletopia.com","port":27025,"enabled":true,"region":"eu","cc":"pl","latitude":52.2297,"longitude":21.017532,"reserved":0,"last_update":"0001-01-01T00:00:00Z","name_a2s":"Uncletopia | Warsaw | 2 | All Maps","protocol":17,"map":"koth_cascade","folder":"tf","game":"Team Fortress","app_id":440,"player_count":0,"max_players":24,"Bots":0,"server_type":"Dedicated","server_os":"Linux","password":true,"vac":true,"version":"7757534","steam_id":85568392925397851,"keywords":["cp","nocrits","nodmgspread","uncletopia"],"game_id":440,"stv_port":27026,"stv_name":"Uncletopia | Warsaw | 2 | All Maps | STV","players":null},{"server_id":51,"name":"Uncletopia | Warsaw | 3 | All Maps","name_short":"waw-3","host":"waw-1.pl.uncletopia.com","port":27035,"enabled":true,"region":"eu","cc":"pl","latitude":52.2297,"longitude":21.017532,"reserved":0,"last_update":"0001-01-01T00:00:00Z","name_a2s":"Uncletopia | Warsaw | 3 | All Maps","protocol":17,"map":"cp_dustbowl","folder":"tf","game":"Team Fortress","app_id":440,"player_count":17,"max_players":24,"Bots":0,"server_type":"Dedicated","server_os":"Linux","password":true,"vac":true,"version":"7757534","steam_id":85568392925397852,"keywords":["cp","nocrits","nodmgspread","uncletopia"],"game_id":440,"stv_port":27036,"stv_name":"Uncletopia | Warsaw | 3 | All Maps | STV","players":[{"user_id":36,"name":"Senator Armstrong","steam_id":76561198984346408,"connected_time":5259000000000,"state":"active","ping":50},{"user_id":4,"name":"DV/sofa-divan","steam_id":76561198839577856,"connected_time":6878000000000,"state":"active","ping":93},{"user_id":115,"name":"Carrotcracker","steam_id":76561198034862396,"connected_time":542000000000,"state":"active","ping":85},{"user_id":6,"name":"LOBZIK","steam_id":76561198114830120,"connected_time":6810000000000,"state":"active","ping":45},{"user_id":106,"name":"Freddy Fazbear","steam_id":76561199097447928,"connected_time":863000000000,"state":"active","ping":76},{"user_id":105,"name":"jan09102004","steam_id":76561198445458615,"connected_time":976000000000,"state":"active","ping":73},{"user_id":107,"name":"teddyswk","steam_id":76561198404939571,"connected_time":810000000000,"state":"active","ping":96},{"user_id":113,"name":"BlinkedUp","steam_id":76561198249985618,"connected_time":678000000000,"state":"active","ping":39},{"user_id":124,"name":"Itai","steam_id":76561198804555329,"connected_time":336000000000,"state":"active","ping":120},{"user_id":129,"name":"Akiron","steam_id":76561199267799044,"connected_time":4000000000,"state":"spawning","ping":72},{"user_id":121,"name":"Allperino#V√Ω≈•ah√°r","steam_id":76561198006414061,"connected_time":429000000000,"state":"active","ping":74},{"user_id":82,"name":"Some_Dude_From_Swamp","steam_id":76561199002920042,"connected_time":2777000000000,"state":"active","ping":85},{"user_id":125,"name":"Dave The Sloth","steam_id":76561199135831355,"connected_time":240000000000,"state":"active","ping":82},{"user_id":123,"name":"lun4tic","steam_id":76561198850496647,"connected_time":404000000000,"state":"active","ping":75},{"user_id":126,"name":"xOTA–ëbl4","steam_id":76561198052406931,"connected_time":184000000000,"state":"active","ping":96},{"user_id":128,"name":"Hei$en_–íur–ìer","steam_id":76561198287677952,"connected_time":110000000000,"state":"active","ping":77},{"user_id":44,"name":"Kaky≈çin Noriaki","steam_id":76561198123809642,"connected_time":4925000000000,"state":"active","ping":159}]},{"server_id":52,"name":"Uncletopia | Warsaw | 4 | All Maps","name_short":"waw-4","host":"waw-1.pl.uncletopia.com","port":27045,"enabled":true,"region":"eu","cc":"pl","latitude":52.2297,"longitude":21.017532,"reserved":0,"last_update":"0001-01-01T00:00:00Z","name_a2s":"Uncletopia | Warsaw | 4 | All Maps","protocol":17,"map":"cp_altitude","folder":"tf","game":"Team Fortress","app_id":440,"player_count":0,"max_players":24,"Bots":0,"server_type":"Dedicated","server_os":"Linux","password":true,"vac":true,"version":"7757534","steam_id":85568392925397853,"keywords":["cp","nocrits","nodmgspread","uncletopia"],"game_id":440,"stv_port":27046,"stv_name":"Uncletopia | Warsaw | 4 | All Maps | STV","players":null},{"server_id":53,"name":"Uncletopia | Warsaw | 5 | Stopwatch Beta","name_short":"waw-5","host":"waw-1.pl.uncletopia.com","port":27055,"enabled":true,"region":"eu","cc":"pl","latitude":52.2297,"longitude":21.017532,"reserved":0,"last_update":"0001-01-01T00:00:00Z","name_a2s":"Uncletopia | Warsaw | 5 | Stopwatch Beta","protocol":17,"map":"pl_pier","folder":"tf","game":"Team Fortress","app_id":440,"player_count":0,"max_players":24,"Bots":0,"server_type":"Dedicated","server_os":"Linux","password":true,"vac":true,"version":"7757534","steam_id":85568392925397854,"keywords":["nocrits","nodmgspread","payload","uncletopia"],"game_id":440,"stv_port":27056,"stv_name":"Uncletopia | Warsaw | 5 | Stopwatch Beta | STV","players":null},{"server_id":54,"name":"Uncletopia | Warsaw | 6 | Community","name_short":"waw-6","host":"waw-1.pl.uncletopia.com","port":27065,"enabled":true,"region":"eu","cc":"pl","latitude":52.2297,"longitude":21.017532,"reserved":0,"last_update":"0001-01-01T00:00:00Z","name_a2s":"Uncletopia | Warsaw | 6 | Community","protocol":17,"map":"koth_highpass","folder":"tf","game":"Team Fortress","app_id":440,"player_count":0,"max_players":24,"Bots":0,"server_type":"Dedicated","server_os":"Linux","password":true,"vac":true,"version":"7757534","steam_id":85568392925397856,"keywords":["cp","nocrits","nodmgspread","uncletopia"],"game_id":440,"stv_port":27066,"stv_name":"Uncletopia | Warsaw | 6 | Community | STV","players":null}]}