{"status":true,"message":"","result":[{"server_id":9,"name":"Uncletopia | Atlanta | 1 | All Maps","name_short":"atl-1","host":"atl-1.us.uncletopia.com","port":27015,"enabled":true,"region":"us-east","cc":"us","latitude":33.753746,"longitude":-84.38633,"reserved":0,"last_update":"0001-01-01T00:00:00Z","name_a2s":"Uncletopia | Atlanta | 1 | All Maps","protocol":17,"map":"cp_gorge","folder":"tf","game":"Team Fortress","app_id":440,"player_count":24,"max_players":24,"Bots":0,"server_type":"Dedicated","server_os":"Linux","password":true,"vac":true,"version":"7961495","steam_id":85568392924469982,"keywords":["cp","nocrits","nodmgspread","uncletopia"],"game_id":440,"stv_port":27016,"stv_name":"Uncletopia | Atlanta | 1 | All Maps | STV","players":null},{"server_id":104,"name":"Uncletopia | Atlanta | 2 | All Maps","name_short":"atl-2","host":"atl-1.us.uncletopia.com","port":27025,"enabled":true,"region":"us-east","cc":"us","latitude":33.753746,"longitude":-84.38633,"reserved":0,"last_update":"0001-01-01T00:00:00Z","name_a2s":"Uncletopia | Atlanta | 2 | All Maps","protocol":17,"map":"koth_lakeside_final","folder":"tf","game":"Team Fortress","app_id":440,"player_count":24,"max_players":24,"Bots":0,"server_type":"Dedicated","server_os":"Linux","password":true,"vac":true,"version":"7961495","steam_id":85568392924469983,"keywords":["cp","nocrits","nodmgspread","uncletopia"],"game_id":440,"stv_port":27026,"stv_name":"Uncletopia | Atlanta | 2 | All Maps | STV","players":null},{"server_id":400,"name":"Uncletopia | Atlanta | 3 | Stopwatch","name_short":"atl-3","host":"atl-1.us.uncletopia.com","port":27035,"enabled":true,"region":"us-east","cc":"us","latitude":33.753746,"longitude":-84.38633,"reserved":0,"last_update":"0001-01-01T00:00:00Z","name_a2s":"Uncletopia | Atlanta | 3 | Stopwatch","protocol":17,"map":"pl_upward","folder":"tf","game":"Team Fortress","app_id":440,"player_count":11,"max_players":24,"Bots":0,"server_type":"Dedicated","server_os":"Linux","password":true,"vac":true,"version":"7961495","steam_id":85568392924515187,"keywords":["nocrits","nodmgspread","payload","uncletopia"],"game_id":440,"stv_port":27036,"stv_name":"Uncletopia | Atlanta | 3 | Stopwatch | STV","players":null},{"server_id":401,"name":"Uncletopia | Atlanta | 4 | Community","name_short":"atl-4","host":"atl-1.us.uncletopia.com","port":27045,"enabled":true,"region":"us-east","cc":"us","latitude":33.753746,"longitude":-84.38633,"reserved":0,"last_update":"0001-01-01T00:00:00Z","name_a2s":"Uncletopia | Atlanta | 4 | Community","protocol":17,"map":"cp_snowbase_b18","folder":"tf","game":"Team Fortress","app_id":440,"player_count":0,"max_players":24,"Bots":0,"server_type":"Dedicated","server_os":"Linux","password":true,"vac":true,"version":"7961495","steam_id":85568392924515188,"keywords":["cp","nocrits","nodmgspread","uncletopia"],"game_id":440,"stv_port":27046,"stv_name":"Uncletopia | Atlanta | 4 | Community | STV","players":null},{"server_id":2,"name":"Uncletopia | Chicago | 1 | All Maps","name_short":"chi-1","host":"chi-1.us.uncletopia.com","port":27015,"enabled":true,"region":"us-central","cc":"us","latitude":41.881832,"longitude":-87.62318,"reserved":0,"last_update":"0001-01-01T00:00:00Z","name_a2s":"Uncletopia | Chicago | 1 | All Maps","protocol":17,"map":"koth_harvest_final","folder":"tf","game":"Team Fortress","app_id":440,"player_count":24,"max_players":24,"Bots":0,"server_type":"Dedicated","server_os":"Linux","password":true,"vac":true,"version":"7961495","steam_id":85568392924469984,"keywords":["cp","nocrits","nodmgspread","uncletopia"],"game_id":440,"stv_port":27016,"stv_name":"Uncletopia | Chicago | 1 | All Maps | STV","players":[{"user_id":142,"name":"TheOneZoot","steam_id":76561198121944243,"connected_time":1826000000000,"state":"active","ping":60},{"user_id":155,"name":"Lord Typhoid","steam_id":76561199164337878,"connected_time":552000000000,"state":"active","ping":85},{"user_id":159,"name":"The local hobo","steam_id":76561198289650060,"connected_time":382000000000,"state":"active","ping":83},{"user_id":111,"name":"Boxpipe","steam_id":76561197964501915,"connected_time":5194000000000,"state":"active","ping":45},{"user_id":106,"name":"Jerk Tryhard (roleplay)","steam_id":76561199470538309,"connected_time":5852000000000,"state":"active","ping":130},{"user_id":103,"name":"Galmart","steam_id":76561199122036524,"connected_time":6002000000000,"state":"active","ping":78},{"user_id":127,"name":"Sunny D+","steam_id":76561197999371052,"connected_time":2282000000000,"state":"active","ping":61},{"user_id":137,"name":"Filthy Acts at Reasonable Price","steam_id":76561198354615890,"connected_time":2055000000000,"state":"active","ping":56},{"user_id":138,"name":"Ｂ Ｕ Ｒ Ｄ","steam_id":76561198124142841,"connected_time":2014000000000,"state":"active","ping":63},{"user_id":158,"name":"God","steam_id":76561198131089513,"connected_time":409000000000,"state":"active","ping":48},{"user_id":156,"name":"GrimmMelody","steam_id":76561198094153474,"connected_time":551000000000,"state":"active","ping":72},{"user_id":160,"name":"CapnKris22","steam_id":76561198049010994,"connected_time":380000000000,"state":"active","ping":58},{"user_id":147,"name":"FunGi","steam_id":76561198881418662,"connected_time":808000000000,"state":"active","ping":83},{"user_id":53,"name":"gaming elliptical","steam_id":76561198013456569,"connected_time":10427000000000,"state":"active","ping":45},{"user_id":153,"name":"aiden","steam_id":76561198449527009,"connected_time":623000000000,"state":"active","ping":93},{"user_id":145,"name":"loscemo","steam_id":76561197994884609,"connected_time":1516000000000,"state":"active","ping":70},{"user_id":163,"name":"ＲＥＤ","steam_id":76561198030282308,"connected_time":260000000000,"state":"active","ping":99},{"user_id":128,"name":"quechua","steam_id":76561198259963310,"connected_time":2280000000000,"state":"active","ping":68},{"user_id":135,"name":"THE MEWTWO","steam_id":76561199092618496,"connected_time":2188000000000,"state":"active","ping":106},{"user_id":117,"name":"kirby7","steam_id":76561199167006749,"connected_time":4582000000000,"state":"active","ping":124},{"user_id":150,"name":"eloressa","steam_id":76561198120330867,"connected_time":641000000000,"state":"active","ping":45},{"user_id":161,"name":"Scorpie Doodle","steam_id":76561198021845763,"connected_time":371000000000,"state":"active","ping":59},{"user_id":164,"name":"carrot cake","steam_id":76561198055174915,"connected_time":72000000000,"state":"active","ping":66},{"user_id":140,"name":"Mellow Yellow","steam_id":76561198406276981,"connected_time":1939000000000,"state":"active","ping":46}]},{"server_id":106,"name":"Uncletopia | Chicago | 2 | All Maps","name_short":"chi-2","host":"chi-1.us.uncletopia.com","port":27025,"enabled":true,"region":"us-central","cc":"us","latitude":41.881832,"longitude":-87.62318,"reserved":0,"last_update":"0001-01-01T00:00:00Z","name_a2s":"Uncletopia | Chicago | 2 | All Maps","protocol":17,"map":"koth_lakeside_final","folder":"tf","game":"Team Fortress","app_id":440,"player_count":1,"max_players":24,"Bots":0,"server_type":"Dedicated","server_os":"Linux","password":true,"vac":true,"version":"7961495","steam_id":85568392924469985,"keywords":["cp","nocrits","nodmgspread","uncletopia"],"game_id":440,"stv_port":27026,"stv_name":"Uncletopia | Chicago | 2 | All Maps | STV","players":[{"user_id":13,"name":"tA.CHRONIC","steam_id":76561197960760990,"connected_time":14000000000,"state":"active","ping":49}]},{"server_id":402,"name":"Uncletopia | Chicago | 3 | All Maps","name_short":"chi-3","host":"chi-1.us.uncletopia.com","port":27035,"enabled":true,"region":"us-central","cc":"us","latitude":41.881832,"longitude":-87.62318,"reserved":0,"last_update":"0001-01-01T00:00:00Z","name_a2s":"Uncletopia | Chicago | 3 | All Maps","protocol":17,"map":"pl_snowycoast","folder":"tf","game":"Team Fortress","app_id":440,"player_count":0,"max_players":24,"Bots":0,"server_type":"Dedicated","server_os":"Linux","password":true,"vac":true,"version":"7961495","steam_id":85568392924515191,"keywords":["nocrits","nodmgspread","payload","uncletopia"],"game_id":440,"stv_port":27036,"stv_name":"Uncletopia | Chicago | 3 | All Maps | STV","players":null},{"server_id":403,"name":"Uncletopia | Chicago | 4 | All Maps","name_short":"chi-4","host":"chi-1.us.uncletopia.com","port":27045,"enabled":true,"region":"us-central","cc":"us","latitude":41.881832,"longitude":-87.62318,"reserved":0,"last_update":"0001-01-01T00:00:00Z","name_a2s":"Uncletopia | Chicago | 4 | All Maps","protocol":17,"map":"cp_sunshine","folder":"tf","game":"Team Fortress","app_id":440,"player_count":24,"max_players":24,"Bots":0,"server_type":"Dedicated","server_os":"Linux","password":true,"vac":true,"version":"7961495","steam_id":85568392924515193,"keywords":["cp","nocrits","nodmgspread","uncletopia"],"game_id":440,"stv_port":27046,"stv_name":"Uncletopia | Chicago | 4 | All Maps | STV","players":[{"user_id":97,"name":"Unfathomable","steam_id":76561198975113366,"connected_time":1055000000000,"state":"active","ping":90},{"user_id":116,"name":"GwenTheGiant","steam_id":76561198799005734,"connected_time":121000000000,"state":"active","ping":75},{"user_id":91,"name":"jimmz","steam_id":76561199076776118,"connected_time":1733000000000,"state":"active","ping":90},{"user_id":117,"name":"Chad Detrius","steam_id":76561199234844876,"connected_time":102000000000,"state":"active","ping":64},{"user_id":99,"name":"Great balls of fire","steam_id":76561198324264479,"connected_time":1031000000000,"state":"active","ping":98},{"user_id":119,"name":"Rumble","steam_id":76561199170926322,"connected_time":94000000000,"state":"active","ping":53},{"user_id":63,"name":"Toxic Ron","steam_id":76561198089302972,"connected_time":3632000000000,"state":"active","ping":61},{"user_id":118,"name":"for the king","steam_id":76561197973488858,"connected_time":101000000000,"state":"active","ping":53},{"user_id":120,"name":"Brock Obama","steam_id":76561198094643755,"connected_time":87000000000,"state":"active","ping":74},{"user_id":102,"name":"Slip","steam_id":76561199057232579,"connected_time":997000000000,"state":"active","ping":50},{"user_id":87,"name":"The Rookie","steam_id":76561198015781346,"connected_time":2234000000000,"state":"active","ping":90},{"user_id":95,"name":"IMM0RTAL","steam_id":76561198013747901,"connected_time":1297000000000,"state":"active","ping":72},{"user_id":122,"name":"Rabid Ham","steam_id":76561198154931014,"connected_time":46000000000,"state":"active","ping":98},{"user_id":104,"name":"Mainyx","steam_id":76561198811844438,"connected_time":974000000000,"state":"active","ping":104},{"user_id":46,"name":"Blue Eyes Ace Dragon.","steam_id":76561198048214237,"connected_time":4633000000000,"state":"active","ping":59},{"user_id":105,"name":"Mimt1111","steam_id":76561198392370897,"connected_time":967000000000,"state":"active","ping":101},{"user_id":113,"name":"What day is it?","steam_id":76561199056736682,"connected_time":321000000000,"state":"active","ping":56},{"user_id":107,"name":"schnedwob","steam_id":76561197999146588,"connected_time":932000000000,"state":"active","ping":81},{"user_id":79,"name":"cj da man","steam_id":76561198303575607,"connected_time":2718000000000,"state":"active","ping":84},{"user_id":108,"name":"jizz gaming","steam_id":76561198984762462,"connected_time":917000000000,"state":"active","ping":93},{"user_id":106,"name":"Gluppo","steam_id":76561198379320087,"connected_time":949000000000,"state":"active","ping":76},{"user_id":109,"name":"Lain","steam_id":76561198029303534,"connected_time":901000000000,"state":"active","ping":66},{"user_id":65,"name":"King Sans","steam_id":76561198294198517,"connected_time":3621000000000,"state":"active","ping":59},{"user_id":111,"name":"mcarson28","steam_id":76561198350825786,"connected_time":631000000000,"state":"active","ping":59}]},{"server_id":36,"name":"Uncletopia | Chicago | 5 | All Maps","name_short":"chi-5","host":"chi-2.us.uncletopia.com","port":27015,"enabled":true,"region":"us-central","cc":"us","latitude":41.881832,"longitude":-87.62318,"reserved":0,"last_update":"0001-01-01T00:00:00Z","name_a2s":"Uncletopia | Chicago | 5 | All Maps","protocol":17,"map":"koth_viaduct","folder":"tf","game":"Team Fortress","app_id":440,"player_count":0,"max_players":24,"Bots":0,"server_type":"Dedicated","server_os":"Linux","password":true,"vac":true,"version":"7961495","steam_id":85568392924866362,"keywords":["cp","nocrits","nodmgspread","uncletopia"],"game_id":440,"stv_port":27016,"stv_name":"Uncletopia | Chicago | 5 | All Maps | STV","players":null},{"server_id":37,"name":"Uncletopia | Chicago | 6 | All Maps","name_short":"chi-6","host":"chi-2.us.uncletopia.com","port":27025,"enabled":true,"region":"us-central","cc":"us","latitude":41.881832,"longitude":-87.62318,"reserved":0,"last_update":"0001-01-01T00:00:00Z","name_a2s":"Uncletopia | Chicago | 6 | All Maps","protocol":17,"map":"koth_viaduct","folder":"tf","game":"Team Fortress","app_id":440,"player_count":0,"max_players":24,"Bots":0,"server_type":"Dedicated","server_os":"Linux","password":true,"vac":true,"version":"7961495","steam_id":85568392924866363,"keywords":["cp","nocrits","nodmgspread","uncletopia"],"game_id":440,"stv_port":27026,"stv_name":"Uncletopia | Chicago | 6 | All Maps | STV","players":null},{"server_id":38,"name":"Uncletopia | Chicago | 7 | Stopwatch","name_short":"chi-7","host":"chi-2.us.uncletopia.com","port":27035,"enabled":true,"region":"us-central","cc":"us","latitude":41.881832,"longitude":-87.62318,"reserved":0,"last_update":"0001-01-01T00:00:00Z","name_a2s":"Uncletopia | Chicago | 7 | Stopwatch","protocol":17,"map":"pl_borneo","folder":"tf","game":"Team Fortress","app_id":440,"player_count":0,"max_players":24,"Bots":0,"server_type":"Dedicated","server_os":"Linux","password":true,"vac":true,"version":"7961495","steam_id":85568392924866364,"keywords":["nocrits","nodmgspread","payload","uncletopia"],"game_id":440,"stv_port":27036,"stv_name":"Uncletopia | Chicago | 7 | Stopwatch | STV","players":null},{"server_id":39,"name":"Uncletopia | Chicago | 8 | Community","name_short":"chi-8","host":"chi-2.us.uncletopia.com","port":27045,"enabled":true,"region":"us-central","cc":"us","latitude":41.881832,"longitude":-87.62318,"reserved":0,"last_update":"0001-01-01T00:00:00Z","name_a2s":"Uncletopia | Chicago | 8 | Community","protocol":17,"map":"pl_pier","folder":"tf","game":"Team Fortress","app_id":440,"player_count":0,"max_players":24,"Bots":0,"server_type":"Dedicated","server_os":"Linux","password":true,"vac":true,"version":"7961495","steam_id":85568392924866365,"keywords":["nocrits","nodmgspread","payload","uncletopia"],"game_id":440,"stv_port":27046,"stv_name":"Uncletopia | Chicago | 8 | Community | STV","players":null},{"server_id":8,"name":"Uncletopia | Dallas | 1 | All Maps","name_short":"dal-1","host":"dal-1.us.uncletopia.com","port":27015,"enabled":true,"region":"us-central","cc":"us","latitude":32.779167,"longitude":-96.80889,"reserved":0,"last_update":"0001-01-01T00:00:00Z","name_a2s":"Uncletopia | Dallas | 1 | All Maps","protocol":17,"map":"pl_badwater","folder":"tf","game":"Team Fortress","app_id":440,"player_count":24,"max_players":24,"Bots":0,"server_type":"Dedicated","server_os":"Linux","password":true,"vac":true,"version":"7961495","steam_id":85568392924469986,"keywords":["nocrits","nodmgspread","payload","uncletopia"],"game_id":440,"stv_port":27016,"stv_name":"Uncletopia | Dallas | 1 | All Maps | STV","players":[{"user_id":78,"name":"Metru Nui Online Game","steam_id":76561198056496183,"connected_time":1450000000000,"state":"active","ping":99},{"user_id":58,"name":"Major Woody","steam_id":76561198835541533,"connected_time":2592000000000,"state":"active","ping":60},{"user_id":93,"name":"FizzTom","steam_id":76561199200953916,"connected_time":354000000000,"state":"active","ping":100},{"user_id":74,"name":"Stryder","steam_id":76561199387418697,"connected_time":1610000000000,"state":"active","ping":72},{"user_id":94,"name":"mkl","steam_id":76561197986401685,"connected_time":302000000000,"state":"active","ping":62},{"user_id":79,"name":"DELTRON ZERO","steam_id":76561198081123470,"connected_time":1329000000000,"state":"active","ping":42},{"user_id":45,"name":"ThenuttcrackerYT","steam_id":76561198106460064,"connected_time":3279000000000,"state":"active","ping":100},{"user_id":26,"name":"flippercurve","steam_id":76561199238295034,"connected_time":3989000000000,"state":"active","ping":72},{"user_id":88,"name":"Lovedaddy","steam_id":76561198006569710,"connected_time":724000000000,"state":"active","ping":104},{"user_id":87,"name":"Crack Addict","steam_id":76561198166681494,"connected_time":735000000000,"state":"active","ping":49},{"user_id":81,"name":"Beezos","steam_id":76561198370692549,"connected_time":1316000000000,"state":"active","ping":99},{"user_id":95,"name":"The Spanish Inquisition","steam_id":76561198109322171,"connected_time":243000000000,"state":"active","ping":81},{"user_id":31,"name":"DesolateCabbage","steam_id":76561198064467423,"connected_time":3875000000000,"state":"active","ping":57},{"user_id":32,"name":"Smashy","steam_id":76561198030704307,"connected_time":3861000000000,"state":"active","ping":119},{"user_id":90,"name":"DMM","steam_id":76561198065426171,"connected_time":484000000000,"state":"active","ping":60},{"user_id":40,"name":"Kuyumiester","steam_id":76561198126835302,"connected_time":3602000000000,"state":"active","ping":61},{"user_id":89,"name":"Eddoflobbywaittime","steam_id":76561198257072146,"connected_time":581000000000,"state":"active","ping":71},{"user_id":68,"name":"TheGirthquake","steam_id":76561198238895056,"connected_time":1870000000000,"state":"active","ping":48},{"user_id":76,"name":"Melaza Madera","steam_id":76561199031977210,"connected_time":1557000000000,"state":"active","ping":76},{"user_id":96,"name":"OOFINSTIEN","steam_id":76561199151519055,"connected_time":218000000000,"state":"active","ping":101},{"user_id":97,"name":"ChiMaTa","steam_id":76561198067166198,"connected_time":127000000000,"state":"active","ping":74},{"user_id":41,"name":"redarcher42","steam_id":76561199027887687,"connected_time":3591000000000,"state":"active","ping":75},{"user_id":86,"name":"fish","steam_id":76561198400938559,"connected_time":919000000000,"state":"active","ping":103},{"user_id":92,"name":"Greg Boberton 2012","steam_id":76561198983566026,"connected_time":399000000000,"state":"active","ping":90}]},{"server_id":108,"name":"Uncletopia | Dallas | 2 | All Maps","name_short":"dal-2","host":"dal-1.us.uncletopia.com","port":27025,"enabled":true,"region":"us-central","cc":"us","latitude":32.779167,"longitude":-96.80889,"reserved":0,"last_update":"0001-01-01T00:00:00Z","name_a2s":"Uncletopia | Dallas | 2 | All Maps","protocol":17,"map":"koth_viaduct","folder":"tf","game":"Team Fortress","app_id":440,"player_count":10,"max_players":24,"Bots":0,"server_type":"Dedicated","server_os":"Linux","password":true,"vac":true,"version":"7961495","steam_id":85568392924469988,"keywords":["cp","nocrits","nodmgspread","uncletopia"],"game_id":440,"stv_port":27026,"stv_name":"Uncletopia | Dallas | 2 | All Maps | STV","players":[{"user_id":10,"name":"Insizhen","steam_id":76561198051352605,"connected_time":485000000000,"state":"active","ping":57},{"user_id":11,"name":"could you care less?","steam_id":76561199122183697,"connected_time":397000000000,"state":"active","ping":85},{"user_id":12,"name":"Frojj","steam_id":76561198857770448,"connected_time":352000000000,"state":"active","ping":121},{"user_id":18,"name":"Blazar","steam_id":76561198042892348,"connected_time":129000000000,"state":"active","ping":42},{"user_id":14,"name":"bcizzo","steam_id":76561197994399953,"connected_time":288000000000,"state":"active","ping":93},{"user_id":15,"name":"radiantlight123","steam_id":76561198161638571,"connected_time":286000000000,"state":"active","ping":67},{"user_id":16,"name":"Dreamzapp","steam_id":76561199084936632,"connected_time":273000000000,"state":"active","ping":86},{"user_id":17,"name":"HailedClown","steam_id":76561199225239977,"connected_time":206000000000,"state":"active","ping":64},{"user_id":19,"name":"Bankito","steam_id":76561198972260865,"connected_time":70000000000,"state":"active","ping":87},{"user_id":20,"name":"Hylic","steam_id":76561199051314589,"connected_time":10000000000,"state":"spawning","ping":91}]},{"server_id":404,"name":"Uncletopia | Dallas | 3 | All Maps","name_short":"dal-3","host":"dal-1.us.uncletopia.com","port":27035,"enabled":true,"region":"us-central","cc":"us","latitude":32.779167,"longitude":-96.80889,"reserved":0,"last_update":"0001-01-01T00:00:00Z","name_a2s":"Uncletopia | Dallas | 3 | All Maps","protocol":17,"map":"koth_viaduct","folder":"tf","game":"Team Fortress","app_id":440,"player_count":0,"max_players":24,"Bots":0,"server_type":"Dedicated","server_os":"Linux","password":true,"vac":true,"version":"7961495","steam_id":85568392924515219,"keywords":["cp","nocrits","nodmgspread","uncletopia"],"game_id":440,"stv_port":27036,"stv_name":"Uncletopia | Dallas | 3 | All Maps | STV","players":null},{"server_id":405,"name":"Uncletopia | Dallas | 4 | Community","name_short":"dal-4","host":"dal-1.us.uncletopia.com","port":27045,"enabled":true,"region":"us-central","cc":"us","latitude":32.779167,"longitude":-96.80889,"reserved":0,"last_update":"0001-01-01T00:00:00Z","name_a2s":"Uncletopia | Dallas | 4 | Community","protocol":17,"map":"pl_pier","folder":"tf","game":"Team Fortress","app_id":440,"player_count":0,"max_players":24,"Bots":0,"server_type":"Dedicated","server_os":"Linux","password":true,"vac":true,"version":"7961495","steam_id":85568392924515220,"keywords":["nocrits","nodmgspread","payload","uncletopia"],"game_id":440,"stv_port":27046,"stv_name":"Uncletopia | Dallas | 4 | Community | STV","players":null},{"server_id":5,"name":"Uncletopia | Frankfurt | 1 | All Maps","name_short":"frk-1","host":"frk-1.de.uncletopia.com","port":27015,"enabled":true,"region":"eu","cc":"de","latitude":50.110924,"longitude":8.682127,"reserved":0,"last_update":"0001-01-01T00:00:00Z","name_a2s":"Uncletopia | Frankfurt | 1 | All Maps","protocol":17,"map":"cp_dustbowl","folder":"tf","game":"Team Fortress","app_id":440,"player_count":24,"max_players":24,"Bots":0,"server_type":"Dedicated","server_os":"Linux","password":true,"vac":true,"version":"7961495","steam_id":85568392924469989,"keywords":["cp","nocrits","nodmgspread","uncletopia"],"game_id":440,"stv_port":27016,"stv_name":"Uncletopia | Frankfurt | 1 | All Maps | STV","players":[{"user_id":506,"name":"Chaos the meme","steam_id":76561198069787558,"connected_time":9874000000000,"state":"active","ping":57},{"user_id":632,"name":"fynta","steam_id":76561198315371425,"connected_time":867000000000,"state":"active","ping":52},{"user_id":596,"name":"MagicTITIKAKA","steam_id":76561198129509548,"connected_time":3494000000000,"state":"active","ping":104},{"user_id":628,"name":"denismaidanov","steam_id":76561198338601367,"connected_time":1498000000000,"state":"active","ping":100},{"user_id":602,"name":"DaiDaiMu :3","steam_id":76561198052794823,"connected_time":3091000000000,"state":"active","ping":56},{"user_id":618,"name":"꧁༒Xenon༒꧂","steam_id":76561198120502313,"connected_time":2360000000000,"state":"active","ping":84},{"user_id":630,"name":"AdeAAa","steam_id":76561198974207724,"connected_time":958000000000,"state":"active","ping":102},{"user_id":619,"name":"Michal Jordan (real)","steam_id":76561199106262610,"connected_time":2358000000000,"state":"active","ping":52},{"user_id":622,"name":"Crasher0711","steam_id":76561198272180359,"connected_time":2337000000000,"state":"active","ping":46},{"user_id":629,"name":"Tree","steam_id":76561198054795379,"connected_time":987000000000,"state":"active","ping":51},{"user_id":623,"name":"xLeoparrd","steam_id":76561198940657194,"connected_time":2331000000000,"state":"active","ping":171},{"user_id":626,"name":"MR BUBBLES","steam_id":76561198019005259,"connected_time":1853000000000,"state":"active","ping":99},{"user_id":612,"name":"sleeping souls","steam_id":76561198205464653,"connected_time":2391000000000,"state":"active","ping":143},{"user_id":631,"name":"Finem Belli","steam_id":76561198227177976,"connected_time":914000000000,"state":"active","ping":46},{"user_id":634,"name":"PicklesTRT","steam_id":76561198053440288,"connected_time":388000000000,"state":"active","ping":179},{"user_id":635,"name":"TAFI03","steam_id":76561198213082089,"connected_time":331000000000,"state":"active","ping":62},{"user_id":627,"name":"Kolanciasty ♥","steam_id":76561198020042179,"connected_time":1589000000000,"state":"active","ping":81},{"user_id":532,"name":"wasps","steam_id":76561198049485054,"connected_time":7018000000000,"state":"active","ping":75},{"user_id":633,"name":"Nobaddy","steam_id":76561198037871007,"connected_time":667000000000,"state":"active","ping":91},{"user_id":636,"name":"scarybroccoli","steam_id":76561198996934524,"connected_time":132000000000,"state":"active","ping":105},{"user_id":600,"name":"JohnTraveltime","steam_id":76561199244281754,"connected_time":3359000000000,"state":"active","ping":65},{"user_id":562,"name":"FUKAYOU","steam_id":76561198380484033,"connected_time":4823000000000,"state":"active","ping":58},{"user_id":604,"name":"John","steam_id":76561198121630215,"connected_time":3063000000000,"state":"active","ping":63},{"user_id":605,"name":"shart reverb","steam_id":76561198093073758,"connected_time":3051000000000,"state":"active","ping":63}]},{"server_id":110,"name":"Uncletopia | Frankfurt | 2 | All Maps","name_short":"frk-2","host":"frk-1.de.uncletopia.com","port":27025,"enabled":true,"region":"eu","cc":"de","latitude":50.110924,"longitude":8.682127,"reserved":0,"last_update":"0001-01-01T00:00:00Z","name_a2s":"Uncletopia | Frankfurt | 2 | All Maps","protocol":17,"map":"pl_upward","folder":"tf","game":"Team Fortress","app_id":440,"player_count":14,"max_players":24,"Bots":0,"server_type":"Dedicated","server_os":"Linux","password":true,"vac":true,"version":"7961495","steam_id":85568392924469990,"keywords":["nocrits","nodmgspread","payload","uncletopia"],"game_id":440,"stv_port":27026,"stv_name":"Uncletopia | Frankfurt | 2 | All Maps | STV","players":[{"user_id":36,"name":"Doommsatic","steam_id":76561198264874440,"connected_time":1197000000000,"state":"active","ping":105},{"user_id":32,"name":"dabomb gaming","steam_id":76561198350475019,"connected_time":1993000000000,"state":"active","ping":80},{"user_id":35,"name":"MisterLegitimate","steam_id":76561199198559715,"connected_time":1505000000000,"state":"active","ping":72},{"user_id":37,"name":"HimAgain","steam_id":76561199176170276,"connected_time":1163000000000,"state":"active","ping":90},{"user_id":38,"name":"Jugie","steam_id":76561198323807875,"connected_time":921000000000,"state":"active","ping":76},{"user_id":51,"name":"PixelVader","steam_id":76561198034195553,"connected_time":90000000000,"state":"active","ping":44},{"user_id":47,"name":"󠀡󠀡","steam_id":76561198399390201,"connected_time":199000000000,"state":"active","ping":68},{"user_id":43,"name":"rotta","steam_id":76561198287191618,"connected_time":308000000000,"state":"active","ping":323},{"user_id":52,"name":"schocky_panzer","steam_id":76561197965924454,"connected_time":46000000000,"state":"active","ping":46},{"user_id":45,"name":"Caruzon - Obismal","steam_id":76561198036211170,"connected_time":224000000000,"state":"active","ping":73},{"user_id":49,"name":"Macci - Obismal","steam_id":76561198050485404,"connected_time":160000000000,"state":"active","ping":70},{"user_id":48,"name":"[CIR]Philibert","steam_id":76561198025148053,"connected_time":175000000000,"state":"active","ping":55},{"user_id":53,"name":"Krabs","steam_id":76561198161679477,"connected_time":32000000000,"state":"spawning","ping":55},{"user_id":54,"name":"sinkuchan","steam_id":76561198054012474,"connected_time":19000000000,"state":"active","ping":58}]},{"server_id":308,"name":"Uncletopia | Frankfurt | 3 | All Maps","name_short":"frk-3","host":"frk-1.de.uncletopia.com","port":27035,"enabled":true,"region":"eu","cc":"de","latitude":50.110924,"longitude":8.682127,"reserved":0,"last_update":"0001-01-01T00:00:00Z","name_a2s":"Uncletopia | Frankfurt | 3 | All Maps","protocol":17,"map":"pl_frontier_final","folder":"tf","game":"Team Fortress","app_id":440,"player_count":23,"max_players":24,"Bots":0,"server_type":"Dedicated","server_os":"Linux","password":true,"vac":true,"version":"7961495","steam_id":85568392924504274,"keywords":["nocrits","nodmgspread","payload","uncletopia"],"game_id":440,"stv_port":27036,"stv_name":"Uncletopia | Frankfurt | 3 | All Maps | STV","players":[{"user_id":288,"name":"veki","steam_id":76561199059047474,"connected_time":3469000000000,"state":"active","ping":74},{"user_id":273,"name":"Several geollos screaming","steam_id":76561198291326102,"connected_time":4184000000000,"state":"active","ping":70},{"user_id":322,"name":"mq","steam_id":76561198091888948,"connected_time":872000000000,"state":"active","ping":70},{"user_id":289,"name":"Der er myrer under min hud","steam_id":76561198204171871,"connected_time":3447000000000,"state":"active","ping":88},{"user_id":330,"name":"JayKey","steam_id":76561198008847925,"connected_time":526000000000,"state":"active","ping":59},{"user_id":332,"name":"murderwow","steam_id":76561198024566944,"connected_time":221000000000,"state":"active","ping":96},{"user_id":329,"name":"tony","steam_id":76561199382978934,"connected_time":573000000000,"state":"active","ping":89},{"user_id":316,"name":"Fupipup","steam_id":76561198165974480,"connected_time":1917000000000,"state":"active","ping":50},{"user_id":325,"name":"MisterGQ","steam_id":76561198018415918,"connected_time":767000000000,"state":"active","ping":67},{"user_id":328,"name":"Hexagon","steam_id":76561198151205758,"connected_time":601000000000,"state":"active","ping":47},{"user_id":286,"name":"Lubi Animal","steam_id":76561199041620433,"connected_time":3571000000000,"state":"active","ping":48},{"user_id":318,"name":"Acanda","steam_id":76561198123246537,"connected_time":1843000000000,"state":"active","ping":55},{"user_id":317,"name":"Quantum","steam_id":76561198401018345,"connected_time":1851000000000,"state":"active","ping":84},{"user_id":293,"name":"Pico","steam_id":76561198063552545,"connected_time":3338000000000,"state":"active","ping":99},{"user_id":294,"name":"neJ","steam_id":76561198003397488,"connected_time":3319000000000,"state":"active","ping":66},{"user_id":246,"name":"jona3838","steam_id":76561199097658195,"connected_time":7483000000000,"state":"active","ping":103},{"user_id":297,"name":"SpineJuice","steam_id":76561199084272069,"connected_time":3295000000000,"state":"active","ping":70},{"user_id":321,"name":"꒰ ˶• ༝ •˶꒱","steam_id":76561198054474684,"connected_time":940000000000,"state":"active","ping":73},{"user_id":323,"name":"Noob_with_source","steam_id":76561198870362103,"connected_time":864000000000,"state":"active","ping":61},{"user_id":298,"name":"jovi_","steam_id":76561198449280552,"connected_time":3289000000000,"state":"active","ping":65},{"user_id":299,"name":"ŽgræÐek113","steam_id":76561198306883632,"connected_time":3271000000000,"state":"active","ping":62},{"user_id":305,"name":"OceanCow","steam_id":76561198343428913,"connected_time":2678000000000,"state":"active","ping":73},{"user_id":310,"name":"Andy","steam_id":76561198046918834,"connected_time":2508000000000,"state":"active","ping":71}]},{"server_id":309,"name":"Uncletopia | Frankfurt | 4 | All Maps","name_short":"frk-4","host":"frk-1.de.uncletopia.com","port":27045,"enabled":true,"region":"eu","cc":"de","latitude":50.110924,"longitude":8.682127,"reserved":0,"last_update":"0001-01-01T00:00:00Z","name_a2s":"Uncletopia | Frankfurt | 4 | All Maps","protocol":17,"map":"cp_altitude","folder":"tf","game":"Team Fortress","app_id":440,"player_count":23,"max_players":24,"Bots":0,"server_type":"Dedicated","server_os":"Linux","password":true,"vac":true,"version":"7961495","steam_id":85568392924504275,"keywords":["cp","nocrits","nodmgspread","uncletopia"],"game_id":440,"stv_port":27046,"stv_name":"Uncletopia | Frankfurt | 4 | All Maps | STV","players":[{"user_id":448,"name":"Person","steam_id":76561199216957269,"connected_time":3043000000000,"state":"active","ping":96},{"user_id":410,"name":"spy in the base","steam_id":76561198284570752,"connected_time":4680000000000,"state":"active","ping":60},{"user_id":508,"name":"Tobleroney","steam_id":76561198154402655,"connected_time":37000000000,"state":"active","ping":48},{"user_id":496,"name":"Pootis Dispenser","steam_id":76561198818060075,"connected_time":508000000000,"state":"active","ping":154},{"user_id":394,"name":"hhhhhh","steam_id":76561198031982574,"connected_time":6349000000000,"state":"active","ping":49},{"user_id":502,"name":"fischman","steam_id":76561199064142670,"connected_time":188000000000,"state":"active","ping":59},{"user_id":506,"name":"Naty","steam_id":76561198083488307,"connected_time":157000000000,"state":"active","ping":75},{"user_id":482,"name":"Mindoh","steam_id":76561198036913079,"connected_time":1049000000000,"state":"active","ping":45},{"user_id":504,"name":"The Fire","steam_id":76561199219653853,"connected_time":174000000000,"state":"active","ping":55},{"user_id":402,"name":"Der ewige Boomer","steam_id":76561198254812703,"connected_time":5670000000000,"state":"active","ping":69},{"user_id":509,"name":"H1DD3 gaming","steam_id":76561198855897385,"connected_time":37000000000,"state":"active","ping":65},{"user_id":475,"name":"wG auto","steam_id":76561198062247888,"connected_time":1345000000000,"state":"active","ping":66},{"user_id":476,"name":"Phloggers","steam_id":76561198213268633,"connected_time":1326000000000,"state":"active","ping":56},{"user_id":493,"name":"go casino 777","steam_id":76561198150755391,"connected_time":665000000000,"state":"active","ping":40},{"user_id":468,"name":"Kacperos12","steam_id":76561198044168268,"connected_time":1744000000000,"state":"active","ping":99},{"user_id":501,"name":"john fortress","steam_id":76561198013237629,"connected_time":211000000000,"state":"active","ping":102},{"user_id":488,"name":"Jonny J","steam_id":76561198027710849,"connected_time":863000000000,"state":"active","ping":91},{"user_id":478,"name":"Sunshine Moon","steam_id":76561198022604491,"connected_time":1273000000000,"state":"active","ping":104},{"user_id":494,"name":"Mr.O","steam_id":76561198039567498,"connected_time":583000000000,"state":"active","ping":62},{"user_id":505,"name":"Der Herr Doktor","steam_id":76561198119476089,"connected_time":168000000000,"state":"active","ping":58},{"user_id":497,"name":"mercenarypit","steam_id":76561198161935108,"connected_time":451000000000,"state":"active","ping":64},{"user_id":479,"name":"MeleeMeta","steam_id":76561198237963558,"connected_time":1191000000000,"state":"active","ping":61},{"user_id":510,"name":"PanPatrik","steam_id":76561198293331527,"connected_time":10000000000,"state":"spawning","ping":57}]},{"server_id":310,"name":"Uncletopia | Frankfurt | 5 | All Maps","name_short":"frk-5","host":"frk-1.de.uncletopia.com","port":27055,"enabled":true,"region":"eu","cc":"de","latitude":50.110924,"longitude":8.682127,"reserved":0,"last_update":"0001-01-01T00:00:00Z","name_a2s":"Uncletopia | Frankfurt | 5 | All Maps","protocol":17,"map":"pl_pier","folder":"tf","game":"Team Fortress","app_id":440,"player_count":24,"max_players":24,"Bots":0,"server_type":"Dedicated","server_os":"Linux","password":true,"vac":true,"version":"7961495","steam_id":85568392924504277,"keywords":["nocrits","nodmgspread","payload","uncletopia"],"game_id":440,"stv_port":27056,"stv_name":"Uncletopia | Frankfurt | 5 | All Maps | STV","players":[{"user_id":368,"name":"FREE ROBUX, CLICK MY COCK","steam_id":76561198133901720,"connected_time":2739000000000,"state":"active","ping":66},{"user_id":375,"name":"Necroz","steam_id":76561198290901561,"connected_time":2236000000000,"state":"active","ping":73},{"user_id":393,"name":"powej","steam_id":76561198056381418,"connected_time":419000000000,"state":"active","ping":49},{"user_id":334,"name":"Rakiru","steam_id":76561198334097259,"connected_time":5985000000000,"state":"active","ping":86},{"user_id":318,"name":"♂ MGE ♂ PUPSIK ♂","steam_id":76561198308302932,"connected_time":7328000000000,"state":"active","ping":99},{"user_id":399,"name":"Volvo 740 Turbo Wagon","steam_id":76561199027564726,"connected_time":250000000000,"state":"active","ping":54},{"user_id":388,"name":"golfmastr","steam_id":76561198993144124,"connected_time":1404000000000,"state":"active","ping":70},{"user_id":249,"name":"Flank Scout™","steam_id":76561198148115584,"connected_time":13396000000000,"state":"active","ping":75},{"user_id":352,"name":"zaleek69","steam_id":76561198058877595,"connected_time":4388000000000,"state":"active","ping":68},{"user_id":395,"name":"XxSuperPenisxX","steam_id":76561199089532056,"connected_time":395000000000,"state":"active","ping":48},{"user_id":396,"name":"BOLAXA","steam_id":76561198228406008,"connected_time":386000000000,"state":"active","ping":76},{"user_id":400,"name":"butter hunt (caber gang)","steam_id":76561198192343263,"connected_time":227000000000,"state":"active","ping":48},{"user_id":370,"name":"The Green Uncle","steam_id":76561198257163156,"connected_time":2731000000000,"state":"active","ping":60},{"user_id":386,"name":"Bob D","steam_id":76561198026375630,"connected_time":1706000000000,"state":"active","ping":65},{"user_id":401,"name":"kgf","steam_id":76561198181442259,"connected_time":203000000000,"state":"active","ping":48},{"user_id":363,"name":"WTFBOOM.jpeg","steam_id":76561198046873337,"connected_time":3668000000000,"state":"active","ping":67},{"user_id":385,"name":"bruh","steam_id":76561198109262927,"connected_time":1843000000000,"state":"active","ping":66},{"user_id":402,"name":"mendako","steam_id":76561198295305088,"connected_time":72000000000,"state":"active","ping":56},{"user_id":392,"name":"Ven_0","steam_id":76561199142511202,"connected_time":483000000000,"state":"active","ping":68},{"user_id":364,"name":"GTA5 FREE TORRENT +(1.5mil shar","steam_id":76561198010662796,"connected_time":3320000000000,"state":"active","ping":54},{"user_id":383,"name":"mossfan1","steam_id":76561198087525446,"connected_time":1912000000000,"state":"active","ping":83},{"user_id":387,"name":"Crunchips","steam_id":76561198004336818,"connected_time":1636000000000,"state":"active","ping":94},{"user_id":220,"name":"1914","steam_id":76561198257383813,"connected_time":16017000000000,"state":"active","ping":45},{"user_id":391,"name":"Wardruna96","steam_id":76561199057083828,"connected_time":547000000000,"state":"active","ping":85}]},{"server_id":311,"name":"Uncletopia | Frankfurt | 6 | All Maps","name_short":"frk-6","host":"frk-1.de.uncletopia.com","port":27065,"enabled":true,"region":"eu","cc":"de","latitude":50.110924,"longitude":8.682127,"reserved":0,"last_update":"0001-01-01T00:00:00Z","name_a2s":"Uncletopia | Frankfurt | 6 | All Maps","protocol":17,"map":"pl_badwater","folder":"tf","game":"Team Fortress","app_id":440,"player_count":23,"max_players":24,"Bots":0,"server_type":"Dedicated","server_os":"Linux","password":true,"vac":true,"version":"7961495","steam_id":85568392924504278,"keywords":["nocrits","nodmgspread","payload","uncletopia"],"game_id":440,"stv_port":27066,"stv_name":"Uncletopia | Frankfurt | 6 | All Maps | STV","players":[{"user_id":315,"name":"Optimist 50","steam_id":76561198039631442,"connected_time":83000000000,"state":"active","ping":80},{"user_id":269,"name":"Waltism","steam_id":76561199447676489,"connected_time":2600000000000,"state":"active","ping":64},{"user_id":278,"name":"Flohr","steam_id":76561198191948841,"connected_time":1714000000000,"state":"active","ping":48},{"user_id":314,"name":"Джекет","steam_id":76561198327897125,"connected_time":164000000000,"state":"active","ping":85},{"user_id":279,"name":"MaTTy","steam_id":76561198154318571,"connected_time":1679000000000,"state":"active","ping":64},{"user_id":304,"name":"Random","steam_id":76561199079951047,"connected_time":790000000000,"state":"active","ping":134},{"user_id":296,"name":"mesλ","steam_id":76561198324582918,"connected_time":1238000000000,"state":"active","ping":94},{"user_id":307,"name":"Exee","steam_id":76561198139574633,"connected_time":702000000000,"state":"active","ping":68},{"user_id":310,"name":"Habimbi","steam_id":76561198047271252,"connected_time":468000000000,"state":"active","ping":75},{"user_id":282,"name":"Dolcelatte","steam_id":76561198038501770,"connected_time":1592000000000,"state":"active","ping":59},{"user_id":251,"name":"REN","steam_id":76561198000596385,"connected_time":4105000000000,"state":"active","ping":66},{"user_id":284,"name":"Peskyplumber64","steam_id":76561198044458330,"connected_time":1557000000000,"state":"active","ping":72},{"user_id":311,"name":"weaj","steam_id":76561198053628243,"connected_time":467000000000,"state":"active","ping":63},{"user_id":286,"name":"Ｍａｃｉｎｔｏｓｈ","steam_id":76561198074294565,"connected_time":1510000000000,"state":"active","ping":80},{"user_id":306,"name":"JamesPepega","steam_id":76561198019156154,"connected_time":707000000000,"state":"active","ping":66},{"user_id":288,"name":"PichuNinja","steam_id":76561198156007278,"connected_time":1480000000000,"state":"active","ping":73},{"user_id":305,"name":"donka","steam_id":76561198413688785,"connected_time":785000000000,"state":"active","ping":79},{"user_id":291,"name":"G-LAUQUE","steam_id":76561198150060767,"connected_time":1442000000000,"state":"active","ping":58},{"user_id":309,"name":"Tusho","steam_id":76561198115447383,"connected_time":610000000000,"state":"active","ping":73},{"user_id":166,"name":"Worm","steam_id":76561198296497176,"connected_time":8503000000000,"state":"active","ping":59},{"user_id":313,"name":"LivEssense","steam_id":76561198052476979,"connected_time":397000000000,"state":"active","ping":75},{"user_id":294,"name":"󠁳","steam_id":76561199169154431,"connected_time":1376000000000,"state":"active","ping":45},{"user_id":295,"name":"did you see it?","steam_id":76561198071440081,"connected_time":1372000000000,"state":"active","ping":75}]},{"server_id":23,"name":"Uncletopia | Frankfurt | 7 | Stopwatch","name_short":"frk-7","host":"frk-1.de.uncletopia.com","port":27075,"enabled":true,"region":"eu","cc":"de","latitude":50.110924,"longitude":8.682127,"reserved":0,"last_update":"0001-01-01T00:00:00Z","name_a2s":"Uncletopia | Frankfurt | 7 | Stopwatch","protocol":17,"map":"workshop/koth_ashville_final.ugc2130459942","folder":"tf","game":"Team Fortress","app_id":440,"player_count":0,"max_players":24,"Bots":0,"server_type":"Dedicated","server_os":"Linux","password":true,"vac":true,"version":"7961495","steam_id":85568392924742827,"keywords":["cp","nocrits","nodmgspread","uncletopia"],"game_id":440,"stv_port":27076,"stv_name":"Uncletopia | Frankfurt | 7 | Stopwatch | STV","players":null},{"server_id":24,"name":"Uncletopia | Frankfurt | 8 | Community","name_short":"frk-8","host":"frk-1.de.uncletopia.com","port":27085,"enabled":true,"region":"eu","cc":"de","latitude":50.110924,"longitude":8.682127,"reserved":0,"last_update":"0001-01-01T00:00:00Z","name_a2s":"Uncletopia | Frankfurt | 8 | Community","protocol":17,"map":"cp_mountainlab","folder":"tf","game":"Team Fortress","app_id":440,"player_count":0,"max_players":24,"Bots":0,"server_type":"Dedicated","server_os":"Linux","password":true,"vac":true,"version":"7961495","steam_id":85568392924742828,"keywords":["cp","nocrits","nodmgspread","uncletopia"],"game_id":440,"stv_port":27086,"stv_name":"Uncletopia | Frankfurt | 8 | Community | STV","players":null},{"server_id":202,"name":"Uncletopia | Hong Kong | 1 | All Maps","name_short":"hgk-1","host":"hgk-1.hk.uncletopia.com","port":27015,"enabled":true,"region":"asia","cc":"hk","latitude":22.302711,"longitude":114.177216,"reserved":0,"last_update":"0001-01-01T00:00:00Z","name_a2s":"Uncletopia | Hong Kong | 1 | All Maps","protocol":17,"map":"pl_pier","folder":"tf","game":"Team Fortress","app_id":440,"player_count":0,"max_players":24,"Bots":0,"server_type":"Dedicated","server_os":"Linux","password":true,"vac":true,"version":"7961495","steam_id":85568392924494504,"keywords":["nocrits","nodmgspread","payload","uncletopia"],"game_id":440,"stv_port":27016,"stv_name":"Uncletopia | Hong Kong | 1 | All Maps | STV","players":null},{"server_id":1,"name":"Uncletopia | Los Angeles | 1 | All Maps","name_short":"lax-1","host":"lax-1.us.uncletopia.com","port":27015,"enabled":true,"region":"us-west","cc":"us","latitude":33.94279,"longitude":-118.41004,"reserved":0,"last_update":"0001-01-01T00:00:00Z","name_a2s":"Uncletopia | Los Angeles | 1 | All Maps","protocol":17,"map":"cp_powerhouse","folder":"tf","game":"Team Fortress","app_id":440,"player_count":24,"max_players":24,"Bots":0,"server_type":"Dedicated","server_os":"Linux","password":true,"vac":true,"version":"7961495","steam_id":85568392924469991,"keywords":["cp","nocrits","nodmgspread","uncletopia"],"game_id":440,"stv_port":27016,"stv_name":"Uncletopia | Los Angeles | 1 | All Maps | STV","players":[{"user_id":176,"name":"Cyber","steam_id":76561198323298672,"connected_time":252000000000,"state":"active","ping":74},{"user_id":171,"name":"old_gus","steam_id":76561197964214993,"connected_time":550000000000,"state":"active","ping":45},{"user_id":145,"name":":(){ :|:\u0026 };:","steam_id":76561198115242460,"connected_time":2251000000000,"state":"active","ping":68},{"user_id":165,"name":"iFunny user","steam_id":76561198988499660,"connected_time":800000000000,"state":"active","ping":68},{"user_id":172,"name":"Magnet Dood","steam_id":76561198364178746,"connected_time":516000000000,"state":"active","ping":111},{"user_id":174,"name":"Rat From Human Resources","steam_id":76561198090177784,"connected_time":443000000000,"state":"active","ping":110},{"user_id":149,"name":"The Angel of Death","steam_id":76561198026079349,"connected_time":1981000000000,"state":"active","ping":88},{"user_id":162,"name":":p","steam_id":76561198047786061,"connected_time":1022000000000,"state":"active","ping":77},{"user_id":157,"name":"w a o w","steam_id":76561198060769385,"connected_time":1146000000000,"state":"active","ping":59},{"user_id":178,"name":"Buswolley","steam_id":76561197995205571,"connected_time":62000000000,"state":"active","ping":68},{"user_id":138,"name":"Sergeant Snowflake","steam_id":76561198041474489,"connected_time":2782000000000,"state":"active","ping":117},{"user_id":150,"name":"silver","steam_id":76561199020503397,"connected_time":1942000000000,"state":"active","ping":46},{"user_id":132,"name":"He Come Down","steam_id":76561198232500756,"connected_time":3151000000000,"state":"active","ping":90},{"user_id":124,"name":"Chilled","steam_id":76561199079011336,"connected_time":3695000000000,"state":"active","ping":47},{"user_id":180,"name":"AlexeY","steam_id":76561198069156259,"connected_time":6000000000,"state":"spawning","ping":94},{"user_id":160,"name":"Nephi","steam_id":76561198031525122,"connected_time":1041000000000,"state":"active","ping":131},{"user_id":116,"name":"Platinum","steam_id":76561198348354629,"connected_time":3944000000000,"state":"active","ping":51},{"user_id":103,"name":"Kaiza Slumby","steam_id":76561199109063823,"connected_time":4519000000000,"state":"active","ping":96},{"user_id":136,"name":"umongus","steam_id":76561199366064808,"connected_time":2894000000000,"state":"active","ping":84},{"user_id":177,"name":"vifi269","steam_id":76561198283749166,"connected_time":115000000000,"state":"active","ping":102},{"user_id":168,"name":"Leo x.x","steam_id":76561198309760791,"connected_time":731000000000,"state":"active","ping":87},{"user_id":141,"name":"Doom501st","steam_id":76561198868481547,"connected_time":2422000000000,"state":"active","ping":105},{"user_id":169,"name":"kazoo2","steam_id":76561198260473504,"connected_time":727000000000,"state":"active","ping":95},{"user_id":179,"name":"Jamie Hyneman","steam_id":76561199196036481,"connected_time":57000000000,"state":"active","ping":93}]},{"server_id":112,"name":"Uncletopia | Los Angeles | 2 | All Maps","name_short":"lax-2","host":"lax-1.us.uncletopia.com","port":27025,"enabled":true,"region":"us-west","cc":"us","latitude":33.94279,"longitude":-118.41004,"reserved":0,"last_update":"0001-01-01T00:00:00Z","name_a2s":"Uncletopia | Los Angeles | 2 | All Maps","protocol":17,"map":"pl_barnblitz","folder":"tf","game":"Team Fortress","app_id":440,"player_count":0,"max_players":24,"Bots":0,"server_type":"Dedicated","server_os":"Linux","password":true,"vac":true,"version":"7961495","steam_id":85568392924469992,"keywords":["nocrits","nodmgspread","payload","uncletopia"],"game_id":440,"stv_port":27026,"stv_name":"Uncletopia | Los Angeles | 2 | All Maps | STV","players":null},{"server_id":324,"name":"Uncletopia | Los Angeles | 3 | All Maps","name_short":"lax-3","host":"lax-1.us.uncletopia.com","port":27035,"enabled":true,"region":"us-west","cc":"us","latitude":33.94279,"longitude":-118.41004,"reserved":0,"last_update":"0001-01-01T00:00:00Z","name_a2s":"Uncletopia | Los Angeles | 3 | All Maps","protocol":17,"map":"pl_frontier_final","folder":"tf","game":"Team Fortress","app_id":440,"player_count":0,"max_players":24,"Bots":0,"server_type":"Dedicated","server_os":"Linux","password":true,"vac":true,"version":"7961495","steam_id":85568392924510198,"keywords":["nocrits","nodmgspread","payload","uncletopia"],"game_id":440,"stv_port":27036,"stv_name":"Uncletopia | Los Angeles | 3 | All Maps | STV","players":null},{"server_id":25,"name":"Uncletopia | Los Angeles | 4 | Stopwatch","name_short":"lax-4","host":"lax-1.us.uncletopia.com","port":27045,"enabled":true,"region":"us-west","cc":"us","latitude":33.94279,"longitude":-118.41004,"reserved":0,"last_update":"0001-01-01T00:00:00Z","name_a2s":"Uncletopia | Los Angeles | 4 | Stopwatch","protocol":17,"map":"pl_barnblitz","folder":"tf","game":"Team Fortress","app_id":440,"player_count":0,"max_players":24,"Bots":0,"server_type":"Dedicated","server_os":"Linux","password":true,"vac":true,"version":"7961495","steam_id":85568392924510199,"keywords":["nocrits","nodmgspread","payload","uncletopia"],"game_id":440,"stv_port":27046,"stv_name":"Uncletopia | Los Angeles | 4 | Stopwatch | STV","players":null},{"server_id":11,"name":"Uncletopia | London | 1 | All Maps","name_short":"lon-1","host":"lon-1.uk.uncletopia.com","port":27015,"enabled":true,"region":"eu","cc":"gb","latitude":51.509865,"longitude":-0.118092,"reserved":0,"last_update":"0001-01-01T00:00:00Z","name_a2s":"Uncletopia | London | 1 | All Maps","protocol":17,"map":"pl_barnblitz","folder":"tf","game":"Team Fortress","app_id":440,"player_count":24,"max_players":24,"Bots":0,"server_type":"Dedicated","server_os":"Linux","password":true,"vac":true,"version":"7961495","steam_id":85568392924367362,"keywords":["nocrits","nodmgspread","payload","uncletopia"],"game_id":440,"stv_port":27016,"stv_name":"Uncletopia | London | 1 | All Maps | STV","players":[{"user_id":359,"name":"coom (2016)","steam_id":76561198890193313,"connected_time":2877000000000,"state":"active","ping":52},{"user_id":286,"name":"SimpleSack","steam_id":76561198179647814,"connected_time":7101000000000,"state":"active","ping":73},{"user_id":374,"name":"Pantroglodytestherapy","steam_id":76561198236015392,"connected_time":882000000000,"state":"active","ping":118},{"user_id":375,"name":"Dark ^^","steam_id":76561198036241064,"connected_time":848000000000,"state":"active","ping":66},{"user_id":378,"name":"✪ Danny","steam_id":76561198104483241,"connected_time":224000000000,"state":"active","ping":53},{"user_id":372,"name":"Son Goku","steam_id":76561199383437138,"connected_time":914000000000,"state":"active","ping":120},{"user_id":360,"name":"sushii","steam_id":76561198297987372,"connected_time":2832000000000,"state":"active","ping":53},{"user_id":355,"name":"Kahvi","steam_id":76561198723244199,"connected_time":3008000000000,"state":"active","ping":76},{"user_id":369,"name":"shooer!","steam_id":76561198110531281,"connected_time":983000000000,"state":"active","ping":66},{"user_id":370,"name":"Smilez","steam_id":76561197999353870,"connected_time":983000000000,"state":"active","ping":46},{"user_id":329,"name":"Joe12000","steam_id":76561198160817969,"connected_time":4649000000000,"state":"active","ping":73},{"user_id":379,"name":"Marl Karx","steam_id":76561198396797516,"connected_time":137000000000,"state":"active","ping":66},{"user_id":376,"name":"Sakata Gintoki","steam_id":76561198339980449,"connected_time":262000000000,"state":"active","ping":62},{"user_id":362,"name":"Slifer","steam_id":76561198062255803,"connected_time":1477000000000,"state":"active","ping":69},{"user_id":371,"name":"halow","steam_id":76561198061505163,"connected_time":983000000000,"state":"active","ping":114},{"user_id":348,"name":"hipster_doofus","steam_id":76561197970902697,"connected_time":3361000000000,"state":"active","ping":64},{"user_id":330,"name":"cof","steam_id":76561199128417805,"connected_time":4633000000000,"state":"active","ping":59},{"user_id":357,"name":"Ricey","steam_id":76561198832961307,"connected_time":2951000000000,"state":"active","ping":55},{"user_id":326,"name":"Paper","steam_id":76561199037749675,"connected_time":4902000000000,"state":"active","ping":28},{"user_id":338,"name":"Lyra","steam_id":76561198043601838,"connected_time":4365000000000,"state":"active","ping":60},{"user_id":364,"name":"jermany","steam_id":76561198126599355,"connected_time":1378000000000,"state":"active","ping":32},{"user_id":270,"name":"Max Andrew","steam_id":76561198158955194,"connected_time":8616000000000,"state":"active","ping":56},{"user_id":354,"name":"killer of noob, winner of game","steam_id":76561198190583242,"connected_time":3064000000000,"state":"active","ping":76},{"user_id":304,"name":"lillunya ♡","steam_id":76561198330418866,"connected_time":5898000000000,"state":"active","ping":71}]},{"server_id":114,"name":"Uncletopia | London | 2 | All Maps","name_short":"lon-2","host":"lon-1.uk.uncletopia.com","port":27025,"enabled":true,"region":"eu","cc":"gb","latitude":51.509865,"longitude":-0.118092,"reserved":0,"last_update":"0001-01-01T00:00:00Z","name_a2s":"Uncletopia | London | 2 | All Maps","protocol":17,"map":"cp_process_final","folder":"tf","game":"Team Fortress","app_id":440,"player_count":22,"max_players":24,"Bots":0,"server_type":"Dedicated","server_os":"Linux","password":true,"vac":true,"version":"7961495","steam_id":85568392924470941,"keywords":["cp","nocrits","nodmgspread","uncletopia"],"game_id":440,"stv_port":27026,"stv_name":"Uncletopia | London | 2 | All Maps | STV","players":[{"user_id":374,"name":"𐂃","steam_id":76561198874987906,"connected_time":2067000000000,"state":"active","ping":63},{"user_id":281,"name":"Flying Squirrel","steam_id":76561198005202791,"connected_time":7422000000000,"state":"active","ping":75},{"user_id":385,"name":"mild amusement","steam_id":76561198274631806,"connected_time":1458000000000,"state":"active","ping":46},{"user_id":346,"name":"grassesmode.exe","steam_id":76561198090167960,"connected_time":3777000000000,"state":"active","ping":82},{"user_id":370,"name":"Prism","steam_id":76561198320524819,"connected_time":2145000000000,"state":"active","ping":75},{"user_id":384,"name":"LazyBane","steam_id":76561198032359132,"connected_time":1516000000000,"state":"active","ping":45},{"user_id":391,"name":"Spagett spook victim","steam_id":76561198124177844,"connected_time":648000000000,"state":"active","ping":46},{"user_id":304,"name":"A.D.H.|Artem","steam_id":76561198041801369,"connected_time":6230000000000,"state":"active","ping":89},{"user_id":392,"name":"Witor","steam_id":76561198127584681,"connected_time":483000000000,"state":"active","ping":74},{"user_id":353,"name":"le epic potato","steam_id":76561198053088822,"connected_time":3212000000000,"state":"active","ping":46},{"user_id":324,"name":"dash.","steam_id":76561198084796149,"connected_time":4734000000000,"state":"active","ping":46},{"user_id":355,"name":"PANAANI","steam_id":76561198322322739,"connected_time":3157000000000,"state":"active","ping":88},{"user_id":390,"name":"TheAutisticGamer","steam_id":76561198137828769,"connected_time":882000000000,"state":"active","ping":50},{"user_id":386,"name":"Anton Stormbreaker","steam_id":76561198041426778,"connected_time":1458000000000,"state":"active","ping":75},{"user_id":382,"name":"chapiiiiis","steam_id":76561198033299138,"connected_time":1574000000000,"state":"active","ping":45},{"user_id":388,"name":"Oldworldjazz","steam_id":76561198184632645,"connected_time":1440000000000,"state":"active","ping":96},{"user_id":378,"name":"Tattletails","steam_id":76561198055690341,"connected_time":1950000000000,"state":"active","ping":58},{"user_id":297,"name":"just_adhenz1284 #SaveTF2","steam_id":76561198293654671,"connected_time":6639000000000,"state":"active","ping":158},{"user_id":387,"name":"gαвє ησëℓ","steam_id":76561198067342352,"connected_time":1453000000000,"state":"active","ping":55},{"user_id":331,"name":"Retrowave","steam_id":76561198061921346,"connected_time":4325000000000,"state":"active","ping":137},{"user_id":363,"name":"zek","steam_id":76561198862763731,"connected_time":3007000000000,"state":"active","ping":72},{"user_id":367,"name":"Salamdar","steam_id":76561198061910407,"connected_time":2558000000000,"state":"active","ping":59}]},{"server_id":320,"name":"Uncletopia | London | 3 | All Maps","name_short":"lon-3","host":"lon-1.uk.uncletopia.com","port":27035,"enabled":true,"region":"eu","cc":"gb","latitude":51.509865,"longitude":-0.118092,"reserved":0,"last_update":"0001-01-01T00:00:00Z","name_a2s":"Uncletopia | London | 3 | All Maps","protocol":17,"map":"cp_altitude","folder":"tf","game":"Team Fortress","app_id":440,"player_count":23,"max_players":24,"Bots":0,"server_type":"Dedicated","server_os":"Linux","password":true,"vac":true,"version":"7961495","steam_id":85568392924510192,"keywords":["cp","nocrits","nodmgspread","uncletopia"],"game_id":440,"stv_port":27036,"stv_name":"Uncletopia | London | 3 | All Maps | STV","players":[{"user_id":193,"name":"Drinking Problem","steam_id":76561198319162953,"connected_time":6240000000000,"state":"active","ping":77},{"user_id":264,"name":"VibeCat22","steam_id":76561199248330295,"connected_time":863000000000,"state":"active","ping":52},{"user_id":246,"name":"basedgod","steam_id":76561198313835012,"connected_time":2170000000000,"state":"active","ping":58},{"user_id":278,"name":"I'm using Tilt Controls.","steam_id":76561198077864552,"connected_time":120000000000,"state":"active","ping":40},{"user_id":279,"name":"Pvt. Prinny","steam_id":76561198030278562,"connected_time":30000000000,"state":"active","ping":45},{"user_id":266,"name":"caramel❤","steam_id":76561198819353867,"connected_time":778000000000,"state":"active","ping":47},{"user_id":251,"name":"Scoobster","steam_id":76561198065456047,"connected_time":1927000000000,"state":"active","ping":75},{"user_id":280,"name":"Dan Dan the Furious","steam_id":76561198091032527,"connected_time":28000000000,"state":"active","ping":82},{"user_id":274,"name":"Shourai","steam_id":76561198201192634,"connected_time":595000000000,"state":"active","ping":45},{"user_id":120,"name":"Ripley","steam_id":76561198064478354,"connected_time":10590000000000,"state":"active","ping":57},{"user_id":273,"name":"medicinal man","steam_id":76561198202668788,"connected_time":611000000000,"state":"active","ping":75},{"user_id":255,"name":"HYSTERIA","steam_id":76561198139729249,"connected_time":1760000000000,"state":"active","ping":91},{"user_id":228,"name":"paypig","steam_id":76561198035137115,"connected_time":3356000000000,"state":"active","ping":45},{"user_id":261,"name":"Scobra","steam_id":76561198000734400,"connected_time":1385000000000,"state":"active","ping":117},{"user_id":268,"name":"Fran","steam_id":76561199070516960,"connected_time":769000000000,"state":"active","ping":75},{"user_id":276,"name":"ATC","steam_id":76561198024402573,"connected_time":193000000000,"state":"active","ping":105},{"user_id":248,"name":"milo","steam_id":76561198119016918,"connected_time":2150000000000,"state":"active","ping":60},{"user_id":271,"name":"astaiya","steam_id":76561198044738986,"connected_time":718000000000,"state":"active","ping":139},{"user_id":269,"name":"Solar","steam_id":76561199121361391,"connected_time":764000000000,"state":"active","ping":74},{"user_id":275,"name":"Real (Real)","steam_id":76561198323425034,"connected_time":408000000000,"state":"active","ping":82},{"user_id":281,"name":"flr","steam_id":76561198249327786,"connected_time":20000000000,"state":"active","ping":65},{"user_id":270,"name":"StabbyKnife","steam_id":76561198094010004,"connected_time":763000000000,"state":"active","ping":98},{"user_id":210,"name":"Snowmotion","steam_id":76561198075022454,"connected_time":4632000000000,"state":"active","ping":71}]},{"server_id":321,"name":"Uncletopia | London | 4 | All Maps","name_short":"lon-4","host":"lon-1.uk.uncletopia.com","port":27045,"enabled":true,"region":"eu","cc":"gb","latitude":51.509865,"longitude":-0.118092,"reserved":0,"last_update":"0001-01-01T00:00:00Z","name_a2s":"Uncletopia | London | 4 | All Maps","protocol":17,"map":"pl_snowycoast","folder":"tf","game":"Team Fortress","app_id":440,"player_count":24,"max_players":24,"Bots":0,"server_type":"Dedicated","server_os":"Linux","password":true,"vac":true,"version":"7961495","steam_id":85568392924510193,"keywords":["nocrits","nodmgspread","payload","uncletopia"],"game_id":440,"stv_port":27046,"stv_name":"Uncletopia | London | 4 | All Maps | STV","players":[{"user_id":89,"name":"Acekeni™ ∤ [GMD]","steam_id":76561198352700499,"connected_time":563000000000,"state":"active","ping":86},{"user_id":90,"name":"Jughead","steam_id":76561198000355410,"connected_time":554000000000,"state":"active","ping":43},{"user_id":91,"name":"Ye","steam_id":76561198354719262,"connected_time":554000000000,"state":"active","ping":70},{"user_id":86,"name":"Q U E E N A L E X","steam_id":76561198186341157,"connected_time":1039000000000,"state":"active","ping":54},{"user_id":77,"name":"pro pates","steam_id":76561198089560908,"connected_time":1445000000000,"state":"active","ping":105},{"user_id":85,"name":"Keho","steam_id":76561198087962709,"connected_time":1126000000000,"state":"active","ping":79},{"user_id":74,"name":"Jyghc","steam_id":76561198405980575,"connected_time":1483000000000,"state":"active","ping":65},{"user_id":47,"name":"zazuza","steam_id":76561198049820905,"connected_time":3549000000000,"state":"active","ping":79},{"user_id":92,"name":"h","steam_id":76561198149967445,"connected_time":550000000000,"state":"active","ping":33},{"user_id":35,"name":"The Fat Lenny","steam_id":76561198079333162,"connected_time":4342000000000,"state":"active","ping":86},{"user_id":97,"name":".mostech","steam_id":76561198180506521,"connected_time":51000000000,"state":"active","ping":89},{"user_id":98,"name":"dgz","steam_id":76561197979345019,"connected_time":49000000000,"state":"active","ping":93},{"user_id":79,"name":"twitch.tv/vision515","steam_id":76561198065293729,"connected_time":1387000000000,"state":"active","ping":176},{"user_id":42,"name":"ピドラス","steam_id":76561198092463910,"connected_time":3803000000000,"state":"active","ping":87},{"user_id":43,"name":"Pipp Petals2014","steam_id":76561198147668373,"connected_time":3743000000000,"state":"active","ping":69},{"user_id":44,"name":"Chicoboi","steam_id":76561198109855177,"connected_time":3737000000000,"state":"active","ping":80},{"user_id":94,"name":"iswaxan","steam_id":76561199214988157,"connected_time":496000000000,"state":"active","ping":73},{"user_id":80,"name":"The man from the window","steam_id":76561198055949151,"connected_time":1375000000000,"state":"active","ping":45},{"user_id":48,"name":"Vonacht","steam_id":76561198016033944,"connected_time":3549000000000,"state":"active","ping":60},{"user_id":87,"name":"ExotiiC ☯","steam_id":76561198046149866,"connected_time":722000000000,"state":"active","ping":69},{"user_id":84,"name":"Cogu","steam_id":76561198061344952,"connected_time":1149000000000,"state":"active","ping":67},{"user_id":51,"name":"yeyegoncas","steam_id":76561198061217656,"connected_time":3537000000000,"state":"active","ping":74},{"user_id":58,"name":"Caramel","steam_id":76561198021214844,"connected_time":2798000000000,"state":"active","ping":47},{"user_id":59,"name":"Gent","steam_id":76561198037167890,"connected_time":2757000000000,"state":"active","ping":85}]},{"server_id":21,"name":"Uncletopia | London | 5 | All Maps","name_short":"lon-5","host":"lon-1.uk.uncletopia.com","port":27055,"enabled":true,"region":"eu","cc":"gb","latitude":51.509865,"longitude":-0.118092,"reserved":0,"last_update":"0001-01-01T00:00:00Z","name_a2s":"Uncletopia | London | 5 | All Maps","protocol":17,"map":"koth_viaduct","folder":"tf","game":"Team Fortress","app_id":440,"player_count":7,"max_players":24,"Bots":0,"server_type":"Dedicated","server_os":"Linux","password":true,"vac":true,"version":"7961495","steam_id":85568392924742829,"keywords":["cp","nocrits","nodmgspread","uncletopia"],"game_id":440,"stv_port":27056,"stv_name":"Uncletopia | London | 5 | All Maps | STV","players":[{"user_id":25,"name":"melon man","steam_id":76561198834046987,"connected_time":485000000000,"state":"active","ping":106},{"user_id":17,"name":"Shoeman","steam_id":76561198126726364,"connected_time":2588000000000,"state":"active","ping":56},{"user_id":19,"name":"SaSSolino","steam_id":76561198011308018,"connected_time":2473000000000,"state":"active","ping":59},{"user_id":26,"name":"Goblin Tinkerer","steam_id":76561199195214616,"connected_time":399000000000,"state":"active","ping":52},{"user_id":27,"name":"Ascended Noob","steam_id":76561198079411460,"connected_time":386000000000,"state":"active","ping":54},{"user_id":28,"name":"Zx.kk","steam_id":76561199223724162,"connected_time":358000000000,"state":"active","ping":62},{"user_id":30,"name":"God Emperor of Mankind","steam_id":76561198300869935,"connected_time":103000000000,"state":"active","ping":49}]},{"server_id":22,"name":"Uncletopia | London | 6 | All Maps","name_short":"lon-6","host":"lon-1.uk.uncletopia.com","port":27065,"enabled":true,"region":"eu","cc":"gb","latitude":51.509865,"longitude":-0.118092,"reserved":0,"last_update":"0001-01-01T00:00:00Z","name_a2s":"Uncletopia | London | 6 | All Maps","protocol":17,"map":"pl_barnblitz","folder":"tf","game":"Team Fortress","app_id":440,"player_count":24,"max_players":24,"Bots":0,"server_type":"Dedicated","server_os":"Linux","password":true,"vac":true,"version":"7961495","steam_id":85568392924742830,"keywords":["nocrits","nodmgspread","payload","uncletopia"],"game_id":440,"stv_port":27066,"stv_name":"Uncletopia | London | 6 | All Maps | STV","players":[{"user_id":124,"name":"⸸aura⸸","steam_id":76561198066258544,"connected_time":1092000000000,"state":"active","ping":61},{"user_id":123,"name":"Big Ego Computer-man","steam_id":76561198087399629,"connected_time":1178000000000,"state":"active","ping":69},{"user_id":139,"name":"NukePigg","steam_id":76561198131324143,"connected_time":629000000000,"state":"active","ping":36},{"user_id":111,"name":"Kinas","steam_id":76561198084438097,"connected_time":3002000000000,"state":"active","ping":105},{"user_id":125,"name":"HazelForest","steam_id":76561198171827033,"connected_time":1081000000000,"state":"active","ping":54},{"user_id":126,"name":"TimTims","steam_id":76561198065130373,"connected_time":1011000000000,"state":"active","ping":70},{"user_id":136,"name":"The Engineer","steam_id":76561199437330739,"connected_time":693000000000,"state":"active","ping":63},{"user_id":108,"name":"ShadowTwin","steam_id":76561198046658200,"connected_time":3131000000000,"state":"active","ping":57},{"user_id":128,"name":"Jan ジャン","steam_id":76561198030180053,"connected_time":889000000000,"state":"active","ping":90},{"user_id":122,"name":"Kruzma","steam_id":76561198998875641,"connected_time":1250000000000,"state":"active","ping":88},{"user_id":129,"name":"zayd","steam_id":76561198895235231,"connected_time":806000000000,"state":"active","ping":60},{"user_id":105,"name":"mixxxa_french","steam_id":76561198085098243,"connected_time":3621000000000,"state":"active","ping":123},{"user_id":130,"name":"Rocadinis","steam_id":76561198095910616,"connected_time":805000000000,"state":"active","ping":83},{"user_id":121,"name":"hr.morgaes","steam_id":76561197998085134,"connected_time":1293000000000,"state":"active","ping":87},{"user_id":141,"name":"HeavyMettleDick","steam_id":76561198001925087,"connected_time":338000000000,"state":"active","ping":146},{"user_id":118,"name":"Thors","steam_id":76561197968739075,"connected_time":1566000000000,"state":"active","ping":45},{"user_id":144,"name":"Desnot","steam_id":76561198862581894,"connected_time":257000000000,"state":"active","ping":73},{"user_id":143,"name":"Kelly","steam_id":76561198118161493,"connected_time":283000000000,"state":"active","ping":72},{"user_id":132,"name":"Durp Snowcrab","steam_id":76561198220375772,"connected_time":727000000000,"state":"active","ping":53},{"user_id":137,"name":"Open Salami","steam_id":76561198351223374,"connected_time":688000000000,"state":"active","ping":80},{"user_id":145,"name":"Mister","steam_id":76561199049647854,"connected_time":190000000000,"state":"active","ping":45},{"user_id":135,"name":"-gunripp0r^be / Obelix^","steam_id":76561197999306879,"connected_time":704000000000,"state":"active","ping":70},{"user_id":142,"name":"The Sex Defender","steam_id":76561198165732391,"connected_time":318000000000,"state":"active","ping":88},{"user_id":117,"name":"transgender e-girl","steam_id":76561198168589809,"connected_time":2088000000000,"state":"active","ping":49}]},{"server_id":40,"name":"Uncletopia | London | 7 | Stopwatch","name_short":"lon-7","host":"lon-1.uk.uncletopia.com","port":27075,"enabled":true,"region":"eu","cc":"gb","latitude":51.509865,"longitude":-0.118092,"reserved":0,"last_update":"0001-01-01T00:00:00Z","name_a2s":"Uncletopia | London | 7 | Stopwatch","protocol":17,"map":"workshop/koth_bagel_rc6.ugc2514036946","folder":"tf","game":"Team Fortress","app_id":440,"player_count":20,"max_players":24,"Bots":0,"server_type":"Dedicated","server_os":"Linux","password":true,"vac":true,"version":"7961495","steam_id":85568392924964314,"keywords":["cp","nocrits","nodmgspread","uncletopia"],"game_id":440,"stv_port":27076,"stv_name":"Uncletopia | London | 7 | Stopwatch | STV","players":[{"user_id":53,"name":"Dr. Enforcicle (real)","steam_id":76561198964471859,"connected_time":267000000000,"state":"active","ping":131},{"user_id":12,"name":"Pavi7","steam_id":76561198333967434,"connected_time":3201000000000,"state":"active","ping":53},{"user_id":36,"name":"obi","steam_id":76561198040154461,"connected_time":1591000000000,"state":"active","ping":72},{"user_id":46,"name":"lipaul777","steam_id":76561199090751367,"connected_time":756000000000,"state":"active","ping":73},{"user_id":48,"name":"Pixella","steam_id":76561198036554247,"connected_time":642000000000,"state":"active","ping":57},{"user_id":49,"name":"NANI?!?!?!","steam_id":76561198172078559,"connected_time":607000000000,"state":"active","ping":75},{"user_id":50,"name":"Setherizor","steam_id":76561198037369544,"connected_time":492000000000,"state":"active","ping":147},{"user_id":41,"name":"zoziano","steam_id":76561198137298315,"connected_time":1373000000000,"state":"active","ping":45},{"user_id":51,"name":"akakez","steam_id":76561198095432821,"connected_time":474000000000,"state":"active","ping":113},{"user_id":37,"name":"Zerwee","steam_id":76561198181368101,"connected_time":1564000000000,"state":"active","ping":60},{"user_id":52,"name":"Futatsuiwa Mamizou","steam_id":76561198799303596,"connected_time":418000000000,"state":"active","ping":110},{"user_id":25,"name":"TaiFaitter","steam_id":76561198844647170,"connected_time":2448000000000,"state":"active","ping":87},{"user_id":55,"name":"rets_","steam_id":76561198061551392,"connected_time":250000000000,"state":"active","ping":63},{"user_id":56,"name":"TheEmeraldStar","steam_id":76561198072942529,"connected_time":186000000000,"state":"active","ping":60},{"user_id":57,"name":"dave.shotgun_2008","steam_id":76561199153146171,"connected_time":175000000000,"state":"active","ping":53},{"user_id":58,"name":"F0RGTPR0X","steam_id":76561198037119829,"connected_time":167000000000,"state":"active","ping":79},{"user_id":59,"name":"TheMightyOppressor","steam_id":76561198047461974,"connected_time":161000000000,"state":"active","ping":45},{"user_id":42,"name":"Stoned Ape","steam_id":76561198091639727,"connected_time":1366000000000,"state":"active","ping":74},{"user_id":60,"name":"I AM SUMMER SLAYCATION","steam_id":76561198179339326,"connected_time":143000000000,"state":"active","ping":76},{"user_id":61,"name":"Egor Pomidor","steam_id":76561199175688390,"connected_time":141000000000,"state":"active","ping":75}]},{"server_id":41,"name":"Uncletopia | London | 8 | Community","name_short":"lon-8","host":"lon-1.uk.uncletopia.com","port":27085,"enabled":true,"region":"eu","cc":"gb","latitude":51.509865,"longitude":-0.118092,"reserved":0,"last_update":"0001-01-01T00:00:00Z","name_a2s":"Uncletopia | London | 8 | Community","protocol":17,"map":"workshop/koth_trenchfoot_b1a.ugc731436616","folder":"tf","game":"Team Fortress","app_id":440,"player_count":0,"max_players":24,"Bots":0,"server_type":"Dedicated","server_os":"Linux","password":true,"vac":true,"version":"7961495","steam_id":85568392924964315,"keywords":["cp","nocrits","nodmgspread","uncletopia"],"game_id":440,"stv_port":27086,"stv_name":"Uncletopia | London | 8 | Community | STV","players":null},{"server_id":300,"name":"Uncletopia | Montréal | 1 | One Thousand Uncles","name_short":"mtl-1","host":"mtl-1.ca.uncletopia.com","port":27015,"enabled":true,"region":"us-east","cc":"ca","latitude":45.50889,"longitude":-73.56167,"reserved":0,"last_update":"0001-01-01T00:00:00Z","name_a2s":"","protocol":0,"map":"","folder":"","game":"","app_id":0,"player_count":1,"max_players":0,"Bots":0,"server_type":"","server_os":"","password":false,"vac":false,"version":"","steam_id":0,"keywords":null,"game_id":0,"stv_port":0,"stv_name":"","players":[{"user_id":95,"name":"DrMisteryous2","steam_id":76561198336307012,"connected_time":493000000000,"state":"active","ping":159}]},{"server_id":301,"name":"Uncletopia | Montréal | 2 | One Thousand Uncles","name_short":"mtl-2","host":"mtl-1.ca.uncletopia.com","port":27025,"enabled":true,"region":"us-east","cc":"ca","latitude":45.50889,"longitude":-73.56167,"reserved":0,"last_update":"0001-01-01T00:00:00Z","name_a2s":"","protocol":0,"map":"","folder":"","game":"","app_id":0,"player_count":0,"max_players":0,"Bots":0,"server_type":"","server_os":"","password":false,"vac":false,"version":"","steam_id":0,"keywords":null,"game_id":0,"stv_port":0,"stv_name":"","players":null},{"server_id":302,"name":"Uncletopia | Montréal | 3 | One Thousand Uncles","name_short":"mtl-3","host":"mtl-1.ca.uncletopia.com","port":27035,"enabled":true,"region":"us-east","cc":"ca","latitude":45.50889,"longitude":-73.56167,"reserved":0,"last_update":"0001-01-01T00:00:00Z","name_a2s":"","protocol":0,"map":"","folder":"","game":"","app_id":0,"player_count":11,"max_players":0,"Bots":0,"server_type":"","server_os":"","password":false,"vac":false,"version":"","steam_id":0,"keywords":null,"game_id":0,"stv_port":0,"stv_name":"","players":[{"user_id":197,"name":"Mysterious Stranger","steam_id":76561198027779564,"connected_time":132000000000,"state":"active","ping":73},{"user_id":195,"name":"manbearswineflu","steam_id":76561198083945137,"connected_time":343000000000,"state":"active","ping":74},{"user_id":161,"name":"Yep","steam_id":76561198041437251,"connected_time":4357000000000,"state":"active","ping":60},{"user_id":196,"name":"do you remember poptropica?","steam_id":76561199025227085,"connected_time":274000000000,"state":"active","ping":57},{"user_id":175,"name":"neo :)","steam_id":76561199092954930,"connected_time":814000000000,"state":"active","ping":51},{"user_id":199,"name":"ATL1 | Krissy","steam_id":76561197960848174,"connected_time":5000000000,"state":"active","ping":53},{"user_id":165,"name":"Lois","steam_id":76561199386119444,"connected_time":2715000000000,"state":"active","ping":80},{"user_id":166,"name":"oinkpig234","steam_id":76561198883733811,"connected_time":2611000000000,"state":"active","ping":91},{"user_id":167,"name":"Ubuntu Phone","steam_id":76561198008110407,"connected_time":2541000000000,"state":"active","ping":67},{"user_id":177,"name":"EliminateSingleFamilyZoning","steam_id":76561198276653985,"connected_time":676000000000,"state":"active","ping":59},{"user_id":178,"name":"Jake_Spencer","steam_id":76561198025176750,"connected_time":488000000000,"state":"active","ping":85}]},{"server_id":13,"name":"Uncletopia | New York City | 1 | All Maps","name_short":"nyc-1","host":"nyc-1.us.uncletopia.com","port":27015,"enabled":true,"region":"us-east","cc":"us","latitude":40.73061,"longitude":-73.93524,"reserved":0,"last_update":"0001-01-01T00:00:00Z","name_a2s":"Uncletopia | New York City | 1 | All Maps","protocol":17,"map":"pl_upward","folder":"tf","game":"Team Fortress","app_id":440,"player_count":21,"max_players":24,"Bots":0,"server_type":"Dedicated","server_os":"Linux","password":true,"vac":true,"version":"7961495","steam_id":85568392924469993,"keywords":["nocrits","nodmgspread","payload","uncletopia"],"game_id":440,"stv_port":27016,"stv_name":"Uncletopia | New York City | 1 | All Maps | STV","players":[{"user_id":49,"name":"Sky","steam_id":76561198043549371,"connected_time":685000000000,"state":"active","ping":43},{"user_id":52,"name":"Data","steam_id":76561197996329548,"connected_time":637000000000,"state":"active","ping":89},{"user_id":38,"name":"freehealthcare","steam_id":76561198800102297,"connected_time":895000000000,"state":"active","ping":69},{"user_id":62,"name":"Flowers","steam_id":76561198031669899,"connected_time":4000000000,"state":"spawning","ping":46},{"user_id":39,"name":"The Nikocado Enjoyer","steam_id":76561198263154374,"connected_time":889000000000,"state":"active","ping":54},{"user_id":26,"name":"COOMSLAYR69","steam_id":76561198962382599,"connected_time":1311000000000,"state":"active","ping":67},{"user_id":24,"name":"Petrivus","steam_id":76561198202152453,"connected_time":1537000000000,"state":"active","ping":129},{"user_id":59,"name":"Joshy","steam_id":76561198061405421,"connected_time":302000000000,"state":"active","ping":75},{"user_id":35,"name":"CosmicNexus","steam_id":76561198354768326,"connected_time":1020000000000,"state":"active","ping":75},{"user_id":36,"name":"badasscoolboy57","steam_id":76561198795412055,"connected_time":1005000000000,"state":"active","ping":75},{"user_id":37,"name":"-Greasy Goblin-","steam_id":76561198956977812,"connected_time":990000000000,"state":"active","ping":71},{"user_id":30,"name":"karate guy","steam_id":76561198073269122,"connected_time":1192000000000,"state":"active","ping":44},{"user_id":48,"name":"KyonHB","steam_id":76561198050311904,"connected_time":712000000000,"state":"active","ping":58},{"user_id":32,"name":"Argo","steam_id":76561198353725622,"connected_time":1131000000000,"state":"active","ping":72},{"user_id":45,"name":"pnut","steam_id":76561198043862737,"connected_time":729000000000,"state":"active","ping":45},{"user_id":42,"name":"sus bread_stain","steam_id":76561199230268075,"connected_time":778000000000,"state":"active","ping":95},{"user_id":43,"name":"antivirus.exe","steam_id":76561198152067633,"connected_time":759000000000,"state":"active","ping":83},{"user_id":44,"name":"Gibby","steam_id":76561199336569123,"connected_time":741000000000,"state":"active","ping":119},{"user_id":56,"name":"PumpkinThink","steam_id":76561198393830529,"connected_time":565000000000,"state":"active","ping":89},{"user_id":53,"name":"Donkski","steam_id":76561198406895347,"connected_time":615000000000,"state":"active","ping":90},{"user_id":61,"name":"Sea Raider","steam_id":76561198055654064,"connected_time":10000000000,"state":"spawning","ping":60}]},{"server_id":14,"name":"Uncletopia | New York City | 2 | All Maps","name_short":"nyc-2","host":"nyc-1.us.uncletopia.com","port":27025,"enabled":true,"region":"us-east","cc":"us","latitude":40.73061,"longitude":-73.93524,"reserved":0,"last_update":"0001-01-01T00:00:00Z","name_a2s":"Uncletopia | New York City | 2 | All Maps","protocol":17,"map":"pl_pier","folder":"tf","game":"Team Fortress","app_id":440,"player_count":24,"max_players":24,"Bots":0,"server_type":"Dedicated","server_os":"Linux","password":true,"vac":true,"version":"7961495","steam_id":85568392924469994,"keywords":["nocrits","nodmgspread","payload","uncletopia"],"game_id":440,"stv_port":27026,"stv_name":"Uncletopia | New York City | 2 | All Maps | STV","players":[{"user_id":181,"name":"Terminally Online Weeb [Dexgod]","steam_id":76561198017130786,"connected_time":173000000000,"state":"active","ping":67},{"user_id":162,"name":"banxet","steam_id":76561198067879051,"connected_time":1027000000000,"state":"active","ping":162},{"user_id":150,"name":"bkiller","steam_id":76561198029265697,"connected_time":2964000000000,"state":"active","ping":78},{"user_id":174,"name":"F2P Rights Activist","steam_id":76561199012786293,"connected_time":674000000000,"state":"active","ping":86},{"user_id":122,"name":"taigaxx","steam_id":76561198202669250,"connected_time":5370000000000,"state":"active","ping":66},{"user_id":146,"name":"UNIT 220","steam_id":76561198042243497,"connected_time":3541000000000,"state":"active","ping":64},{"user_id":178,"name":"sugoiboi48","steam_id":76561198060056280,"connected_time":393000000000,"state":"active","ping":63},{"user_id":167,"name":"Vegerot","steam_id":76561197997843710,"connected_time":926000000000,"state":"active","ping":43},{"user_id":134,"name":"Ziath","steam_id":76561198094009164,"connected_time":4277000000000,"state":"active","ping":42},{"user_id":128,"name":"Vaun","steam_id":76561198034075317,"connected_time":4809000000000,"state":"active","ping":97},{"user_id":175,"name":"weasilsquid","steam_id":76561199014763568,"connected_time":621000000000,"state":"active","ping":97},{"user_id":89,"name":"Broadsword #LGM","steam_id":76561198011160411,"connected_time":8044000000000,"state":"active","ping":81},{"user_id":138,"name":"lushtakular","steam_id":76561198840080823,"connected_time":4084000000000,"state":"active","ping":84},{"user_id":168,"name":"Bandit","steam_id":76561198328421159,"connected_time":911000000000,"state":"active","ping":48},{"user_id":179,"name":"cactail","steam_id":76561198238898732,"connected_time":312000000000,"state":"active","ping":59},{"user_id":180,"name":"Lemonade Juice","steam_id":76561198402892608,"connected_time":275000000000,"state":"active","ping":99},{"user_id":156,"name":"cellogamer","steam_id":76561198016937098,"connected_time":2043000000000,"state":"active","ping":56},{"user_id":170,"name":"Shark","steam_id":76561198219031981,"connected_time":863000000000,"state":"active","ping":85},{"user_id":141,"name":"guppy","steam_id":76561198041380190,"connected_time":4042000000000,"state":"active","ping":84},{"user_id":157,"name":"0XR3D","steam_id":76561198832967929,"connected_time":1997000000000,"state":"active","ping":81},{"user_id":160,"name":"MeKaso TropStar","steam_id":76561199109895840,"connected_time":1756000000000,"state":"active","ping":43},{"user_id":171,"name":"Wilma","steam_id":76561198138420251,"connected_time":829000000000,"state":"active","ping":85},{"user_id":172,"name":"1973 Honda Civic","steam_id":76561198366360104,"connected_time":786000000000,"state":"active","ping":64},{"user_id":173,"name":"Punished Kong","steam_id":76561198973620882,"connected_time":773000000000,"state":"active","ping":77}]},{"server_id":15,"name":"Uncletopia | New York City | 3 | Stopwatch","name_short":"nyc-3","host":"nyc-1.us.uncletopia.com","port":27035,"enabled":true,"region":"us-east","cc":"us","latitude":40.73061,"longitude":-73.93524,"reserved":0,"last_update":"0001-01-01T00:00:00Z","name_a2s":"Uncletopia | New York City | 3 | Stopwatch","protocol":17,"map":"workshop/pl_badwater_pro_v12.ugc2142942074","folder":"tf","game":"Team Fortress","app_id":440,"player_count":0,"max_players":24,"Bots":0,"server_type":"Dedicated","server_os":"Linux","password":true,"vac":true,"version":"7961495","steam_id":85568392924742820,"keywords":["nocrits","nodmgspread","payload","uncletopia"],"game_id":440,"stv_port":27036,"stv_name":"Uncletopia | New York City | 3 | Stopwatch | STV","players":null},{"server_id":16,"name":"Uncletopia | New York City | 4 | Community","name_short":"nyc-4","host":"nyc-1.us.uncletopia.com","port":27045,"enabled":true,"region":"us-east","cc":"us","latitude":40.73061,"longitude":-73.93524,"reserved":0,"last_update":"0001-01-01T00:00:00Z","name_a2s":"Uncletopia | New York City | 4 | Community","protocol":17,"map":"workshop/koth_product_final.ugc454272353","folder":"tf","game":"Team Fortress","app_id":440,"player_count":0,"max_players":24,"Bots":0,"server_type":"Dedicated","server_os":"Linux","password":true,"vac":true,"version":"7961495","steam_id":85568392924742821,"keywords":["cp","nocrits","nodmgspread","uncletopia"],"game_id":440,"stv_port":27046,"stv_name":"Uncletopia | New York City | 4 | Community | STV","players":null},{"server_id":142,"name":"Uncletopia | São Paulo | 1 | All Maps","name_short":"sao-1","host":"sao-1.br.uncletopia.com","port":27015,"enabled":true,"region":"sa","cc":"br","latitude":-23.533773,"longitude":-46.62529,"reserved":0,"last_update":"0001-01-01T00:00:00Z","name_a2s":"Uncletopia | São Paulo | 1 | All Maps","protocol":17,"map":"koth_cascade","folder":"tf","game":"Team Fortress","app_id":440,"player_count":2,"max_players":24,"Bots":0,"server_type":"Dedicated","server_os":"Linux","password":true,"vac":true,"version":"7961495","steam_id":85568392924469996,"keywords":["cp","nocrits","nodmgspread","uncletopia"],"game_id":440,"stv_port":27016,"stv_name":"Uncletopia | São Paulo | 1 | All Maps | STV","players":[{"user_id":3,"name":"guarda-chuva","steam_id":76561198078694330,"connected_time":784000000000,"state":"active","ping":51},{"user_id":4,"name":"Tert_14","steam_id":76561198185952289,"connected_time":778000000000,"state":"active","ping":75}]},{"server_id":143,"name":"Uncletopia | São Paulo | 2 | Community","name_short":"sao-2","host":"sao-2.br.uncletopia.com","port":27015,"enabled":true,"region":"sa","cc":"br","latitude":-23.533773,"longitude":-46.62529,"reserved":0,"last_update":"0001-01-01T00:00:00Z","name_a2s":"Uncletopia | São Paulo | 2 | Community","protocol":17,"map":"workshop/pl_divulgence_b4b.ugc2884808746","folder":"tf","game":"Team Fortress","app_id":440,"player_count":0,"max_players":24,"Bots":0,"server_type":"Dedicated","server_os":"Linux","password":true,"vac":true,"version":"7961495","steam_id":85568392924485349,"keywords":["nocrits","nodmgspread","payload","uncletopia"],"game_id":440,"stv_port":27016,"stv_name":"Uncletopia | São Paulo | 2 | Community | STV","players":null},{"server_id":7,"name":"Uncletopia | Seattle | 1 | All Maps","name_short":"sea-1","host":"sea-1.us.uncletopia.com","port":27015,"enabled":true,"region":"us-west","cc":"us","latitude":47.608013,"longitude":-122.33517,"reserved":0,"last_update":"0001-01-01T00:00:00Z","name_a2s":"Uncletopia | Seattle | 1 | All Maps","protocol":17,"map":"pl_borneo","folder":"tf","game":"Team Fortress","app_id":440,"player_count":24,"max_players":24,"Bots":0,"server_type":"Dedicated","server_os":"Linux","password":true,"vac":true,"version":"7961495","steam_id":85568392924469997,"keywords":["nocrits","nodmgspread","payload","uncletopia"],"game_id":440,"stv_port":27016,"stv_name":"Uncletopia | Seattle | 1 | All Maps | STV","players":[{"user_id":89,"name":"Cloud","steam_id":76561198272454184,"connected_time":7353000000000,"state":"active","ping":162},{"user_id":77,"name":"Tibetan Pop Star","steam_id":76561198844903984,"connected_time":7985000000000,"state":"active","ping":72},{"user_id":178,"name":"Little Linguine","steam_id":76561198816986370,"connected_time":213000000000,"state":"active","ping":45},{"user_id":175,"name":"mizurush","steam_id":76561198039595304,"connected_time":650000000000,"state":"active","ping":130},{"user_id":167,"name":"Poppet","steam_id":76561198012301951,"connected_time":2514000000000,"state":"active","ping":105},{"user_id":127,"name":"DragonJimmy","steam_id":76561198272966565,"connected_time":5400000000000,"state":"active","ping":90},{"user_id":162,"name":"TheMagicMrWaffle","steam_id":76561198104357256,"connected_time":2724000000000,"state":"active","ping":68},{"user_id":173,"name":"Dimple #TF2Center","steam_id":76561198980324190,"connected_time":1889000000000,"state":"active","ping":46},{"user_id":152,"name":"Tohbeh","steam_id":76561198191173883,"connected_time":3446000000000,"state":"active","ping":78},{"user_id":160,"name":"FlamingManiac","steam_id":76561198361996837,"connected_time":3104000000000,"state":"active","ping":120},{"user_id":139,"name":"slushy :))","steam_id":76561198135281802,"connected_time":4323000000000,"state":"active","ping":33},{"user_id":145,"name":"prime example of furry L","steam_id":76561198097745857,"connected_time":3839000000000,"state":"active","ping":55},{"user_id":177,"name":"Mr8bittripper","steam_id":76561198133894229,"connected_time":285000000000,"state":"active","ping":40},{"user_id":168,"name":"hyazZaZa","steam_id":76561199100342013,"connected_time":2509000000000,"state":"active","ping":75},{"user_id":146,"name":"Pneumo.","steam_id":76561197987911883,"connected_time":3775000000000,"state":"active","ping":58},{"user_id":174,"name":"CashGordon","steam_id":76561197975594096,"connected_time":796000000000,"state":"active","ping":39},{"user_id":70,"name":"CasemanTheBlondeBear","steam_id":76561198144862404,"connected_time":8822000000000,"state":"active","ping":49},{"user_id":163,"name":"[BBC] myr","steam_id":76561198200786939,"connected_time":2721000000000,"state":"active","ping":39},{"user_id":165,"name":"SoldMyKidneyForCollege","steam_id":76561198096329559,"connected_time":2695000000000,"state":"active","ping":56},{"user_id":171,"name":"australian killstreak scattergu","steam_id":76561199488457138,"connected_time":2199000000000,"state":"active","ping":58},{"user_id":169,"name":"Laney","steam_id":76561199048555878,"connected_time":2498000000000,"state":"active","ping":46},{"user_id":106,"name":"InfernoBane","steam_id":76561197997742994,"connected_time":6643000000000,"state":"active","ping":114},{"user_id":170,"name":"Derek aka Derek","steam_id":76561198085711254,"connected_time":2240000000000,"state":"active","ping":98},{"user_id":143,"name":"UserLeft","steam_id":76561197998297379,"connected_time":4115000000000,"state":"active","ping":59}]},{"server_id":119,"name":"Uncletopia | Seattle | 2 | All Maps","name_short":"sea-2","host":"sea-1.us.uncletopia.com","port":27025,"enabled":true,"region":"us-west","cc":"us","latitude":47.608013,"longitude":-122.33517,"reserved":0,"last_update":"0001-01-01T00:00:00Z","name_a2s":"Uncletopia | Seattle | 2 | All Maps","protocol":17,"map":"koth_viaduct","folder":"tf","game":"Team Fortress","app_id":440,"player_count":0,"max_players":24,"Bots":0,"server_type":"Dedicated","server_os":"Linux","password":true,"vac":true,"version":"7961495","steam_id":85568392924469998,"keywords":["cp","nocrits","nodmgspread","uncletopia"],"game_id":440,"stv_port":27026,"stv_name":"Uncletopia | Seattle | 2 | All Maps | STV","players":null},{"server_id":406,"name":"Uncletopia | Seattle | 3 | Stopwatch","name_short":"sea-3","host":"sea-1.us.uncletopia.com","port":27035,"enabled":true,"region":"us-west","cc":"us","latitude":47.608013,"longitude":-122.33517,"reserved":0,"last_update":"0001-01-01T00:00:00Z","name_a2s":"Uncletopia | Seattle | 3 | Stopwatch","protocol":17,"map":"cp_process_final","folder":"tf","game":"Team Fortress","app_id":440,"player_count":0,"max_players":24,"Bots":0,"server_type":"Dedicated","server_os":"Linux","password":true,"vac":true,"version":"7961495","steam_id":85568392924515217,"keywords":["cp","nocrits","nodmgspread","uncletopia"],"game_id":440,"stv_port":27036,"stv_name":"Uncletopia | Seattle | 3 | Stopwatch | STV","players":null},{"server_id":17,"name":"Uncletopia | San Francisco | 1 | All Maps","name_short":"sfo-1","host":"sfo-1.us.uncletopia.com","port":27015,"enabled":true,"region":"us-west","cc":"us","latitude":37.77397,"longitude":-122.4313,"reserved":0,"last_update":"0001-01-01T00:00:00Z","name_a2s":"Uncletopia | San Francisco | 1 | All Maps","protocol":17,"map":"koth_cascade","folder":"tf","game":"Team Fortress","app_id":440,"player_count":4,"max_players":24,"Bots":0,"server_type":"Dedicated","server_os":"Linux","password":true,"vac":true,"version":"7961495","steam_id":85568392924469999,"keywords":["cp","nocrits","nodmgspread","uncletopia"],"game_id":440,"stv_port":27016,"stv_name":"Uncletopia | San Francisco | 1 | All Maps | STV","players":[{"user_id":15,"name":"Finger","steam_id":76561199119799113,"connected_time":296000000000,"state":"active","ping":64},{"user_id":16,"name":"Doppelgänger","steam_id":76561198036730436,"connected_time":34000000000,"state":"spawning","ping":59},{"user_id":8,"name":"Qipo14","steam_id":76561199470028986,"connected_time":920000000000,"state":"active","ping":94},{"user_id":10,"name":"RollerIsNotDumb","steam_id":76561198995686399,"connected_time":438000000000,"state":"active","ping":125}]},{"server_id":18,"name":"Uncletopia | San Francisco | 2 | All Maps","name_short":"sfo-2","host":"sfo-1.us.uncletopia.com","port":27025,"enabled":true,"region":"us-west","cc":"us","latitude":37.77397,"longitude":-122.4313,"reserved":0,"last_update":"0001-01-01T00:00:00Z","name_a2s":"Uncletopia | San Francisco | 2 | All Maps","protocol":17,"map":"pl_frontier_final","folder":"tf","game":"Team Fortress","app_id":440,"player_count":0,"max_players":24,"Bots":0,"server_type":"Dedicated","server_os":"Linux","password":true,"vac":true,"version":"7961495","steam_id":85568392924470000,"keywords":["nocrits","nodmgspread","payload","uncletopia"],"game_id":440,"stv_port":27026,"stv_name":"Uncletopia | San Francisco | 2 | All Maps | STV","players":null},{"server_id":19,"name":"Uncletopia | San Francisco | 3 | Stopwatch","name_short":"sfo-3","host":"sfo-1.us.uncletopia.com","port":27035,"enabled":true,"region":"us-west","cc":"us","latitude":37.77397,"longitude":-122.4313,"reserved":0,"last_update":"0001-01-01T00:00:00Z","name_a2s":"Uncletopia | San Francisco | 3 | Stopwatch","protocol":17,"map":"pl_pier","folder":"tf","game":"Team Fortress","app_id":440,"player_count":0,"max_players":24,"Bots":0,"server_type":"Dedicated","server_os":"Linux","password":true,"vac":true,"version":"7961495","steam_id":85568392924742824,"keywords":["nocrits","nodmgspread","payload","uncletopia"],"game_id":440,"stv_port":27036,"stv_name":"Uncletopia | San Francisco | 3 | Stopwatch | STV","players":null},{"server_id":20,"name":"Uncletopia | San Francisco | 4 | Community","name_short":"sfo-4","host":"sfo-1.us.uncletopia.com","port":27045,"enabled":true,"region":"us-west","cc":"us","latitude":37.77397,"longitude":-122.4313,"reserved":0,"last_update":"0001-01-01T00:00:00Z","name_a2s":"Uncletopia | San Francisco | 4 | Community","protocol":17,"map":"pl_pier","folder":"tf","game":"Team Fortress","app_id":440,"player_count":0,"max_players":24,"Bots":0,"server_type":"Dedicated","server_os":"Linux","password":true,"vac":true,"version":"7961495","steam_id":85568392924742826,"keywords":["nocrits","nodmgspread","payload","uncletopia"],"game_id":440,"stv_port":27046,"stv_name":"Uncletopia | San Francisco | 4 | Community | STV","players":null},{"server_id":141,"name":"Uncletopia | Sydney | 1 | All Maps","name_short":"syd-1","host":"syd-1.au.uncletopia.com","port":27015,"enabled":true,"region":"au","cc":"au","latitude":-33.865143,"longitude":151.2099,"reserved":0,"last_update":"0001-01-01T00:00:00Z","name_a2s":"Uncletopia | Sydney | 1 | All Maps","protocol":17,"map":"pl_barnblitz","folder":"tf","game":"Team Fortress","app_id":440,"player_count":0,"max_players":24,"Bots":0,"server_type":"Dedicated","server_os":"Linux","password":true,"vac":true,"version":"7961495","steam_id":85568392924470001,"keywords":["nocrits","nodmgspread","payload","uncletopia"],"game_id":440,"stv_port":27016,"stv_name":"Uncletopia | Sydney | 1 | All Maps | STV","players":null},{"server_id":123,"name":"Uncletopia | Sydney | 2 | All Maps","name_short":"syd-2","host":"syd-1.au.uncletopia.com","port":27025,"enabled":true,"region":"au","cc":"au","latitude":-33.865143,"longitude":151.2099,"reserved":0,"last_update":"0001-01-01T00:00:00Z","name_a2s":"Uncletopia | Sydney | 2 | All Maps","protocol":17,"map":"pl_swiftwater_final1","folder":"tf","game":"Team Fortress","app_id":440,"player_count":0,"max_players":24,"Bots":0,"server_type":"Dedicated","server_os":"Linux","password":true,"vac":true,"version":"7961495","steam_id":85568392924470002,"keywords":["nocrits","nodmgspread","payload","uncletopia"],"game_id":440,"stv_port":27026,"stv_name":"Uncletopia | Sydney | 2 | All Maps | STV","players":null},{"server_id":395,"name":"Uncletopia | Sydney | 3 | All Maps","name_short":"syd-3","host":"syd-1.au.uncletopia.com","port":27035,"enabled":true,"region":"au","cc":"au","latitude":-33.865143,"longitude":151.2099,"reserved":0,"last_update":"0001-01-01T00:00:00Z","name_a2s":"Uncletopia | Sydney | 3 | All Maps","protocol":17,"map":"pl_borneo","folder":"tf","game":"Team Fortress","app_id":440,"player_count":0,"max_players":24,"Bots":0,"server_type":"Dedicated","server_os":"Linux","password":true,"vac":true,"version":"7961495","steam_id":85568392925194467,"keywords":["nocrits","nodmgspread","payload","uncletopia"],"game_id":440,"stv_port":27036,"stv_name":"Uncletopia | Sydney | 3 | All Maps | STV","players":null},{"server_id":396,"name":"Uncletopia | Sydney | 4 | All Maps","name_short":"syd-4","host":"syd-1.au.uncletopia.com","port":27045,"enabled":true,"region":"au","cc":"au","latitude":-33.865143,"longitude":151.2099,"reserved":0,"last_update":"0001-01-01T00:00:00Z","name_a2s":"Uncletopia | Sydney | 4 | All Maps","protocol":17,"map":"koth_lakeside_final","folder":"tf","game":"Team Fortress","app_id":440,"player_count":0,"max_players":24,"Bots":0,"server_type":"Dedicated","server_os":"Linux","password":true,"vac":true,"version":"7961495","steam_id":85568392925397958,"keywords":["cp","nocrits","nodmgspread","uncletopia"],"game_id":440,"stv_port":27046,"stv_name":"Uncletopia | Sydney | 4 | All Maps | STV","players":null},{"server_id":58,"name":"Uncletopia | Sydney | 5 | Stopwatch","name_short":"syd-5","host":"syd-1.au.uncletopia.com","port":27055,"enabled":true,"region":"au","cc":"au","latitude":-33.865143,"longitude":151.2099,"reserved":0,"last_update":"0001-01-01T00:00:00Z","name_a2s":"Uncletopia | Sydney | 5 | Stopwatch","protocol":17,"map":"workshop/cp_reckoner_rc6.ugc674719999","folder":"tf","game":"Team Fortress","app_id":440,"player_count":0,"max_players":24,"Bots":0,"server_type":"Dedicated","server_os":"Linux","password":true,"vac":true,"version":"7961495","steam_id":85568392925397959,"keywords":["cp","nocrits","nodmgspread","uncletopia"],"game_id":440,"stv_port":27056,"stv_name":"Uncletopia | Sydney | 5 | Stopwatch | STV","players":null},{"server_id":59,"name":"Uncletopia | Sydney | 6 | Community","name_short":"syd-6","host":"syd-1.au.uncletopia.com","port":27065,"enabled":true,"region":"au","cc":"au","latitude":-33.865143,"longitude":151.2099,"reserved":0,"last_update":"0001-01-01T00:00:00Z","name_a2s":"Uncletopia | Sydney | 6 | Community","protocol":17,"map":"workshop/pl_badwater_pro_v12.ugc2142942074","folder":"tf","game":"Team Fortress","app_id":440,"player_count":0,"max_players":24,"Bots":0,"server_type":"Dedicated","server_os":"Linux","password":true,"vac":true,"version":"7961495","steam_id":85568392925397960,"keywords":["nocrits","nodmgspread","payload","uncletopia"],"game_id":440,"stv_port":27066,"stv_name":"Uncletopia | Sydney | 6 | Community | STV","players":null},{"server_id":49,"name":"Uncletopia | Warsaw | 1 | One Thousand Uncles","name_short":"waw-1","host":"waw-1.pl.uncletopia.com","port":27015,"enabled":true,"region":"eu","cc":"pl","latitude":52.2297,"longitude":21.017532,"reserved":0,"last_update":"0001-01-01T00:00:00Z","name_a2s":"Uncletopia | Warsaw | 1 | One Thousand Uncles","protocol":17,"map":"cp_dustbowl","folder":"tf","game":"Team Fortress","app_id":440,"player_count":20,"max_players":32,"Bots":16,"server_type":"Dedicated","server_os":"Linux","password":true,"vac":true,"version":"7961495","steam_id":85568392925397850,"keywords":["alltalk","bots","cp","danepve","increased_maxplayers","nocrits","norespawntime","uncletopia"],"game_id":440,"stv_port":0,"stv_name":"","players":[{"user_id":419,"name":"A Blåhaj Fan","steam_id":76561199029212388,"connected_time":4479000000000,"state":"active","ping":38},{"user_id":435,"name":"WOW i'm dead","steam_id":76561199082267619,"connected_time":145000000000,"state":"active","ping":69},{"user_id":426,"name":"?TheEnd","steam_id":76561198055280327,"connected_time":2564000000000,"state":"active","ping":57},{"user_id":434,"name":"Punk","steam_id":76561198268369013,"connected_time":660000000000,"state":"active","ping":78}]},{"server_id":50,"name":"Uncletopia | Warsaw | 2 | One Thousand Uncles","name_short":"waw-2","host":"waw-1.pl.uncletopia.com","port":27025,"enabled":true,"region":"eu","cc":"pl","latitude":52.2297,"longitude":21.017532,"reserved":0,"last_update":"0001-01-01T00:00:00Z","name_a2s":"Uncletopia | Warsaw | 2 | One Thousand Uncles","protocol":17,"map":"cp_egypt_final","folder":"tf","game":"Team Fortress","app_id":440,"player_count":29,"max_players":32,"Bots":16,"server_type":"Dedicated","server_os":"Linux","password":true,"vac":true,"version":"7961495","steam_id":85568392925397851,"keywords":["alltalk","bots","cp","danepve","increased_maxplayers","nocrits","norespawntime","uncletopia"],"game_id":440,"stv_port":0,"stv_name":"","players":[{"user_id":173,"name":"yusufkaanutkan","steam_id":76561199445549640,"connected_time":542000000000,"state":"active","ping":196},{"user_id":104,"name":"Eujekas","steam_id":76561198010527145,"connected_time":3185000000000,"state":"active","ping":117},{"user_id":139,"name":"JuJuMann","steam_id":76561198289461028,"connected_time":2463000000000,"state":"active","ping":184},{"user_id":79,"name":"slifty","steam_id":76561198166682199,"connected_time":5527000000000,"state":"active","ping":88},{"user_id":176,"name":"random guy [pl]","steam_id":76561199268205212,"connected_time":223000000000,"state":"active","ping":64},{"user_id":142,"name":"lagzer","steam_id":76561198029295449,"connected_time":2183000000000,"state":"active","ping":49},{"user_id":177,"name":"Jered","steam_id":76561198834692136,"connected_time":176000000000,"state":"active","ping":75},{"user_id":107,"name":"aolkdi","steam_id":76561198025479415,"connected_time":3002000000000,"state":"active","ping":131},{"user_id":143,"name":"lord-carlos","steam_id":76561198025150761,"connected_time":1980000000000,"state":"active","ping":72},{"user_id":147,"name":"^.crouvean","steam_id":76561197979156411,"connected_time":1708000000000,"state":"active","ping":72},{"user_id":98,"name":"night.s","steam_id":76561198326287823,"connected_time":3896000000000,"state":"active","ping":98},{"user_id":116,"name":"Nick","steam_id":76561198036109469,"connected_time":2706000000000,"state":"active","ping":59},{"user_id":119,"name":"Wolfdad Duke","steam_id":76561197986442930,"connected_time":2643000000000,"state":"active","ping":83}]},{"server_id":51,"name":"Uncletopia | Warsaw | 3 | All Maps","name_short":"waw-3","host":"waw-1.pl.uncletopia.com","port":27035,"enabled":true,"region":"eu","cc":"pl","latitude":52.2297,"longitude":21.017532,"reserved":0,"last_update":"0001-01-01T00:00:00Z","name_a2s":"Uncletopia | Warsaw | 3 | All Maps","protocol":17,"map":"cp_gorge","folder":"tf","game":"Team Fortress","app_id":440,"player_count":23,"max_players":24,"Bots":0,"server_type":"Dedicated","server_os":"Linux","password":true,"vac":true,"version":"7961495","steam_id":85568392925397852,"keywords":["cp","nocrits","nodmgspread","uncletopia"],"game_id":440,"stv_port":27036,"stv_name":"Uncletopia | Warsaw | 3 | All Maps | STV","players":[{"user_id":8,"name":"sauli01","steam_id":76561198069149120,"connected_time":5613000000000,"state":"active","ping":85},{"user_id":94,"name":"GGabe","steam_id":76561198117199068,"connected_time":39000000000,"state":"active","ping":75},{"user_id":10,"name":"Lakki","steam_id":76561198137595103,"connected_time":5519000000000,"state":"active","ping":87},{"user_id":11,"name":"i am injury","steam_id":76561198276854922,"connected_time":5515000000000,"state":"active","ping":96},{"user_id":66,"name":"Tuosan","steam_id":76561198062611429,"connected_time":1883000000000,"state":"active","ping":90},{"user_id":92,"name":"Stinktastic Nornia","steam_id":76561198040509712,"connected_time":342000000000,"state":"active","ping":77},{"user_id":82,"name":"KirikoneG","steam_id":76561198075752272,"connected_time":884000000000,"state":"active","ping":121},{"user_id":70,"name":"random guy (real)","steam_id":76561199199499453,"connected_time":1366000000000,"state":"active","ping":78},{"user_id":19,"name":"Average Gibus Enjoyer","steam_id":76561199410300277,"connected_time":5187000000000,"state":"active","ping":86},{"user_id":67,"name":"Blastrock64","steam_id":76561199008932704,"connected_time":1861000000000,"state":"active","ping":95},{"user_id":54,"name":"The One (and only)","steam_id":76561198827193499,"connected_time":2670000000000,"state":"active","ping":70},{"user_id":93,"name":"chickenoidi","steam_id":76561198449498382,"connected_time":53000000000,"state":"active","ping":116},{"user_id":78,"name":"TheKees301","steam_id":76561198827506371,"connected_time":1025000000000,"state":"active","ping":87},{"user_id":73,"name":"Madlag","steam_id":76561199481854201,"connected_time":1331000000000,"state":"active","ping":141},{"user_id":35,"name":"CheesingBond","steam_id":76561198034939270,"connected_time":3416000000000,"state":"active","ping":105},{"user_id":61,"name":"Creative","steam_id":76561198835034247,"connected_time":2445000000000,"state":"active","ping":99},{"user_id":81,"name":"Lynx","steam_id":76561199274008207,"connected_time":968000000000,"state":"active","ping":56},{"user_id":68,"name":"Bounty","steam_id":76561198032698137,"connected_time":1853000000000,"state":"active","ping":33},{"user_id":77,"name":"LOBZIK","steam_id":76561198114830120,"connected_time":1070000000000,"state":"active","ping":48},{"user_id":79,"name":"grigobno","steam_id":76561198037018719,"connected_time":1022000000000,"state":"active","ping":102},{"user_id":90,"name":"Alexair","steam_id":76561199022206498,"connected_time":385000000000,"state":"active","ping":56},{"user_id":60,"name":"Long Necked Giraffe Mom","steam_id":76561198184357209,"connected_time":2506000000000,"state":"active","ping":88},{"user_id":80,"name":"Gooner","steam_id":76561198087035309,"connected_time":1012000000000,"state":"active","ping":35}]},{"server_id":52,"name":"Uncletopia | Warsaw | 4 | All Maps","name_short":"waw-4","host":"waw-1.pl.uncletopia.com","port":27045,"enabled":true,"region":"eu","cc":"pl","latitude":52.2297,"longitude":21.017532,"reserved":0,"last_update":"0001-01-01T00:00:00Z","name_a2s":"Uncletopia | Warsaw | 4 | All Maps","protocol":17,"map":"koth_cascade","folder":"tf","game":"Team Fortress","app_id":440,"player_count":0,"max_players":24,"Bots":0,"server_type":"Dedicated","server_os":"Linux","password":true,"vac":true,"version":"7961495","steam_id":85568392925397853,"keywords":["cp","nocrits","nodmgspread","uncletopia"],"game_id":440,"stv_port":27046,"stv_name":"Uncletopia | Warsaw | 4 | All Maps | STV","players":null},{"server_id":53,"name":"Uncletopia | Warsaw | 5 | Stopwatch","name_short":"waw-5","host":"waw-1.pl.uncletopia.com","port":27055,"enabled":true,"region":"eu","cc":"pl","latitude":52.2297,"longitude":21.017532,"reserved":0,"last_update":"0001-01-01T00:00:00Z","name_a2s":"Uncletopia | Warsaw | 5 | Stopwatch","protocol":17,"map":"cp_granary","folder":"tf","game":"Team Fortress","app_id":440,"player_count":0,"max_players":24,"Bots":0,"server_type":"Dedicated","server_os":"Linux","password":true,"vac":true,"version":"7961495","steam_id":85568392925397854,"keywords":["cp","nocrits","nodmgspread","uncletopia"],"game_id":440,"stv_port":27056,"stv_name":"Uncletopia | Warsaw | 5 | Stopwatch | STV","players":null},{"server_id":54,"name":"Uncletopia | Warsaw | 6 | Community","name_short":"waw-6","host":"waw-1.pl.uncletopia.com","port":27065,"enabled":true,"region":"eu","cc":"pl","latitude":52.2297,"longitude":21.017532,"reserved":0,"last_update":"0001-01-01T00:00:00Z","name_a2s":"Uncletopia | Warsaw | 6 | Community","protocol":17,"map":"workshop/koth_kemptown_rc1.ugc767410655","folder":"tf","game":"Team Fortress","app_id":440,"player_count":0,"max_players":24,"Bots":0,"server_type":"Dedicated","server_os":"Linux","password":true,"vac":true,"version":"7961495","steam_id":85568392925397856,"keywords":["cp","nocrits","nodmgspread","uncletopia"],"game_id":440,"stv_port":27066,"stv_name":"Uncletopia | Warsaw | 6 | Community | STV","players":null}]}