{"status":true,"message":"","result":[{"server_id":9,"name":"Uncletopia | Atlanta | 1 | All Maps","name_short":"atl-1","host":"atl-1.us.uncletopia.com","port":27015,"enabled":true,"region":"us-east","cc":"us","latitude":33.753746,"longitude":-84.38633,"reserved":0,"last_update":"0001-01-01T00:00:00Z","name_a2s":"Uncletopia | Atlanta | 1 | All Maps","protocol":17,"map":"koth_cascade","folder":"tf","game":"Team Fortress","app_id":440,"player_count":0,"max_players":24,"Bots":0,"server_type":"Dedicated","server_os":"Linux","password":true,"vac":true,"version":"7757534","steam_id":85568392924469982,"keywords":["cp","nocrits","nodmgspread","uncletopia"],"game_id":440,"stv_port":27016,"stv_name":"Uncletopia | Atlanta | 1 | All Maps | STV","players":null},{"server_id":104,"name":"Uncletopia | Atlanta | 2 | All Maps","name_short":"atl-2","host":"atl-1.us.uncletopia.com","port":27025,"enabled":true,"region":"us-east","cc":"us","latitude":33.753746,"longitude":-84.38633,"reserved":0,"last_update":"0001-01-01T00:00:00Z","name_a2s":"Uncletopia | Atlanta | 2 | All Maps","protocol":17,"map":"cp_dustbowl","folder":"tf","game":"Team Fortress","app_id":440,"player_count":0,"max_players":24,"Bots":0,"server_type":"Dedicated","server_os":"Linux","password":true,"vac":true,"version":"7757534","steam_id":85568392924469983,"keywords":["cp","nocrits","nodmgspread","uncletopia"],"game_id":440,"stv_port":27026,"stv_name":"Uncletopia | Atlanta | 2 | All Maps | STV","players":null},{"server_id":400,"name":"Uncletopia | Atlanta | 3 | Community","name_short":"atl-3","host":"atl-1.us.uncletopia.com","port":27035,"enabled":true,"region":"us-east","cc":"us","latitude":33.753746,"longitude":-84.38633,"reserved":0,"last_update":"0001-01-01T00:00:00Z","name_a2s":"Uncletopia | Atlanta | 3 | Community","protocol":17,"map":"cp_snakewater_final1","folder":"tf","game":"Team Fortress","app_id":440,"player_count":0,"max_players":24,"Bots":0,"server_type":"Dedicated","server_os":"Linux","password":true,"vac":true,"version":"7757534","steam_id":85568392924515187,"keywords":["cp","nocrits","nodmgspread","uncletopia"],"game_id":440,"stv_port":27036,"stv_name":"Uncletopia | Atlanta | 3 | Community | STV","players":null},{"server_id":401,"name":"Uncletopia | Atlanta | 4 | No Payload","name_short":"atl-4","host":"atl-1.us.uncletopia.com","port":27045,"enabled":true,"region":"us-east","cc":"us","latitude":33.753746,"longitude":-84.38633,"reserved":0,"last_update":"0001-01-01T00:00:00Z","name_a2s":"","protocol":0,"map":"","folder":"","game":"","app_id":0,"player_count":0,"max_players":0,"Bots":0,"server_type":"","server_os":"","password":false,"vac":false,"version":"","steam_id":0,"keywords":null,"game_id":0,"stv_port":0,"stv_name":"","players":null},{"server_id":2,"name":"Uncletopia | Chicago | 1 | All Maps","name_short":"chi-1","host":"chi-1.us.uncletopia.com","port":27015,"enabled":true,"region":"us-central","cc":"us","latitude":41.881832,"longitude":-87.62318,"reserved":0,"last_update":"0001-01-01T00:00:00Z","name_a2s":"Uncletopia | Chicago | 1 | All Maps","protocol":17,"map":"pl_barnblitz","folder":"tf","game":"Team Fortress","app_id":440,"player_count":19,"max_players":24,"Bots":0,"server_type":"Dedicated","server_os":"Linux","password":true,"vac":true,"version":"7757534","steam_id":85568392924469984,"keywords":["nocrits","nodmgspread","payload","uncletopia"],"game_id":440,"stv_port":27016,"stv_name":"Uncletopia | Chicago | 1 | All Maps | STV","players":[{"user_id":3,"name":"DeadlyDora","steam_id":76561198356453866,"connected_time":824000000000,"state":"active","ping":60},{"user_id":4,"name":"yer_nerd","steam_id":76561199435454093,"connected_time":749000000000,"state":"active","ping":64},{"user_id":5,"name":"JAB.exe #Savetf2","steam_id":76561198407652409,"connected_time":575000000000,"state":"active","ping":72},{"user_id":6,"name":"googa","steam_id":76561198133130452,"connected_time":537000000000,"state":"active","ping":53},{"user_id":12,"name":"Nassu","steam_id":76561198147367577,"connected_time":204000000000,"state":"active","ping":69},{"user_id":8,"name":"BakedPie","steam_id":76561198220165036,"connected_time":525000000000,"state":"active","ping":69},{"user_id":9,"name":"penguinlord","steam_id":76561198305192692,"connected_time":518000000000,"state":"active","ping":51},{"user_id":10,"name":"Dr. Hashbrown","steam_id":76561198410780370,"connected_time":497000000000,"state":"active","ping":94},{"user_id":11,"name":"Chiki","steam_id":76561198063590320,"connected_time":375000000000,"state":"active","ping":64},{"user_id":13,"name":"lucky","steam_id":76561198323426623,"connected_time":155000000000,"state":"active","ping":98},{"user_id":14,"name":"new yeat album","steam_id":76561198328109873,"connected_time":137000000000,"state":"active","ping":76},{"user_id":15,"name":"Cookies n Milk","steam_id":76561198071075134,"connected_time":135000000000,"state":"active","ping":80},{"user_id":16,"name":"Sparky","steam_id":76561198114574421,"connected_time":119000000000,"state":"active","ping":70},{"user_id":17,"name":"Mr.noob","steam_id":76561199200442395,"connected_time":88000000000,"state":"active","ping":168},{"user_id":18,"name":"RedSock","steam_id":76561198161243404,"connected_time":73000000000,"state":"active","ping":41},{"user_id":19,"name":"fish 2","steam_id":76561199208652572,"connected_time":63000000000,"state":"active","ping":84},{"user_id":20,"name":"PooSmoker","steam_id":76561198254312303,"connected_time":58000000000,"state":"active","ping":83},{"user_id":21,"name":"Veirū Viseris","steam_id":76561197989857176,"connected_time":7000000000,"state":"spawning","ping":161},{"user_id":22,"name":"The Loveable CHI.I.BI.","steam_id":76561198039262228,"connected_time":0,"state":"connecting","ping":0}]},{"server_id":106,"name":"Uncletopia | Chicago | 2 | All Maps","name_short":"chi-2","host":"chi-1.us.uncletopia.com","port":27025,"enabled":true,"region":"us-central","cc":"us","latitude":41.881832,"longitude":-87.62318,"reserved":0,"last_update":"0001-01-01T00:00:00Z","name_a2s":"Uncletopia | Chicago | 2 | All Maps","protocol":17,"map":"cp_mountainlab","folder":"tf","game":"Team Fortress","app_id":440,"player_count":0,"max_players":24,"Bots":0,"server_type":"Dedicated","server_os":"Linux","password":true,"vac":true,"version":"7757534","steam_id":85568392924469985,"keywords":["cp","nocrits","nodmgspread","uncletopia"],"game_id":440,"stv_port":27026,"stv_name":"Uncletopia | Chicago | 2 | All Maps | STV","players":null},{"server_id":402,"name":"Uncletopia | Chicago | 3 | All Maps","name_short":"chi-3","host":"chi-1.us.uncletopia.com","port":27035,"enabled":true,"region":"us-central","cc":"us","latitude":41.881832,"longitude":-87.62318,"reserved":0,"last_update":"0001-01-01T00:00:00Z","name_a2s":"Uncletopia | Chicago | 3 | All Maps","protocol":17,"map":"cp_sunshine","folder":"tf","game":"Team Fortress","app_id":440,"player_count":0,"max_players":24,"Bots":0,"server_type":"Dedicated","server_os":"Linux","password":true,"vac":true,"version":"7757534","steam_id":85568392924515191,"keywords":["cp","nocrits","nodmgspread","uncletopia"],"game_id":440,"stv_port":27036,"stv_name":"Uncletopia | Chicago | 3 | All Maps | STV","players":null},{"server_id":403,"name":"Uncletopia | Chicago | 4 | All Maps","name_short":"chi-4","host":"chi-1.us.uncletopia.com","port":27045,"enabled":true,"region":"us-central","cc":"us","latitude":41.881832,"longitude":-87.62318,"reserved":0,"last_update":"0001-01-01T00:00:00Z","name_a2s":"Uncletopia | Chicago | 4 | All Maps","protocol":17,"map":"koth_lakeside_final","folder":"tf","game":"Team Fortress","app_id":440,"player_count":0,"max_players":24,"Bots":0,"server_type":"Dedicated","server_os":"Linux","password":true,"vac":true,"version":"7757534","steam_id":85568392924515193,"keywords":["cp","nocrits","nodmgspread","uncletopia"],"game_id":440,"stv_port":27046,"stv_name":"Uncletopia | Chicago | 4 | All Maps | STV","players":null},{"server_id":36,"name":"Uncletopia | Chicago | 5 | All Maps","name_short":"chi-5","host":"chi-2.us.uncletopia.com","port":27015,"enabled":true,"region":"us-central","cc":"us","latitude":41.881832,"longitude":-87.62318,"reserved":0,"last_update":"0001-01-01T00:00:00Z","name_a2s":"Uncletopia | Chicago | 5 | All Maps","protocol":17,"map":"koth_cascade","folder":"tf","game":"Team Fortress","app_id":440,"player_count":0,"max_players":24,"Bots":0,"server_type":"Dedicated","server_os":"Linux","password":true,"vac":true,"version":"7757534","steam_id":85568392924866362,"keywords":["cp","nocrits","nodmgspread","uncletopia"],"game_id":440,"stv_port":27016,"stv_name":"Uncletopia | Chicago | 5 | All Maps | STV","players":null},{"server_id":37,"name":"Uncletopia | Chicago | 6 | All Maps","name_short":"chi-6","host":"chi-2.us.uncletopia.com","port":27025,"enabled":true,"region":"us-central","cc":"us","latitude":41.881832,"longitude":-87.62318,"reserved":0,"last_update":"0001-01-01T00:00:00Z","name_a2s":"Uncletopia | Chicago | 6 | All Maps","protocol":17,"map":"pl_borneo","folder":"tf","game":"Team Fortress","app_id":440,"player_count":0,"max_players":24,"Bots":0,"server_type":"Dedicated","server_os":"Linux","password":true,"vac":true,"version":"7757534","steam_id":85568392924866363,"keywords":["nocrits","nodmgspread","payload","uncletopia"],"game_id":440,"stv_port":27026,"stv_name":"Uncletopia | Chicago | 6 | All Maps | STV","players":null},{"server_id":38,"name":"Uncletopia | Chicago | 7 | Stopwatch Beta","name_short":"chi-7","host":"chi-2.us.uncletopia.com","port":27035,"enabled":true,"region":"us-central","cc":"us","latitude":41.881832,"longitude":-87.62318,"reserved":0,"last_update":"0001-01-01T00:00:00Z","name_a2s":"Uncletopia | Chicago | 7 | Stopwatch Beta","protocol":17,"map":"pl_barnblitz","folder":"tf","game":"Team Fortress","app_id":440,"player_count":0,"max_players":24,"Bots":0,"server_type":"Dedicated","server_os":"Linux","password":true,"vac":true,"version":"7757534","steam_id":85568392924866364,"keywords":["nocrits","nodmgspread","payload","uncletopia"],"game_id":440,"stv_port":27036,"stv_name":"Uncletopia | Chicago | 7 | Stopwatch Beta | STV","players":null},{"server_id":39,"name":"Uncletopia | Chicago | 8 | Community","name_short":"chi-8","host":"chi-2.us.uncletopia.com","port":27045,"enabled":true,"region":"us-central","cc":"us","latitude":41.881832,"longitude":-87.62318,"reserved":0,"last_update":"0001-01-01T00:00:00Z","name_a2s":"Uncletopia | Chicago | 8 | Community","protocol":17,"map":"koth_cascade","folder":"tf","game":"Team Fortress","app_id":440,"player_count":0,"max_players":24,"Bots":0,"server_type":"Dedicated","server_os":"Linux","password":true,"vac":true,"version":"7757534","steam_id":85568392924866365,"keywords":["cp","nocrits","nodmgspread","uncletopia"],"game_id":440,"stv_port":27046,"stv_name":"Uncletopia | Chicago | 8 | Community | STV","players":null},{"server_id":8,"name":"Uncletopia | Dallas | 1 | All Maps","name_short":"dal-1","host":"dal-1.us.uncletopia.com","port":27015,"enabled":true,"region":"us-central","cc":"us","latitude":32.779167,"longitude":-96.80889,"reserved":0,"last_update":"0001-01-01T00:00:00Z","name_a2s":"Uncletopia | Dallas | 1 | All Maps","protocol":17,"map":"koth_cascade","folder":"tf","game":"Team Fortress","app_id":440,"player_count":0,"max_players":24,"Bots":0,"server_type":"Dedicated","server_os":"Linux","password":true,"vac":true,"version":"7757534","steam_id":85568392924469986,"keywords":["cp","nocrits","nodmgspread","uncletopia"],"game_id":440,"stv_port":27016,"stv_name":"Uncletopia | Dallas | 1 | All Maps | STV","players":null},{"server_id":108,"name":"Uncletopia | Dallas | 2 | All Maps","name_short":"dal-2","host":"dal-1.us.uncletopia.com","port":27025,"enabled":true,"region":"us-central","cc":"us","latitude":32.779167,"longitude":-96.80889,"reserved":0,"last_update":"0001-01-01T00:00:00Z","name_a2s":"Uncletopia | Dallas | 2 | All Maps","protocol":17,"map":"pl_upward","folder":"tf","game":"Team Fortress","app_id":440,"player_count":0,"max_players":24,"Bots":0,"server_type":"Dedicated","server_os":"Linux","password":true,"vac":true,"version":"7757534","steam_id":85568392924469988,"keywords":["nocrits","nodmgspread","payload","uncletopia"],"game_id":440,"stv_port":27026,"stv_name":"Uncletopia | Dallas | 2 | All Maps | STV","players":null},{"server_id":5,"name":"Uncletopia | Frankfurt | 1 | All Maps","name_short":"frk-1","host":"frk-1.de.uncletopia.com","port":27015,"enabled":true,"region":"eu","cc":"de","latitude":50.110924,"longitude":8.682127,"reserved":0,"last_update":"0001-01-01T00:00:00Z","name_a2s":"Uncletopia | Frankfurt | 1 | All Maps","protocol":17,"map":"pl_frontier_final","folder":"tf","game":"Team Fortress","app_id":440,"player_count":24,"max_players":24,"Bots":0,"server_type":"Dedicated","server_os":"Linux","password":true,"vac":true,"version":"7757534","steam_id":85568392924469989,"keywords":["nocrits","nodmgspread","payload","uncletopia"],"game_id":440,"stv_port":27016,"stv_name":"Uncletopia | Frankfurt | 1 | All Maps | STV","players":[{"user_id":226,"name":"ldshwt","steam_id":76561198090364357,"connected_time":1940000000000,"state":"active","ping":45},{"user_id":222,"name":"minn","steam_id":76561198099101232,"connected_time":2319000000000,"state":"active","ping":69},{"user_id":189,"name":"Princess Fuzz","steam_id":76561198025783000,"connected_time":6340000000000,"state":"active","ping":53},{"user_id":243,"name":"Kogu8ek #savetf2","steam_id":76561198107387766,"connected_time":176000000000,"state":"active","ping":60},{"user_id":250,"name":"Heisenberg","steam_id":76561198842650212,"connected_time":67000000000,"state":"active","ping":61},{"user_id":227,"name":"Piquesque","steam_id":76561198286763046,"connected_time":1900000000000,"state":"active","ping":113},{"user_id":190,"name":"Pogmanson","steam_id":76561198919953445,"connected_time":6306000000000,"state":"active","ping":43},{"user_id":251,"name":"JGV","steam_id":76561198094654971,"connected_time":0,"state":"spawning","ping":41},{"user_id":237,"name":"0","steam_id":76561199084809092,"connected_time":917000000000,"state":"active","ping":98},{"user_id":249,"name":"result","steam_id":76561198269200388,"connected_time":128000000000,"state":"active","ping":95},{"user_id":244,"name":"citronous","steam_id":76561198093290934,"connected_time":166000000000,"state":"active","ping":52},{"user_id":232,"name":"Trebox78","steam_id":76561198071963357,"connected_time":1440000000000,"state":"active","ping":82},{"user_id":231,"name":"Chopperson_","steam_id":76561198873728497,"connected_time":1556000000000,"state":"active","ping":103},{"user_id":239,"name":"Bigguysal","steam_id":76561198171204223,"connected_time":612000000000,"state":"active","ping":56},{"user_id":247,"name":"Irme","steam_id":76561198161590299,"connected_time":141000000000,"state":"active","ping":68},{"user_id":246,"name":"Arkainiel Silver","steam_id":76561198188302519,"connected_time":153000000000,"state":"active","ping":45},{"user_id":187,"name":"senior pomidor","steam_id":76561198123659806,"connected_time":6430000000000,"state":"active","ping":94},{"user_id":216,"name":"Ember from Hungary","steam_id":76561198269211299,"connected_time":2501000000000,"state":"active","ping":64},{"user_id":186,"name":"Rad","steam_id":76561198001101843,"connected_time":6435000000000,"state":"active","ping":72},{"user_id":235,"name":"followthenight","steam_id":76561198017619752,"connected_time":1248000000000,"state":"active","ping":59},{"user_id":210,"name":"Skuld","steam_id":76561198064734905,"connected_time":3238000000000,"state":"active","ping":90},{"user_id":228,"name":"HOT LOIS","steam_id":76561198302623594,"connected_time":1899000000000,"state":"active","ping":93},{"user_id":194,"name":"Cuthbert","steam_id":76561198204649481,"connected_time":6161000000000,"state":"active","ping":97},{"user_id":241,"name":"taffy☮","steam_id":76561198407578495,"connected_time":433000000000,"state":"active","ping":107}]},{"server_id":110,"name":"Uncletopia | Frankfurt | 2 | All Maps","name_short":"frk-2","host":"frk-1.de.uncletopia.com","port":27025,"enabled":true,"region":"eu","cc":"de","latitude":50.110924,"longitude":8.682127,"reserved":0,"last_update":"0001-01-01T00:00:00Z","name_a2s":"Uncletopia | Frankfurt | 2 | All Maps","protocol":17,"map":"pl_pier","folder":"tf","game":"Team Fortress","app_id":440,"player_count":22,"max_players":24,"Bots":0,"server_type":"Dedicated","server_os":"Linux","password":true,"vac":true,"version":"7757534","steam_id":85568392924469990,"keywords":["nocrits","nodmgspread","payload","uncletopia"],"game_id":440,"stv_port":27026,"stv_name":"Uncletopia | Frankfurt | 2 | All Maps | STV","players":[{"user_id":40,"name":"Firevell","steam_id":76561198154813359,"connected_time":441000000000,"state":"active","ping":59},{"user_id":20,"name":"Brinier","steam_id":76561199012604288,"connected_time":1876000000000,"state":"active","ping":81},{"user_id":21,"name":"Chromega","steam_id":76561199075307750,"connected_time":1679000000000,"state":"active","ping":53},{"user_id":37,"name":"Herr Doktor","steam_id":76561199065119525,"connected_time":652000000000,"state":"active","ping":153},{"user_id":24,"name":"толя","steam_id":76561199098518615,"connected_time":1410000000000,"state":"active","ping":87},{"user_id":25,"name":"tummaluppo taivaltaja","steam_id":76561198093458326,"connected_time":1275000000000,"state":"active","ping":63},{"user_id":27,"name":"cof","steam_id":76561199128417805,"connected_time":1201000000000,"state":"active","ping":156},{"user_id":38,"name":"kris the deer (angry)","steam_id":76561198170928310,"connected_time":591000000000,"state":"active","ping":136},{"user_id":30,"name":"strideΔ","steam_id":76561199007826093,"connected_time":809000000000,"state":"active","ping":78},{"user_id":41,"name":"Dolcelatte","steam_id":76561198038501770,"connected_time":427000000000,"state":"active","ping":60},{"user_id":32,"name":"Fofenho","steam_id":76561198436817109,"connected_time":776000000000,"state":"active","ping":56},{"user_id":34,"name":"Rex Z'Beq","steam_id":76561199300590000,"connected_time":738000000000,"state":"active","ping":86},{"user_id":43,"name":"fried","steam_id":76561198307522022,"connected_time":385000000000,"state":"active","ping":57},{"user_id":36,"name":"submeower lullaby","steam_id":76561198193357946,"connected_time":700000000000,"state":"active","ping":119},{"user_id":48,"name":"mike erhmentraut","steam_id":76561199025378498,"connected_time":111000000000,"state":"active","ping":59},{"user_id":45,"name":"big poo","steam_id":76561198129157178,"connected_time":289000000000,"state":"active","ping":88},{"user_id":49,"name":"Saku","steam_id":76561198260592282,"connected_time":109000000000,"state":"active","ping":84},{"user_id":50,"name":"laza's boy","steam_id":76561199074095198,"connected_time":98000000000,"state":"active","ping":111},{"user_id":51,"name":"i are steve","steam_id":76561198867457465,"connected_time":77000000000,"state":"active","ping":163},{"user_id":52,"name":"Dakeyras","steam_id":76561198057069564,"connected_time":40000000000,"state":"active","ping":108},{"user_id":53,"name":"Mr_Touchyou","steam_id":76561198452524697,"connected_time":21000000000,"state":"active","ping":105},{"user_id":54,"name":"G6 sherlock","steam_id":76561198802967796,"connected_time":13000000000,"state":"active","ping":122}]},{"server_id":308,"name":"Uncletopia | Frankfurt | 3 | All Maps","name_short":"frk-3","host":"frk-1.de.uncletopia.com","port":27035,"enabled":true,"region":"eu","cc":"de","latitude":50.110924,"longitude":8.682127,"reserved":0,"last_update":"0001-01-01T00:00:00Z","name_a2s":"Uncletopia | Frankfurt | 3 | All Maps","protocol":17,"map":"pl_swiftwater_final1","folder":"tf","game":"Team Fortress","app_id":440,"player_count":0,"max_players":24,"Bots":0,"server_type":"Dedicated","server_os":"Linux","password":true,"vac":true,"version":"7757534","steam_id":85568392924504274,"keywords":["nocrits","nodmgspread","payload","uncletopia"],"game_id":440,"stv_port":27036,"stv_name":"Uncletopia | Frankfurt | 3 | All Maps | STV","players":null},{"server_id":309,"name":"Uncletopia | Frankfurt | 4 | All Maps","name_short":"frk-4","host":"frk-1.de.uncletopia.com","port":27045,"enabled":true,"region":"eu","cc":"de","latitude":50.110924,"longitude":8.682127,"reserved":0,"last_update":"0001-01-01T00:00:00Z","name_a2s":"Uncletopia | Frankfurt | 4 | All Maps","protocol":17,"map":"koth_viaduct","folder":"tf","game":"Team Fortress","app_id":440,"player_count":0,"max_players":24,"Bots":0,"server_type":"Dedicated","server_os":"Linux","password":true,"vac":true,"version":"7757534","steam_id":85568392924504275,"keywords":["cp","nocrits","nodmgspread","uncletopia"],"game_id":440,"stv_port":27046,"stv_name":"Uncletopia | Frankfurt | 4 | All Maps | STV","players":null},{"server_id":310,"name":"Uncletopia | Frankfurt | 5 | All Maps","name_short":"frk-5","host":"frk-1.de.uncletopia.com","port":27055,"enabled":true,"region":"eu","cc":"de","latitude":50.110924,"longitude":8.682127,"reserved":0,"last_update":"0001-01-01T00:00:00Z","name_a2s":"Uncletopia | Frankfurt | 5 | All Maps","protocol":17,"map":"koth_lakeside_final","folder":"tf","game":"Team Fortress","app_id":440,"player_count":0,"max_players":24,"Bots":0,"server_type":"Dedicated","server_os":"Linux","password":true,"vac":true,"version":"7757534","steam_id":85568392924504277,"keywords":["cp","nocrits","nodmgspread","uncletopia"],"game_id":440,"stv_port":27056,"stv_name":"Uncletopia | Frankfurt | 5 | All Maps | STV","players":null},{"server_id":311,"name":"Uncletopia | Frankfurt | 6 | All Maps","name_short":"frk-6","host":"frk-1.de.uncletopia.com","port":27065,"enabled":true,"region":"eu","cc":"de","latitude":50.110924,"longitude":8.682127,"reserved":0,"last_update":"0001-01-01T00:00:00Z","name_a2s":"Uncletopia | Frankfurt | 6 | All Maps","protocol":17,"map":"pl_barnblitz","folder":"tf","game":"Team Fortress","app_id":440,"player_count":0,"max_players":24,"Bots":0,"server_type":"Dedicated","server_os":"Linux","password":true,"vac":true,"version":"7757534","steam_id":85568392924504278,"keywords":["nocrits","nodmgspread","payload","uncletopia"],"game_id":440,"stv_port":27066,"stv_name":"Uncletopia | Frankfurt | 6 | All Maps | STV","players":null},{"server_id":23,"name":"Uncletopia | Frankfurt | 7 | Stopwatch Beta","name_short":"frk-7","host":"frk-1.de.uncletopia.com","port":27075,"enabled":true,"region":"eu","cc":"de","latitude":50.110924,"longitude":8.682127,"reserved":0,"last_update":"0001-01-01T00:00:00Z","name_a2s":"Uncletopia | Frankfurt | 7 | Stopwatch Beta","protocol":17,"map":"cp_sunshine","folder":"tf","game":"Team Fortress","app_id":440,"player_count":24,"max_players":24,"Bots":0,"server_type":"Dedicated","server_os":"Linux","password":true,"vac":true,"version":"7757534","steam_id":85568392924742827,"keywords":["cp","nocrits","nodmgspread","uncletopia"],"game_id":440,"stv_port":27076,"stv_name":"Uncletopia | Frankfurt | 7 | Stopwatch Beta | STV","players":[{"user_id":137,"name":"Pylori","steam_id":76561197993858197,"connected_time":1536000000000,"state":"active","ping":57},{"user_id":110,"name":"[ᵇᵘᵍᵍᶦ] Gambet81","steam_id":76561198985810752,"connected_time":3163000000000,"state":"active","ping":142},{"user_id":144,"name":"Tekky","steam_id":76561197990987315,"connected_time":797000000000,"state":"active","ping":48},{"user_id":135,"name":"Slazaa","steam_id":76561197993252446,"connected_time":1593000000000,"state":"active","ping":55},{"user_id":140,"name":"Bonca","steam_id":76561198137503531,"connected_time":1232000000000,"state":"active","ping":81},{"user_id":114,"name":"Ohad","steam_id":76561198067989324,"connected_time":2756000000000,"state":"active","ping":115},{"user_id":62,"name":"Labia in Fishnets","steam_id":76561198061382104,"connected_time":5388000000000,"state":"active","ping":67},{"user_id":122,"name":"The Death I Deservioli","steam_id":76561198320506848,"connected_time":2401000000000,"state":"active","ping":54},{"user_id":133,"name":"pako","steam_id":76561198429046379,"connected_time":1609000000000,"state":"active","ping":46},{"user_id":151,"name":"Ramzus","steam_id":76561198012385070,"connected_time":525000000000,"state":"active","ping":88},{"user_id":152,"name":"PashaVerti","steam_id":76561199013963024,"connected_time":483000000000,"state":"active","ping":132},{"user_id":115,"name":"NQbIe","steam_id":76561198312899842,"connected_time":2729000000000,"state":"active","ping":163},{"user_id":121,"name":"FanFish","steam_id":76561199389558024,"connected_time":2433000000000,"state":"active","ping":63},{"user_id":146,"name":"Totalfet","steam_id":76561198979468432,"connected_time":763000000000,"state":"active","ping":91},{"user_id":136,"name":"Falco","steam_id":76561199061187430,"connected_time":1545000000000,"state":"active","ping":50},{"user_id":154,"name":"Mumu :3","steam_id":76561198052794823,"connected_time":362000000000,"state":"active","ping":56},{"user_id":132,"name":"tzlil","steam_id":76561198399916290,"connected_time":1680000000000,"state":"active","ping":122},{"user_id":130,"name":"hisham","steam_id":76561198414437290,"connected_time":1841000000000,"state":"active","ping":108},{"user_id":142,"name":"KnugenIV","steam_id":76561198127091993,"connected_time":1191000000000,"state":"active","ping":53},{"user_id":153,"name":"Dzan50","steam_id":76561198059758591,"connected_time":459000000000,"state":"active","ping":98},{"user_id":63,"name":"akakez","steam_id":76561198095432821,"connected_time":5371000000000,"state":"active","ping":120},{"user_id":150,"name":"orange_blossom","steam_id":76561198060141884,"connected_time":677000000000,"state":"active","ping":57},{"user_id":138,"name":"lunaire","steam_id":76561198163344452,"connected_time":1534000000000,"state":"active","ping":82},{"user_id":106,"name":"metamikko","steam_id":76561198324704234,"connected_time":3432000000000,"state":"active","ping":150}]},{"server_id":24,"name":"Uncletopia | Frankfurt | 8 | Community","name_short":"frk-8","host":"frk-1.de.uncletopia.com","port":27085,"enabled":true,"region":"eu","cc":"de","latitude":50.110924,"longitude":8.682127,"reserved":0,"last_update":"0001-01-01T00:00:00Z","name_a2s":"Uncletopia | Frankfurt | 8 | Community","protocol":17,"map":"koth_lakeside_final","folder":"tf","game":"Team Fortress","app_id":440,"player_count":0,"max_players":24,"Bots":0,"server_type":"Dedicated","server_os":"Linux","password":true,"vac":true,"version":"7757534","steam_id":85568392924742828,"keywords":["cp","nocrits","nodmgspread","uncletopia"],"game_id":440,"stv_port":27086,"stv_name":"Uncletopia | Frankfurt | 8 | Community | STV","players":null},{"server_id":202,"name":"Uncletopia | Hong Kong | 1 | All Maps","name_short":"hgk-1","host":"hgk-1.hk.uncletopia.com","port":27015,"enabled":true,"region":"asia","cc":"hk","latitude":22.302711,"longitude":114.177216,"reserved":0,"last_update":"0001-01-01T00:00:00Z","name_a2s":"Uncletopia | Hong Kong | 1 | All Maps","protocol":17,"map":"cp_dustbowl","folder":"tf","game":"Team Fortress","app_id":440,"player_count":24,"max_players":24,"Bots":0,"server_type":"Dedicated","server_os":"Linux","password":true,"vac":true,"version":"7757534","steam_id":85568392924494504,"keywords":["cp","nocrits","nodmgspread","uncletopia"],"game_id":440,"stv_port":27016,"stv_name":"Uncletopia | Hong Kong | 1 | All Maps | STV","players":[{"user_id":333,"name":"choogs","steam_id":76561198854400238,"connected_time":3651000000000,"state":"active","ping":84},{"user_id":293,"name":"MeetTeMedic99","steam_id":76561199208706868,"connected_time":8040000000000,"state":"active","ping":70},{"user_id":363,"name":"母の肉団子@hao123.com","steam_id":76561198069561896,"connected_time":1286000000000,"state":"active","ping":31},{"user_id":359,"name":"Windmill","steam_id":76561199230997986,"connected_time":1398000000000,"state":"active","ping":86},{"user_id":348,"name":"쿠키","steam_id":76561197997220367,"connected_time":3114000000000,"state":"active","ping":42},{"user_id":331,"name":"turd","steam_id":76561199006212966,"connected_time":3712000000000,"state":"active","ping":108},{"user_id":338,"name":"Othopeus","steam_id":76561198283534382,"connected_time":3321000000000,"state":"active","ping":82},{"user_id":361,"name":"Stupid B","steam_id":76561198131423270,"connected_time":1390000000000,"state":"active","ping":128},{"user_id":360,"name":"clori","steam_id":76561199146847474,"connected_time":1395000000000,"state":"active","ping":53},{"user_id":373,"name":"Milk❤","steam_id":76561198163911560,"connected_time":703000000000,"state":"active","ping":181},{"user_id":364,"name":"nhgfyhdf","steam_id":76561199181155908,"connected_time":1221000000000,"state":"active","ping":100},{"user_id":321,"name":"Hay","steam_id":76561199438952901,"connected_time":5546000000000,"state":"active","ping":42},{"user_id":365,"name":"炎技","steam_id":76561198322497572,"connected_time":1184000000000,"state":"active","ping":69},{"user_id":349,"name":"9Д6","steam_id":76561198124697322,"connected_time":2604000000000,"state":"active","ping":91},{"user_id":326,"name":"PissDrinker98","steam_id":76561198856157761,"connected_time":5003000000000,"state":"active","ping":169},{"user_id":370,"name":"Sperky","steam_id":76561199234527388,"connected_time":875000000000,"state":"active","ping":109},{"user_id":345,"name":"doctor morbin' (real)","steam_id":76561199365241695,"connected_time":3252000000000,"state":"active","ping":78},{"user_id":369,"name":"Spy with shoes","steam_id":76561198979802944,"connected_time":964000000000,"state":"active","ping":55},{"user_id":355,"name":"In(e)","steam_id":76561198362097007,"connected_time":2161000000000,"state":"active","ping":74},{"user_id":324,"name":"Tyxant","steam_id":76561198091066056,"connected_time":5085000000000,"state":"active","ping":102},{"user_id":322,"name":"_kobic","steam_id":76561199166938276,"connected_time":5249000000000,"state":"active","ping":65},{"user_id":374,"name":"Michael Scott","steam_id":76561198023082794,"connected_time":262000000000,"state":"active","ping":57},{"user_id":356,"name":"rachel.cylara.2003","steam_id":76561198819779240,"connected_time":1812000000000,"state":"active","ping":127},{"user_id":353,"name":"Ratboi7Street","steam_id":76561199222913157,"connected_time":2323000000000,"state":"active","ping":92}]},{"server_id":1,"name":"Uncletopia | Los Angeles | 1 | All Maps","name_short":"lax-1","host":"lax-1.us.uncletopia.com","port":27015,"enabled":true,"region":"us-west","cc":"us","latitude":33.94279,"longitude":-118.41004,"reserved":0,"last_update":"0001-01-01T00:00:00Z","name_a2s":"Uncletopia | Los Angeles | 1 | All Maps","protocol":17,"map":"koth_lakeside_final","folder":"tf","game":"Team Fortress","app_id":440,"player_count":0,"max_players":24,"Bots":0,"server_type":"Dedicated","server_os":"Linux","password":true,"vac":true,"version":"7757534","steam_id":85568392924469991,"keywords":["cp","nocrits","nodmgspread","uncletopia"],"game_id":440,"stv_port":27016,"stv_name":"Uncletopia | Los Angeles | 1 | All Maps | STV","players":null},{"server_id":112,"name":"Uncletopia | Los Angeles | 2 | All Maps","name_short":"lax-2","host":"lax-1.us.uncletopia.com","port":27025,"enabled":true,"region":"us-west","cc":"us","latitude":33.94279,"longitude":-118.41004,"reserved":0,"last_update":"0001-01-01T00:00:00Z","name_a2s":"Uncletopia | Los Angeles | 2 | All Maps","protocol":17,"map":"pl_badwater","folder":"tf","game":"Team Fortress","app_id":440,"player_count":0,"max_players":24,"Bots":0,"server_type":"Dedicated","server_os":"Linux","password":true,"vac":true,"version":"7757534","steam_id":85568392924469992,"keywords":["nocrits","nodmgspread","payload","uncletopia"],"game_id":440,"stv_port":27026,"stv_name":"Uncletopia | Los Angeles | 2 | All Maps | STV","players":null},{"server_id":324,"name":"Uncletopia | Los Angeles | 3 | All Maps","name_short":"lax-3","host":"lax-1.us.uncletopia.com","port":27035,"enabled":true,"region":"us-west","cc":"us","latitude":33.94279,"longitude":-118.41004,"reserved":0,"last_update":"0001-01-01T00:00:00Z","name_a2s":"Uncletopia | Los Angeles | 3 | All Maps","protocol":17,"map":"pl_barnblitz","folder":"tf","game":"Team Fortress","app_id":440,"player_count":0,"max_players":24,"Bots":0,"server_type":"Dedicated","server_os":"Linux","password":true,"vac":true,"version":"7757534","steam_id":85568392924510198,"keywords":["nocrits","nodmgspread","payload","uncletopia"],"game_id":440,"stv_port":27036,"stv_name":"Uncletopia | Los Angeles | 3 | All Maps | STV","players":null},{"server_id":25,"name":"Uncletopia | Los Angeles | 4 | Stopwatch Beta","name_short":"lax-4","host":"lax-1.us.uncletopia.com","port":27045,"enabled":true,"region":"us-west","cc":"us","latitude":33.94279,"longitude":-118.41004,"reserved":0,"last_update":"0001-01-01T00:00:00Z","name_a2s":"Uncletopia | Los Angeles | 4 | Stopwatch Beta","protocol":17,"map":"pl_swiftwater_final1","folder":"tf","game":"Team Fortress","app_id":440,"player_count":0,"max_players":24,"Bots":0,"server_type":"Dedicated","server_os":"Linux","password":true,"vac":true,"version":"7757534","steam_id":85568392924510199,"keywords":["nocrits","nodmgspread","payload","uncletopia"],"game_id":440,"stv_port":27046,"stv_name":"Uncletopia | Los Angeles | 4 | Stopwatch Beta | STV","players":null},{"server_id":11,"name":"Uncletopia | London | 1 | All Maps","name_short":"lon-1","host":"lon-1.uk.uncletopia.com","port":27015,"enabled":true,"region":"eu","cc":"gb","latitude":51.509865,"longitude":-0.118092,"reserved":0,"last_update":"0001-01-01T00:00:00Z","name_a2s":"Uncletopia | London | 1 | All Maps","protocol":17,"map":"ctf_turbine","folder":"tf","game":"Team Fortress","app_id":440,"player_count":24,"max_players":24,"Bots":0,"server_type":"Dedicated","server_os":"Linux","password":true,"vac":true,"version":"7757534","steam_id":85568392924367362,"keywords":["ctf","nocrits","nodmgspread","uncletopia"],"game_id":440,"stv_port":27016,"stv_name":"Uncletopia | London | 1 | All Maps | STV","players":[{"user_id":400,"name":"Meki","steam_id":76561198108279631,"connected_time":572000000000,"state":"active","ping":108},{"user_id":348,"name":"Qpangfire","steam_id":76561198094354139,"connected_time":5102000000000,"state":"active","ping":45},{"user_id":407,"name":"Avitz","steam_id":76561197986150359,"connected_time":320000000000,"state":"active","ping":43},{"user_id":165,"name":"Mac Bean","steam_id":76561198133782205,"connected_time":16887000000000,"state":"active","ping":145},{"user_id":361,"name":"jimmy bob","steam_id":76561198319583692,"connected_time":4251000000000,"state":"active","ping":57},{"user_id":413,"name":"breakfast","steam_id":76561198106049954,"connected_time":102000000000,"state":"active","ping":114},{"user_id":398,"name":"JOHN GAMING (weezer#1fan)","steam_id":76561199085822219,"connected_time":780000000000,"state":"active","ping":99},{"user_id":402,"name":"Poppy Stingray","steam_id":76561198049673783,"connected_time":485000000000,"state":"active","ping":74},{"user_id":371,"name":"Gorogaz","steam_id":76561198207157679,"connected_time":3227000000000,"state":"active","ping":57},{"user_id":414,"name":"yeldad","steam_id":76561198447264153,"connected_time":33000000000,"state":"active","ping":120},{"user_id":403,"name":"VividDragon","steam_id":76561198050659285,"connected_time":455000000000,"state":"active","ping":133},{"user_id":393,"name":"Axel","steam_id":76561198238864996,"connected_time":1494000000000,"state":"active","ping":50},{"user_id":404,"name":"hoovy gaming","steam_id":76561199230153761,"connected_time":450000000000,"state":"active","ping":57},{"user_id":388,"name":"FancyThed","steam_id":76561198186639563,"connected_time":1607000000000,"state":"active","ping":70},{"user_id":395,"name":"no1-","steam_id":76561198067524060,"connected_time":1102000000000,"state":"active","ping":81},{"user_id":394,"name":"Kretur","steam_id":76561198161086266,"connected_time":1166000000000,"state":"active","ping":100},{"user_id":406,"name":"Shimass","steam_id":76561198867546842,"connected_time":369000000000,"state":"active","ping":65},{"user_id":409,"name":"bonzi","steam_id":76561198086817743,"connected_time":179000000000,"state":"active","ping":75},{"user_id":410,"name":"mr.MR","steam_id":76561198151980974,"connected_time":172000000000,"state":"active","ping":71},{"user_id":381,"name":"JeanCorben","steam_id":76561197965133561,"connected_time":2443000000000,"state":"active","ping":35},{"user_id":390,"name":"crit-a-cola consumer","steam_id":76561199009968231,"connected_time":1588000000000,"state":"active","ping":60},{"user_id":411,"name":"geauxjira","steam_id":76561198062202107,"connected_time":165000000000,"state":"active","ping":53},{"user_id":374,"name":"♥ aura ♥","steam_id":76561198066258544,"connected_time":2984000000000,"state":"active","ping":62},{"user_id":412,"name":"Donlion","steam_id":76561198080999382,"connected_time":165000000000,"state":"active","ping":41}]},{"server_id":114,"name":"Uncletopia | London | 2 | All Maps","name_short":"lon-2","host":"lon-1.uk.uncletopia.com","port":27025,"enabled":true,"region":"eu","cc":"gb","latitude":51.509865,"longitude":-0.118092,"reserved":0,"last_update":"0001-01-01T00:00:00Z","name_a2s":"Uncletopia | London | 2 | All Maps","protocol":17,"map":"cp_snakewater_final1","folder":"tf","game":"Team Fortress","app_id":440,"player_count":23,"max_players":24,"Bots":0,"server_type":"Dedicated","server_os":"Linux","password":true,"vac":true,"version":"7757534","steam_id":85568392924470941,"keywords":["cp","nocrits","nodmgspread","uncletopia"],"game_id":440,"stv_port":27026,"stv_name":"Uncletopia | London | 2 | All Maps | STV","players":[{"user_id":281,"name":"Cirilla.gif","steam_id":76561198090586031,"connected_time":4661000000000,"state":"active","ping":88},{"user_id":361,"name":"deltaco","steam_id":76561199481069852,"connected_time":499000000000,"state":"active","ping":64},{"user_id":321,"name":"Jackson News","steam_id":76561198401610939,"connected_time":2290000000000,"state":"active","ping":69},{"user_id":360,"name":"pyro","steam_id":76561198126153836,"connected_time":614000000000,"state":"active","ping":34},{"user_id":362,"name":"Nerazzurri","steam_id":76561198150060767,"connected_time":499000000000,"state":"active","ping":47},{"user_id":364,"name":"･•.","steam_id":76561198049983016,"connected_time":432000000000,"state":"active","ping":100},{"user_id":304,"name":"AnonTron","steam_id":76561199031895493,"connected_time":2783000000000,"state":"active","ping":155},{"user_id":366,"name":"LemonLeCitron","steam_id":76561198215545267,"connected_time":245000000000,"state":"active","ping":62},{"user_id":365,"name":"Rakna","steam_id":76561198402889909,"connected_time":394000000000,"state":"active","ping":78},{"user_id":334,"name":"Princess Peach","steam_id":76561198260272240,"connected_time":1592000000000,"state":"active","ping":53},{"user_id":323,"name":"Red Dynamite","steam_id":76561199073167935,"connected_time":2047000000000,"state":"active","ping":152},{"user_id":349,"name":"Idc anymore","steam_id":76561198309739590,"connected_time":1130000000000,"state":"active","ping":72},{"user_id":368,"name":"James Crenis","steam_id":76561198045535251,"connected_time":102000000000,"state":"active","ping":59},{"user_id":201,"name":"onionich","steam_id":76561198835619904,"connected_time":10796000000000,"state":"active","ping":116},{"user_id":293,"name":"Flare","steam_id":76561198039098320,"connected_time":3842000000000,"state":"active","ping":54},{"user_id":358,"name":"h4wk","steam_id":76561198277294190,"connected_time":646000000000,"state":"active","ping":107},{"user_id":345,"name":"no hice el workbook","steam_id":76561198400746168,"connected_time":1339000000000,"state":"active","ping":91},{"user_id":346,"name":"Elegí calle para siempre","steam_id":76561198400631599,"connected_time":1333000000000,"state":"active","ping":60},{"user_id":330,"name":"ishbell","steam_id":76561198211990879,"connected_time":1795000000000,"state":"active","ping":54},{"user_id":336,"name":"Cafo","steam_id":76561198063795441,"connected_time":1566000000000,"state":"active","ping":72},{"user_id":352,"name":"fighter1642","steam_id":76561199146683279,"connected_time":838000000000,"state":"active","ping":82},{"user_id":350,"name":"eduardo","steam_id":76561198014491925,"connected_time":1042000000000,"state":"active","ping":90},{"user_id":354,"name":"Tegnerud","steam_id":76561198214185612,"connected_time":812000000000,"state":"active","ping":76}]},{"server_id":320,"name":"Uncletopia | London | 3 | All Maps","name_short":"lon-3","host":"lon-1.uk.uncletopia.com","port":27035,"enabled":true,"region":"eu","cc":"gb","latitude":51.509865,"longitude":-0.118092,"reserved":0,"last_update":"0001-01-01T00:00:00Z","name_a2s":"Uncletopia | London | 3 | All Maps","protocol":17,"map":"cp_steel","folder":"tf","game":"Team Fortress","app_id":440,"player_count":20,"max_players":24,"Bots":0,"server_type":"Dedicated","server_os":"Linux","password":true,"vac":true,"version":"7757534","steam_id":85568392924510192,"keywords":["cp","nocrits","nodmgspread","uncletopia"],"game_id":440,"stv_port":27036,"stv_name":"Uncletopia | London | 3 | All Maps | STV","players":[{"user_id":91,"name":"Tink","steam_id":76561198118235443,"connected_time":38000000000,"state":"active","ping":57},{"user_id":54,"name":"My 1438 day Duolingo streak","steam_id":76561198055363275,"connected_time":2166000000000,"state":"active","ping":42},{"user_id":90,"name":"Ardaaaaaaaaaaaaaaaaaaaaaaaaaaa","steam_id":76561199004214779,"connected_time":180000000000,"state":"active","ping":100},{"user_id":63,"name":"Django","steam_id":76561198090143282,"connected_time":1726000000000,"state":"active","ping":71},{"user_id":72,"name":"flan","steam_id":76561198271900816,"connected_time":874000000000,"state":"active","ping":52},{"user_id":36,"name":"Supreme Sads","steam_id":76561198061061147,"connected_time":2667000000000,"state":"active","ping":89},{"user_id":85,"name":"fabacher","steam_id":76561198057905272,"connected_time":337000000000,"state":"active","ping":60},{"user_id":68,"name":"Very bad :(","steam_id":76561198362116755,"connected_time":1268000000000,"state":"active","ping":155},{"user_id":57,"name":"ImBread","steam_id":76561198347426531,"connected_time":2100000000000,"state":"active","ping":55},{"user_id":77,"name":"( ͡° ͜ʖ ͡°) clz9","steam_id":76561198258279528,"connected_time":661000000000,"state":"active","ping":126},{"user_id":65,"name":"Egor Pomidor","steam_id":76561199175688390,"connected_time":1475000000000,"state":"active","ping":90},{"user_id":80,"name":"Anonymous47007","steam_id":76561199005211417,"connected_time":519000000000,"state":"active","ping":81},{"user_id":37,"name":"Osmo","steam_id":76561199286764992,"connected_time":2660000000000,"state":"active","ping":89},{"user_id":30,"name":"BORGETENNISCLUB","steam_id":76561198049343723,"connected_time":2758000000000,"state":"active","ping":48},{"user_id":78,"name":"Montrose","steam_id":76561198338911736,"connected_time":628000000000,"state":"active","ping":190},{"user_id":67,"name":"Kurage","steam_id":76561198021221288,"connected_time":1308000000000,"state":"active","ping":68},{"user_id":39,"name":"inna","steam_id":76561198168537318,"connected_time":2657000000000,"state":"active","ping":77},{"user_id":83,"name":"Revo","steam_id":76561198117315580,"connected_time":415000000000,"state":"active","ping":80},{"user_id":45,"name":"Improvised Explosive Diarrhea","steam_id":76561198449261973,"connected_time":2509000000000,"state":"active","ping":82},{"user_id":70,"name":"Andris Fakevics","steam_id":76561198828274778,"connected_time":1091000000000,"state":"active","ping":77}]},{"server_id":321,"name":"Uncletopia | London | 4 | All Maps","name_short":"lon-4","host":"lon-1.uk.uncletopia.com","port":27045,"enabled":true,"region":"eu","cc":"gb","latitude":51.509865,"longitude":-0.118092,"reserved":0,"last_update":"0001-01-01T00:00:00Z","name_a2s":"Uncletopia | London | 4 | All Maps","protocol":17,"map":"koth_cascade","folder":"tf","game":"Team Fortress","app_id":440,"player_count":0,"max_players":24,"Bots":0,"server_type":"Dedicated","server_os":"Linux","password":true,"vac":true,"version":"7757534","steam_id":85568392924510193,"keywords":["cp","nocrits","nodmgspread","uncletopia"],"game_id":440,"stv_port":27046,"stv_name":"Uncletopia | London | 4 | All Maps | STV","players":null},{"server_id":21,"name":"Uncletopia | London | 5 | All Maps","name_short":"lon-5","host":"lon-1.uk.uncletopia.com","port":27055,"enabled":true,"region":"eu","cc":"gb","latitude":51.509865,"longitude":-0.118092,"reserved":0,"last_update":"0001-01-01T00:00:00Z","name_a2s":"Uncletopia | London | 5 | All Maps","protocol":17,"map":"pl_upward","folder":"tf","game":"Team Fortress","app_id":440,"player_count":5,"max_players":24,"Bots":0,"server_type":"Dedicated","server_os":"Linux","password":true,"vac":true,"version":"7757534","steam_id":85568392924742829,"keywords":["nocrits","nodmgspread","payload","uncletopia"],"game_id":440,"stv_port":27056,"stv_name":"Uncletopia | London | 5 | All Maps | STV","players":[{"user_id":24,"name":"JohaTG","steam_id":76561198804468284,"connected_time":106000000000,"state":"active","ping":59},{"user_id":16,"name":"NanoBite","steam_id":76561197999426452,"connected_time":822000000000,"state":"active","ping":34},{"user_id":25,"name":"Goober","steam_id":76561199082249863,"connected_time":39000000000,"state":"active","ping":50},{"user_id":20,"name":"H3inz Baked","steam_id":76561197979428073,"connected_time":701000000000,"state":"active","ping":55},{"user_id":23,"name":"Pan Pan","steam_id":76561199074670515,"connected_time":359000000000,"state":"active","ping":107}]},{"server_id":22,"name":"Uncletopia | London | 6 | All Maps","name_short":"lon-6","host":"lon-1.uk.uncletopia.com","port":27065,"enabled":true,"region":"eu","cc":"gb","latitude":51.509865,"longitude":-0.118092,"reserved":0,"last_update":"0001-01-01T00:00:00Z","name_a2s":"Uncletopia | London | 6 | All Maps","protocol":17,"map":"cp_process_final","folder":"tf","game":"Team Fortress","app_id":440,"player_count":2,"max_players":24,"Bots":0,"server_type":"Dedicated","server_os":"Linux","password":true,"vac":true,"version":"7757534","steam_id":85568392924742830,"keywords":["cp","nocrits","nodmgspread","uncletopia"],"game_id":440,"stv_port":27066,"stv_name":"Uncletopia | London | 6 | All Maps | STV","players":[{"user_id":4,"name":"DaDemoBottleBoy","steam_id":76561199052375561,"connected_time":1847000000000,"state":"active","ping":55},{"user_id":5,"name":"gogogoopi94","steam_id":76561199465755566,"connected_time":1511000000000,"state":"active","ping":51}]},{"server_id":40,"name":"Uncletopia | London | 7 | No Payload","name_short":"lon-7","host":"lon-1.uk.uncletopia.com","port":27075,"enabled":true,"region":"eu","cc":"gb","latitude":51.509865,"longitude":-0.118092,"reserved":0,"last_update":"0001-01-01T00:00:00Z","name_a2s":"Uncletopia | London | 7 | No Payload","protocol":17,"map":"cp_junction_final","folder":"tf","game":"Team Fortress","app_id":440,"player_count":0,"max_players":24,"Bots":0,"server_type":"Dedicated","server_os":"Linux","password":true,"vac":true,"version":"7757534","steam_id":85568392924964314,"keywords":["cp","nocrits","nodmgspread","uncletopia"],"game_id":440,"stv_port":27076,"stv_name":"Uncletopia | London | 7 | No Payload | STV","players":null},{"server_id":41,"name":"Uncletopia | London | 8 | Community","name_short":"lon-8","host":"lon-1.uk.uncletopia.com","port":27085,"enabled":true,"region":"eu","cc":"gb","latitude":51.509865,"longitude":-0.118092,"reserved":0,"last_update":"0001-01-01T00:00:00Z","name_a2s":"Uncletopia | London | 8 | Community","protocol":17,"map":"pl_barnblitz","folder":"tf","game":"Team Fortress","app_id":440,"player_count":0,"max_players":24,"Bots":0,"server_type":"Dedicated","server_os":"Linux","password":true,"vac":true,"version":"7757534","steam_id":85568392924964315,"keywords":["nocrits","nodmgspread","payload","uncletopia"],"game_id":440,"stv_port":27086,"stv_name":"Uncletopia | London | 8 | Community | STV","players":null},{"server_id":300,"name":"Uncletopia | Montréal | 1 | All Maps","name_short":"mtl-1","host":"mtl-1.ca.uncletopia.com","port":27015,"enabled":true,"region":"us-east","cc":"ca","latitude":45.50889,"longitude":-73.56167,"reserved":0,"last_update":"0001-01-01T00:00:00Z","name_a2s":"Uncletopia | Montréal | 1 | All Maps","protocol":17,"map":"pl_upward","folder":"tf","game":"Team Fortress","app_id":440,"player_count":0,"max_players":24,"Bots":0,"server_type":"Dedicated","server_os":"Linux","password":true,"vac":true,"version":"7757534","steam_id":85568392924500087,"keywords":["nocrits","nodmgspread","payload","uncletopia"],"game_id":440,"stv_port":27016,"stv_name":"Uncletopia | Montréal | 1 | All Maps | STV","players":null},{"server_id":301,"name":"Uncletopia | Montréal | 2 | All Maps","name_short":"mtl-2","host":"mtl-1.ca.uncletopia.com","port":27025,"enabled":true,"region":"us-east","cc":"ca","latitude":45.50889,"longitude":-73.56167,"reserved":0,"last_update":"0001-01-01T00:00:00Z","name_a2s":"Uncletopia | Montréal | 2 | All Maps","protocol":17,"map":"pl_snowycoast","folder":"tf","game":"Team Fortress","app_id":440,"player_count":0,"max_players":24,"Bots":0,"server_type":"Dedicated","server_os":"Linux","password":true,"vac":true,"version":"7757534","steam_id":85568392924500088,"keywords":["nocrits","nodmgspread","payload","uncletopia"],"game_id":440,"stv_port":27026,"stv_name":"Uncletopia | Montréal | 2 | All Maps | STV","players":null},{"server_id":302,"name":"Uncletopia | Montréal | 3 | All Maps","name_short":"mtl-3","host":"mtl-1.ca.uncletopia.com","port":27035,"enabled":true,"region":"us-east","cc":"ca","latitude":45.50889,"longitude":-73.56167,"reserved":0,"last_update":"0001-01-01T00:00:00Z","name_a2s":"Uncletopia | Montréal | 3 | All Maps","protocol":17,"map":"pl_swiftwater_final1","folder":"tf","game":"Team Fortress","app_id":440,"player_count":0,"max_players":24,"Bots":0,"server_type":"Dedicated","server_os":"Linux","password":true,"vac":true,"version":"7757534","steam_id":85568392924500089,"keywords":["nocrits","nodmgspread","payload","uncletopia"],"game_id":440,"stv_port":27036,"stv_name":"Uncletopia | Montréal | 3 | All Maps | STV","players":null},{"server_id":303,"name":"Uncletopia | Montréal | 4 | No Payload","name_short":"mtl-4","host":"mtl-1.ca.uncletopia.com","port":27045,"enabled":true,"region":"us-east","cc":"ca","latitude":45.50889,"longitude":-73.56167,"reserved":0,"last_update":"0001-01-01T00:00:00Z","name_a2s":"Uncletopia | Montréal | 4 | No Payload","protocol":17,"map":"pl_pier","folder":"tf","game":"Team Fortress","app_id":440,"player_count":0,"max_players":24,"Bots":0,"server_type":"Dedicated","server_os":"Linux","password":true,"vac":true,"version":"7757534","steam_id":85568392924500090,"keywords":["nocrits","nodmgspread","payload","uncletopia"],"game_id":440,"stv_port":27046,"stv_name":"Uncletopia | Montréal | 4 | No Payload | STV","players":null},{"server_id":13,"name":"Uncletopia | New York City | 1 | All Maps","name_short":"nyc-1","host":"nyc-1.us.uncletopia.com","port":27015,"enabled":true,"region":"us-east","cc":"us","latitude":40.73061,"longitude":-73.93524,"reserved":0,"last_update":"0001-01-01T00:00:00Z","name_a2s":"Uncletopia | New York City | 1 | All Maps","protocol":17,"map":"koth_viaduct","folder":"tf","game":"Team Fortress","app_id":440,"player_count":0,"max_players":24,"Bots":0,"server_type":"Dedicated","server_os":"Linux","password":true,"vac":true,"version":"7757534","steam_id":85568392924469993,"keywords":["cp","nocrits","nodmgspread","uncletopia"],"game_id":440,"stv_port":27016,"stv_name":"Uncletopia | New York City | 1 | All Maps | STV","players":null},{"server_id":14,"name":"Uncletopia | New York City | 2 | All Maps","name_short":"nyc-2","host":"nyc-1.us.uncletopia.com","port":27025,"enabled":true,"region":"us-east","cc":"us","latitude":40.73061,"longitude":-73.93524,"reserved":0,"last_update":"0001-01-01T00:00:00Z","name_a2s":"Uncletopia | New York City | 2 | All Maps","protocol":17,"map":"pl_badwater","folder":"tf","game":"Team Fortress","app_id":440,"player_count":0,"max_players":24,"Bots":0,"server_type":"Dedicated","server_os":"Linux","password":true,"vac":true,"version":"7757534","steam_id":85568392924469994,"keywords":["nocrits","nodmgspread","payload","uncletopia"],"game_id":440,"stv_port":27026,"stv_name":"Uncletopia | New York City | 2 | All Maps | STV","players":null},{"server_id":15,"name":"Uncletopia | New York City | 3 | Stopwatch Beta","name_short":"nyc-3","host":"nyc-1.us.uncletopia.com","port":27035,"enabled":true,"region":"us-east","cc":"us","latitude":40.73061,"longitude":-73.93524,"reserved":0,"last_update":"0001-01-01T00:00:00Z","name_a2s":"Uncletopia | New York City | 3 | Stopwatch Beta","protocol":17,"map":"pl_upward","folder":"tf","game":"Team Fortress","app_id":440,"player_count":0,"max_players":24,"Bots":0,"server_type":"Dedicated","server_os":"Linux","password":true,"vac":true,"version":"7757534","steam_id":85568392924742820,"keywords":["nocrits","nodmgspread","payload","uncletopia"],"game_id":440,"stv_port":27036,"stv_name":"Uncletopia | New York City | 3 | Stopwatch Beta | STV","players":null},{"server_id":16,"name":"Uncletopia | New York City | 4 | Community","name_short":"nyc-4","host":"nyc-1.us.uncletopia.com","port":27045,"enabled":true,"region":"us-east","cc":"us","latitude":40.73061,"longitude":-73.93524,"reserved":0,"last_update":"0001-01-01T00:00:00Z","name_a2s":"Uncletopia | New York City | 4 | Community","protocol":17,"map":"pl_swiftwater_final1","folder":"tf","game":"Team Fortress","app_id":440,"player_count":0,"max_players":24,"Bots":0,"server_type":"Dedicated","server_os":"Linux","password":true,"vac":true,"version":"7757534","steam_id":85568392924742821,"keywords":["nocrits","nodmgspread","payload","uncletopia"],"game_id":440,"stv_port":27046,"stv_name":"Uncletopia | New York City | 4 | Community | STV","players":null},{"server_id":142,"name":"Uncletopia | São Paulo | 1 | All Maps","name_short":"sao-1","host":"sao-1.br.uncletopia.com","port":27015,"enabled":true,"region":"sa","cc":"br","latitude":-23.533773,"longitude":-46.62529,"reserved":0,"last_update":"0001-01-01T00:00:00Z","name_a2s":"Uncletopia | São Paulo | 1 | All Maps","protocol":17,"map":"koth_lakeside_final","folder":"tf","game":"Team Fortress","app_id":440,"player_count":0,"max_players":24,"Bots":0,"server_type":"Dedicated","server_os":"Linux","password":true,"vac":true,"version":"7757534","steam_id":85568392924469996,"keywords":["cp","nocrits","nodmgspread","uncletopia"],"game_id":440,"stv_port":27016,"stv_name":"Uncletopia | São Paulo | 1 | All Maps | STV","players":null},{"server_id":143,"name":"Uncletopia | São Paulo | 2 | All Maps","name_short":"sao-2","host":"sao-2.br.uncletopia.com","port":27015,"enabled":true,"region":"sa","cc":"br","latitude":-23.533773,"longitude":-46.62529,"reserved":0,"last_update":"0001-01-01T00:00:00Z","name_a2s":"Uncletopia | São Paulo | 2 | All Maps","protocol":17,"map":"koth_viaduct","folder":"tf","game":"Team Fortress","app_id":440,"player_count":0,"max_players":24,"Bots":0,"server_type":"Dedicated","server_os":"Linux","password":true,"vac":true,"version":"7757534","steam_id":85568392924485349,"keywords":["cp","nocrits","nodmgspread","uncletopia"],"game_id":440,"stv_port":27016,"stv_name":"Uncletopia | São Paulo | 2 | All Maps | STV","players":null},{"server_id":7,"name":"Uncletopia | Seattle | 1 | All Maps","name_short":"sea-1","host":"sea-1.us.uncletopia.com","port":27015,"enabled":true,"region":"us-west","cc":"us","latitude":47.608013,"longitude":-122.33517,"reserved":0,"last_update":"0001-01-01T00:00:00Z","name_a2s":"Uncletopia | Seattle | 1 | All Maps","protocol":17,"map":"koth_lakeside_final","folder":"tf","game":"Team Fortress","app_id":440,"player_count":2,"max_players":24,"Bots":0,"server_type":"Dedicated","server_os":"Linux","password":true,"vac":true,"version":"7757534","steam_id":85568392924469997,"keywords":["cp","nocrits","nodmgspread","uncletopia"],"game_id":440,"stv_port":27016,"stv_name":"Uncletopia | Seattle | 1 | All Maps | STV","players":[{"user_id":8,"name":"dust | she/it","steam_id":76561198045218909,"connected_time":293000000000,"state":"active","ping":36},{"user_id":4,"name":"creepycrawler","steam_id":76561198352016831,"connected_time":811000000000,"state":"active","ping":99}]},{"server_id":119,"name":"Uncletopia | Seattle | 2 | All Maps","name_short":"sea-2","host":"sea-1.us.uncletopia.com","port":27025,"enabled":true,"region":"us-west","cc":"us","latitude":47.608013,"longitude":-122.33517,"reserved":0,"last_update":"0001-01-01T00:00:00Z","name_a2s":"Uncletopia | Seattle | 2 | All Maps","protocol":17,"map":"pl_badwater","folder":"tf","game":"Team Fortress","app_id":440,"player_count":0,"max_players":24,"Bots":0,"server_type":"Dedicated","server_os":"Linux","password":true,"vac":true,"version":"7757534","steam_id":85568392924469998,"keywords":["nocrits","nodmgspread","payload","uncletopia"],"game_id":440,"stv_port":27026,"stv_name":"Uncletopia | Seattle | 2 | All Maps | STV","players":null},{"server_id":406,"name":"Uncletopia | Seattle | 3 | Stopwatch Beta","name_short":"sea-3","host":"sea-1.us.uncletopia.com","port":27035,"enabled":true,"region":"us-west","cc":"us","latitude":47.608013,"longitude":-122.33517,"reserved":0,"last_update":"0001-01-01T00:00:00Z","name_a2s":"Uncletopia | Seattle | 3 | Stopwatch Beta","protocol":17,"map":"cp_dustbowl","folder":"tf","game":"Team Fortress","app_id":440,"player_count":0,"max_players":24,"Bots":0,"server_type":"Dedicated","server_os":"Linux","password":true,"vac":true,"version":"7757534","steam_id":85568392924515217,"keywords":["cp","nocrits","nodmgspread","uncletopia"],"game_id":440,"stv_port":27036,"stv_name":"Uncletopia | Seattle | 3 | Stopwatch Beta | STV","players":null},{"server_id":17,"name":"Uncletopia | San Francisco | 1 | All Maps","name_short":"sfo-1","host":"sfo-1.us.uncletopia.com","port":27015,"enabled":true,"region":"us-west","cc":"us","latitude":37.77397,"longitude":-122.4313,"reserved":0,"last_update":"0001-01-01T00:00:00Z","name_a2s":"Uncletopia | San Francisco | 1 | All Maps","protocol":17,"map":"cp_process_final","folder":"tf","game":"Team Fortress","app_id":440,"player_count":0,"max_players":24,"Bots":0,"server_type":"Dedicated","server_os":"Linux","password":true,"vac":true,"version":"7757534","steam_id":85568392924469999,"keywords":["cp","nocrits","nodmgspread","uncletopia"],"game_id":440,"stv_port":27016,"stv_name":"Uncletopia | San Francisco | 1 | All Maps | STV","players":null},{"server_id":18,"name":"Uncletopia | San Francisco | 2 | All Maps","name_short":"sfo-2","host":"sfo-1.us.uncletopia.com","port":27025,"enabled":true,"region":"us-west","cc":"us","latitude":37.77397,"longitude":-122.4313,"reserved":0,"last_update":"0001-01-01T00:00:00Z","name_a2s":"Uncletopia | San Francisco | 2 | All Maps","protocol":17,"map":"koth_highpass","folder":"tf","game":"Team Fortress","app_id":440,"player_count":0,"max_players":24,"Bots":0,"server_type":"Dedicated","server_os":"Linux","password":true,"vac":true,"version":"7757534","steam_id":85568392924470000,"keywords":["cp","nocrits","nodmgspread","uncletopia"],"game_id":440,"stv_port":27026,"stv_name":"Uncletopia | San Francisco | 2 | All Maps | STV","players":null},{"server_id":19,"name":"Uncletopia | San Francisco | 3 | Stopwatch Beta","name_short":"sfo-3","host":"sfo-1.us.uncletopia.com","port":27035,"enabled":true,"region":"us-west","cc":"us","latitude":37.77397,"longitude":-122.4313,"reserved":0,"last_update":"0001-01-01T00:00:00Z","name_a2s":"Uncletopia | San Francisco | 3 | Stopwatch Beta","protocol":17,"map":"koth_lakeside_final","folder":"tf","game":"Team Fortress","app_id":440,"player_count":0,"max_players":24,"Bots":0,"server_type":"Dedicated","server_os":"Linux","password":true,"vac":true,"version":"7757534","steam_id":85568392924742824,"keywords":["cp","nocrits","nodmgspread","uncletopia"],"game_id":440,"stv_port":27036,"stv_name":"Uncletopia | San Francisco | 3 | Stopwatch Beta | STV","players":null},{"server_id":20,"name":"Uncletopia | San Francisco | 4 | Community","name_short":"sfo-4","host":"sfo-1.us.uncletopia.com","port":27045,"enabled":true,"region":"us-west","cc":"us","latitude":37.77397,"longitude":-122.4313,"reserved":0,"last_update":"0001-01-01T00:00:00Z","name_a2s":"Uncletopia | San Francisco | 4 | Community","protocol":17,"map":"cp_altitude","folder":"tf","game":"Team Fortress","app_id":440,"player_count":0,"max_players":24,"Bots":0,"server_type":"Dedicated","server_os":"Linux","password":true,"vac":true,"version":"7757534","steam_id":85568392924742826,"keywords":["cp","nocrits","nodmgspread","uncletopia"],"game_id":440,"stv_port":27046,"stv_name":"Uncletopia | San Francisco | 4 | Community | STV","players":null},{"server_id":141,"name":"Uncletopia | Sydney | 1 | All Maps","name_short":"syd-1","host":"syd-1.au.uncletopia.com","port":27015,"enabled":true,"region":"au","cc":"au","latitude":-33.865143,"longitude":151.2099,"reserved":0,"last_update":"0001-01-01T00:00:00Z","name_a2s":"Uncletopia | Sydney | 1 | All Maps","protocol":17,"map":"cp_sunshine","folder":"tf","game":"Team Fortress","app_id":440,"player_count":24,"max_players":24,"Bots":0,"server_type":"Dedicated","server_os":"Linux","password":true,"vac":true,"version":"7757534","steam_id":85568392924470001,"keywords":["cp","nocrits","nodmgspread","uncletopia"],"game_id":440,"stv_port":27016,"stv_name":"Uncletopia | Sydney | 1 | All Maps | STV","players":[{"user_id":635,"name":"chemeliouss","steam_id":76561199048396830,"connected_time":27000000000,"state":"active","ping":75},{"user_id":631,"name":"Mouse Balls","steam_id":76561199037470627,"connected_time":435000000000,"state":"active","ping":102},{"user_id":559,"name":"smite","steam_id":76561198845304189,"connected_time":7817000000000,"state":"active","ping":76},{"user_id":622,"name":"BackyardBonanza19943214","steam_id":76561198383642609,"connected_time":1103000000000,"state":"active","ping":59},{"user_id":575,"name":"york","steam_id":76561197996817216,"connected_time":4872000000000,"state":"active","ping":53},{"user_id":611,"name":"tim88435","steam_id":76561198089653987,"connected_time":1715000000000,"state":"active","ping":51},{"user_id":634,"name":"AzureFox","steam_id":76561198108179408,"connected_time":109000000000,"state":"active","ping":88},{"user_id":625,"name":"Phibs","steam_id":76561199323730865,"connected_time":1034000000000,"state":"active","ping":43},{"user_id":616,"name":"58","steam_id":76561198045125531,"connected_time":1525000000000,"state":"active","ping":53},{"user_id":594,"name":"Jagonite","steam_id":76561198089124961,"connected_time":2328000000000,"state":"active","ping":105},{"user_id":601,"name":"BruceWillis235","steam_id":76561198884324029,"connected_time":2167000000000,"state":"active","ping":95},{"user_id":588,"name":"Snowy","steam_id":76561198255720598,"connected_time":3169000000000,"state":"active","ping":51},{"user_id":599,"name":"PIZZADANN","steam_id":76561198127749766,"connected_time":2204000000000,"state":"active","ping":105},{"user_id":603,"name":"Branko","steam_id":76561199262196710,"connected_time":2088000000000,"state":"active","ping":38},{"user_id":623,"name":"Greg","steam_id":76561198133966374,"connected_time":1069000000000,"state":"active","ping":47},{"user_id":600,"name":"Capt. Dea'Claw","steam_id":76561198025419320,"connected_time":2199000000000,"state":"active","ping":47},{"user_id":629,"name":"Diavolo Diablo","steam_id":76561198166295333,"connected_time":595000000000,"state":"active","ping":163},{"user_id":624,"name":"Femboy Fractions","steam_id":76561198321471147,"connected_time":1048000000000,"state":"active","ping":92},{"user_id":581,"name":"Swate","steam_id":76561198042991670,"connected_time":4616000000000,"state":"active","ping":62},{"user_id":618,"name":"UrAvgDMG","steam_id":76561199214859141,"connected_time":1334000000000,"state":"active","ping":138},{"user_id":627,"name":"weezer","steam_id":76561199439508788,"connected_time":939000000000,"state":"active","ping":64},{"user_id":531,"name":"mushroom","steam_id":76561197992336470,"connected_time":9234000000000,"state":"active","ping":94},{"user_id":620,"name":"Soy Milk","steam_id":76561198143792254,"connected_time":1212000000000,"state":"active","ping":38},{"user_id":621,"name":"kisses you","steam_id":76561198288970258,"connected_time":1167000000000,"state":"active","ping":82}]},{"server_id":123,"name":"Uncletopia | Sydney | 2 | All Maps","name_short":"syd-2","host":"syd-1.au.uncletopia.com","port":27025,"enabled":true,"region":"au","cc":"au","latitude":-33.865143,"longitude":151.2099,"reserved":0,"last_update":"0001-01-01T00:00:00Z","name_a2s":"Uncletopia | Sydney | 2 | All Maps","protocol":17,"map":"cp_snakewater_final1","folder":"tf","game":"Team Fortress","app_id":440,"player_count":0,"max_players":24,"Bots":0,"server_type":"Dedicated","server_os":"Linux","password":true,"vac":true,"version":"7757534","steam_id":85568392924470002,"keywords":["cp","nocrits","nodmgspread","uncletopia"],"game_id":440,"stv_port":27026,"stv_name":"Uncletopia | Sydney | 2 | All Maps | STV","players":null},{"server_id":395,"name":"Uncletopia | Sydney | 3 | All Maps","name_short":"syd-3","host":"syd-1.au.uncletopia.com","port":27035,"enabled":true,"region":"au","cc":"au","latitude":-33.865143,"longitude":151.2099,"reserved":0,"last_update":"0001-01-01T00:00:00Z","name_a2s":"Uncletopia | Sydney | 3 | All Maps","protocol":17,"map":"koth_cascade","folder":"tf","game":"Team Fortress","app_id":440,"player_count":0,"max_players":24,"Bots":0,"server_type":"Dedicated","server_os":"Linux","password":true,"vac":true,"version":"7757534","steam_id":85568392925194467,"keywords":["cp","nocrits","nodmgspread","uncletopia"],"game_id":440,"stv_port":27036,"stv_name":"Uncletopia | Sydney | 3 | All Maps | STV","players":null},{"server_id":396,"name":"Uncletopia | Sydney | 4 | All Maps","name_short":"syd-4","host":"syd-1.au.uncletopia.com","port":27045,"enabled":true,"region":"au","cc":"au","latitude":-33.865143,"longitude":151.2099,"reserved":0,"last_update":"0001-01-01T00:00:00Z","name_a2s":"Uncletopia | Sydney | 4 | All Maps","protocol":17,"map":"koth_highpass","folder":"tf","game":"Team Fortress","app_id":440,"player_count":0,"max_players":24,"Bots":0,"server_type":"Dedicated","server_os":"Linux","password":true,"vac":true,"version":"7757534","steam_id":85568392925397958,"keywords":["cp","nocrits","nodmgspread","uncletopia"],"game_id":440,"stv_port":27046,"stv_name":"Uncletopia | Sydney | 4 | All Maps | STV","players":null},{"server_id":58,"name":"Uncletopia | Sydney | 5 | Stopwatch Beta","name_short":"syd-5","host":"syd-1.au.uncletopia.com","port":27055,"enabled":true,"region":"au","cc":"au","latitude":-33.865143,"longitude":151.2099,"reserved":0,"last_update":"0001-01-01T00:00:00Z","name_a2s":"Uncletopia | Sydney | 5 | Stopwatch Beta","protocol":17,"map":"workshop/pl_badwater_pro_v12.ugc2142942074","folder":"tf","game":"Team Fortress","app_id":440,"player_count":0,"max_players":24,"Bots":0,"server_type":"Dedicated","server_os":"Linux","password":true,"vac":true,"version":"7757534","steam_id":85568392925397959,"keywords":["nocrits","nodmgspread","payload","uncletopia"],"game_id":440,"stv_port":27056,"stv_name":"Uncletopia | Sydney | 5 | Stopwatch Beta | STV","players":null},{"server_id":59,"name":"Uncletopia | Sydney | 6 | Community","name_short":"syd-6","host":"syd-1.au.uncletopia.com","port":27065,"enabled":true,"region":"au","cc":"au","latitude":-33.865143,"longitude":151.2099,"reserved":0,"last_update":"0001-01-01T00:00:00Z","name_a2s":"Uncletopia | Sydney | 6 | Community","protocol":17,"map":"workshop/koth_trenchfoot_b1a.ugc731436616","folder":"tf","game":"Team Fortress","app_id":440,"player_count":0,"max_players":24,"Bots":0,"server_type":"Dedicated","server_os":"Linux","password":true,"vac":true,"version":"7757534","steam_id":85568392925397960,"keywords":["cp","nocrits","nodmgspread","uncletopia"],"game_id":440,"stv_port":27066,"stv_name":"Uncletopia | Sydney | 6 | Community | STV","players":null},{"server_id":49,"name":"Uncletopia | Warsaw | 1 | All Maps","name_short":"waw-1","host":"waw-1.pl.uncletopia.com","port":27015,"enabled":true,"region":"eu","cc":"pl","latitude":52.2297,"longitude":21.017532,"reserved":0,"last_update":"0001-01-01T00:00:00Z","name_a2s":"","protocol":0,"map":"","folder":"","game":"","app_id":0,"player_count":0,"max_players":0,"Bots":0,"server_type":"","server_os":"","password":false,"vac":false,"version":"","steam_id":0,"keywords":null,"game_id":0,"stv_port":0,"stv_name":"","players":null},{"server_id":50,"name":"Uncletopia | Warsaw | 2 | All Maps","name_short":"waw-2","host":"waw-1.pl.uncletopia.com","port":27025,"enabled":true,"region":"eu","cc":"pl","latitude":52.2297,"longitude":21.017532,"reserved":0,"last_update":"0001-01-01T00:00:00Z","name_a2s":"Uncletopia | Warsaw | 2 | All Maps","protocol":17,"map":"koth_viaduct","folder":"tf","game":"Team Fortress","app_id":440,"player_count":0,"max_players":24,"Bots":0,"server_type":"Dedicated","server_os":"Linux","password":true,"vac":true,"version":"7757534","steam_id":85568392925397851,"keywords":["cp","nocrits","nodmgspread","uncletopia"],"game_id":440,"stv_port":27026,"stv_name":"Uncletopia | Warsaw | 2 | All Maps | STV","players":null},{"server_id":51,"name":"Uncletopia | Warsaw | 3 | All Maps","name_short":"waw-3","host":"waw-1.pl.uncletopia.com","port":27035,"enabled":true,"region":"eu","cc":"pl","latitude":52.2297,"longitude":21.017532,"reserved":0,"last_update":"0001-01-01T00:00:00Z","name_a2s":"Uncletopia | Warsaw | 3 | All Maps","protocol":17,"map":"pl_badwater","folder":"tf","game":"Team Fortress","app_id":440,"player_count":0,"max_players":24,"Bots":0,"server_type":"Dedicated","server_os":"Linux","password":true,"vac":true,"version":"7757534","steam_id":85568392925397852,"keywords":["nocrits","nodmgspread","payload","uncletopia"],"game_id":440,"stv_port":27036,"stv_name":"Uncletopia | Warsaw | 3 | All Maps | STV","players":null},{"server_id":52,"name":"Uncletopia | Warsaw | 4 | All Maps","name_short":"waw-4","host":"waw-1.pl.uncletopia.com","port":27045,"enabled":true,"region":"eu","cc":"pl","latitude":52.2297,"longitude":21.017532,"reserved":0,"last_update":"0001-01-01T00:00:00Z","name_a2s":"Uncletopia | Warsaw | 4 | All Maps","protocol":17,"map":"koth_lakeside_final","folder":"tf","game":"Team Fortress","app_id":440,"player_count":0,"max_players":24,"Bots":0,"server_type":"Dedicated","server_os":"Linux","password":true,"vac":true,"version":"7757534","steam_id":85568392925397853,"keywords":["cp","nocrits","nodmgspread","uncletopia"],"game_id":440,"stv_port":27046,"stv_name":"Uncletopia | Warsaw | 4 | All Maps | STV","players":null},{"server_id":53,"name":"Uncletopia | Warsaw | 5 | Stopwatch Beta","name_short":"waw-5","host":"waw-1.pl.uncletopia.com","port":27055,"enabled":true,"region":"eu","cc":"pl","latitude":52.2297,"longitude":21.017532,"reserved":0,"last_update":"0001-01-01T00:00:00Z","name_a2s":"Uncletopia | Warsaw | 5 | Stopwatch Beta","protocol":17,"map":"pl_borneo","folder":"tf","game":"Team Fortress","app_id":440,"player_count":0,"max_players":24,"Bots":0,"server_type":"Dedicated","server_os":"Linux","password":true,"vac":true,"version":"7757534","steam_id":85568392925397854,"keywords":["nocrits","nodmgspread","payload","uncletopia"],"game_id":440,"stv_port":27056,"stv_name":"Uncletopia | Warsaw | 5 | Stopwatch Beta | STV","players":null},{"server_id":54,"name":"Uncletopia | Warsaw | 6 | Community","name_short":"waw-6","host":"waw-1.pl.uncletopia.com","port":27065,"enabled":true,"region":"eu","cc":"pl","latitude":52.2297,"longitude":21.017532,"reserved":0,"last_update":"0001-01-01T00:00:00Z","name_a2s":"Uncletopia | Warsaw | 6 | Community","protocol":17,"map":"koth_lakeside_final","folder":"tf","game":"Team Fortress","app_id":440,"player_count":0,"max_players":24,"Bots":0,"server_type":"Dedicated","server_os":"Linux","password":true,"vac":true,"version":"7757534","steam_id":85568392925397856,"keywords":["cp","nocrits","nodmgspread","uncletopia"],"game_id":440,"stv_port":27066,"stv_name":"Uncletopia | Warsaw | 6 | Community | STV","players":null}]}