{"status":true,"message":"","result":[{"server_id":9,"name":"Uncletopia | Atlanta | 1 | All Maps","name_short":"atl-1","host":"atl-1.us.uncletopia.com","port":27015,"enabled":true,"region":"us-east","cc":"us","latitude":33.753746,"longitude":-84.38633,"reserved":0,"last_update":"0001-01-01T00:00:00Z","name_a2s":"Uncletopia | Atlanta | 1 | All Maps","protocol":17,"map":"pl_pier","folder":"tf","game":"Team Fortress","app_id":440,"player_count":24,"max_players":24,"Bots":0,"server_type":"Dedicated","server_os":"Linux","password":true,"vac":true,"version":"7961495","steam_id":85568392924469982,"keywords":["nocrits","nodmgspread","payload","uncletopia"],"game_id":440,"stv_port":27016,"stv_name":"Uncletopia | Atlanta | 1 | All Maps | STV","players":null},{"server_id":104,"name":"Uncletopia | Atlanta | 2 | All Maps","name_short":"atl-2","host":"atl-1.us.uncletopia.com","port":27025,"enabled":true,"region":"us-east","cc":"us","latitude":33.753746,"longitude":-84.38633,"reserved":0,"last_update":"0001-01-01T00:00:00Z","name_a2s":"Uncletopia | Atlanta | 2 | All Maps","protocol":17,"map":"pl_badwater","folder":"tf","game":"Team Fortress","app_id":440,"player_count":24,"max_players":24,"Bots":0,"server_type":"Dedicated","server_os":"Linux","password":true,"vac":true,"version":"7961495","steam_id":85568392924469983,"keywords":["nocrits","nodmgspread","payload","uncletopia"],"game_id":440,"stv_port":27026,"stv_name":"Uncletopia | Atlanta | 2 | All Maps | STV","players":null},{"server_id":400,"name":"Uncletopia | Atlanta | 3 | Stopwatch","name_short":"atl-3","host":"atl-1.us.uncletopia.com","port":27035,"enabled":true,"region":"us-east","cc":"us","latitude":33.753746,"longitude":-84.38633,"reserved":0,"last_update":"0001-01-01T00:00:00Z","name_a2s":"Uncletopia | Atlanta | 3 | Stopwatch","protocol":17,"map":"cp_process_f12","folder":"tf","game":"Team Fortress","app_id":440,"player_count":0,"max_players":24,"Bots":0,"server_type":"Dedicated","server_os":"Linux","password":true,"vac":true,"version":"7961495","steam_id":85568392924515187,"keywords":["cp","nocrits","nodmgspread","uncletopia"],"game_id":440,"stv_port":27036,"stv_name":"Uncletopia | Atlanta | 3 | Stopwatch | STV","players":null},{"server_id":401,"name":"Uncletopia | Atlanta | 4 | Community","name_short":"atl-4","host":"atl-1.us.uncletopia.com","port":27045,"enabled":true,"region":"us-east","cc":"us","latitude":33.753746,"longitude":-84.38633,"reserved":0,"last_update":"0001-01-01T00:00:00Z","name_a2s":"Uncletopia | Atlanta | 4 | Community","protocol":17,"map":"koth_ashville_final","folder":"tf","game":"Team Fortress","app_id":440,"player_count":0,"max_players":24,"Bots":0,"server_type":"Dedicated","server_os":"Linux","password":true,"vac":true,"version":"7961495","steam_id":85568392924515188,"keywords":["cp","nocrits","nodmgspread","uncletopia"],"game_id":440,"stv_port":27046,"stv_name":"Uncletopia | Atlanta | 4 | Community | STV","players":null},{"server_id":2,"name":"Uncletopia | Chicago | 1 | All Maps","name_short":"chi-1","host":"chi-1.us.uncletopia.com","port":27015,"enabled":true,"region":"us-central","cc":"us","latitude":41.881832,"longitude":-87.62318,"reserved":0,"last_update":"0001-01-01T00:00:00Z","name_a2s":"Uncletopia | Chicago | 1 | All Maps","protocol":17,"map":"cp_dustbowl","folder":"tf","game":"Team Fortress","app_id":440,"player_count":24,"max_players":24,"Bots":0,"server_type":"Dedicated","server_os":"Linux","password":true,"vac":true,"version":"7961495","steam_id":85568392924469984,"keywords":["cp","nocrits","nodmgspread","uncletopia"],"game_id":440,"stv_port":27016,"stv_name":"Uncletopia | Chicago | 1 | All Maps | STV","players":[{"user_id":661,"name":"rudy","steam_id":76561198088712799,"connected_time":98000000000,"state":"active","ping":76},{"user_id":651,"name":"WaldyrH","steam_id":76561199185989504,"connected_time":1143000000000,"state":"active","ping":185},{"user_id":633,"name":"Owen","steam_id":76561198025446908,"connected_time":2216000000000,"state":"active","ping":60},{"user_id":583,"name":"Hobo Joe","steam_id":76561198021453917,"connected_time":5575000000000,"state":"active","ping":66},{"user_id":638,"name":"Osh","steam_id":76561198145796606,"connected_time":1996000000000,"state":"active","ping":83},{"user_id":609,"name":"ุ","steam_id":76561198170624701,"connected_time":4146000000000,"state":"active","ping":75},{"user_id":617,"name":"Steel Tombstone","steam_id":76561199160542103,"connected_time":3846000000000,"state":"active","ping":55},{"user_id":593,"name":"Astoriae!","steam_id":76561199090168858,"connected_time":4844000000000,"state":"active","ping":68},{"user_id":635,"name":"Sone","steam_id":76561198069601032,"connected_time":2126000000000,"state":"active","ping":73},{"user_id":605,"name":"The Jar","steam_id":76561198146013385,"connected_time":4404000000000,"state":"active","ping":75},{"user_id":647,"name":"Cosmic sR","steam_id":76561198081738675,"connected_time":1244000000000,"state":"active","ping":83},{"user_id":632,"name":"⍑⊢⊣Σ O∩Σ ZOO⍑","steam_id":76561198121944243,"connected_time":2260000000000,"state":"active","ping":46},{"user_id":657,"name":"Provocator","steam_id":76561197961830410,"connected_time":701000000000,"state":"active","ping":78},{"user_id":591,"name":"♥Bunny♥Slut♥","steam_id":76561198206376851,"connected_time":4937000000000,"state":"active","ping":109},{"user_id":573,"name":"King Crust of Crustmus","steam_id":76561198160930421,"connected_time":5877000000000,"state":"active","ping":69},{"user_id":544,"name":"flamingcookies","steam_id":76561198280864779,"connected_time":7217000000000,"state":"active","ping":74},{"user_id":662,"name":"freshly fried toenails","steam_id":76561198073269122,"connected_time":89000000000,"state":"active","ping":74},{"user_id":621,"name":"Milkmur","steam_id":76561198210043821,"connected_time":3256000000000,"state":"active","ping":65},{"user_id":658,"name":"-natalexei ♥","steam_id":76561198100477765,"connected_time":678000000000,"state":"active","ping":87},{"user_id":628,"name":"「Admiral Kolchak」","steam_id":76561198416298870,"connected_time":2829000000000,"state":"active","ping":70},{"user_id":622,"name":"Lucon","steam_id":76561198067147724,"connected_time":3247000000000,"state":"active","ping":60},{"user_id":641,"name":"MidwaySauce","steam_id":76561198799330669,"connected_time":1980000000000,"state":"active","ping":93},{"user_id":627,"name":"Capzlockz3","steam_id":76561198310863739,"connected_time":2856000000000,"state":"active","ping":69},{"user_id":649,"name":"alvöru","steam_id":76561198273488925,"connected_time":1237000000000,"state":"active","ping":77}]},{"server_id":106,"name":"Uncletopia | Chicago | 2 | All Maps","name_short":"chi-2","host":"chi-1.us.uncletopia.com","port":27025,"enabled":true,"region":"us-central","cc":"us","latitude":41.881832,"longitude":-87.62318,"reserved":0,"last_update":"0001-01-01T00:00:00Z","name_a2s":"Uncletopia | Chicago | 2 | All Maps","protocol":17,"map":"cp_badlands","folder":"tf","game":"Team Fortress","app_id":440,"player_count":24,"max_players":24,"Bots":0,"server_type":"Dedicated","server_os":"Linux","password":true,"vac":true,"version":"7961495","steam_id":85568392924469985,"keywords":["cp","nocrits","nodmgspread","uncletopia"],"game_id":440,"stv_port":27026,"stv_name":"Uncletopia | Chicago | 2 | All Maps | STV","players":[{"user_id":517,"name":"checkswing","steam_id":76561198999816132,"connected_time":595000000000,"state":"active","ping":74},{"user_id":529,"name":"Ojen","steam_id":76561197998414482,"connected_time":141000000000,"state":"active","ping":62},{"user_id":487,"name":"Mario","steam_id":76561198321794277,"connected_time":2844000000000,"state":"active","ping":68},{"user_id":503,"name":"TAKEOVER","steam_id":76561198056432756,"connected_time":1547000000000,"state":"active","ping":54},{"user_id":518,"name":"Burks「空間創造者」","steam_id":76561198134813531,"connected_time":585000000000,"state":"active","ping":67},{"user_id":519,"name":"Chicken","steam_id":76561198855273194,"connected_time":573000000000,"state":"active","ping":54},{"user_id":506,"name":"Primal","steam_id":76561197983118203,"connected_time":1326000000000,"state":"active","ping":84},{"user_id":520,"name":"ISlamHooker","steam_id":76561198050136796,"connected_time":571000000000,"state":"active","ping":82},{"user_id":521,"name":"alextruckman97","steam_id":76561198066867150,"connected_time":569000000000,"state":"active","ping":75},{"user_id":514,"name":"MedRed™ #IATAH","steam_id":76561198002962970,"connected_time":870000000000,"state":"active","ping":92},{"user_id":497,"name":"QwipQwop","steam_id":76561198019028725,"connected_time":2130000000000,"state":"active","ping":100},{"user_id":522,"name":"CabezaGrande","steam_id":76561197972555502,"connected_time":561000000000,"state":"active","ping":64},{"user_id":472,"name":"Skelly.","steam_id":76561198090517841,"connected_time":3879000000000,"state":"active","ping":63},{"user_id":494,"name":"dog","steam_id":76561198263873491,"connected_time":2231000000000,"state":"active","ping":45},{"user_id":530,"name":"loscemo","steam_id":76561197994884609,"connected_time":129000000000,"state":"active","ping":69},{"user_id":505,"name":"hej","steam_id":76561197996366940,"connected_time":1340000000000,"state":"active","ping":60},{"user_id":510,"name":"Thumbs","steam_id":76561199065890132,"connected_time":1131000000000,"state":"active","ping":56},{"user_id":474,"name":"Aqua from Super Bomberman R","steam_id":76561198172274958,"connected_time":3843000000000,"state":"active","ping":62},{"user_id":523,"name":"OddSlaush","steam_id":76561198043898488,"connected_time":550000000000,"state":"active","ping":99},{"user_id":475,"name":"Bubble Daddy","steam_id":76561198108074569,"connected_time":3836000000000,"state":"active","ping":58},{"user_id":524,"name":"RaptorJesus","steam_id":76561198451096442,"connected_time":549000000000,"state":"active","ping":64},{"user_id":525,"name":"ok","steam_id":76561199074875663,"connected_time":545000000000,"state":"active","ping":77},{"user_id":527,"name":"Window Licker","steam_id":76561198368864797,"connected_time":459000000000,"state":"active","ping":62},{"user_id":512,"name":"dansal","steam_id":76561197997042510,"connected_time":919000000000,"state":"active","ping":84}]},{"server_id":402,"name":"Uncletopia | Chicago | 3 | All Maps","name_short":"chi-3","host":"chi-1.us.uncletopia.com","port":27035,"enabled":true,"region":"us-central","cc":"us","latitude":41.881832,"longitude":-87.62318,"reserved":0,"last_update":"0001-01-01T00:00:00Z","name_a2s":"Uncletopia | Chicago | 3 | All Maps","protocol":17,"map":"pl_barnblitz","folder":"tf","game":"Team Fortress","app_id":440,"player_count":24,"max_players":24,"Bots":0,"server_type":"Dedicated","server_os":"Linux","password":true,"vac":true,"version":"7961495","steam_id":85568392924515191,"keywords":["nocrits","nodmgspread","payload","uncletopia"],"game_id":440,"stv_port":27036,"stv_name":"Uncletopia | Chicago | 3 | All Maps | STV","players":[{"user_id":398,"name":"vv","steam_id":76561198134813102,"connected_time":2962000000000,"state":"active","ping":58},{"user_id":435,"name":"icybullets","steam_id":76561198950782310,"connected_time":815000000000,"state":"active","ping":68},{"user_id":428,"name":"rickyrickyricky","steam_id":76561198041765918,"connected_time":1338000000000,"state":"active","ping":82},{"user_id":357,"name":"Sickmind33","steam_id":76561198036248611,"connected_time":5454000000000,"state":"active","ping":45},{"user_id":419,"name":"Horse","steam_id":76561198004583631,"connected_time":1724000000000,"state":"active","ping":77},{"user_id":439,"name":"Allahgator","steam_id":76561198280659041,"connected_time":342000000000,"state":"active","ping":78},{"user_id":411,"name":"Crack Addict","steam_id":76561198166681494,"connected_time":1918000000000,"state":"active","ping":67},{"user_id":440,"name":"The Pencil Cunts","steam_id":76561198272606252,"connected_time":341000000000,"state":"active","ping":65},{"user_id":436,"name":"Shady Businessman","steam_id":76561198143855968,"connected_time":666000000000,"state":"active","ping":102},{"user_id":413,"name":"ericgoodheart","steam_id":76561198871056612,"connected_time":1910000000000,"state":"active","ping":77},{"user_id":441,"name":"Nick the melon","steam_id":76561198798907871,"connected_time":327000000000,"state":"active","ping":114},{"user_id":437,"name":"UghItsCam","steam_id":76561199018270556,"connected_time":631000000000,"state":"active","ping":72},{"user_id":431,"name":"i am the one who knots","steam_id":76561198097175164,"connected_time":1210000000000,"state":"active","ping":81},{"user_id":414,"name":"wroh2801","steam_id":76561199103292218,"connected_time":1898000000000,"state":"active","ping":59},{"user_id":415,"name":"aisu","steam_id":76561198043768507,"connected_time":1890000000000,"state":"active","ping":63},{"user_id":395,"name":"Weapon X","steam_id":76561198075570893,"connected_time":3532000000000,"state":"active","ping":80},{"user_id":403,"name":"LemonCitron","steam_id":76561199009438984,"connected_time":2229000000000,"state":"active","ping":97},{"user_id":438,"name":"QuarticalPhysics","steam_id":76561198061386266,"connected_time":426000000000,"state":"active","ping":77},{"user_id":420,"name":"christopher moltisanti","steam_id":76561198375866407,"connected_time":1684000000000,"state":"active","ping":73},{"user_id":329,"name":"Clean Lines","steam_id":76561197960691518,"connected_time":7346000000000,"state":"active","ping":58},{"user_id":421,"name":"DarkWolf","steam_id":76561198392222947,"connected_time":1666000000000,"state":"active","ping":81},{"user_id":422,"name":"Neocherry","steam_id":76561198137036962,"connected_time":1662000000000,"state":"active","ping":88},{"user_id":434,"name":"Bagbort","steam_id":76561198159339442,"connected_time":967000000000,"state":"active","ping":67},{"user_id":430,"name":"Robot Rocker","steam_id":76561198050718267,"connected_time":1333000000000,"state":"active","ping":71}]},{"server_id":403,"name":"Uncletopia | Chicago | 4 | All Maps","name_short":"chi-4","host":"chi-1.us.uncletopia.com","port":27045,"enabled":true,"region":"us-central","cc":"us","latitude":41.881832,"longitude":-87.62318,"reserved":0,"last_update":"0001-01-01T00:00:00Z","name_a2s":"Uncletopia | Chicago | 4 | All Maps","protocol":17,"map":"pl_pier","folder":"tf","game":"Team Fortress","app_id":440,"player_count":24,"max_players":24,"Bots":0,"server_type":"Dedicated","server_os":"Linux","password":true,"vac":true,"version":"7961495","steam_id":85568392924515193,"keywords":["nocrits","nodmgspread","payload","uncletopia"],"game_id":440,"stv_port":27046,"stv_name":"Uncletopia | Chicago | 4 | All Maps | STV","players":[{"user_id":253,"name":"leumas","steam_id":76561198240408540,"connected_time":2771000000000,"state":"active","ping":62},{"user_id":270,"name":"+03e","steam_id":76561198147970180,"connected_time":1537000000000,"state":"active","ping":50},{"user_id":281,"name":"Tysrone","steam_id":76561198045395647,"connected_time":873000000000,"state":"active","ping":80},{"user_id":273,"name":"joddson63","steam_id":76561198124576125,"connected_time":1118000000000,"state":"active","ping":80},{"user_id":285,"name":"Jamie Hyneman","steam_id":76561199196036481,"connected_time":74000000000,"state":"active","ping":86},{"user_id":274,"name":"mothwizard","steam_id":76561198847493072,"connected_time":1117000000000,"state":"active","ping":88},{"user_id":282,"name":"loud4332","steam_id":76561198119587929,"connected_time":868000000000,"state":"active","ping":72},{"user_id":261,"name":"Blue_car_Reid","steam_id":76561198161120719,"connected_time":2074000000000,"state":"active","ping":49},{"user_id":200,"name":"WitheringLeo","steam_id":76561198046722918,"connected_time":7562000000000,"state":"active","ping":83},{"user_id":275,"name":"mariopasta6","steam_id":76561199073184183,"connected_time":1113000000000,"state":"active","ping":73},{"user_id":262,"name":"The Nikocado Enjoyer","steam_id":76561198263154374,"connected_time":2071000000000,"state":"active","ping":66},{"user_id":256,"name":"King Glouton","steam_id":76561197998979392,"connected_time":2746000000000,"state":"active","ping":75},{"user_id":280,"name":"Jeffery Epstein #TheReturn","steam_id":76561198143826450,"connected_time":1055000000000,"state":"active","ping":40},{"user_id":221,"name":"Letters","steam_id":76561198035508148,"connected_time":5723000000000,"state":"active","ping":80},{"user_id":202,"name":"gIBBY","steam_id":76561198080099598,"connected_time":7443000000000,"state":"active","ping":60},{"user_id":269,"name":"ethanf","steam_id":76561198103930234,"connected_time":1553000000000,"state":"active","ping":49},{"user_id":250,"name":"slep.py","steam_id":76561197988287144,"connected_time":2966000000000,"state":"active","ping":49},{"user_id":229,"name":"Whoa","steam_id":76561197970353496,"connected_time":5092000000000,"state":"active","ping":76},{"user_id":271,"name":"Stronk","steam_id":76561198314043450,"connected_time":1132000000000,"state":"active","ping":83},{"user_id":284,"name":"pepsi","steam_id":76561198843190923,"connected_time":175000000000,"state":"active","ping":50},{"user_id":277,"name":"Gluu","steam_id":76561197998778039,"connected_time":1099000000000,"state":"active","ping":80},{"user_id":278,"name":"Jin Mu-Won","steam_id":76561198414122318,"connected_time":1091000000000,"state":"active","ping":75},{"user_id":279,"name":"wooper","steam_id":76561198953870572,"connected_time":1087000000000,"state":"active","ping":80},{"user_id":247,"name":"Lia_Rein","steam_id":76561198151569597,"connected_time":3368000000000,"state":"active","ping":147}]},{"server_id":36,"name":"Uncletopia | Chicago | 5 | All Maps","name_short":"chi-5","host":"chi-2.us.uncletopia.com","port":27015,"enabled":true,"region":"us-central","cc":"us","latitude":41.881832,"longitude":-87.62318,"reserved":0,"last_update":"0001-01-01T00:00:00Z","name_a2s":"Uncletopia | Chicago | 5 | All Maps","protocol":17,"map":"pl_badwater","folder":"tf","game":"Team Fortress","app_id":440,"player_count":24,"max_players":24,"Bots":0,"server_type":"Dedicated","server_os":"Linux","password":true,"vac":true,"version":"7961495","steam_id":85568392924866362,"keywords":["nocrits","nodmgspread","payload","uncletopia"],"game_id":440,"stv_port":27016,"stv_name":"Uncletopia | Chicago | 5 | All Maps | STV","players":[{"user_id":107,"name":"Dubious Adubio","steam_id":76561198442369067,"connected_time":1203000000000,"state":"active","ping":70},{"user_id":119,"name":"toastman","steam_id":76561198207073088,"connected_time":69000000000,"state":"active","ping":100},{"user_id":109,"name":"average ultimate frisbee player","steam_id":76561198339644583,"connected_time":1178000000000,"state":"active","ping":64},{"user_id":117,"name":"dipp","steam_id":76561198395577807,"connected_time":429000000000,"state":"active","ping":75},{"user_id":114,"name":"Sizenberg","steam_id":76561198115842661,"connected_time":942000000000,"state":"active","ping":75},{"user_id":102,"name":"feudal","steam_id":76561198057374871,"connected_time":1355000000000,"state":"active","ping":60},{"user_id":118,"name":"Lord Cutler Beckett","steam_id":76561198091356047,"connected_time":155000000000,"state":"active","ping":56},{"user_id":78,"name":"wheresgeorge","steam_id":76561198986281248,"connected_time":2972000000000,"state":"active","ping":87},{"user_id":84,"name":"Cerebral Malfunction","steam_id":76561198885651598,"connected_time":2859000000000,"state":"active","ping":71},{"user_id":113,"name":"Big Weeb Man","steam_id":76561198127819973,"connected_time":1019000000000,"state":"active","ping":73},{"user_id":61,"name":"In Soviet America","steam_id":76561197998261826,"connected_time":4242000000000,"state":"active","ping":62},{"user_id":110,"name":"cocoabaen","steam_id":76561199088857564,"connected_time":1170000000000,"state":"active","ping":84},{"user_id":120,"name":"Joe Family guy","steam_id":76561198065327106,"connected_time":63000000000,"state":"active","ping":63},{"user_id":65,"name":"MrKokonut","steam_id":76561198879575825,"connected_time":4114000000000,"state":"active","ping":58},{"user_id":38,"name":"el soprano forma ultra instinct","steam_id":76561198058469527,"connected_time":4967000000000,"state":"active","ping":77},{"user_id":48,"name":"all balls no shaft","steam_id":76561198823526581,"connected_time":4857000000000,"state":"active","ping":70},{"user_id":49,"name":"kon","steam_id":76561198116572221,"connected_time":4855000000000,"state":"active","ping":60},{"user_id":42,"name":"Typh","steam_id":76561198315344079,"connected_time":4925000000000,"state":"active","ping":88},{"user_id":43,"name":"Vulapa","steam_id":76561198003216819,"connected_time":4918000000000,"state":"active","ping":57},{"user_id":100,"name":"mdos","steam_id":76561198332133944,"connected_time":1575000000000,"state":"active","ping":73},{"user_id":51,"name":"Pinhed Lary","steam_id":76561198378320706,"connected_time":4826000000000,"state":"active","ping":79},{"user_id":111,"name":"The local hobo","steam_id":76561198289650060,"connected_time":1113000000000,"state":"active","ping":85},{"user_id":116,"name":"Herr Müller","steam_id":76561198064876829,"connected_time":907000000000,"state":"active","ping":105},{"user_id":121,"name":"Jbomb","steam_id":76561199197866625,"connected_time":52000000000,"state":"active","ping":82}]},{"server_id":37,"name":"Uncletopia | Chicago | 6 | All Maps","name_short":"chi-6","host":"chi-2.us.uncletopia.com","port":27025,"enabled":true,"region":"us-central","cc":"us","latitude":41.881832,"longitude":-87.62318,"reserved":0,"last_update":"0001-01-01T00:00:00Z","name_a2s":"Uncletopia | Chicago | 6 | All Maps","protocol":17,"map":"pl_upward","folder":"tf","game":"Team Fortress","app_id":440,"player_count":24,"max_players":24,"Bots":0,"server_type":"Dedicated","server_os":"Linux","password":true,"vac":true,"version":"7961495","steam_id":85568392924866363,"keywords":["nocrits","nodmgspread","payload","uncletopia"],"game_id":440,"stv_port":27026,"stv_name":"Uncletopia | Chicago | 6 | All Maps | STV","players":[{"user_id":612,"name":"MillerWhite","steam_id":76561198076060357,"connected_time":750000000000,"state":"active","ping":84},{"user_id":613,"name":"Owl Pacino","steam_id":76561197979970666,"connected_time":721000000000,"state":"active","ping":58},{"user_id":545,"name":"Smog","steam_id":76561198043705383,"connected_time":2766000000000,"state":"active","ping":76},{"user_id":615,"name":"Crouching Noob Hidden Sniper","steam_id":76561197971328473,"connected_time":693000000000,"state":"active","ping":91},{"user_id":547,"name":"Gorf","steam_id":76561199060557282,"connected_time":2750000000000,"state":"active","ping":67},{"user_id":621,"name":"Wuncle Dumps","steam_id":76561198067167895,"connected_time":362000000000,"state":"active","ping":71},{"user_id":620,"name":"skid","steam_id":76561198057536994,"connected_time":587000000000,"state":"active","ping":79},{"user_id":614,"name":"Thebest Sourpickle","steam_id":76561199487268620,"connected_time":714000000000,"state":"active","ping":84},{"user_id":548,"name":"mkl","steam_id":76561197986401685,"connected_time":2744000000000,"state":"active","ping":85},{"user_id":549,"name":"phrogelf","steam_id":76561198207601548,"connected_time":2720000000000,"state":"active","ping":57},{"user_id":550,"name":"hooters","steam_id":76561198068022595,"connected_time":2715000000000,"state":"active","ping":67},{"user_id":623,"name":"Coofk","steam_id":76561198054112719,"connected_time":202000000000,"state":"active","ping":85},{"user_id":607,"name":"c64guy","steam_id":76561198023022744,"connected_time":1550000000000,"state":"active","ping":55},{"user_id":624,"name":"Howard Hamlin","steam_id":76561198881039861,"connected_time":68000000000,"state":"active","ping":53},{"user_id":611,"name":"TruffShuff","steam_id":76561198055869160,"connected_time":1216000000000,"state":"active","ping":53},{"user_id":554,"name":"bingus","steam_id":76561198110046630,"connected_time":2686000000000,"state":"active","ping":56},{"user_id":619,"name":"Santa Carrying a Minigun","steam_id":76561198047845399,"connected_time":619000000000,"state":"active","ping":79},{"user_id":374,"name":"Ikalpo","steam_id":76561198044686915,"connected_time":14435000000000,"state":"active","ping":104},{"user_id":556,"name":"Big_Beans888","steam_id":76561198100822287,"connected_time":2681000000000,"state":"active","ping":119},{"user_id":557,"name":"Wheetoz","steam_id":76561198062043775,"connected_time":2673000000000,"state":"active","ping":72},{"user_id":561,"name":"creeeeeee","steam_id":76561198392539722,"connected_time":2581000000000,"state":"active","ping":80},{"user_id":535,"name":"Vorco","steam_id":76561197996937734,"connected_time":3540000000000,"state":"active","ping":77},{"user_id":562,"name":"Nessie is my Waifu","steam_id":76561198076021620,"connected_time":2411000000000,"state":"active","ping":78},{"user_id":605,"name":"freyja","steam_id":76561198249206656,"connected_time":1900000000000,"state":"active","ping":66}]},{"server_id":38,"name":"Uncletopia | Chicago | 7 | Stopwatch","name_short":"chi-7","host":"chi-2.us.uncletopia.com","port":27035,"enabled":true,"region":"us-central","cc":"us","latitude":41.881832,"longitude":-87.62318,"reserved":0,"last_update":"0001-01-01T00:00:00Z","name_a2s":"Uncletopia | Chicago | 7 | Stopwatch","protocol":17,"map":"workshop/koth_ashville_final.ugc2130459942","folder":"tf","game":"Team Fortress","app_id":440,"player_count":0,"max_players":24,"Bots":0,"server_type":"Dedicated","server_os":"Linux","password":true,"vac":true,"version":"7961495","steam_id":85568392924866364,"keywords":["cp","nocrits","nodmgspread","uncletopia"],"game_id":440,"stv_port":27036,"stv_name":"Uncletopia | Chicago | 7 | Stopwatch | STV","players":null},{"server_id":39,"name":"Uncletopia | Chicago | 8 | Community","name_short":"chi-8","host":"chi-2.us.uncletopia.com","port":27045,"enabled":true,"region":"us-central","cc":"us","latitude":41.881832,"longitude":-87.62318,"reserved":0,"last_update":"0001-01-01T00:00:00Z","name_a2s":"Uncletopia | Chicago | 8 | Community","protocol":17,"map":"workshop/koth_product_final.ugc454272353","folder":"tf","game":"Team Fortress","app_id":440,"player_count":24,"max_players":24,"Bots":0,"server_type":"Dedicated","server_os":"Linux","password":true,"vac":true,"version":"7961495","steam_id":85568392924866365,"keywords":["cp","nocrits","nodmgspread","uncletopia"],"game_id":440,"stv_port":27046,"stv_name":"Uncletopia | Chicago | 8 | Community | STV","players":[{"user_id":7,"name":"Mythic","steam_id":76561198028616665,"connected_time":2214000000000,"state":"active","ping":68},{"user_id":8,"name":"[BBC] U Sux","steam_id":76561198016095410,"connected_time":2214000000000,"state":"active","ping":65},{"user_id":46,"name":"Kilora","steam_id":76561198103356827,"connected_time":270000000000,"state":"active","ping":72},{"user_id":10,"name":"the observer","steam_id":76561198966609490,"connected_time":1942000000000,"state":"active","ping":60},{"user_id":12,"name":"berserker_tf2","steam_id":76561198303464488,"connected_time":1912000000000,"state":"active","ping":62},{"user_id":43,"name":"Acuzik","steam_id":76561198045453400,"connected_time":303000000000,"state":"active","ping":37},{"user_id":42,"name":"Oogle","steam_id":76561198041815877,"connected_time":323000000000,"state":"active","ping":66},{"user_id":18,"name":"❤Breadshot (She)❤","steam_id":76561199005756738,"connected_time":1395000000000,"state":"active","ping":56},{"user_id":21,"name":"coffee bagel","steam_id":76561198141198352,"connected_time":994000000000,"state":"active","ping":33},{"user_id":23,"name":"Alabit","steam_id":76561198065578560,"connected_time":957000000000,"state":"active","ping":76},{"user_id":24,"name":"hi","steam_id":76561198116667442,"connected_time":949000000000,"state":"active","ping":79},{"user_id":44,"name":"JayBorneX","steam_id":76561199465655143,"connected_time":292000000000,"state":"active","ping":58},{"user_id":26,"name":"doghouse","steam_id":76561198000319035,"connected_time":815000000000,"state":"active","ping":103},{"user_id":45,"name":"ice","steam_id":76561198293589738,"connected_time":289000000000,"state":"active","ping":94},{"user_id":28,"name":"The One Free Skeleton","steam_id":76561198272403848,"connected_time":799000000000,"state":"active","ping":74},{"user_id":29,"name":"StudioMania (#SAVETF2)","steam_id":76561198211315795,"connected_time":797000000000,"state":"active","ping":64},{"user_id":47,"name":"Calamant","steam_id":76561198054650483,"connected_time":265000000000,"state":"active","ping":60},{"user_id":40,"name":"Salty Holly","steam_id":76561198091451483,"connected_time":479000000000,"state":"active","ping":78},{"user_id":32,"name":"Shrebbie","steam_id":76561198875230824,"connected_time":750000000000,"state":"active","ping":62},{"user_id":35,"name":"REO Speedwagon","steam_id":76561197960691046,"connected_time":702000000000,"state":"active","ping":58},{"user_id":34,"name":"Aqzwdrc","steam_id":76561198318727043,"connected_time":746000000000,"state":"active","ping":85},{"user_id":41,"name":"Beepo","steam_id":76561198000692261,"connected_time":369000000000,"state":"active","ping":71},{"user_id":37,"name":"Jazz2T","steam_id":76561198154418867,"connected_time":683000000000,"state":"active","ping":102},{"user_id":38,"name":"Johnny Lawrence #JohnnyMaxxing","steam_id":76561199367141671,"connected_time":653000000000,"state":"active","ping":73}]},{"server_id":8,"name":"Uncletopia | Dallas | 1 | All Maps","name_short":"dal-1","host":"dal-1.us.uncletopia.com","port":27015,"enabled":true,"region":"us-central","cc":"us","latitude":32.779167,"longitude":-96.80889,"reserved":0,"last_update":"0001-01-01T00:00:00Z","name_a2s":"Uncletopia | Dallas | 1 | All Maps","protocol":17,"map":"pl_snowycoast","folder":"tf","game":"Team Fortress","app_id":440,"player_count":23,"max_players":24,"Bots":0,"server_type":"Dedicated","server_os":"Linux","password":true,"vac":true,"version":"7961495","steam_id":85568392924469986,"keywords":["nocrits","nodmgspread","payload","uncletopia"],"game_id":440,"stv_port":27016,"stv_name":"Uncletopia | Dallas | 1 | All Maps | STV","players":[{"user_id":392,"name":"allahsdroptop","steam_id":76561198133195238,"connected_time":2607000000000,"state":"active","ping":173},{"user_id":420,"name":"FaZe hyazZzZaZa","steam_id":76561199100342013,"connected_time":169000000000,"state":"active","ping":76},{"user_id":421,"name":"green bean","steam_id":76561198113099204,"connected_time":164000000000,"state":"active","ping":74},{"user_id":399,"name":"Weerk","steam_id":76561199209543551,"connected_time":1657000000000,"state":"active","ping":90},{"user_id":412,"name":"Pie","steam_id":76561198054721133,"connected_time":805000000000,"state":"active","ping":66},{"user_id":423,"name":"felony tomfoolery charges","steam_id":76561199068981957,"connected_time":79000000000,"state":"active","ping":72},{"user_id":336,"name":"Stiffy Magnum","steam_id":76561198000036722,"connected_time":7084000000000,"state":"active","ping":85},{"user_id":408,"name":"DistantJragon","steam_id":76561198117563641,"connected_time":1243000000000,"state":"active","ping":63},{"user_id":419,"name":"lazy catboy","steam_id":76561198359994674,"connected_time":178000000000,"state":"active","ping":132},{"user_id":356,"name":"Rob","steam_id":76561199187786660,"connected_time":6110000000000,"state":"active","ping":55},{"user_id":415,"name":"yourlocalforecast","steam_id":76561198042243083,"connected_time":227000000000,"state":"active","ping":84},{"user_id":425,"name":"Mr. Mane T.S.H.A.","steam_id":76561198056728986,"connected_time":20000000000,"state":"active","ping":81},{"user_id":416,"name":"Melon567","steam_id":76561198844559035,"connected_time":222000000000,"state":"active","ping":104},{"user_id":401,"name":"Untermensch","steam_id":76561198149634242,"connected_time":1628000000000,"state":"active","ping":95},{"user_id":402,"name":"Penguinodle","steam_id":76561199082347306,"connected_time":1617000000000,"state":"active","ping":46},{"user_id":422,"name":"Fatpoob","steam_id":76561198056730096,"connected_time":158000000000,"state":"active","ping":77},{"user_id":413,"name":"elephantofdoom","steam_id":76561198062436835,"connected_time":778000000000,"state":"active","ping":88},{"user_id":418,"name":"truck nuts from Zanarkand","steam_id":76561198053332483,"connected_time":195000000000,"state":"active","ping":77},{"user_id":414,"name":"JellyParrot","steam_id":76561199190990163,"connected_time":511000000000,"state":"active","ping":70},{"user_id":353,"name":"yeeye","steam_id":76561198094306054,"connected_time":6278000000000,"state":"active","ping":59},{"user_id":384,"name":"radical larry","steam_id":76561198172246829,"connected_time":3483000000000,"state":"active","ping":75},{"user_id":424,"name":"wavlog0124","steam_id":76561199079614516,"connected_time":52000000000,"state":"active","ping":73},{"user_id":372,"name":"tail slap +36 (4d12+18)","steam_id":76561198040425096,"connected_time":4707000000000,"state":"active","ping":81}]},{"server_id":108,"name":"Uncletopia | Dallas | 2 | All Maps","name_short":"dal-2","host":"dal-1.us.uncletopia.com","port":27025,"enabled":true,"region":"us-central","cc":"us","latitude":32.779167,"longitude":-96.80889,"reserved":0,"last_update":"0001-01-01T00:00:00Z","name_a2s":"Uncletopia | Dallas | 2 | All Maps","protocol":17,"map":"cp_egypt_final","folder":"tf","game":"Team Fortress","app_id":440,"player_count":24,"max_players":24,"Bots":0,"server_type":"Dedicated","server_os":"Linux","password":true,"vac":true,"version":"7961495","steam_id":85568392924469988,"keywords":["cp","nocrits","nodmgspread","uncletopia"],"game_id":440,"stv_port":27026,"stv_name":"Uncletopia | Dallas | 2 | All Maps | STV","players":[{"user_id":294,"name":"Drained","steam_id":76561198081974528,"connected_time":8370000000000,"state":"active","ping":67},{"user_id":408,"name":"jimmyfnaf172198yay","steam_id":76561198311446636,"connected_time":919000000000,"state":"active","ping":75},{"user_id":388,"name":"GuyGoom","steam_id":76561198254522178,"connected_time":2014000000000,"state":"active","ping":71},{"user_id":367,"name":"Cat","steam_id":76561198328159094,"connected_time":3066000000000,"state":"active","ping":89},{"user_id":384,"name":"mr.teeth","steam_id":76561199210541615,"connected_time":2159000000000,"state":"active","ping":90},{"user_id":411,"name":"lpk","steam_id":76561198025478698,"connected_time":436000000000,"state":"active","ping":70},{"user_id":404,"name":"King of Spies","steam_id":76561198090549460,"connected_time":1069000000000,"state":"active","ping":74},{"user_id":409,"name":"drugger. (makster implant)","steam_id":76561198353463585,"connected_time":557000000000,"state":"active","ping":83},{"user_id":381,"name":"mrthugpug1732","steam_id":76561198881200768,"connected_time":2285000000000,"state":"active","ping":96},{"user_id":413,"name":"ThiccNicc","steam_id":76561198236828842,"connected_time":411000000000,"state":"active","ping":90},{"user_id":305,"name":"Your Dad™","steam_id":76561198254739340,"connected_time":7525000000000,"state":"active","ping":80},{"user_id":412,"name":"-=Bits=-Dinkleberg","steam_id":76561198080367616,"connected_time":435000000000,"state":"active","ping":46},{"user_id":390,"name":"the.land.of.avalon","steam_id":76561198245431668,"connected_time":1989000000000,"state":"active","ping":73},{"user_id":371,"name":"Rennsellaer","steam_id":76561198096207580,"connected_time":2734000000000,"state":"active","ping":84},{"user_id":414,"name":"Foomfa","steam_id":76561198007033616,"connected_time":352000000000,"state":"active","ping":74},{"user_id":375,"name":"fuckterry","steam_id":76561198271957738,"connected_time":2604000000000,"state":"active","ping":75},{"user_id":400,"name":"Stomp","steam_id":76561198167765748,"connected_time":1551000000000,"state":"active","ping":75},{"user_id":392,"name":"kermitcreeper(ZAZA)","steam_id":76561199222829972,"connected_time":1943000000000,"state":"active","ping":70},{"user_id":376,"name":"Cl(here)?","steam_id":76561198069735882,"connected_time":2558000000000,"state":"active","ping":85},{"user_id":307,"name":"Schnabel","steam_id":76561198226159564,"connected_time":7312000000000,"state":"active","ping":86},{"user_id":419,"name":"Major Moxy","steam_id":76561198120989933,"connected_time":102000000000,"state":"active","ping":58},{"user_id":406,"name":"Toasterduds","steam_id":76561198163477584,"connected_time":1039000000000,"state":"active","ping":85},{"user_id":308,"name":"The_Dominator47","steam_id":76561198170443759,"connected_time":7009000000000,"state":"active","ping":93},{"user_id":417,"name":"Rearranging furniture","steam_id":76561199054971009,"connected_time":279000000000,"state":"active","ping":51}]},{"server_id":404,"name":"Uncletopia | Dallas | 3 | All Maps","name_short":"dal-3","host":"dal-1.us.uncletopia.com","port":27035,"enabled":true,"region":"us-central","cc":"us","latitude":32.779167,"longitude":-96.80889,"reserved":0,"last_update":"0001-01-01T00:00:00Z","name_a2s":"Uncletopia | Dallas | 3 | All Maps","protocol":17,"map":"pl_frontier_final","folder":"tf","game":"Team Fortress","app_id":440,"player_count":24,"max_players":24,"Bots":0,"server_type":"Dedicated","server_os":"Linux","password":true,"vac":true,"version":"7961495","steam_id":85568392924515219,"keywords":["nocrits","nodmgspread","payload","uncletopia"],"game_id":440,"stv_port":27036,"stv_name":"Uncletopia | Dallas | 3 | All Maps | STV","players":[{"user_id":139,"name":"Dr_Cecil","steam_id":76561198873862113,"connected_time":1335000000000,"state":"active","ping":91},{"user_id":151,"name":"scarybroccoli","steam_id":76561198296440084,"connected_time":416000000000,"state":"active","ping":84},{"user_id":140,"name":"ChebJeb","steam_id":76561198981377081,"connected_time":1300000000000,"state":"active","ping":110},{"user_id":101,"name":"heisenburst","steam_id":76561198293153786,"connected_time":4436000000000,"state":"active","ping":48},{"user_id":69,"name":"too funky ᗜˬᗜ","steam_id":76561199120399776,"connected_time":6692000000000,"state":"active","ping":95},{"user_id":153,"name":"Divorced Father","steam_id":76561199071151136,"connected_time":288000000000,"state":"active","ping":75},{"user_id":145,"name":"Capybara Enjoyer","steam_id":76561199147114434,"connected_time":649000000000,"state":"active","ping":87},{"user_id":141,"name":"Pizza","steam_id":76561198118748364,"connected_time":1189000000000,"state":"active","ping":87},{"user_id":108,"name":"|-HyperCube-|","steam_id":76561198167133597,"connected_time":3834000000000,"state":"active","ping":59},{"user_id":129,"name":"Gen-E","steam_id":76561199497800989,"connected_time":2063000000000,"state":"active","ping":103},{"user_id":147,"name":"caRat","steam_id":76561198859267372,"connected_time":601000000000,"state":"active","ping":74},{"user_id":123,"name":"Winzinf","steam_id":76561198026152232,"connected_time":2531000000000,"state":"active","ping":87},{"user_id":138,"name":"Grognak","steam_id":76561198044710527,"connected_time":1349000000000,"state":"active","ping":113},{"user_id":126,"name":"El Bondin","steam_id":76561198820792434,"connected_time":2380000000000,"state":"active","ping":97},{"user_id":142,"name":"a bucket of chicken","steam_id":76561198023710042,"connected_time":666000000000,"state":"active","ping":63},{"user_id":148,"name":"Žinâlyga","steam_id":76561198067803679,"connected_time":586000000000,"state":"active","ping":60},{"user_id":152,"name":"artemisjackson2","steam_id":76561199094686268,"connected_time":326000000000,"state":"active","ping":102},{"user_id":144,"name":"Sunshine On Me","steam_id":76561198042570322,"connected_time":659000000000,"state":"active","ping":76},{"user_id":150,"name":"[BBC] b0nes threw grands again","steam_id":76561198360946437,"connected_time":495000000000,"state":"active","ping":94},{"user_id":132,"name":"Rukks","steam_id":76561197993918954,"connected_time":2001000000000,"state":"active","ping":84},{"user_id":149,"name":"Autogyro","steam_id":76561198047943679,"connected_time":548000000000,"state":"active","ping":60},{"user_id":81,"name":"???","steam_id":76561198200155343,"connected_time":6052000000000,"state":"active","ping":45},{"user_id":135,"name":"Pah-Wraith Gul Dukat","steam_id":76561198033918106,"connected_time":1698000000000,"state":"active","ping":83},{"user_id":85,"name":"vevetables","steam_id":76561198404178400,"connected_time":5657000000000,"state":"active","ping":101}]},{"server_id":405,"name":"Uncletopia | Dallas | 4 | Community","name_short":"dal-4","host":"dal-1.us.uncletopia.com","port":27045,"enabled":true,"region":"us-central","cc":"us","latitude":32.779167,"longitude":-96.80889,"reserved":0,"last_update":"0001-01-01T00:00:00Z","name_a2s":"Uncletopia | Dallas | 4 | Community","protocol":17,"map":"workshop/pl_barnblitz_pro7.ugc582280235","folder":"tf","game":"Team Fortress","app_id":440,"player_count":0,"max_players":24,"Bots":0,"server_type":"Dedicated","server_os":"Linux","password":true,"vac":true,"version":"7961495","steam_id":85568392924515220,"keywords":["nocrits","nodmgspread","payload","uncletopia"],"game_id":440,"stv_port":27046,"stv_name":"Uncletopia | Dallas | 4 | Community | STV","players":null},{"server_id":5,"name":"Uncletopia | Frankfurt | 1 | All Maps","name_short":"frk-1","host":"frk-1.de.uncletopia.com","port":27015,"enabled":true,"region":"eu","cc":"de","latitude":50.110924,"longitude":8.682127,"reserved":0,"last_update":"0001-01-01T00:00:00Z","name_a2s":"Uncletopia | Frankfurt | 1 | All Maps","protocol":17,"map":"koth_cascade","folder":"tf","game":"Team Fortress","app_id":440,"player_count":0,"max_players":24,"Bots":0,"server_type":"Dedicated","server_os":"Linux","password":true,"vac":true,"version":"7961495","steam_id":85568392924469989,"keywords":["cp","nocrits","nodmgspread","uncletopia"],"game_id":440,"stv_port":27016,"stv_name":"Uncletopia | Frankfurt | 1 | All Maps | STV","players":null},{"server_id":110,"name":"Uncletopia | Frankfurt | 2 | All Maps","name_short":"frk-2","host":"frk-1.de.uncletopia.com","port":27025,"enabled":true,"region":"eu","cc":"de","latitude":50.110924,"longitude":8.682127,"reserved":0,"last_update":"0001-01-01T00:00:00Z","name_a2s":"Uncletopia | Frankfurt | 2 | All Maps","protocol":17,"map":"pl_snowycoast","folder":"tf","game":"Team Fortress","app_id":440,"player_count":0,"max_players":24,"Bots":0,"server_type":"Dedicated","server_os":"Linux","password":true,"vac":true,"version":"7961495","steam_id":85568392924469990,"keywords":["nocrits","nodmgspread","payload","uncletopia"],"game_id":440,"stv_port":27026,"stv_name":"Uncletopia | Frankfurt | 2 | All Maps | STV","players":null},{"server_id":308,"name":"Uncletopia | Frankfurt | 3 | All Maps","name_short":"frk-3","host":"frk-1.de.uncletopia.com","port":27035,"enabled":true,"region":"eu","cc":"de","latitude":50.110924,"longitude":8.682127,"reserved":0,"last_update":"0001-01-01T00:00:00Z","name_a2s":"Uncletopia | Frankfurt | 3 | All Maps","protocol":17,"map":"koth_highpass","folder":"tf","game":"Team Fortress","app_id":440,"player_count":0,"max_players":24,"Bots":0,"server_type":"Dedicated","server_os":"Linux","password":true,"vac":true,"version":"7961495","steam_id":85568392924504274,"keywords":["cp","nocrits","nodmgspread","uncletopia"],"game_id":440,"stv_port":27036,"stv_name":"Uncletopia | Frankfurt | 3 | All Maps | STV","players":null},{"server_id":309,"name":"Uncletopia | Frankfurt | 4 | All Maps","name_short":"frk-4","host":"frk-1.de.uncletopia.com","port":27045,"enabled":true,"region":"eu","cc":"de","latitude":50.110924,"longitude":8.682127,"reserved":0,"last_update":"0001-01-01T00:00:00Z","name_a2s":"Uncletopia | Frankfurt | 4 | All Maps","protocol":17,"map":"pl_barnblitz","folder":"tf","game":"Team Fortress","app_id":440,"player_count":0,"max_players":24,"Bots":0,"server_type":"Dedicated","server_os":"Linux","password":true,"vac":true,"version":"7961495","steam_id":85568392924504275,"keywords":["nocrits","nodmgspread","payload","uncletopia"],"game_id":440,"stv_port":27046,"stv_name":"Uncletopia | Frankfurt | 4 | All Maps | STV","players":null},{"server_id":310,"name":"Uncletopia | Frankfurt | 5 | All Maps","name_short":"frk-5","host":"frk-1.de.uncletopia.com","port":27055,"enabled":true,"region":"eu","cc":"de","latitude":50.110924,"longitude":8.682127,"reserved":0,"last_update":"0001-01-01T00:00:00Z","name_a2s":"Uncletopia | Frankfurt | 5 | All Maps","protocol":17,"map":"pl_pier","folder":"tf","game":"Team Fortress","app_id":440,"player_count":24,"max_players":24,"Bots":0,"server_type":"Dedicated","server_os":"Linux","password":true,"vac":true,"version":"7961495","steam_id":85568392924504277,"keywords":["nocrits","nodmgspread","payload","uncletopia"],"game_id":440,"stv_port":27056,"stv_name":"Uncletopia | Frankfurt | 5 | All Maps | STV","players":[{"user_id":535,"name":"schmick h_stt 0","steam_id":76561198039537958,"connected_time":177000000000,"state":"active","ping":53},{"user_id":515,"name":"no blocking no dodging","steam_id":76561198138208569,"connected_time":2020000000000,"state":"active","ping":150},{"user_id":534,"name":"Pypis","steam_id":76561198013713935,"connected_time":235000000000,"state":"active","ping":95},{"user_id":522,"name":"froglids","steam_id":76561198045466919,"connected_time":1715000000000,"state":"active","ping":61},{"user_id":537,"name":"Dinosaur","steam_id":76561199079626189,"connected_time":111000000000,"state":"active","ping":160},{"user_id":499,"name":"Lord Odment","steam_id":76561198044354976,"connected_time":3310000000000,"state":"active","ping":100},{"user_id":516,"name":"Infantile Pillock","steam_id":76561198283851362,"connected_time":1892000000000,"state":"active","ping":58},{"user_id":490,"name":"biohazard.pt","steam_id":76561198088367808,"connected_time":3810000000000,"state":"active","ping":85},{"user_id":521,"name":"Portal2Player","steam_id":76561198062870114,"connected_time":1721000000000,"state":"active","ping":152},{"user_id":538,"name":"Golden retriever (real)","steam_id":76561198042502842,"connected_time":99000000000,"state":"active","ping":70},{"user_id":529,"name":"RIBS GROW BACK","steam_id":76561198123659806,"connected_time":1319000000000,"state":"active","ping":95},{"user_id":531,"name":"Cardinal Purger Draip","steam_id":76561198119271996,"connected_time":889000000000,"state":"active","ping":96},{"user_id":474,"name":"LetTheManCook","steam_id":76561198151303552,"connected_time":4787000000000,"state":"active","ping":92},{"user_id":482,"name":"ShelfPotato","steam_id":76561198062242874,"connected_time":4408000000000,"state":"active","ping":68},{"user_id":539,"name":"MC_Labs15","steam_id":76561198184017082,"connected_time":88000000000,"state":"active","ping":156},{"user_id":530,"name":"Sixten the Pale","steam_id":76561197981806008,"connected_time":1151000000000,"state":"active","ping":72},{"user_id":517,"name":"Mizzow","steam_id":76561198008040797,"connected_time":1850000000000,"state":"active","ping":94},{"user_id":540,"name":"Adam","steam_id":76561198045660732,"connected_time":78000000000,"state":"active","ping":61},{"user_id":532,"name":"HEAD HUNTER","steam_id":76561198090798451,"connected_time":816000000000,"state":"active","ping":70},{"user_id":469,"name":"Bobirulez","steam_id":76561198009125458,"connected_time":5514000000000,"state":"active","ping":75},{"user_id":525,"name":"Benitez","steam_id":76561198199483119,"connected_time":1631000000000,"state":"active","ping":77},{"user_id":519,"name":"irritable vowel syndrome","steam_id":76561198117033273,"connected_time":1818000000000,"state":"active","ping":74},{"user_id":533,"name":"xulera","steam_id":76561198080736030,"connected_time":638000000000,"state":"active","ping":68},{"user_id":486,"name":"kaelan","steam_id":76561198001425310,"connected_time":4148000000000,"state":"active","ping":75}]},{"server_id":311,"name":"Uncletopia | Frankfurt | 6 | All Maps","name_short":"frk-6","host":"frk-1.de.uncletopia.com","port":27065,"enabled":true,"region":"eu","cc":"de","latitude":50.110924,"longitude":8.682127,"reserved":0,"last_update":"0001-01-01T00:00:00Z","name_a2s":"Uncletopia | Frankfurt | 6 | All Maps","protocol":17,"map":"plr_pipeline","folder":"tf","game":"Team Fortress","app_id":440,"player_count":0,"max_players":24,"Bots":0,"server_type":"Dedicated","server_os":"Linux","password":true,"vac":true,"version":"7961495","steam_id":85568392924504278,"keywords":["nocrits","nodmgspread","payload","uncletopia"],"game_id":440,"stv_port":27066,"stv_name":"Uncletopia | Frankfurt | 6 | All Maps | STV","players":null},{"server_id":23,"name":"Uncletopia | Frankfurt | 7 | Stopwatch","name_short":"frk-7","host":"frk-1.de.uncletopia.com","port":27075,"enabled":true,"region":"eu","cc":"de","latitude":50.110924,"longitude":8.682127,"reserved":0,"last_update":"0001-01-01T00:00:00Z","name_a2s":"Uncletopia | Frankfurt | 7 | Stopwatch","protocol":17,"map":"workshop/koth_bagel_rc6.ugc2514036946","folder":"tf","game":"Team Fortress","app_id":440,"player_count":0,"max_players":24,"Bots":0,"server_type":"Dedicated","server_os":"Linux","password":true,"vac":true,"version":"7961495","steam_id":85568392924742827,"keywords":["cp","nocrits","nodmgspread","uncletopia"],"game_id":440,"stv_port":27076,"stv_name":"Uncletopia | Frankfurt | 7 | Stopwatch | STV","players":null},{"server_id":24,"name":"Uncletopia | Frankfurt | 8 | Community","name_short":"frk-8","host":"frk-1.de.uncletopia.com","port":27085,"enabled":true,"region":"eu","cc":"de","latitude":50.110924,"longitude":8.682127,"reserved":0,"last_update":"0001-01-01T00:00:00Z","name_a2s":"Uncletopia | Frankfurt | 8 | Community","protocol":17,"map":"workshop/koth_kemptown_rc1.ugc767410655","folder":"tf","game":"Team Fortress","app_id":440,"player_count":0,"max_players":24,"Bots":0,"server_type":"Dedicated","server_os":"Linux","password":true,"vac":true,"version":"7961495","steam_id":85568392924742828,"keywords":["cp","nocrits","nodmgspread","uncletopia"],"game_id":440,"stv_port":27086,"stv_name":"Uncletopia | Frankfurt | 8 | Community | STV","players":null},{"server_id":202,"name":"Uncletopia | Hong Kong | 1 | All Maps","name_short":"hgk-1","host":"hgk-1.hk.uncletopia.com","port":27015,"enabled":true,"region":"asia","cc":"hk","latitude":22.302711,"longitude":114.177216,"reserved":0,"last_update":"0001-01-01T00:00:00Z","name_a2s":"Uncletopia | Hong Kong | 1 | All Maps","protocol":17,"map":"pl_frontier_final","folder":"tf","game":"Team Fortress","app_id":440,"player_count":0,"max_players":24,"Bots":0,"server_type":"Dedicated","server_os":"Linux","password":true,"vac":true,"version":"7961495","steam_id":85568392924494504,"keywords":["nocrits","nodmgspread","payload","uncletopia"],"game_id":440,"stv_port":27016,"stv_name":"Uncletopia | Hong Kong | 1 | All Maps | STV","players":null},{"server_id":1,"name":"Uncletopia | Los Angeles | 1 | All Maps","name_short":"lax-1","host":"lax-1.us.uncletopia.com","port":27015,"enabled":true,"region":"us-west","cc":"us","latitude":33.94279,"longitude":-118.41004,"reserved":0,"last_update":"0001-01-01T00:00:00Z","name_a2s":"Uncletopia | Los Angeles | 1 | All Maps","protocol":17,"map":"cp_sunshine","folder":"tf","game":"Team Fortress","app_id":440,"player_count":24,"max_players":24,"Bots":0,"server_type":"Dedicated","server_os":"Linux","password":true,"vac":true,"version":"7961495","steam_id":85568392924469991,"keywords":["cp","nocrits","nodmgspread","uncletopia"],"game_id":440,"stv_port":27016,"stv_name":"Uncletopia | Los Angeles | 1 | All Maps | STV","players":[{"user_id":122,"name":"\u003c3","steam_id":76561198196829267,"connected_time":800000000000,"state":"active","ping":55},{"user_id":115,"name":"Karthos","steam_id":76561198040827487,"connected_time":1095000000000,"state":"active","ping":101},{"user_id":119,"name":"Gazelle","steam_id":76561198336397088,"connected_time":914000000000,"state":"active","ping":58},{"user_id":129,"name":"Firedust19","steam_id":76561198153238631,"connected_time":330000000000,"state":"active","ping":67},{"user_id":125,"name":"Gerbias","steam_id":76561198001002427,"connected_time":532000000000,"state":"active","ping":61},{"user_id":130,"name":"nella","steam_id":76561198079349621,"connected_time":26000000000,"state":"active","ping":45},{"user_id":121,"name":"Polfloe10","steam_id":76561198013702833,"connected_time":871000000000,"state":"active","ping":106},{"user_id":105,"name":"Bloodgoat","steam_id":76561198047407295,"connected_time":2901000000000,"state":"active","ping":71},{"user_id":126,"name":"hoos","steam_id":76561198045985910,"connected_time":517000000000,"state":"active","ping":115},{"user_id":25,"name":"ACK","steam_id":76561198130390689,"connected_time":7967000000000,"state":"active","ping":72},{"user_id":128,"name":"Noisgamer02","steam_id":76561198129665722,"connected_time":463000000000,"state":"active","ping":96},{"user_id":97,"name":"Anthid","steam_id":76561198074493797,"connected_time":3937000000000,"state":"active","ping":75},{"user_id":108,"name":"Corbo","steam_id":76561198274519665,"connected_time":2314000000000,"state":"active","ping":76},{"user_id":113,"name":"video games","steam_id":76561198334059206,"connected_time":1716000000000,"state":"active","ping":60},{"user_id":102,"name":"sola venereum","steam_id":76561198368179166,"connected_time":3159000000000,"state":"active","ping":37},{"user_id":95,"name":"Hernandez$","steam_id":76561198019324588,"connected_time":4187000000000,"state":"active","ping":61},{"user_id":114,"name":"Fisherman Jim","steam_id":76561197980253115,"connected_time":1435000000000,"state":"active","ping":114},{"user_id":71,"name":"Mainyx","steam_id":76561198811844438,"connected_time":5527000000000,"state":"active","ping":59},{"user_id":110,"name":"Schnitz","steam_id":76561198265484253,"connected_time":1947000000000,"state":"active","ping":57},{"user_id":42,"name":"new ZAland","steam_id":76561198433114405,"connected_time":7278000000000,"state":"active","ping":71},{"user_id":120,"name":"b","steam_id":76561198087200115,"connected_time":912000000000,"state":"active","ping":77},{"user_id":116,"name":"{ᴛʀ_ᴄᴇʀᴘ} shullers","steam_id":76561198889997809,"connected_time":941000000000,"state":"active","ping":46},{"user_id":104,"name":"Droozlex","steam_id":76561198157221366,"connected_time":2926000000000,"state":"active","ping":75},{"user_id":103,"name":"Maribel Hearn Gaming","steam_id":76561198063315650,"connected_time":2948000000000,"state":"active","ping":38}]},{"server_id":112,"name":"Uncletopia | Los Angeles | 2 | All Maps","name_short":"lax-2","host":"lax-1.us.uncletopia.com","port":27025,"enabled":true,"region":"us-west","cc":"us","latitude":33.94279,"longitude":-118.41004,"reserved":0,"last_update":"0001-01-01T00:00:00Z","name_a2s":"Uncletopia | Los Angeles | 2 | All Maps","protocol":17,"map":"cp_snakewater_final1","folder":"tf","game":"Team Fortress","app_id":440,"player_count":24,"max_players":24,"Bots":0,"server_type":"Dedicated","server_os":"Linux","password":true,"vac":true,"version":"7961495","steam_id":85568392924469992,"keywords":["cp","nocrits","nodmgspread","uncletopia"],"game_id":440,"stv_port":27026,"stv_name":"Uncletopia | Los Angeles | 2 | All Maps | STV","players":[{"user_id":263,"name":"GLXy","steam_id":76561198207551544,"connected_time":102000000000,"state":"spawning","ping":69},{"user_id":264,"name":"Tmiracle","steam_id":76561198052375275,"connected_time":82000000000,"state":"active","ping":45},{"user_id":185,"name":"heavy tf2 gaming","steam_id":76561198069760139,"connected_time":6734000000000,"state":"active","ping":69},{"user_id":186,"name":"dP | I'm in a Wookie Suit","steam_id":76561198083307644,"connected_time":6719000000000,"state":"active","ping":86},{"user_id":253,"name":"Vaccine Eater","steam_id":76561198026301425,"connected_time":1044000000000,"state":"active","ping":56},{"user_id":241,"name":"DOPEam1ne","steam_id":76561198112204774,"connected_time":2443000000000,"state":"active","ping":55},{"user_id":226,"name":"duncaidan","steam_id":76561199013510313,"connected_time":4260000000000,"state":"active","ping":104},{"user_id":182,"name":"Underscorn","steam_id":76561198374209415,"connected_time":7303000000000,"state":"active","ping":84},{"user_id":227,"name":"Fluffy","steam_id":76561198115952540,"connected_time":4178000000000,"state":"active","ping":62},{"user_id":254,"name":"Hektur Salmondchonka","steam_id":76561198136982572,"connected_time":1031000000000,"state":"active","ping":80},{"user_id":258,"name":"Lj3online","steam_id":76561198009960926,"connected_time":692000000000,"state":"active","ping":65},{"user_id":262,"name":"LordGaBe64","steam_id":76561199395143624,"connected_time":390000000000,"state":"active","ping":56},{"user_id":224,"name":"Spaghettiguy6","steam_id":76561198261692989,"connected_time":4574000000000,"state":"active","ping":65},{"user_id":256,"name":"Randle of John","steam_id":76561198328210524,"connected_time":947000000000,"state":"active","ping":54},{"user_id":236,"name":"Mr.Bones","steam_id":76561198205170595,"connected_time":3494000000000,"state":"active","ping":79},{"user_id":237,"name":"master_minion","steam_id":76561198170693990,"connected_time":3208000000000,"state":"active","ping":50},{"user_id":231,"name":"Alchemist","steam_id":76561198094238189,"connected_time":4128000000000,"state":"active","ping":57},{"user_id":243,"name":"IsThatAJoJoReference","steam_id":76561198835513424,"connected_time":1748000000000,"state":"active","ping":66},{"user_id":249,"name":"Enemy Infant Tree","steam_id":76561198027175418,"connected_time":1469000000000,"state":"active","ping":128},{"user_id":257,"name":"kingcab","steam_id":76561197998531589,"connected_time":946000000000,"state":"active","ping":83},{"user_id":240,"name":"Eden","steam_id":76561198081284664,"connected_time":2922000000000,"state":"active","ping":57},{"user_id":261,"name":"HeroOfTime","steam_id":76561199096218001,"connected_time":526000000000,"state":"active","ping":48},{"user_id":219,"name":"roach","steam_id":76561198354811369,"connected_time":4897000000000,"state":"active","ping":47},{"user_id":248,"name":"Random Person","steam_id":76561198216590604,"connected_time":1565000000000,"state":"active","ping":90}]},{"server_id":324,"name":"Uncletopia | Los Angeles | 3 | All Maps","name_short":"lax-3","host":"lax-1.us.uncletopia.com","port":27035,"enabled":true,"region":"us-west","cc":"us","latitude":33.94279,"longitude":-118.41004,"reserved":0,"last_update":"0001-01-01T00:00:00Z","name_a2s":"Uncletopia | Los Angeles | 3 | All Maps","protocol":17,"map":"pl_snowycoast","folder":"tf","game":"Team Fortress","app_id":440,"player_count":0,"max_players":24,"Bots":0,"server_type":"Dedicated","server_os":"Linux","password":true,"vac":true,"version":"7961495","steam_id":85568392924510198,"keywords":["nocrits","nodmgspread","payload","uncletopia"],"game_id":440,"stv_port":27036,"stv_name":"Uncletopia | Los Angeles | 3 | All Maps | STV","players":null},{"server_id":25,"name":"Uncletopia | Los Angeles | 4 | Stopwatch","name_short":"lax-4","host":"lax-1.us.uncletopia.com","port":27045,"enabled":true,"region":"us-west","cc":"us","latitude":33.94279,"longitude":-118.41004,"reserved":0,"last_update":"0001-01-01T00:00:00Z","name_a2s":"Uncletopia | Los Angeles | 4 | Stopwatch","protocol":17,"map":"workshop/koth_ramjam_rc1.ugc459778887","folder":"tf","game":"Team Fortress","app_id":440,"player_count":0,"max_players":24,"Bots":0,"server_type":"Dedicated","server_os":"Linux","password":true,"vac":true,"version":"7961495","steam_id":85568392924510199,"keywords":["cp","nocrits","nodmgspread","uncletopia"],"game_id":440,"stv_port":27046,"stv_name":"Uncletopia | Los Angeles | 4 | Stopwatch | STV","players":null},{"server_id":11,"name":"Uncletopia | London | 1 | All Maps","name_short":"lon-1","host":"lon-1.uk.uncletopia.com","port":27015,"enabled":true,"region":"eu","cc":"gb","latitude":51.509865,"longitude":-0.118092,"reserved":0,"last_update":"0001-01-01T00:00:00Z","name_a2s":"Uncletopia | London | 1 | All Maps","protocol":17,"map":"pl_upward","folder":"tf","game":"Team Fortress","app_id":440,"player_count":22,"max_players":24,"Bots":0,"server_type":"Dedicated","server_os":"Linux","password":true,"vac":true,"version":"7961495","steam_id":85568392924367362,"keywords":["nocrits","nodmgspread","payload","uncletopia"],"game_id":440,"stv_port":27016,"stv_name":"Uncletopia | London | 1 | All Maps | STV","players":[{"user_id":740,"name":"koreanbbq","steam_id":76561198346638308,"connected_time":977000000000,"state":"active","ping":48},{"user_id":752,"name":"Leo","steam_id":76561198023609460,"connected_time":434000000000,"state":"active","ping":90},{"user_id":761,"name":"DonkHappy","steam_id":76561197989948420,"connected_time":71000000000,"state":"active","ping":52},{"user_id":753,"name":"Shamwise","steam_id":76561198147577158,"connected_time":433000000000,"state":"active","ping":59},{"user_id":719,"name":"Damn D. Aniel","steam_id":76561198106597458,"connected_time":1788000000000,"state":"active","ping":58},{"user_id":720,"name":"bsnaxfiblo2","steam_id":76561198051053852,"connected_time":1778000000000,"state":"active","ping":45},{"user_id":748,"name":"Tornado","steam_id":76561198025684320,"connected_time":587000000000,"state":"active","ping":38},{"user_id":750,"name":"Zak","steam_id":76561198082388327,"connected_time":463000000000,"state":"active","ping":62},{"user_id":751,"name":"www.ESYACARSISI.COM","steam_id":76561198378280844,"connected_time":456000000000,"state":"active","ping":98},{"user_id":760,"name":"HilldogGaming♛","steam_id":76561198082209322,"connected_time":122000000000,"state":"active","ping":84},{"user_id":721,"name":"Lemmy","steam_id":76561199038870751,"connected_time":1757000000000,"state":"active","ping":60},{"user_id":755,"name":"CatInTheFestiveHat","steam_id":76561198096468920,"connected_time":373000000000,"state":"active","ping":48},{"user_id":756,"name":"wes","steam_id":76561198067000117,"connected_time":372000000000,"state":"active","ping":74},{"user_id":724,"name":"mr mufasi","steam_id":76561198068453867,"connected_time":1640000000000,"state":"active","ping":51},{"user_id":733,"name":"zach12","steam_id":76561198051101008,"connected_time":1203000000000,"state":"active","ping":56},{"user_id":759,"name":"debil","steam_id":76561198160047415,"connected_time":202000000000,"state":"active","ping":84},{"user_id":763,"name":"GoblinGaming","steam_id":76561198360395476,"connected_time":24000000000,"state":"active","ping":31},{"user_id":757,"name":"dia","steam_id":76561198033281405,"connected_time":360000000000,"state":"active","ping":88},{"user_id":713,"name":"nug","steam_id":76561198055396568,"connected_time":2158000000000,"state":"active","ping":55},{"user_id":737,"name":"Onbeheerde_Jongeheer","steam_id":76561198051685232,"connected_time":1124000000000,"state":"active","ping":47},{"user_id":738,"name":"Blue","steam_id":76561198051220531,"connected_time":1109000000000,"state":"active","ping":45},{"user_id":742,"name":"Steven Toast","steam_id":76561198109943492,"connected_time":955000000000,"state":"active","ping":48}]},{"server_id":114,"name":"Uncletopia | London | 2 | All Maps","name_short":"lon-2","host":"lon-1.uk.uncletopia.com","port":27025,"enabled":true,"region":"eu","cc":"gb","latitude":51.509865,"longitude":-0.118092,"reserved":0,"last_update":"0001-01-01T00:00:00Z","name_a2s":"Uncletopia | London | 2 | All Maps","protocol":17,"map":"pl_borneo","folder":"tf","game":"Team Fortress","app_id":440,"player_count":13,"max_players":24,"Bots":0,"server_type":"Dedicated","server_os":"Linux","password":true,"vac":true,"version":"7961495","steam_id":85568392924470941,"keywords":["nocrits","nodmgspread","payload","uncletopia"],"game_id":440,"stv_port":27026,"stv_name":"Uncletopia | London | 2 | All Maps | STV","players":[{"user_id":986,"name":"=BaFFe= Krakenpots","steam_id":76561198106600025,"connected_time":561000000000,"state":"active","ping":57},{"user_id":880,"name":"Yelowchy","steam_id":76561198199416121,"connected_time":8924000000000,"state":"active","ping":70},{"user_id":989,"name":"aight","steam_id":76561198174474613,"connected_time":454000000000,"state":"active","ping":44},{"user_id":991,"name":"Zerfesh","steam_id":76561198117534358,"connected_time":403000000000,"state":"active","ping":108},{"user_id":988,"name":"Bounty","steam_id":76561198032698137,"connected_time":481000000000,"state":"active","ping":62},{"user_id":985,"name":"Cerise","steam_id":76561198261484969,"connected_time":742000000000,"state":"active","ping":45},{"user_id":992,"name":"positive vibes","steam_id":76561198080524596,"connected_time":197000000000,"state":"active","ping":47},{"user_id":993,"name":"sarge","steam_id":76561198243380546,"connected_time":192000000000,"state":"active","ping":59},{"user_id":994,"name":"A_GingerIdiot","steam_id":76561198313306026,"connected_time":183000000000,"state":"active","ping":36},{"user_id":995,"name":"AlejandritoXDS","steam_id":76561199147041246,"connected_time":91000000000,"state":"active","ping":206},{"user_id":996,"name":"Minimi","steam_id":76561198873850443,"connected_time":40000000000,"state":"active","ping":45},{"user_id":951,"name":"Let us B E G I N","steam_id":76561199154361526,"connected_time":3230000000000,"state":"active","ping":79},{"user_id":926,"name":"Jessica","steam_id":76561198342993279,"connected_time":4934000000000,"state":"active","ping":124}]},{"server_id":320,"name":"Uncletopia | London | 3 | All Maps","name_short":"lon-3","host":"lon-1.uk.uncletopia.com","port":27035,"enabled":true,"region":"eu","cc":"gb","latitude":51.509865,"longitude":-0.118092,"reserved":0,"last_update":"0001-01-01T00:00:00Z","name_a2s":"Uncletopia | London | 3 | All Maps","protocol":17,"map":"pl_frontier_final","folder":"tf","game":"Team Fortress","app_id":440,"player_count":24,"max_players":24,"Bots":0,"server_type":"Dedicated","server_os":"Linux","password":true,"vac":true,"version":"7961495","steam_id":85568392924510192,"keywords":["nocrits","nodmgspread","payload","uncletopia"],"game_id":440,"stv_port":27036,"stv_name":"Uncletopia | London | 3 | All Maps | STV","players":[{"user_id":768,"name":"Seail_M","steam_id":76561198002405605,"connected_time":370000000000,"state":"active","ping":61},{"user_id":618,"name":"Michał","steam_id":76561198320346362,"connected_time":10899000000000,"state":"active","ping":73},{"user_id":715,"name":"Steen","steam_id":76561198122992510,"connected_time":4558000000000,"state":"active","ping":45},{"user_id":765,"name":"Sherlock Bond","steam_id":76561198042045955,"connected_time":1069000000000,"state":"active","ping":49},{"user_id":741,"name":"Deocyn","steam_id":76561197990495033,"connected_time":2818000000000,"state":"active","ping":59},{"user_id":725,"name":"Luuklin","steam_id":76561198093127283,"connected_time":3418000000000,"state":"active","ping":62},{"user_id":724,"name":"mountain goat","steam_id":76561198326628884,"connected_time":3443000000000,"state":"active","ping":129},{"user_id":701,"name":"V3rg","steam_id":76561198085293829,"connected_time":6192000000000,"state":"active","ping":85},{"user_id":766,"name":"Visphiric","steam_id":76561198071938027,"connected_time":1040000000000,"state":"active","ping":39},{"user_id":727,"name":"Rakiru","steam_id":76561198334097259,"connected_time":3268000000000,"state":"active","ping":94},{"user_id":769,"name":"Dr Pepper enjoyer","steam_id":76561198066925633,"connected_time":339000000000,"state":"active","ping":50},{"user_id":761,"name":"Jouppi","steam_id":76561198063725468,"connected_time":1541000000000,"state":"active","ping":97},{"user_id":767,"name":"Yen","steam_id":76561198118519554,"connected_time":705000000000,"state":"active","ping":58},{"user_id":762,"name":"Dr. Sus","steam_id":76561198344435644,"connected_time":1518000000000,"state":"active","ping":68},{"user_id":748,"name":"right foot creep","steam_id":76561199063439583,"connected_time":2088000000000,"state":"active","ping":117},{"user_id":759,"name":"ANGR","steam_id":76561198050647646,"connected_time":1566000000000,"state":"active","ping":59},{"user_id":734,"name":"Krow","steam_id":76561198817864089,"connected_time":3001000000000,"state":"active","ping":78},{"user_id":772,"name":"..-. .- - / -. ..- -","steam_id":76561198138189069,"connected_time":39000000000,"state":"spawning","ping":43},{"user_id":735,"name":"Megumi","steam_id":76561198833900348,"connected_time":3000000000000,"state":"active","ping":90},{"user_id":749,"name":"Fiishi","steam_id":76561198098706390,"connected_time":2076000000000,"state":"active","ping":154},{"user_id":764,"name":"Urtaras","steam_id":76561198085604412,"connected_time":1131000000000,"state":"active","ping":55},{"user_id":758,"name":"ozs","steam_id":76561198049396143,"connected_time":1726000000000,"state":"active","ping":53},{"user_id":756,"name":"e12","steam_id":76561198195263675,"connected_time":1913000000000,"state":"active","ping":144},{"user_id":760,"name":"Dangerous Andrew","steam_id":76561198067218981,"connected_time":1566000000000,"state":"active","ping":56}]},{"server_id":321,"name":"Uncletopia | London | 4 | All Maps","name_short":"lon-4","host":"lon-1.uk.uncletopia.com","port":27045,"enabled":true,"region":"eu","cc":"gb","latitude":51.509865,"longitude":-0.118092,"reserved":0,"last_update":"0001-01-01T00:00:00Z","name_a2s":"Uncletopia | London | 4 | All Maps","protocol":17,"map":"koth_highpass","folder":"tf","game":"Team Fortress","app_id":440,"player_count":0,"max_players":24,"Bots":0,"server_type":"Dedicated","server_os":"Linux","password":true,"vac":true,"version":"7961495","steam_id":85568392924510193,"keywords":["cp","nocrits","nodmgspread","uncletopia"],"game_id":440,"stv_port":27046,"stv_name":"Uncletopia | London | 4 | All Maps | STV","players":null},{"server_id":21,"name":"Uncletopia | London | 5 | All Maps","name_short":"lon-5","host":"lon-1.uk.uncletopia.com","port":27055,"enabled":true,"region":"eu","cc":"gb","latitude":51.509865,"longitude":-0.118092,"reserved":0,"last_update":"0001-01-01T00:00:00Z","name_a2s":"Uncletopia | London | 5 | All Maps","protocol":17,"map":"koth_lakeside_final","folder":"tf","game":"Team Fortress","app_id":440,"player_count":0,"max_players":24,"Bots":0,"server_type":"Dedicated","server_os":"Linux","password":true,"vac":true,"version":"7961495","steam_id":85568392924742829,"keywords":["cp","nocrits","nodmgspread","uncletopia"],"game_id":440,"stv_port":27056,"stv_name":"Uncletopia | London | 5 | All Maps | STV","players":null},{"server_id":22,"name":"Uncletopia | London | 6 | All Maps","name_short":"lon-6","host":"lon-1.uk.uncletopia.com","port":27065,"enabled":true,"region":"eu","cc":"gb","latitude":51.509865,"longitude":-0.118092,"reserved":0,"last_update":"0001-01-01T00:00:00Z","name_a2s":"Uncletopia | London | 6 | All Maps","protocol":17,"map":"pl_barnblitz","folder":"tf","game":"Team Fortress","app_id":440,"player_count":0,"max_players":24,"Bots":0,"server_type":"Dedicated","server_os":"Linux","password":true,"vac":true,"version":"7961495","steam_id":85568392924742830,"keywords":["nocrits","nodmgspread","payload","uncletopia"],"game_id":440,"stv_port":27066,"stv_name":"Uncletopia | London | 6 | All Maps | STV","players":null},{"server_id":40,"name":"Uncletopia | London | 7 | Stopwatch","name_short":"lon-7","host":"lon-1.uk.uncletopia.com","port":27075,"enabled":true,"region":"eu","cc":"gb","latitude":51.509865,"longitude":-0.118092,"reserved":0,"last_update":"0001-01-01T00:00:00Z","name_a2s":"Uncletopia | London | 7 | Stopwatch","protocol":17,"map":"workshop/koth_product_final.ugc454272353","folder":"tf","game":"Team Fortress","app_id":440,"player_count":0,"max_players":24,"Bots":0,"server_type":"Dedicated","server_os":"Linux","password":true,"vac":true,"version":"7961495","steam_id":85568392924964314,"keywords":["cp","nocrits","nodmgspread","uncletopia"],"game_id":440,"stv_port":27076,"stv_name":"Uncletopia | London | 7 | Stopwatch | STV","players":null},{"server_id":41,"name":"Uncletopia | London | 8 | Community","name_short":"lon-8","host":"lon-1.uk.uncletopia.com","port":27085,"enabled":true,"region":"eu","cc":"gb","latitude":51.509865,"longitude":-0.118092,"reserved":0,"last_update":"0001-01-01T00:00:00Z","name_a2s":"Uncletopia | London | 8 | Community","protocol":17,"map":"workshop/koth_trenchfoot_b1a.ugc731436616","folder":"tf","game":"Team Fortress","app_id":440,"player_count":0,"max_players":24,"Bots":0,"server_type":"Dedicated","server_os":"Linux","password":true,"vac":true,"version":"7961495","steam_id":85568392924964315,"keywords":["cp","nocrits","nodmgspread","uncletopia"],"game_id":440,"stv_port":27086,"stv_name":"Uncletopia | London | 8 | Community | STV","players":null},{"server_id":300,"name":"Uncletopia | Montréal | 1 | One Thousand Uncles","name_short":"mtl-1","host":"mtl-1.ca.uncletopia.com","port":27015,"enabled":true,"region":"us-east","cc":"ca","latitude":45.50889,"longitude":-73.56167,"reserved":0,"last_update":"0001-01-01T00:00:00Z","name_a2s":"","protocol":0,"map":"","folder":"","game":"","app_id":0,"player_count":11,"max_players":0,"Bots":0,"server_type":"","server_os":"","password":false,"vac":false,"version":"","steam_id":0,"keywords":null,"game_id":0,"stv_port":0,"stv_name":"","players":[{"user_id":283,"name":"ODDLOG","steam_id":76561198397624578,"connected_time":481000000000,"state":"active","ping":66},{"user_id":275,"name":"St. Michael","steam_id":76561198037611052,"connected_time":1117000000000,"state":"active","ping":77},{"user_id":278,"name":"sheep","steam_id":76561198172943006,"connected_time":943000000000,"state":"active","ping":62},{"user_id":288,"name":"5oc","steam_id":76561199196300397,"connected_time":312000000000,"state":"active","ping":122},{"user_id":285,"name":"Skeptical","steam_id":76561198038261789,"connected_time":439000000000,"state":"active","ping":124},{"user_id":257,"name":"anewbpro2015","steam_id":76561198214610860,"connected_time":1205000000000,"state":"active","ping":42},{"user_id":289,"name":"da pwo","steam_id":76561198963115673,"connected_time":217000000000,"state":"active","ping":68},{"user_id":233,"name":"F:\\Program\\Common","steam_id":76561199069733048,"connected_time":2773000000000,"state":"active","ping":123},{"user_id":235,"name":"Jared","steam_id":76561198020432651,"connected_time":2612000000000,"state":"active","ping":56},{"user_id":213,"name":"NightEmerald","steam_id":76561198878856805,"connected_time":3260000000000,"state":"active","ping":51},{"user_id":290,"name":"Robocrate007","steam_id":76561198085096788,"connected_time":146000000000,"state":"active","ping":76}]},{"server_id":301,"name":"Uncletopia | Montréal | 2 | One Thousand Uncles","name_short":"mtl-2","host":"mtl-1.ca.uncletopia.com","port":27025,"enabled":true,"region":"us-east","cc":"ca","latitude":45.50889,"longitude":-73.56167,"reserved":0,"last_update":"0001-01-01T00:00:00Z","name_a2s":"","protocol":0,"map":"","folder":"","game":"","app_id":0,"player_count":3,"max_players":0,"Bots":0,"server_type":"","server_os":"","password":false,"vac":false,"version":"","steam_id":0,"keywords":null,"game_id":0,"stv_port":0,"stv_name":"","players":[{"user_id":90,"name":"melon soda","steam_id":76561198066748230,"connected_time":2204000000000,"state":"active","ping":68},{"user_id":107,"name":"Rhutebeer","steam_id":76561198018302761,"connected_time":1945000000000,"state":"active","ping":95},{"user_id":112,"name":"walterfishing_17","steam_id":76561198976904099,"connected_time":912000000000,"state":"active","ping":89}]},{"server_id":302,"name":"Uncletopia | Montréal | 3 | One Thousand Uncles","name_short":"mtl-3","host":"mtl-1.ca.uncletopia.com","port":27035,"enabled":true,"region":"us-east","cc":"ca","latitude":45.50889,"longitude":-73.56167,"reserved":0,"last_update":"0001-01-01T00:00:00Z","name_a2s":"","protocol":0,"map":"","folder":"","game":"","app_id":0,"player_count":0,"max_players":0,"Bots":0,"server_type":"","server_os":"","password":false,"vac":false,"version":"","steam_id":0,"keywords":null,"game_id":0,"stv_port":0,"stv_name":"","players":null},{"server_id":13,"name":"Uncletopia | New York City | 1 | All Maps","name_short":"nyc-1","host":"nyc-1.us.uncletopia.com","port":27015,"enabled":true,"region":"us-east","cc":"us","latitude":40.73061,"longitude":-73.93524,"reserved":0,"last_update":"0001-01-01T00:00:00Z","name_a2s":"Uncletopia | New York City | 1 | All Maps","protocol":17,"map":"pl_snowycoast","folder":"tf","game":"Team Fortress","app_id":440,"player_count":24,"max_players":24,"Bots":0,"server_type":"Dedicated","server_os":"Linux","password":true,"vac":true,"version":"7961495","steam_id":85568392924469993,"keywords":["nocrits","nodmgspread","payload","uncletopia"],"game_id":440,"stv_port":27016,"stv_name":"Uncletopia | New York City | 1 | All Maps | STV","players":[{"user_id":328,"name":"SHADY SWEATER SALESMAN","steam_id":76561198014616865,"connected_time":1389000000000,"state":"active","ping":41},{"user_id":340,"name":"OKAY","steam_id":76561198091980659,"connected_time":696000000000,"state":"active","ping":61},{"user_id":342,"name":"Smuggs","steam_id":76561197999456003,"connected_time":624000000000,"state":"active","ping":97},{"user_id":337,"name":"space creep","steam_id":76561198025668545,"connected_time":738000000000,"state":"active","ping":47},{"user_id":338,"name":"Epayz","steam_id":76561198044093776,"connected_time":716000000000,"state":"active","ping":55},{"user_id":346,"name":"beers","steam_id":76561197992720526,"connected_time":106000000000,"state":"active","ping":83},{"user_id":271,"name":"John Fortnite","steam_id":76561198076608253,"connected_time":4780000000000,"state":"active","ping":55},{"user_id":339,"name":"Sweet Jesus","steam_id":76561198060068046,"connected_time":711000000000,"state":"active","ping":86},{"user_id":325,"name":"bony","steam_id":76561198241893988,"connected_time":1514000000000,"state":"active","ping":48},{"user_id":303,"name":"Soap_","steam_id":76561198153289795,"connected_time":2670000000000,"state":"active","ping":45},{"user_id":301,"name":"Salt Baby","steam_id":76561198100674347,"connected_time":2887000000000,"state":"active","ping":124},{"user_id":343,"name":"Lemon Soda","steam_id":76561198140208761,"connected_time":245000000000,"state":"active","ping":47},{"user_id":297,"name":"Ballistic Bees","steam_id":76561198116870575,"connected_time":3789000000000,"state":"active","ping":51},{"user_id":344,"name":"ndvr","steam_id":76561199379200102,"connected_time":205000000000,"state":"active","ping":45},{"user_id":333,"name":"Nerrrd_","steam_id":76561198870129960,"connected_time":1091000000000,"state":"active","ping":36},{"user_id":331,"name":"Genn","steam_id":76561198070450699,"connected_time":1187000000000,"state":"active","ping":35},{"user_id":318,"name":"Ursus Ludius","steam_id":76561198025470722,"connected_time":2182000000000,"state":"active","ping":70},{"user_id":345,"name":"RedLex","steam_id":76561198205472311,"connected_time":178000000000,"state":"active","ping":77},{"user_id":312,"name":"Gerald Jay Sussman","steam_id":76561198114515026,"connected_time":2570000000000,"state":"active","ping":45},{"user_id":307,"name":"cellogamer","steam_id":76561198016937098,"connected_time":2656000000000,"state":"active","ping":54},{"user_id":296,"name":"I HATE A.I ART I HATE A.I ART I","steam_id":76561199101373436,"connected_time":3799000000000,"state":"active","ping":66},{"user_id":332,"name":"Bee_Pirate","steam_id":76561199000599111,"connected_time":1174000000000,"state":"active","ping":56},{"user_id":322,"name":"Narh","steam_id":76561198025216294,"connected_time":1823000000000,"state":"active","ping":69},{"user_id":256,"name":"taigaxx","steam_id":76561198202669250,"connected_time":4994000000000,"state":"active","ping":73}]},{"server_id":14,"name":"Uncletopia | New York City | 2 | All Maps","name_short":"nyc-2","host":"nyc-1.us.uncletopia.com","port":27025,"enabled":true,"region":"us-east","cc":"us","latitude":40.73061,"longitude":-73.93524,"reserved":0,"last_update":"0001-01-01T00:00:00Z","name_a2s":"Uncletopia | New York City | 2 | All Maps","protocol":17,"map":"pl_borneo","folder":"tf","game":"Team Fortress","app_id":440,"player_count":24,"max_players":24,"Bots":0,"server_type":"Dedicated","server_os":"Linux","password":true,"vac":true,"version":"7961495","steam_id":85568392924469994,"keywords":["nocrits","nodmgspread","payload","uncletopia"],"game_id":440,"stv_port":27026,"stv_name":"Uncletopia | New York City | 2 | All Maps | STV","players":[{"user_id":214,"name":"Grazzunk","steam_id":76561198290227691,"connected_time":34000000000,"state":"active","ping":40},{"user_id":171,"name":"P.U. Poopenhauser","steam_id":76561198012093679,"connected_time":2453000000000,"state":"active","ping":85},{"user_id":127,"name":"Lavender","steam_id":76561198142770666,"connected_time":6266000000000,"state":"active","ping":82},{"user_id":189,"name":"Anxiety.mov","steam_id":76561198028145216,"connected_time":1171000000000,"state":"active","ping":30},{"user_id":205,"name":"Digit","steam_id":76561198156589157,"connected_time":680000000000,"state":"active","ping":137},{"user_id":128,"name":"Baby Yae Extreme","steam_id":76561198983838790,"connected_time":6211000000000,"state":"active","ping":80},{"user_id":186,"name":"Oopsie Daisy ❋","steam_id":76561198042144492,"connected_time":1240000000000,"state":"active","ping":74},{"user_id":203,"name":"Blade Racer","steam_id":76561198155896703,"connected_time":749000000000,"state":"active","ping":56},{"user_id":177,"name":"Catboy Slim","steam_id":76561198358434883,"connected_time":2022000000000,"state":"active","ping":70},{"user_id":172,"name":"garbuglio","steam_id":76561198012371111,"connected_time":2448000000000,"state":"active","ping":60},{"user_id":206,"name":"LegendaireNic","steam_id":76561198211753861,"connected_time":571000000000,"state":"active","ping":53},{"user_id":207,"name":"Kamin","steam_id":76561198255299559,"connected_time":441000000000,"state":"active","ping":118},{"user_id":210,"name":"Lin","steam_id":76561198143746480,"connected_time":193000000000,"state":"active","ping":123},{"user_id":199,"name":"chillin'","steam_id":76561198011675372,"connected_time":878000000000,"state":"active","ping":125},{"user_id":173,"name":"Warpy","steam_id":76561198055852599,"connected_time":2423000000000,"state":"active","ping":60},{"user_id":208,"name":"ExtraSoap","steam_id":76561198008712409,"connected_time":311000000000,"state":"active","ping":45},{"user_id":212,"name":"hoodatnin","steam_id":76561199489670228,"connected_time":157000000000,"state":"active","ping":74},{"user_id":209,"name":"wearing my sunday pants","steam_id":76561198834106533,"connected_time":203000000000,"state":"active","ping":59},{"user_id":48,"name":"Great","steam_id":76561198895516433,"connected_time":12159000000000,"state":"active","ping":60},{"user_id":197,"name":"moe","steam_id":76561198929586245,"connected_time":919000000000,"state":"active","ping":135},{"user_id":213,"name":"AlexLovesYou","steam_id":76561199163263543,"connected_time":152000000000,"state":"active","ping":93},{"user_id":201,"name":"Selment","steam_id":76561198026489601,"connected_time":792000000000,"state":"active","ping":69},{"user_id":133,"name":"Xavibite","steam_id":76561198209380493,"connected_time":5511000000000,"state":"active","ping":49},{"user_id":182,"name":"Dann1526","steam_id":76561199121864838,"connected_time":1731000000000,"state":"active","ping":53}]},{"server_id":15,"name":"Uncletopia | New York City | 3 | Stopwatch","name_short":"nyc-3","host":"nyc-1.us.uncletopia.com","port":27035,"enabled":true,"region":"us-east","cc":"us","latitude":40.73061,"longitude":-73.93524,"reserved":0,"last_update":"0001-01-01T00:00:00Z","name_a2s":"Uncletopia | New York City | 3 | Stopwatch","protocol":17,"map":"pl_upward","folder":"tf","game":"Team Fortress","app_id":440,"player_count":10,"max_players":24,"Bots":0,"server_type":"Dedicated","server_os":"Linux","password":true,"vac":true,"version":"7961495","steam_id":85568392924742820,"keywords":["nocrits","nodmgspread","payload","uncletopia"],"game_id":440,"stv_port":27036,"stv_name":"Uncletopia | New York City | 3 | Stopwatch | STV","players":[{"user_id":22,"name":"awalkingwarcrime","steam_id":76561199434372948,"connected_time":539000000000,"state":"active","ping":62},{"user_id":24,"name":"cpuvioletheart","steam_id":76561198161397480,"connected_time":132000000000,"state":"active","ping":72},{"user_id":19,"name":"Samara_Rei","steam_id":76561198080265445,"connected_time":1042000000000,"state":"active","ping":107},{"user_id":14,"name":"CCTV CAMERA","steam_id":76561198079973828,"connected_time":1672000000000,"state":"active","ping":90},{"user_id":25,"name":"cas.sierrafamilia","steam_id":76561199230945873,"connected_time":32000000000,"state":"active","ping":57},{"user_id":16,"name":"Xsaber","steam_id":76561198285273249,"connected_time":1560000000000,"state":"active","ping":59},{"user_id":17,"name":"Bramble","steam_id":76561198040179901,"connected_time":1283000000000,"state":"active","ping":66},{"user_id":21,"name":"suger1316","steam_id":76561199079999423,"connected_time":737000000000,"state":"active","ping":62},{"user_id":26,"name":"BubbyBoy27","steam_id":76561199102009679,"connected_time":5000000000,"state":"spawning","ping":90}]},{"server_id":16,"name":"Uncletopia | New York City | 4 | Community","name_short":"nyc-4","host":"nyc-1.us.uncletopia.com","port":27045,"enabled":true,"region":"us-east","cc":"us","latitude":40.73061,"longitude":-73.93524,"reserved":0,"last_update":"0001-01-01T00:00:00Z","name_a2s":"Uncletopia | New York City | 4 | Community","protocol":17,"map":"workshop/koth_product_final.ugc454272353","folder":"tf","game":"Team Fortress","app_id":440,"player_count":0,"max_players":24,"Bots":0,"server_type":"Dedicated","server_os":"Linux","password":true,"vac":true,"version":"7961495","steam_id":85568392924742821,"keywords":["cp","nocrits","nodmgspread","uncletopia"],"game_id":440,"stv_port":27046,"stv_name":"Uncletopia | New York City | 4 | Community | STV","players":null},{"server_id":142,"name":"Uncletopia | São Paulo | 1 | All Maps","name_short":"sao-1","host":"sao-1.br.uncletopia.com","port":27015,"enabled":true,"region":"sa","cc":"br","latitude":-23.533773,"longitude":-46.62529,"reserved":0,"last_update":"0001-01-01T00:00:00Z","name_a2s":"Uncletopia | São Paulo | 1 | All Maps","protocol":17,"map":"koth_lakeside_final","folder":"tf","game":"Team Fortress","app_id":440,"player_count":3,"max_players":24,"Bots":0,"server_type":"Dedicated","server_os":"Linux","password":true,"vac":true,"version":"7961495","steam_id":85568392924469996,"keywords":["cp","nocrits","nodmgspread","uncletopia"],"game_id":440,"stv_port":27016,"stv_name":"Uncletopia | São Paulo | 1 | All Maps | STV","players":[{"user_id":12,"name":"pepitoelpajeros2","steam_id":76561198101382520,"connected_time":997000000000,"state":"active","ping":101},{"user_id":15,"name":"dY","steam_id":76561198891777705,"connected_time":80000000000,"state":"spawning","ping":90},{"user_id":16,"name":"Peeping Tom","steam_id":76561197997233893,"connected_time":63000000000,"state":"active","ping":31}]},{"server_id":143,"name":"Uncletopia | São Paulo | 2 | Community","name_short":"sao-2","host":"sao-2.br.uncletopia.com","port":27015,"enabled":true,"region":"sa","cc":"br","latitude":-23.533773,"longitude":-46.62529,"reserved":0,"last_update":"0001-01-01T00:00:00Z","name_a2s":"Uncletopia | São Paulo | 2 | Community","protocol":17,"map":"pl_badwater","folder":"tf","game":"Team Fortress","app_id":440,"player_count":0,"max_players":24,"Bots":0,"server_type":"Dedicated","server_os":"Linux","password":true,"vac":true,"version":"7961495","steam_id":85568392924485349,"keywords":["nocrits","nodmgspread","payload","uncletopia"],"game_id":440,"stv_port":27016,"stv_name":"Uncletopia | São Paulo | 2 | Community | STV","players":null},{"server_id":7,"name":"Uncletopia | Seattle | 1 | All Maps","name_short":"sea-1","host":"sea-1.us.uncletopia.com","port":27015,"enabled":true,"region":"us-west","cc":"us","latitude":47.608013,"longitude":-122.33517,"reserved":0,"last_update":"0001-01-01T00:00:00Z","name_a2s":"Uncletopia | Seattle | 1 | All Maps","protocol":17,"map":"koth_harvest_final","folder":"tf","game":"Team Fortress","app_id":440,"player_count":24,"max_players":24,"Bots":0,"server_type":"Dedicated","server_os":"Linux","password":true,"vac":true,"version":"7961495","steam_id":85568392924469997,"keywords":["cp","nocrits","nodmgspread","uncletopia"],"game_id":440,"stv_port":27016,"stv_name":"Uncletopia | Seattle | 1 | All Maps | STV","players":[{"user_id":469,"name":"Mega_Man23","steam_id":76561198138341391,"connected_time":477000000000,"state":"active","ping":110},{"user_id":393,"name":"[TrC] Dackstrus","steam_id":76561197973518509,"connected_time":6607000000000,"state":"active","ping":54},{"user_id":448,"name":"gloobern","steam_id":76561198341190679,"connected_time":1758000000000,"state":"active","ping":49},{"user_id":471,"name":"Peanuts","steam_id":76561199484236031,"connected_time":238000000000,"state":"active","ping":40},{"user_id":442,"name":"RoseaVenefica","steam_id":76561198020660560,"connected_time":2037000000000,"state":"active","ping":90},{"user_id":466,"name":"mizurush","steam_id":76561198039595304,"connected_time":709000000000,"state":"active","ping":134},{"user_id":465,"name":"Spectre","steam_id":76561198037535169,"connected_time":780000000000,"state":"active","ping":75},{"user_id":467,"name":"Homelander Jerking Off","steam_id":76561198323298672,"connected_time":577000000000,"state":"active","ping":55},{"user_id":468,"name":"Seriously Bruh","steam_id":76561198070408485,"connected_time":536000000000,"state":"active","ping":51},{"user_id":458,"name":"slushy :((","steam_id":76561198135281802,"connected_time":1096000000000,"state":"active","ping":36},{"user_id":470,"name":"spiderland","steam_id":76561198335992132,"connected_time":336000000000,"state":"active","ping":38},{"user_id":403,"name":"Nom Skirrett","steam_id":76561198014600788,"connected_time":5821000000000,"state":"active","ping":60},{"user_id":463,"name":"Villchip","steam_id":76561198198599982,"connected_time":933000000000,"state":"active","ping":49},{"user_id":461,"name":"Tombom","steam_id":76561197982063661,"connected_time":1076000000000,"state":"active","ping":45},{"user_id":441,"name":"MrYadaization","steam_id":76561198050770818,"connected_time":2157000000000,"state":"active","ping":54},{"user_id":437,"name":"Paint Huffing Yoshi Player","steam_id":76561198028969023,"connected_time":2670000000000,"state":"active","ping":51},{"user_id":464,"name":"SmallErection","steam_id":76561198071770147,"connected_time":925000000000,"state":"active","ping":56},{"user_id":462,"name":"Sniper Player (Derogatory)","steam_id":76561198046526036,"connected_time":1073000000000,"state":"active","ping":76},{"user_id":439,"name":"Choccy Milk","steam_id":76561198085333480,"connected_time":2634000000000,"state":"active","ping":48},{"user_id":423,"name":"trackpad gaming | f2p","steam_id":76561198840414371,"connected_time":3893000000000,"state":"active","ping":50},{"user_id":397,"name":"[TrC] Nosy","steam_id":76561197978859310,"connected_time":6287000000000,"state":"active","ping":59},{"user_id":446,"name":"CleanerCode","steam_id":76561197992636028,"connected_time":1964000000000,"state":"active","ping":46},{"user_id":438,"name":"Rude Dog","steam_id":76561197980385816,"connected_time":2669000000000,"state":"active","ping":46},{"user_id":455,"name":"Tyth","steam_id":76561198062543298,"connected_time":1107000000000,"state":"active","ping":43}]},{"server_id":119,"name":"Uncletopia | Seattle | 2 | All Maps","name_short":"sea-2","host":"sea-1.us.uncletopia.com","port":27025,"enabled":true,"region":"us-west","cc":"us","latitude":47.608013,"longitude":-122.33517,"reserved":0,"last_update":"0001-01-01T00:00:00Z","name_a2s":"Uncletopia | Seattle | 2 | All Maps","protocol":17,"map":"koth_viaduct","folder":"tf","game":"Team Fortress","app_id":440,"player_count":24,"max_players":24,"Bots":0,"server_type":"Dedicated","server_os":"Linux","password":true,"vac":true,"version":"7961495","steam_id":85568392924469998,"keywords":["cp","nocrits","nodmgspread","uncletopia"],"game_id":440,"stv_port":27026,"stv_name":"Uncletopia | Seattle | 2 | All Maps | STV","players":[{"user_id":33,"name":"worker","steam_id":76561198039608940,"connected_time":1093000000000,"state":"active","ping":57},{"user_id":34,"name":"ilun","steam_id":76561198042913843,"connected_time":1074000000000,"state":"active","ping":60},{"user_id":35,"name":"Lili","steam_id":76561199488457138,"connected_time":1070000000000,"state":"active","ping":52},{"user_id":37,"name":"Gamekiller839","steam_id":76561199475400469,"connected_time":852000000000,"state":"active","ping":26},{"user_id":57,"name":"S1apSh0es","steam_id":76561198042663388,"connected_time":50000000000,"state":"active","ping":146},{"user_id":39,"name":"Sudsen","steam_id":76561198370603787,"connected_time":500000000000,"state":"active","ping":75},{"user_id":40,"name":"Niftis","steam_id":76561199123171549,"connected_time":484000000000,"state":"active","ping":60},{"user_id":48,"name":"A Fruit","steam_id":76561198951830050,"connected_time":197000000000,"state":"active","ping":91},{"user_id":42,"name":"McDonald","steam_id":76561199028533497,"connected_time":316000000000,"state":"active","ping":68},{"user_id":58,"name":"Ranch","steam_id":76561198035557013,"connected_time":48000000000,"state":"active","ping":92},{"user_id":44,"name":"zeplinnn","steam_id":76561198301300987,"connected_time":277000000000,"state":"active","ping":89},{"user_id":45,"name":"DigitalWizard","steam_id":76561198085936715,"connected_time":269000000000,"state":"active","ping":121},{"user_id":46,"name":"Krustytoepaste","steam_id":76561198320265524,"connected_time":259000000000,"state":"active","ping":80},{"user_id":47,"name":"Lilith","steam_id":76561198120362654,"connected_time":243000000000,"state":"active","ping":42},{"user_id":50,"name":"Thediamond_35","steam_id":76561199111961918,"connected_time":177000000000,"state":"active","ping":90},{"user_id":55,"name":"Captain Hotdog","steam_id":76561198059812666,"connected_time":143000000000,"state":"active","ping":71},{"user_id":52,"name":"Homophobic Kool-Aid Man","steam_id":76561199013095511,"connected_time":165000000000,"state":"active","ping":113},{"user_id":53,"name":"array","steam_id":76561198280409646,"connected_time":163000000000,"state":"active","ping":75},{"user_id":54,"name":"Vaermina","steam_id":76561198169915227,"connected_time":158000000000,"state":"active","ping":34},{"user_id":56,"name":"steve","steam_id":76561198075510786,"connected_time":116000000000,"state":"active","ping":70},{"user_id":59,"name":"BobBallin","steam_id":76561198355299724,"connected_time":43000000000,"state":"spawning","ping":85},{"user_id":60,"name":"gm12_victory","steam_id":76561199203269076,"connected_time":32000000000,"state":"active","ping":127},{"user_id":61,"name":"thebestman982","steam_id":76561199001698710,"connected_time":12000000000,"state":"spawning","ping":75},{"user_id":62,"name":"Milkers","steam_id":76561198051255970,"connected_time":5000000000,"state":"spawning","ping":54}]},{"server_id":406,"name":"Uncletopia | Seattle | 3 | Stopwatch","name_short":"sea-3","host":"sea-1.us.uncletopia.com","port":27035,"enabled":true,"region":"us-west","cc":"us","latitude":47.608013,"longitude":-122.33517,"reserved":0,"last_update":"0001-01-01T00:00:00Z","name_a2s":"Uncletopia | Seattle | 3 | Stopwatch","protocol":17,"map":"pl_borneo","folder":"tf","game":"Team Fortress","app_id":440,"player_count":0,"max_players":24,"Bots":0,"server_type":"Dedicated","server_os":"Linux","password":true,"vac":true,"version":"7961495","steam_id":85568392924515217,"keywords":["nocrits","nodmgspread","payload","uncletopia"],"game_id":440,"stv_port":27036,"stv_name":"Uncletopia | Seattle | 3 | Stopwatch | STV","players":null},{"server_id":17,"name":"Uncletopia | San Francisco | 1 | All Maps","name_short":"sfo-1","host":"sfo-1.us.uncletopia.com","port":27015,"enabled":true,"region":"us-west","cc":"us","latitude":37.77397,"longitude":-122.4313,"reserved":0,"last_update":"0001-01-01T00:00:00Z","name_a2s":"Uncletopia | San Francisco | 1 | All Maps","protocol":17,"map":"cp_dustbowl","folder":"tf","game":"Team Fortress","app_id":440,"player_count":24,"max_players":24,"Bots":0,"server_type":"Dedicated","server_os":"Linux","password":true,"vac":true,"version":"7961495","steam_id":85568392924469999,"keywords":["cp","nocrits","nodmgspread","uncletopia"],"game_id":440,"stv_port":27016,"stv_name":"Uncletopia | San Francisco | 1 | All Maps | STV","players":[{"user_id":20,"name":"Yackaboi","steam_id":76561199444911765,"connected_time":2568000000000,"state":"active","ping":85},{"user_id":25,"name":"Fig","steam_id":76561198203889013,"connected_time":1742000000000,"state":"active","ping":68},{"user_id":22,"name":"nfseskimo","steam_id":76561198078745666,"connected_time":2267000000000,"state":"active","ping":61},{"user_id":26,"name":"A UsedNom","steam_id":76561198402832756,"connected_time":1741000000000,"state":"active","ping":39},{"user_id":24,"name":"Caspian","steam_id":76561199041466962,"connected_time":2224000000000,"state":"active","ping":59},{"user_id":28,"name":"Spectre1578","steam_id":76561198953243633,"connected_time":1486000000000,"state":"active","ping":75},{"user_id":29,"name":"Joh Bags","steam_id":76561198097004438,"connected_time":1442000000000,"state":"active","ping":62},{"user_id":30,"name":"Dmonic Plays","steam_id":76561198006572380,"connected_time":1318000000000,"state":"active","ping":117},{"user_id":36,"name":"SpeedEagle","steam_id":76561198092623489,"connected_time":1053000000000,"state":"active","ping":69},{"user_id":32,"name":"Grapefruit Glizzy","steam_id":76561198065977764,"connected_time":1217000000000,"state":"active","ping":57},{"user_id":56,"name":"ZanderZX","steam_id":76561199174834047,"connected_time":493000000000,"state":"active","ping":118},{"user_id":55,"name":"The Don","steam_id":76561198322125657,"connected_time":533000000000,"state":"active","ping":85},{"user_id":45,"name":"Mk","steam_id":76561198139790822,"connected_time":915000000000,"state":"active","ping":118},{"user_id":40,"name":"SpookyMemes","steam_id":76561198097856723,"connected_time":977000000000,"state":"active","ping":146},{"user_id":41,"name":"PS2 EAR RAPE","steam_id":76561198844740037,"connected_time":976000000000,"state":"active","ping":67},{"user_id":42,"name":"MORE BOUNCE TO THE OUNCE","steam_id":76561198243399336,"connected_time":936000000000,"state":"active","ping":60},{"user_id":58,"name":"shinji","steam_id":76561198091411989,"connected_time":454000000000,"state":"active","ping":107},{"user_id":44,"name":"cool beans","steam_id":76561198045758072,"connected_time":924000000000,"state":"active","ping":48},{"user_id":47,"name":"my name jeff","steam_id":76561198179816898,"connected_time":857000000000,"state":"active","ping":131},{"user_id":61,"name":"toilet drinker","steam_id":76561199403589748,"connected_time":217000000000,"state":"active","ping":87},{"user_id":49,"name":"Captain Underbelly","steam_id":76561198811270935,"connected_time":843000000000,"state":"active","ping":100},{"user_id":59,"name":"SanitysEdge","steam_id":76561198130732813,"connected_time":427000000000,"state":"active","ping":55},{"user_id":60,"name":"vvitch","steam_id":76561198279661941,"connected_time":406000000000,"state":"active","ping":60},{"user_id":52,"name":"Skeleop","steam_id":76561198981106464,"connected_time":809000000000,"state":"active","ping":57}]},{"server_id":18,"name":"Uncletopia | San Francisco | 2 | All Maps","name_short":"sfo-2","host":"sfo-1.us.uncletopia.com","port":27025,"enabled":true,"region":"us-west","cc":"us","latitude":37.77397,"longitude":-122.4313,"reserved":0,"last_update":"0001-01-01T00:00:00Z","name_a2s":"Uncletopia | San Francisco | 2 | All Maps","protocol":17,"map":"cp_dustbowl","folder":"tf","game":"Team Fortress","app_id":440,"player_count":0,"max_players":24,"Bots":0,"server_type":"Dedicated","server_os":"Linux","password":true,"vac":true,"version":"7961495","steam_id":85568392924470000,"keywords":["cp","nocrits","nodmgspread","uncletopia"],"game_id":440,"stv_port":27026,"stv_name":"Uncletopia | San Francisco | 2 | All Maps | STV","players":null},{"server_id":19,"name":"Uncletopia | San Francisco | 3 | Stopwatch","name_short":"sfo-3","host":"sfo-1.us.uncletopia.com","port":27035,"enabled":true,"region":"us-west","cc":"us","latitude":37.77397,"longitude":-122.4313,"reserved":0,"last_update":"0001-01-01T00:00:00Z","name_a2s":"Uncletopia | San Francisco | 3 | Stopwatch","protocol":17,"map":"pl_pier","folder":"tf","game":"Team Fortress","app_id":440,"player_count":0,"max_players":24,"Bots":0,"server_type":"Dedicated","server_os":"Linux","password":true,"vac":true,"version":"7961495","steam_id":85568392924742824,"keywords":["nocrits","nodmgspread","payload","uncletopia"],"game_id":440,"stv_port":27036,"stv_name":"Uncletopia | San Francisco | 3 | Stopwatch | STV","players":null},{"server_id":20,"name":"Uncletopia | San Francisco | 4 | Community","name_short":"sfo-4","host":"sfo-1.us.uncletopia.com","port":27045,"enabled":true,"region":"us-west","cc":"us","latitude":37.77397,"longitude":-122.4313,"reserved":0,"last_update":"0001-01-01T00:00:00Z","name_a2s":"Uncletopia | San Francisco | 4 | Community","protocol":17,"map":"pl_pier","folder":"tf","game":"Team Fortress","app_id":440,"player_count":0,"max_players":24,"Bots":0,"server_type":"Dedicated","server_os":"Linux","password":true,"vac":true,"version":"7961495","steam_id":85568392924742826,"keywords":["nocrits","nodmgspread","payload","uncletopia"],"game_id":440,"stv_port":27046,"stv_name":"Uncletopia | San Francisco | 4 | Community | STV","players":null},{"server_id":141,"name":"Uncletopia | Sydney | 1 | All Maps","name_short":"syd-1","host":"syd-1.au.uncletopia.com","port":27015,"enabled":true,"region":"au","cc":"au","latitude":-33.865143,"longitude":151.2099,"reserved":0,"last_update":"0001-01-01T00:00:00Z","name_a2s":"Uncletopia | Sydney | 1 | All Maps","protocol":17,"map":"koth_viaduct","folder":"tf","game":"Team Fortress","app_id":440,"player_count":0,"max_players":24,"Bots":0,"server_type":"Dedicated","server_os":"Linux","password":true,"vac":true,"version":"7961495","steam_id":85568392924470001,"keywords":["cp","nocrits","nodmgspread","uncletopia"],"game_id":440,"stv_port":27016,"stv_name":"Uncletopia | Sydney | 1 | All Maps | STV","players":null},{"server_id":123,"name":"Uncletopia | Sydney | 2 | All Maps","name_short":"syd-2","host":"syd-1.au.uncletopia.com","port":27025,"enabled":true,"region":"au","cc":"au","latitude":-33.865143,"longitude":151.2099,"reserved":0,"last_update":"0001-01-01T00:00:00Z","name_a2s":"Uncletopia | Sydney | 2 | All Maps","protocol":17,"map":"koth_lakeside_final","folder":"tf","game":"Team Fortress","app_id":440,"player_count":0,"max_players":24,"Bots":0,"server_type":"Dedicated","server_os":"Linux","password":true,"vac":true,"version":"7961495","steam_id":85568392924470002,"keywords":["cp","nocrits","nodmgspread","uncletopia"],"game_id":440,"stv_port":27026,"stv_name":"Uncletopia | Sydney | 2 | All Maps | STV","players":null},{"server_id":395,"name":"Uncletopia | Sydney | 3 | All Maps","name_short":"syd-3","host":"syd-1.au.uncletopia.com","port":27035,"enabled":true,"region":"au","cc":"au","latitude":-33.865143,"longitude":151.2099,"reserved":0,"last_update":"0001-01-01T00:00:00Z","name_a2s":"Uncletopia | Sydney | 3 | All Maps","protocol":17,"map":"pl_frontier_final","folder":"tf","game":"Team Fortress","app_id":440,"player_count":0,"max_players":24,"Bots":0,"server_type":"Dedicated","server_os":"Linux","password":true,"vac":true,"version":"7961495","steam_id":85568392925194467,"keywords":["nocrits","nodmgspread","payload","uncletopia"],"game_id":440,"stv_port":27036,"stv_name":"Uncletopia | Sydney | 3 | All Maps | STV","players":null},{"server_id":396,"name":"Uncletopia | Sydney | 4 | All Maps","name_short":"syd-4","host":"syd-1.au.uncletopia.com","port":27045,"enabled":true,"region":"au","cc":"au","latitude":-33.865143,"longitude":151.2099,"reserved":0,"last_update":"0001-01-01T00:00:00Z","name_a2s":"Uncletopia | Sydney | 4 | All Maps","protocol":17,"map":"cp_process_final","folder":"tf","game":"Team Fortress","app_id":440,"player_count":0,"max_players":24,"Bots":0,"server_type":"Dedicated","server_os":"Linux","password":true,"vac":true,"version":"7961495","steam_id":85568392925397958,"keywords":["cp","nocrits","nodmgspread","uncletopia"],"game_id":440,"stv_port":27046,"stv_name":"Uncletopia | Sydney | 4 | All Maps | STV","players":null},{"server_id":58,"name":"Uncletopia | Sydney | 5 | Stopwatch","name_short":"syd-5","host":"syd-1.au.uncletopia.com","port":27055,"enabled":true,"region":"au","cc":"au","latitude":-33.865143,"longitude":151.2099,"reserved":0,"last_update":"0001-01-01T00:00:00Z","name_a2s":"Uncletopia | Sydney | 5 | Stopwatch","protocol":17,"map":"pl_frontier_final","folder":"tf","game":"Team Fortress","app_id":440,"player_count":0,"max_players":24,"Bots":0,"server_type":"Dedicated","server_os":"Linux","password":true,"vac":true,"version":"7961495","steam_id":85568392925397959,"keywords":["nocrits","nodmgspread","payload","uncletopia"],"game_id":440,"stv_port":27056,"stv_name":"Uncletopia | Sydney | 5 | Stopwatch | STV","players":null},{"server_id":59,"name":"Uncletopia | Sydney | 6 | Community","name_short":"syd-6","host":"syd-1.au.uncletopia.com","port":27065,"enabled":true,"region":"au","cc":"au","latitude":-33.865143,"longitude":151.2099,"reserved":0,"last_update":"0001-01-01T00:00:00Z","name_a2s":"Uncletopia | Sydney | 6 | Community","protocol":17,"map":"workshop/rd_asteroid_redux_b1.ugc2154902912","folder":"tf","game":"Team Fortress","app_id":440,"player_count":0,"max_players":24,"Bots":0,"server_type":"Dedicated","server_os":"Linux","password":true,"vac":true,"version":"7961495","steam_id":85568392925397960,"keywords":["beta","nocrits","nodmgspread","rd","uncletopia"],"game_id":440,"stv_port":27066,"stv_name":"Uncletopia | Sydney | 6 | Community | STV","players":null},{"server_id":49,"name":"Uncletopia | Warsaw | 1 | One Thousand Uncles","name_short":"waw-1","host":"waw-1.pl.uncletopia.com","port":27015,"enabled":true,"region":"eu","cc":"pl","latitude":52.2297,"longitude":21.017532,"reserved":0,"last_update":"0001-01-01T00:00:00Z","name_a2s":"Uncletopia | Warsaw | 1 | One Thousand Uncles","protocol":17,"map":"cp_mercenarypark","folder":"tf","game":"Team Fortress","app_id":440,"player_count":0,"max_players":32,"Bots":0,"server_type":"Dedicated","server_os":"Linux","password":true,"vac":true,"version":"7961495","steam_id":85568392925397850,"keywords":["alltalk","cp","danepve","increased_maxplayers","nocrits","norespawntime","uncletopia"],"game_id":440,"stv_port":0,"stv_name":"","players":null},{"server_id":50,"name":"Uncletopia | Warsaw | 2 | One Thousand Uncles","name_short":"waw-2","host":"waw-1.pl.uncletopia.com","port":27025,"enabled":true,"region":"eu","cc":"pl","latitude":52.2297,"longitude":21.017532,"reserved":0,"last_update":"0001-01-01T00:00:00Z","name_a2s":"Uncletopia | Warsaw | 2 | One Thousand Uncles","protocol":17,"map":"pl_barnblitz","folder":"tf","game":"Team Fortress","app_id":440,"player_count":19,"max_players":32,"Bots":16,"server_type":"Dedicated","server_os":"Linux","password":true,"vac":true,"version":"7961495","steam_id":85568392925397851,"keywords":["alltalk","bots","danepve","increased_maxplayers","nocrits","norespawntime","payload","uncletopia"],"game_id":440,"stv_port":0,"stv_name":"","players":[{"user_id":154,"name":"Mischail","steam_id":76561198016127010,"connected_time":8742000000000,"state":"active","ping":86},{"user_id":135,"name":"meriones","steam_id":76561198034234373,"connected_time":9843000000000,"state":"active","ping":65},{"user_id":168,"name":"Mr. Fox","steam_id":76561198803610709,"connected_time":681000000000,"state":"active","ping":127}]},{"server_id":51,"name":"Uncletopia | Warsaw | 3 | All Maps","name_short":"waw-3","host":"waw-1.pl.uncletopia.com","port":27035,"enabled":true,"region":"eu","cc":"pl","latitude":52.2297,"longitude":21.017532,"reserved":0,"last_update":"0001-01-01T00:00:00Z","name_a2s":"Uncletopia | Warsaw | 3 | All Maps","protocol":17,"map":"koth_cascade","folder":"tf","game":"Team Fortress","app_id":440,"player_count":0,"max_players":24,"Bots":0,"server_type":"Dedicated","server_os":"Linux","password":true,"vac":true,"version":"7961495","steam_id":85568392925397852,"keywords":["cp","nocrits","nodmgspread","uncletopia"],"game_id":440,"stv_port":27036,"stv_name":"Uncletopia | Warsaw | 3 | All Maps | STV","players":null},{"server_id":52,"name":"Uncletopia | Warsaw | 4 | All Maps","name_short":"waw-4","host":"waw-1.pl.uncletopia.com","port":27045,"enabled":true,"region":"eu","cc":"pl","latitude":52.2297,"longitude":21.017532,"reserved":0,"last_update":"0001-01-01T00:00:00Z","name_a2s":"Uncletopia | Warsaw | 4 | All Maps","protocol":17,"map":"koth_highpass","folder":"tf","game":"Team Fortress","app_id":440,"player_count":0,"max_players":24,"Bots":0,"server_type":"Dedicated","server_os":"Linux","password":true,"vac":true,"version":"7961495","steam_id":85568392925397853,"keywords":["cp","nocrits","nodmgspread","uncletopia"],"game_id":440,"stv_port":27046,"stv_name":"Uncletopia | Warsaw | 4 | All Maps | STV","players":null},{"server_id":53,"name":"Uncletopia | Warsaw | 5 | Stopwatch","name_short":"waw-5","host":"waw-1.pl.uncletopia.com","port":27055,"enabled":true,"region":"eu","cc":"pl","latitude":52.2297,"longitude":21.017532,"reserved":0,"last_update":"0001-01-01T00:00:00Z","name_a2s":"Uncletopia | Warsaw | 5 | Stopwatch","protocol":17,"map":"workshop/pl_vigil_rc10.ugc1266210012","folder":"tf","game":"Team Fortress","app_id":440,"player_count":0,"max_players":24,"Bots":0,"server_type":"Dedicated","server_os":"Linux","password":true,"vac":true,"version":"7961495","steam_id":85568392925397854,"keywords":["nocrits","nodmgspread","payload","uncletopia"],"game_id":440,"stv_port":27056,"stv_name":"Uncletopia | Warsaw | 5 | Stopwatch | STV","players":null},{"server_id":54,"name":"Uncletopia | Warsaw | 6 | Community","name_short":"waw-6","host":"waw-1.pl.uncletopia.com","port":27065,"enabled":true,"region":"eu","cc":"pl","latitude":52.2297,"longitude":21.017532,"reserved":0,"last_update":"0001-01-01T00:00:00Z","name_a2s":"Uncletopia | Warsaw | 6 | Community","protocol":17,"map":"workshop/koth_slaughter_rc1.ugc1712845210","folder":"tf","game":"Team Fortress","app_id":440,"player_count":0,"max_players":24,"Bots":0,"server_type":"Dedicated","server_os":"Linux","password":true,"vac":true,"version":"7961495","steam_id":85568392925397856,"keywords":["cp","nocrits","nodmgspread","uncletopia"],"game_id":440,"stv_port":27066,"stv_name":"Uncletopia | Warsaw | 6 | Community | STV","players":null}]}