{"status":true,"message":"","result":[{"server_id":9,"name":"Uncletopia | Atlanta | 1 | All Maps","name_short":"atl-1","host":"atl-1.us.uncletopia.com","port":27015,"enabled":true,"region":"us-east","cc":"us","latitude":33.753746,"longitude":-84.38633,"reserved":0,"last_update":"0001-01-01T00:00:00Z","name_a2s":"Uncletopia | Atlanta | 1 | All Maps","protocol":17,"map":"pl_snowycoast","folder":"tf","game":"Team Fortress","app_id":440,"player_count":24,"max_players":24,"Bots":0,"server_type":"Dedicated","server_os":"Linux","password":true,"vac":true,"version":"7742253","steam_id":85568392924469982,"keywords":["nocrits","nodmgspread","payload","uncletopia"],"game_id":440,"stv_port":27016,"stv_name":"Uncletopia | Atlanta | 1 | All Maps | STV","players":[{"user_id":515,"name":"Zhong Xina ÈíüÊñ∞Â®ú","steam_id":76561198044022060,"connected_time":7553000000000,"state":"active","ping":56},{"user_id":578,"name":"Merchants of Misery","steam_id":76561199188142396,"connected_time":1524000000000,"state":"active","ping":90},{"user_id":565,"name":"will b. gaming","steam_id":76561198101707249,"connected_time":2268000000000,"state":"active","ping":58},{"user_id":567,"name":"Im High","steam_id":76561198049954886,"connected_time":2068000000000,"state":"active","ping":78},{"user_id":574,"name":"Riftex","steam_id":76561198124639698,"connected_time":1589000000000,"state":"active","ping":49},{"user_id":505,"name":"sB","steam_id":76561198041610406,"connected_time":8257000000000,"state":"active","ping":77},{"user_id":551,"name":"Razz","steam_id":76561198158027533,"connected_time":3949000000000,"state":"active","ping":77},{"user_id":537,"name":"basil","steam_id":76561198075758026,"connected_time":5507000000000,"state":"active","ping":77},{"user_id":590,"name":"ATL1 | Psionic Box","steam_id":76561198151019322,"connected_time":535000000000,"state":"active","ping":75},{"user_id":525,"name":"ATL1 | to4st","steam_id":76561198981009008,"connected_time":6440000000000,"state":"active","ping":73},{"user_id":572,"name":"drukqs","steam_id":76561198253172399,"connected_time":1781000000000,"state":"active","ping":77},{"user_id":584,"name":"Alt","steam_id":76561197992591984,"connected_time":1472000000000,"state":"active","ping":75},{"user_id":522,"name":"Rex","steam_id":76561198138365053,"connected_time":6930000000000,"state":"active","ping":112},{"user_id":589,"name":"little hog","steam_id":76561199230929836,"connected_time":539000000000,"state":"active","ping":62},{"user_id":581,"name":"Intro Bonito","steam_id":76561198119478838,"connected_time":1494000000000,"state":"active","ping":56},{"user_id":588,"name":"ATL1 | Kramer","steam_id":76561198083595936,"connected_time":548000000000,"state":"active","ping":78},{"user_id":568,"name":"ATL1 | Mayhem","steam_id":76561199246637881,"connected_time":2057000000000,"state":"active","ping":48},{"user_id":586,"name":"bbboomer37","steam_id":76561199126411204,"connected_time":1044000000000,"state":"active","ping":60},{"user_id":592,"name":"BIG HOG","steam_id":76561198079923652,"connected_time":283000000000,"state":"active","ping":74},{"user_id":569,"name":"TRHD_Pharaxer","steam_id":76561198051236069,"connected_time":1942000000000,"state":"active","ping":150},{"user_id":594,"name":"the-willy12","steam_id":76561199145029672,"connected_time":50000000000,"state":"active","ping":88},{"user_id":593,"name":"com lag","steam_id":76561198019019392,"connected_time":66000000000,"state":"active","ping":52},{"user_id":534,"name":"Brother Garland","steam_id":76561198108026255,"connected_time":5769000000000,"state":"active","ping":53},{"user_id":544,"name":"Wilhelmktx","steam_id":76561198158102295,"connected_time":4688000000000,"state":"active","ping":65}]},{"server_id":400,"name":"Uncletopia | Atlanta | 3 | Stopwatch Beta","name_short":"atl-3","host":"atl-1.us.uncletopia.com","port":27035,"enabled":true,"region":"us-east","cc":"us","latitude":33.753746,"longitude":-84.38633,"reserved":0,"last_update":"0001-01-01T00:00:00Z","name_a2s":"Uncletopia | Atlanta | 3 | Stopwatch Beta","protocol":17,"map":"koth_highpass","folder":"tf","game":"Team Fortress","app_id":440,"player_count":4,"max_players":24,"Bots":0,"server_type":"Dedicated","server_os":"Linux","password":true,"vac":true,"version":"7742253","steam_id":85568392924515187,"keywords":["cp","nocrits","nodmgspread","uncletopia"],"game_id":440,"stv_port":27036,"stv_name":"Uncletopia | Atlanta | 3 | Stopwatch Beta | STV","players":[{"user_id":35,"name":"Disco man","steam_id":76561199304792767,"connected_time":2022000000000,"state":"active","ping":73},{"user_id":36,"name":"MeatStick","steam_id":76561198415847726,"connected_time":2016000000000,"state":"active","ping":76},{"user_id":41,"name":"6Dnine","steam_id":76561198955884070,"connected_time":849000000000,"state":"active","ping":127},{"user_id":43,"name":"The Birdman","steam_id":76561198798929145,"connected_time":374000000000,"state":"active","ping":161}]},{"server_id":401,"name":"Uncletopia | Atlanta | 4 | No Payload","name_short":"atl-4","host":"atl-1.us.uncletopia.com","port":27045,"enabled":true,"region":"us-east","cc":"us","latitude":33.753746,"longitude":-84.38633,"reserved":0,"last_update":"0001-01-01T00:00:00Z","name_a2s":"Uncletopia | Atlanta | 4 | No Payload","protocol":17,"map":"pl_pier","folder":"tf","game":"Team Fortress","app_id":440,"player_count":0,"max_players":24,"Bots":0,"server_type":"Dedicated","server_os":"Linux","password":true,"vac":true,"version":"7723704","steam_id":85568392924515188,"keywords":["nocrits","nodmgspread","payload","uncletopia"],"game_id":440,"stv_port":27046,"stv_name":"Uncletopia | Atlanta | 4 | No Payload | STV","players":null},{"server_id":2,"name":"Uncletopia | Chicago | 1 | All Maps","name_short":"chi-1","host":"chi-1.us.uncletopia.com","port":27015,"enabled":true,"region":"us-central","cc":"us","latitude":41.881832,"longitude":-87.62318,"reserved":0,"last_update":"0001-01-01T00:00:00Z","name_a2s":"Uncletopia | Chicago | 1 | All Maps","protocol":17,"map":"ctf_turbine","folder":"tf","game":"Team Fortress","app_id":440,"player_count":20,"max_players":24,"Bots":0,"server_type":"Dedicated","server_os":"Linux","password":true,"vac":true,"version":"7742253","steam_id":85568392924469984,"keywords":["ctf","nocrits","nodmgspread","uncletopia"],"game_id":440,"stv_port":27016,"stv_name":"Uncletopia | Chicago | 1 | All Maps | STV","players":[{"user_id":848,"name":"ROGUE-PLANET","steam_id":76561198116023052,"connected_time":1826000000000,"state":"active","ping":74},{"user_id":865,"name":"Snom","steam_id":76561198333827920,"connected_time":1113000000000,"state":"active","ping":94},{"user_id":872,"name":"cow","steam_id":76561198117331762,"connected_time":699000000000,"state":"active","ping":47},{"user_id":847,"name":"Shiba","steam_id":76561198076604234,"connected_time":2316000000000,"state":"active","ping":75},{"user_id":878,"name":"Platino","steam_id":76561198410957728,"connected_time":46000000000,"state":"active","ping":42},{"user_id":879,"name":"q!k.glodfyeehs","steam_id":76561198086008437,"connected_time":25000000000,"state":"active","ping":79},{"user_id":870,"name":"sleepy gay cowgirl","steam_id":76561198128164970,"connected_time":729000000000,"state":"active","ping":106},{"user_id":869,"name":"Mailman","steam_id":76561198090675970,"connected_time":766000000000,"state":"active","ping":59},{"user_id":880,"name":"giveit5","steam_id":76561198030815437,"connected_time":11000000000,"state":"active","ping":104},{"user_id":873,"name":"SketchMeister","steam_id":76561198042362032,"connected_time":695000000000,"state":"active","ping":46},{"user_id":816,"name":"Sprucelass","steam_id":76561197998391724,"connected_time":5018000000000,"state":"active","ping":47},{"user_id":817,"name":"Ras","steam_id":76561198123546775,"connected_time":5016000000000,"state":"active","ping":60},{"user_id":857,"name":"AdornedJoker02","steam_id":76561198155242095,"connected_time":1517000000000,"state":"active","ping":185},{"user_id":698,"name":"the deadliest pyroshark","steam_id":76561198374227766,"connected_time":13380000000000,"state":"active","ping":75},{"user_id":821,"name":"violetcassette","steam_id":76561199028224555,"connected_time":4864000000000,"state":"active","ping":95},{"user_id":853,"name":"kirkland signature","steam_id":76561198062712676,"connected_time":1551000000000,"state":"active","ping":83},{"user_id":871,"name":"Pariah","steam_id":76561198300479600,"connected_time":723000000000,"state":"active","ping":61},{"user_id":864,"name":"Ok then","steam_id":76561198891914787,"connected_time":1204000000000,"state":"active","ping":113},{"user_id":877,"name":"Stressmelo","steam_id":76561199204445185,"connected_time":80000000000,"state":"active","ping":79},{"user_id":875,"name":"Terry Crews from Brooklyn 99","steam_id":76561198357806819,"connected_time":132000000000,"state":"active","ping":69}]},{"server_id":106,"name":"Uncletopia | Chicago | 2 | All Maps","name_short":"chi-2","host":"chi-1.us.uncletopia.com","port":27025,"enabled":true,"region":"us-central","cc":"us","latitude":41.881832,"longitude":-87.62318,"reserved":0,"last_update":"0001-01-01T00:00:00Z","name_a2s":"Uncletopia | Chicago | 2 | All Maps","protocol":17,"map":"pl_pier","folder":"tf","game":"Team Fortress","app_id":440,"player_count":21,"max_players":24,"Bots":0,"server_type":"Dedicated","server_os":"Linux","password":true,"vac":true,"version":"7742253","steam_id":85568392924469985,"keywords":["nocrits","nodmgspread","payload","uncletopia"],"game_id":440,"stv_port":27026,"stv_name":"Uncletopia | Chicago | 2 | All Maps | STV","players":[{"user_id":483,"name":"Octovaitor","steam_id":76561198004658451,"connected_time":3066000000000,"state":"spawning","ping":47},{"user_id":471,"name":"Pusieeeeeee!!!!!!!!!!!!!!!!!","steam_id":76561198083175190,"connected_time":3266000000000,"state":"spawning","ping":148},{"user_id":515,"name":"noble six (real) (alive)","steam_id":76561198054859869,"connected_time":33000000000,"state":"active","ping":190},{"user_id":505,"name":"‚àÄ…ê","steam_id":76561198139718219,"connected_time":919000000000,"state":"connecting","ping":196},{"user_id":496,"name":"Waggy","steam_id":76561198043792878,"connected_time":1371000000000,"state":"spawning","ping":200},{"user_id":461,"name":"Squiliam","steam_id":76561198025278006,"connected_time":4672000000000,"state":"spawning","ping":94},{"user_id":498,"name":"groond","steam_id":76561198309426720,"connected_time":1307000000000,"state":"active","ping":167},{"user_id":506,"name":"Lorberry","steam_id":76561198023706058,"connected_time":897000000000,"state":"spawning","ping":27},{"user_id":514,"name":"OneFestiveCorvid","steam_id":76561199012953221,"connected_time":252000000000,"state":"spawning","ping":72},{"user_id":469,"name":"Approved Lego","steam_id":76561199172189879,"connected_time":3408000000000,"state":"spawning","ping":69},{"user_id":499,"name":"nnobi","steam_id":76561198878729277,"connected_time":1279000000000,"state":"active","ping":103},{"user_id":501,"name":"mr.edderkopper","steam_id":76561198152614478,"connected_time":1202000000000,"state":"active","ping":137},{"user_id":512,"name":"Michael Jordan","steam_id":76561198306393090,"connected_time":330000000000,"state":"active","ping":45},{"user_id":458,"name":"Pester","steam_id":76561198322672725,"connected_time":4840000000000,"state":"active","ping":102},{"user_id":444,"name":"SolmonFish","steam_id":76561198942169006,"connected_time":5596000000000,"state":"active","ping":62},{"user_id":503,"name":"A Pair of Candy Canes","steam_id":76561198052239472,"connected_time":1196000000000,"state":"spawning","ping":95},{"user_id":508,"name":"Nightfall","steam_id":76561198169718867,"connected_time":642000000000,"state":"spawning","ping":321},{"user_id":439,"name":"honked off the bobo","steam_id":76561198123287268,"connected_time":5911000000000,"state":"spawning","ping":71},{"user_id":468,"name":"Viking Seagull","steam_id":76561198806994127,"connected_time":3612000000000,"state":"active","ping":139},{"user_id":487,"name":"psy","steam_id":76561198013195018,"connected_time":3000000000000,"state":"active","ping":54},{"user_id":438,"name":"rico suave","steam_id":76561198093252989,"connected_time":5960000000000,"state":"spawning","ping":92}]},{"server_id":402,"name":"Uncletopia | Chicago | 3 | All Maps","name_short":"chi-3","host":"chi-1.us.uncletopia.com","port":27035,"enabled":true,"region":"us-central","cc":"us","latitude":41.881832,"longitude":-87.62318,"reserved":0,"last_update":"0001-01-01T00:00:00Z","name_a2s":"Uncletopia | Chicago | 3 | All Maps","protocol":17,"map":"pl_frontier_final","folder":"tf","game":"Team Fortress","app_id":440,"player_count":24,"max_players":24,"Bots":0,"server_type":"Dedicated","server_os":"Linux","password":true,"vac":true,"version":"7742253","steam_id":85568392924515191,"keywords":["nocrits","nodmgspread","payload","uncletopia"],"game_id":440,"stv_port":27036,"stv_name":"Uncletopia | Chicago | 3 | All Maps | STV","players":[{"user_id":736,"name":"mineblast99","steam_id":76561199065648954,"connected_time":1213000000000,"state":"active","ping":82},{"user_id":737,"name":"super-oofio64","steam_id":76561198954052123,"connected_time":1198000000000,"state":"active","ping":112},{"user_id":689,"name":"crunchy and spicy wasp snack","steam_id":76561199322728703,"connected_time":6254000000000,"state":"active","ping":63},{"user_id":748,"name":"Pride_","steam_id":76561198046446797,"connected_time":526000000000,"state":"active","ping":78},{"user_id":682,"name":"Totouri","steam_id":76561198004229789,"connected_time":6933000000000,"state":"active","ping":59},{"user_id":739,"name":"scarybroccoli","steam_id":76561198296440084,"connected_time":1113000000000,"state":"active","ping":65},{"user_id":747,"name":"[SLAG]redgunnit","steam_id":76561198058053644,"connected_time":604000000000,"state":"active","ping":64},{"user_id":754,"name":"Soph The Dark Elf","steam_id":76561198294426385,"connected_time":329000000000,"state":"active","ping":75},{"user_id":663,"name":"Fudgely","steam_id":76561198039425862,"connected_time":7402000000000,"state":"active","ping":69},{"user_id":705,"name":"boop","steam_id":76561198043787598,"connected_time":5041000000000,"state":"active","ping":57},{"user_id":751,"name":"Bad Day to be Some Cheeks","steam_id":76561198083251763,"connected_time":431000000000,"state":"active","ping":61},{"user_id":741,"name":"‡∂ûprofessional lesbian cowgirl","steam_id":76561199172206856,"connected_time":1037000000000,"state":"active","ping":79},{"user_id":750,"name":"challen","steam_id":76561197961277967,"connected_time":466000000000,"state":"active","ping":81},{"user_id":703,"name":"Saturn","steam_id":76561198211622632,"connected_time":5338000000000,"state":"active","ping":63},{"user_id":752,"name":"A Duck Phone!?","steam_id":76561198044707749,"connected_time":409000000000,"state":"active","ping":60},{"user_id":724,"name":"duBstep","steam_id":76561198353928965,"connected_time":3207000000000,"state":"active","ping":61},{"user_id":742,"name":"D4ppy","steam_id":76561198864475438,"connected_time":1017000000000,"state":"active","ping":75},{"user_id":707,"name":"Xbox_Pro_2016","steam_id":76561198176126519,"connected_time":4803000000000,"state":"active","ping":72},{"user_id":753,"name":"RelatableiLLness","steam_id":76561198441669772,"connected_time":385000000000,"state":"active","ping":86},{"user_id":746,"name":"SumTingWong","steam_id":76561198119286222,"connected_time":705000000000,"state":"active","ping":82},{"user_id":743,"name":"kablong","steam_id":76561199094392047,"connected_time":1015000000000,"state":"active","ping":79},{"user_id":745,"name":"NUMBER 1 THUG","steam_id":76561198163636470,"connected_time":757000000000,"state":"active","ping":47},{"user_id":688,"name":"HumFreY","steam_id":76561198076639682,"connected_time":6491000000000,"state":"active","ping":78},{"user_id":738,"name":"Mads Mikkelsen","steam_id":76561198083482001,"connected_time":1137000000000,"state":"active","ping":136}]},{"server_id":403,"name":"Uncletopia | Chicago | 4 | All Maps","name_short":"chi-4","host":"chi-1.us.uncletopia.com","port":27045,"enabled":true,"region":"us-central","cc":"us","latitude":41.881832,"longitude":-87.62318,"reserved":0,"last_update":"0001-01-01T00:00:00Z","name_a2s":"Uncletopia | Chicago | 4 | All Maps","protocol":17,"map":"cp_mountainlab","folder":"tf","game":"Team Fortress","app_id":440,"player_count":23,"max_players":24,"Bots":0,"server_type":"Dedicated","server_os":"Linux","password":true,"vac":true,"version":"7742253","steam_id":85568392924515193,"keywords":["cp","nocrits","nodmgspread","uncletopia"],"game_id":440,"stv_port":27046,"stv_name":"Uncletopia | Chicago | 4 | All Maps | STV","players":[{"user_id":552,"name":"Goofy Goober","steam_id":76561198065361279,"connected_time":5760000000000,"state":"active","ping":81},{"user_id":626,"name":"Stapler","steam_id":76561198099295077,"connected_time":143000000000,"state":"active","ping":94},{"user_id":595,"name":"mayBee","steam_id":76561198035351764,"connected_time":3231000000000,"state":"active","ping":50},{"user_id":623,"name":"Cruisin'","steam_id":76561199245457119,"connected_time":741000000000,"state":"active","ping":80},{"user_id":624,"name":"Elias","steam_id":76561198106431732,"connected_time":720000000000,"state":"active","ping":59},{"user_id":627,"name":"i like fish","steam_id":76561199217786768,"connected_time":142000000000,"state":"active","ping":85},{"user_id":559,"name":"Mina's Ninas","steam_id":76561198046502179,"connected_time":5304000000000,"state":"active","ping":93},{"user_id":613,"name":"Weshmek","steam_id":76561198009950743,"connected_time":1797000000000,"state":"active","ping":54},{"user_id":628,"name":"Pseudotriangle","steam_id":76561198058247667,"connected_time":138000000000,"state":"active","ping":65},{"user_id":587,"name":"Vaultin' Veluza!","steam_id":76561198155872356,"connected_time":3442000000000,"state":"active","ping":59},{"user_id":625,"name":"Chezburgures","steam_id":76561198173043730,"connected_time":184000000000,"state":"active","ping":103},{"user_id":619,"name":"A Black Square","steam_id":76561198043570320,"connected_time":1271000000000,"state":"active","ping":64},{"user_id":612,"name":"spinglebarp","steam_id":76561198091472345,"connected_time":1804000000000,"state":"active","ping":69},{"user_id":599,"name":"Furry Saul Goodman","steam_id":76561198069580305,"connected_time":3007000000000,"state":"active","ping":46},{"user_id":629,"name":"fretfulcrazykyan","steam_id":76561198042206401,"connected_time":134000000000,"state":"active","ping":60},{"user_id":604,"name":"Pixeled","steam_id":76561198088917077,"connected_time":2441000000000,"state":"active","ping":79},{"user_id":622,"name":"Cooki","steam_id":76561198051705314,"connected_time":825000000000,"state":"active","ping":65},{"user_id":614,"name":"The Doc K","steam_id":76561198035695029,"connected_time":1796000000000,"state":"active","ping":73},{"user_id":594,"name":"Chauckles","steam_id":76561197993151595,"connected_time":3244000000000,"state":"active","ping":67},{"user_id":616,"name":"a crazy hobo","steam_id":76561198289650060,"connected_time":1600000000000,"state":"active","ping":89},{"user_id":574,"name":"jan kili","steam_id":76561198289894834,"connected_time":4738000000000,"state":"active","ping":62},{"user_id":630,"name":"Minus","steam_id":76561198037887887,"connected_time":108000000000,"state":"active","ping":48},{"user_id":592,"name":"adankmix","steam_id":76561198106945614,"connected_time":3356000000000,"state":"active","ping":74}]},{"server_id":36,"name":"Uncletopia | Chicago | 5 | All Maps","name_short":"chi-5","host":"chi-2.us.uncletopia.com","port":27015,"enabled":true,"region":"us-central","cc":"us","latitude":41.881832,"longitude":-87.62318,"reserved":0,"last_update":"0001-01-01T00:00:00Z","name_a2s":"Uncletopia | Chicago | 5 | All Maps","protocol":17,"map":"pl_borneo","folder":"tf","game":"Team Fortress","app_id":440,"player_count":24,"max_players":24,"Bots":0,"server_type":"Dedicated","server_os":"Linux","password":true,"vac":true,"version":"7742253","steam_id":85568392924866362,"keywords":["nocrits","nodmgspread","payload","uncletopia"],"game_id":440,"stv_port":27016,"stv_name":"Uncletopia | Chicago | 5 | All Maps | STV","players":[{"user_id":405,"name":"Anti-Capitalist","steam_id":76561198131179644,"connected_time":6195000000000,"state":"active","ping":77},{"user_id":461,"name":"‚ô•Arrowtongue‚ô•","steam_id":76561198107776822,"connected_time":2104000000000,"state":"active","ping":76},{"user_id":482,"name":"peter griffin","steam_id":76561198079485096,"connected_time":742000000000,"state":"active","ping":76},{"user_id":473,"name":"Kipernicus","steam_id":76561197998180212,"connected_time":1144000000000,"state":"active","ping":46},{"user_id":474,"name":"Patisserie","steam_id":76561198239169752,"connected_time":1131000000000,"state":"active","ping":60},{"user_id":475,"name":"¬øskitt1eS?","steam_id":76561198330093211,"connected_time":1093000000000,"state":"active","ping":63},{"user_id":485,"name":"DissaprovingSteven","steam_id":76561198967061694,"connected_time":189000000000,"state":"active","ping":111},{"user_id":453,"name":"StupidStuff","steam_id":76561198850565003,"connected_time":2547000000000,"state":"active","ping":52},{"user_id":446,"name":"‚ù§ Ashley ‚ù§","steam_id":76561198056428303,"connected_time":3290000000000,"state":"active","ping":99},{"user_id":449,"name":"That Damn Canadian","steam_id":76561198044997050,"connected_time":3202000000000,"state":"active","ping":75},{"user_id":460,"name":"Vanvanderson","steam_id":76561198061858109,"connected_time":2108000000000,"state":"active","ping":92},{"user_id":429,"name":"Neopyth","steam_id":76561198031868427,"connected_time":4425000000000,"state":"active","ping":66},{"user_id":437,"name":"three three","steam_id":76561198177354155,"connected_time":3766000000000,"state":"active","ping":55},{"user_id":450,"name":"||:‚ô©‚ô©‚ô©‚ô™:|| Opplydead","steam_id":76561198028630334,"connected_time":3107000000000,"state":"active","ping":104},{"user_id":481,"name":"SiltyStar85","steam_id":76561198309175923,"connected_time":959000000000,"state":"active","ping":74},{"user_id":483,"name":"Discourse","steam_id":76561198984286678,"connected_time":716000000000,"state":"active","ping":51},{"user_id":471,"name":"caption cool","steam_id":76561197990612056,"connected_time":1507000000000,"state":"active","ping":65},{"user_id":430,"name":"Circus Hack","steam_id":76561198028473699,"connected_time":4417000000000,"state":"active","ping":70},{"user_id":410,"name":"Grand Wizard Autismo","steam_id":76561198069834979,"connected_time":5902000000000,"state":"active","ping":71},{"user_id":463,"name":"Galaxy","steam_id":76561198123392139,"connected_time":1950000000000,"state":"active","ping":56},{"user_id":472,"name":"Javaris Jamar Javarison-Lamar","steam_id":76561198146951387,"connected_time":1317000000000,"state":"active","ping":75},{"user_id":478,"name":"The Minister of Party City","steam_id":76561199219790713,"connected_time":1043000000000,"state":"active","ping":50},{"user_id":479,"name":"Elegant Ejaculation","steam_id":76561198014190878,"connected_time":1042000000000,"state":"active","ping":112},{"user_id":456,"name":"bubbles","steam_id":76561198063251306,"connected_time":2453000000000,"state":"active","ping":98}]},{"server_id":37,"name":"Uncletopia | Chicago | 6 | All Maps","name_short":"chi-6","host":"chi-2.us.uncletopia.com","port":27025,"enabled":true,"region":"us-central","cc":"us","latitude":41.881832,"longitude":-87.62318,"reserved":0,"last_update":"0001-01-01T00:00:00Z","name_a2s":"Uncletopia | Chicago | 6 | All Maps","protocol":17,"map":"koth_cascade","folder":"tf","game":"Team Fortress","app_id":440,"player_count":0,"max_players":24,"Bots":0,"server_type":"Dedicated","server_os":"Linux","password":true,"vac":true,"version":"7742253","steam_id":85568392924866363,"keywords":["cp","nocrits","nodmgspread","uncletopia"],"game_id":440,"stv_port":27026,"stv_name":"Uncletopia | Chicago | 6 | All Maps | STV","players":null},{"server_id":38,"name":"Uncletopia | Chicago | 7 | Stopwatch Beta","name_short":"chi-7","host":"chi-2.us.uncletopia.com","port":27035,"enabled":true,"region":"us-central","cc":"us","latitude":41.881832,"longitude":-87.62318,"reserved":0,"last_update":"0001-01-01T00:00:00Z","name_a2s":"Uncletopia | Chicago | 7 | Stopwatch Beta","protocol":17,"map":"workshop/koth_bagel_rc5.ugc2514036946","folder":"tf","game":"Team Fortress","app_id":440,"player_count":0,"max_players":24,"Bots":0,"server_type":"Dedicated","server_os":"Linux","password":true,"vac":true,"version":"7742253","steam_id":85568392924866364,"keywords":["cp","nocrits","nodmgspread","uncletopia"],"game_id":440,"stv_port":27036,"stv_name":"Uncletopia | Chicago | 7 | Stopwatch Beta | STV","players":null},{"server_id":39,"name":"Uncletopia | Chicago | 8 | Community","name_short":"chi-8","host":"chi-2.us.uncletopia.com","port":27045,"enabled":true,"region":"us-central","cc":"us","latitude":41.881832,"longitude":-87.62318,"reserved":0,"last_update":"0001-01-01T00:00:00Z","name_a2s":"Uncletopia | Chicago | 8 | Community","protocol":17,"map":"workshop/cp_villa_b19.ugc2113052569","folder":"tf","game":"Team Fortress","app_id":440,"player_count":0,"max_players":24,"Bots":0,"server_type":"Dedicated","server_os":"Linux","password":true,"vac":true,"version":"7742253","steam_id":85568392924866365,"keywords":["cp","nocrits","nodmgspread","uncletopia"],"game_id":440,"stv_port":27046,"stv_name":"Uncletopia | Chicago | 8 | Community | STV","players":null},{"server_id":8,"name":"Uncletopia | Dallas | 1 | All Maps","name_short":"dal-1","host":"dal-1.us.uncletopia.com","port":27015,"enabled":true,"region":"us-central","cc":"us","latitude":32.779167,"longitude":-96.80889,"reserved":0,"last_update":"0001-01-01T00:00:00Z","name_a2s":"Uncletopia | Dallas | 1 | All Maps","protocol":17,"map":"pl_barnblitz","folder":"tf","game":"Team Fortress","app_id":440,"player_count":24,"max_players":24,"Bots":0,"server_type":"Dedicated","server_os":"Linux","password":true,"vac":true,"version":"7742253","steam_id":85568392924469986,"keywords":["nocrits","nodmgspread","payload","uncletopia"],"game_id":440,"stv_port":27016,"stv_name":"Uncletopia | Dallas | 1 | All Maps | STV","players":[{"user_id":774,"name":"HomingPenguins","steam_id":76561198128739857,"connected_time":1274000000000,"state":"active","ping":128},{"user_id":730,"name":"Winter the Witchie","steam_id":76561198151971178,"connected_time":5331000000000,"state":"active","ping":87},{"user_id":783,"name":"chesterwnimitz","steam_id":76561198062664377,"connected_time":137000000000,"state":"active","ping":67},{"user_id":746,"name":"DeckofDragons","steam_id":76561198057398213,"connected_time":3450000000000,"state":"active","ping":64},{"user_id":739,"name":"ru≈°tina (she/them)","steam_id":76561198857804782,"connected_time":4284000000000,"state":"active","ping":84},{"user_id":760,"name":"Koyota","steam_id":76561198069878114,"connected_time":2520000000000,"state":"active","ping":95},{"user_id":772,"name":"Mitty","steam_id":76561198014177684,"connected_time":1329000000000,"state":"active","ping":77},{"user_id":744,"name":"SensualNic","steam_id":76561198042566460,"connected_time":3589000000000,"state":"active","ping":104},{"user_id":777,"name":"HYOI LIKES BOYZ","steam_id":76561198350248784,"connected_time":735000000000,"state":"active","ping":93},{"user_id":781,"name":"Katrielle","steam_id":76561198054131477,"connected_time":262000000000,"state":"active","ping":79},{"user_id":738,"name":"Swifz","steam_id":76561199074464840,"connected_time":4292000000000,"state":"active","ping":81},{"user_id":769,"name":"The Robot Menace","steam_id":76561198043390413,"connected_time":1671000000000,"state":"active","ping":52},{"user_id":745,"name":"Hyoi","steam_id":76561198206306996,"connected_time":3482000000000,"state":"active","ping":83},{"user_id":722,"name":"Squid121","steam_id":76561198038832034,"connected_time":5476000000000,"state":"active","ping":102},{"user_id":780,"name":"Krow","steam_id":76561198010392099,"connected_time":483000000000,"state":"active","ping":51},{"user_id":723,"name":"H‚ÇÇSeGamez","steam_id":76561198250471340,"connected_time":5468000000000,"state":"active","ping":76},{"user_id":771,"name":"Chaotic Riddle","steam_id":76561198044009319,"connected_time":1390000000000,"state":"active","ping":73},{"user_id":758,"name":"StevieNicholai","steam_id":76561198327310266,"connected_time":2697000000000,"state":"active","ping":50},{"user_id":752,"name":"mm","steam_id":76561198841559088,"connected_time":2884000000000,"state":"active","ping":81},{"user_id":755,"name":"{0} trader","steam_id":76561198099509834,"connected_time":2775000000000,"state":"active","ping":97},{"user_id":773,"name":"a Hippobottomus","steam_id":76561198126853441,"connected_time":1290000000000,"state":"active","ping":45},{"user_id":764,"name":"silentpieceofbacon","steam_id":76561198869323351,"connected_time":2033000000000,"state":"active","ping":90},{"user_id":768,"name":"Etomb","steam_id":76561198210017208,"connected_time":1745000000000,"state":"active","ping":103},{"user_id":756,"name":"Crab12","steam_id":76561198398818373,"connected_time":2751000000000,"state":"active","ping":91}]},{"server_id":108,"name":"Uncletopia | Dallas | 2 | All Maps","name_short":"dal-2","host":"dal-1.us.uncletopia.com","port":27025,"enabled":true,"region":"us-central","cc":"us","latitude":32.779167,"longitude":-96.80889,"reserved":0,"last_update":"0001-01-01T00:00:00Z","name_a2s":"Uncletopia | Dallas | 2 | All Maps","protocol":17,"map":"cp_metalworks","folder":"tf","game":"Team Fortress","app_id":440,"player_count":23,"max_players":24,"Bots":0,"server_type":"Dedicated","server_os":"Linux","password":true,"vac":true,"version":"7742253","steam_id":85568392924469988,"keywords":["cp","nocrits","nodmgspread","uncletopia"],"game_id":440,"stv_port":27026,"stv_name":"Uncletopia | Dallas | 2 | All Maps | STV","players":[{"user_id":454,"name":"aidenmc3","steam_id":76561198062209166,"connected_time":728000000000,"state":"active","ping":44},{"user_id":464,"name":"Gooey Gaped Grannys","steam_id":76561198089731303,"connected_time":327000000000,"state":"active","ping":90},{"user_id":474,"name":"XDKJHom","steam_id":76561199116963922,"connected_time":169000000000,"state":"active","ping":75},{"user_id":455,"name":"Rin \"Hindwing\" Redtail","steam_id":76561199074865638,"connected_time":651000000000,"state":"active","ping":49},{"user_id":465,"name":"dodecadron","steam_id":76561198027397222,"connected_time":321000000000,"state":"active","ping":118},{"user_id":466,"name":"OWEENIE","steam_id":76561198083135927,"connected_time":311000000000,"state":"active","ping":45},{"user_id":459,"name":"twitch.tv/Yoshi21 | TF2Pugs.com","steam_id":76561198002516729,"connected_time":564000000000,"state":"active","ping":69},{"user_id":439,"name":"G. Howard Dee","steam_id":76561198058382812,"connected_time":1629000000000,"state":"active","ping":70},{"user_id":479,"name":"beardboi","steam_id":76561198436043905,"connected_time":69000000000,"state":"active","ping":50},{"user_id":468,"name":"MosBlunted","steam_id":76561198259380127,"connected_time":203000000000,"state":"active","ping":82},{"user_id":370,"name":"RedMustrd","steam_id":76561199246218857,"connected_time":6802000000000,"state":"active","ping":85},{"user_id":467,"name":"Dad","steam_id":76561198375422426,"connected_time":234000000000,"state":"active","ping":70},{"user_id":478,"name":"Drilly22","steam_id":76561198068838338,"connected_time":99000000000,"state":"active","ping":60},{"user_id":470,"name":"Grits","steam_id":76561198047352122,"connected_time":192000000000,"state":"active","ping":48},{"user_id":472,"name":"Xeno","steam_id":76561198089138085,"connected_time":180000000000,"state":"active","ping":84},{"user_id":477,"name":"czarchasm","steam_id":76561198055712749,"connected_time":111000000000,"state":"active","ping":48},{"user_id":430,"name":"potato pat","steam_id":76561198025489194,"connected_time":3002000000000,"state":"active","ping":61},{"user_id":475,"name":"Zombie812 (MattG formerly)","steam_id":76561198197838571,"connected_time":164000000000,"state":"active","ping":87},{"user_id":452,"name":"Public Enemy #2","steam_id":76561199170761237,"connected_time":899000000000,"state":"active","ping":59},{"user_id":476,"name":"the meachster","steam_id":76561198978814663,"connected_time":138000000000,"state":"active","ping":68},{"user_id":480,"name":"Kataiser","steam_id":76561198120580752,"connected_time":32000000000,"state":"spawning","ping":47},{"user_id":481,"name":"BlipBloop","steam_id":76561198205320223,"connected_time":28000000000,"state":"active","ping":80},{"user_id":482,"name":"tb2thousand","steam_id":76561199013443449,"connected_time":25000000000,"state":"spawning","ping":135}]},{"server_id":5,"name":"Uncletopia | Frankfurt | 1 | All Maps","name_short":"frk-1","host":"frk-1.de.uncletopia.com","port":27015,"enabled":true,"region":"eu","cc":"de","latitude":50.110924,"longitude":8.682127,"reserved":0,"last_update":"0001-01-01T00:00:00Z","name_a2s":"Uncletopia | Frankfurt | 1 | All Maps","protocol":17,"map":"koth_lakeside_final","folder":"tf","game":"Team Fortress","app_id":440,"player_count":0,"max_players":24,"Bots":0,"server_type":"Dedicated","server_os":"Linux","password":true,"vac":true,"version":"7742253","steam_id":85568392924469989,"keywords":["cp","nocrits","nodmgspread","uncletopia"],"game_id":440,"stv_port":27016,"stv_name":"Uncletopia | Frankfurt | 1 | All Maps | STV","players":null},{"server_id":110,"name":"Uncletopia | Frankfurt | 2 | All Maps","name_short":"frk-2","host":"frk-1.de.uncletopia.com","port":27025,"enabled":true,"region":"eu","cc":"de","latitude":50.110924,"longitude":8.682127,"reserved":0,"last_update":"0001-01-01T00:00:00Z","name_a2s":"Uncletopia | Frankfurt | 2 | All Maps","protocol":17,"map":"pl_frontier_final","folder":"tf","game":"Team Fortress","app_id":440,"player_count":0,"max_players":24,"Bots":0,"server_type":"Dedicated","server_os":"Linux","password":true,"vac":true,"version":"7742253","steam_id":85568392924469990,"keywords":["nocrits","nodmgspread","payload","uncletopia"],"game_id":440,"stv_port":27026,"stv_name":"Uncletopia | Frankfurt | 2 | All Maps | STV","players":null},{"server_id":308,"name":"Uncletopia | Frankfurt | 3 | All Maps","name_short":"frk-3","host":"frk-1.de.uncletopia.com","port":27035,"enabled":true,"region":"eu","cc":"de","latitude":50.110924,"longitude":8.682127,"reserved":0,"last_update":"0001-01-01T00:00:00Z","name_a2s":"Uncletopia | Frankfurt | 3 | All Maps","protocol":17,"map":"koth_cascade","folder":"tf","game":"Team Fortress","app_id":440,"player_count":0,"max_players":24,"Bots":0,"server_type":"Dedicated","server_os":"Linux","password":true,"vac":true,"version":"7742253","steam_id":85568392924504274,"keywords":["cp","nocrits","nodmgspread","uncletopia"],"game_id":440,"stv_port":27036,"stv_name":"Uncletopia | Frankfurt | 3 | All Maps | STV","players":null},{"server_id":309,"name":"Uncletopia | Frankfurt | 4 | All Maps","name_short":"frk-4","host":"frk-1.de.uncletopia.com","port":27045,"enabled":true,"region":"eu","cc":"de","latitude":50.110924,"longitude":8.682127,"reserved":0,"last_update":"0001-01-01T00:00:00Z","name_a2s":"Uncletopia | Frankfurt | 4 | All Maps","protocol":17,"map":"pl_pier","folder":"tf","game":"Team Fortress","app_id":440,"player_count":0,"max_players":24,"Bots":0,"server_type":"Dedicated","server_os":"Linux","password":true,"vac":true,"version":"7742253","steam_id":85568392924504275,"keywords":["nocrits","nodmgspread","payload","uncletopia"],"game_id":440,"stv_port":27046,"stv_name":"Uncletopia | Frankfurt | 4 | All Maps | STV","players":null},{"server_id":310,"name":"Uncletopia | Frankfurt | 5 | All Maps","name_short":"frk-5","host":"frk-1.de.uncletopia.com","port":27055,"enabled":true,"region":"eu","cc":"de","latitude":50.110924,"longitude":8.682127,"reserved":0,"last_update":"0001-01-01T00:00:00Z","name_a2s":"Uncletopia | Frankfurt | 5 | All Maps","protocol":17,"map":"koth_viaduct","folder":"tf","game":"Team Fortress","app_id":440,"player_count":0,"max_players":24,"Bots":0,"server_type":"Dedicated","server_os":"Linux","password":true,"vac":true,"version":"7742253","steam_id":85568392924504277,"keywords":["cp","nocrits","nodmgspread","uncletopia"],"game_id":440,"stv_port":27056,"stv_name":"Uncletopia | Frankfurt | 5 | All Maps | STV","players":null},{"server_id":311,"name":"Uncletopia | Frankfurt | 6 | All Maps","name_short":"frk-6","host":"frk-1.de.uncletopia.com","port":27065,"enabled":true,"region":"eu","cc":"de","latitude":50.110924,"longitude":8.682127,"reserved":0,"last_update":"0001-01-01T00:00:00Z","name_a2s":"Uncletopia | Frankfurt | 6 | All Maps","protocol":17,"map":"koth_king","folder":"tf","game":"Team Fortress","app_id":440,"player_count":21,"max_players":24,"Bots":0,"server_type":"Dedicated","server_os":"Linux","password":true,"vac":true,"version":"7742253","steam_id":85568392924504278,"keywords":["cp","nocrits","nodmgspread","uncletopia"],"game_id":440,"stv_port":27066,"stv_name":"Uncletopia | Frankfurt | 6 | All Maps | STV","players":[{"user_id":705,"name":"√°rv√≠zt≈±r≈ë t√ºk√∂rf√∫r√≥g√©p","steam_id":76561198296643061,"connected_time":777000000000,"state":"active","ping":60},{"user_id":694,"name":"K1nG","steam_id":76561198130134788,"connected_time":1535000000000,"state":"active","ping":61},{"user_id":702,"name":"Coffeegrinder","steam_id":76561197975271145,"connected_time":1060000000000,"state":"active","ping":66},{"user_id":706,"name":"Jeom_","steam_id":76561199049262524,"connected_time":773000000000,"state":"active","ping":99},{"user_id":698,"name":"NeonPixel","steam_id":76561198165901066,"connected_time":1453000000000,"state":"active","ping":75},{"user_id":651,"name":"Beggar's Bazooka default taunt","steam_id":76561198089727765,"connected_time":4399000000000,"state":"active","ping":79},{"user_id":700,"name":"üå≠ Arentrir KING.LBJ.6","steam_id":76561198334126785,"connected_time":1089000000000,"state":"active","ping":75},{"user_id":695,"name":"Neenuh","steam_id":76561198082751836,"connected_time":1521000000000,"state":"active","ping":78},{"user_id":665,"name":"Pan Pan","steam_id":76561199074670515,"connected_time":3453000000000,"state":"active","ping":85},{"user_id":670,"name":"dorak","steam_id":76561198818037965,"connected_time":3190000000000,"state":"active","ping":113},{"user_id":701,"name":"James","steam_id":76561198138558005,"connected_time":1079000000000,"state":"active","ping":70},{"user_id":707,"name":"Pi0neer","steam_id":76561198873156806,"connected_time":601000000000,"state":"active","ping":75},{"user_id":683,"name":"Ran33","steam_id":76561197991474499,"connected_time":2320000000000,"state":"active","ping":81},{"user_id":655,"name":"Karitas","steam_id":76561198857114927,"connected_time":4308000000000,"state":"active","ping":69},{"user_id":696,"name":"Banana Dispenser","steam_id":76561198446549451,"connected_time":1507000000000,"state":"active","ping":71},{"user_id":703,"name":"üå≠ 0mger","steam_id":76561198053615827,"connected_time":1041000000000,"state":"active","ping":70},{"user_id":713,"name":"≈öwiƒÖteczny Kote≈Ç","steam_id":76561199346639262,"connected_time":3000000000,"state":"spawning","ping":91},{"user_id":674,"name":"Refurbished Boy","steam_id":76561197995834697,"connected_time":3006000000000,"state":"active","ping":84},{"user_id":708,"name":"fb","steam_id":76561197988802856,"connected_time":406000000000,"state":"active","ping":52},{"user_id":664,"name":"pezza","steam_id":76561197995173247,"connected_time":3570000000000,"state":"active","ping":66},{"user_id":710,"name":"joona","steam_id":76561198156305446,"connected_time":282000000000,"state":"active","ping":115}]},{"server_id":23,"name":"Uncletopia | Frankfurt | 7 | Stopwatch Beta","name_short":"frk-7","host":"frk-1.de.uncletopia.com","port":27075,"enabled":true,"region":"eu","cc":"de","latitude":50.110924,"longitude":8.682127,"reserved":0,"last_update":"0001-01-01T00:00:00Z","name_a2s":"Uncletopia | Frankfurt | 7 | Stopwatch Beta","protocol":17,"map":"workshop/pl_summercoast_rc8e.ugc1761528829","folder":"tf","game":"Team Fortress","app_id":440,"player_count":0,"max_players":24,"Bots":0,"server_type":"Dedicated","server_os":"Linux","password":true,"vac":true,"version":"7742253","steam_id":85568392924742827,"keywords":["nocrits","nodmgspread","payload","uncletopia"],"game_id":440,"stv_port":27076,"stv_name":"Uncletopia | Frankfurt | 7 | Stopwatch Beta | STV","players":null},{"server_id":24,"name":"Uncletopia | Frankfurt | 8 | Community","name_short":"frk-8","host":"frk-1.de.uncletopia.com","port":27085,"enabled":true,"region":"eu","cc":"de","latitude":50.110924,"longitude":8.682127,"reserved":0,"last_update":"0001-01-01T00:00:00Z","name_a2s":"Uncletopia | Frankfurt | 8 | Community","protocol":17,"map":"workshop/koth_synthetic_rc6a.ugc1549817316","folder":"tf","game":"Team Fortress","app_id":440,"player_count":0,"max_players":24,"Bots":0,"server_type":"Dedicated","server_os":"Linux","password":true,"vac":true,"version":"7742253","steam_id":85568392924742828,"keywords":["cp","nocrits","nodmgspread","uncletopia"],"game_id":440,"stv_port":27086,"stv_name":"Uncletopia | Frankfurt | 8 | Community | STV","players":null},{"server_id":202,"name":"Uncletopia | Hong Kong | 1 | All Maps","name_short":"hgk-1","host":"hgk-1.hk.uncletopia.com","port":27015,"enabled":true,"region":"asia","cc":"hk","latitude":22.302711,"longitude":114.177216,"reserved":0,"last_update":"0001-01-01T00:00:00Z","name_a2s":"Uncletopia | Hong Kong | 1 | All Maps","protocol":17,"map":"cp_dustbowl","folder":"tf","game":"Team Fortress","app_id":440,"player_count":24,"max_players":24,"Bots":0,"server_type":"Dedicated","server_os":"Linux","password":true,"vac":true,"version":"7742253","steam_id":85568392924494504,"keywords":["cp","nocrits","nodmgspread","uncletopia"],"game_id":440,"stv_port":27016,"stv_name":"Uncletopia | Hong Kong | 1 | All Maps | STV","players":[{"user_id":112,"name":"AmaiToxic","steam_id":76561199122491157,"connected_time":2591000000000,"state":"active","ping":126},{"user_id":104,"name":"meme","steam_id":76561199446900365,"connected_time":2880000000000,"state":"active","ping":87},{"user_id":110,"name":"Mars","steam_id":76561198846610729,"connected_time":2618000000000,"state":"active","ping":86},{"user_id":135,"name":"Juju Shortbow","steam_id":76561198349807521,"connected_time":1087000000000,"state":"spawning","ping":101},{"user_id":143,"name":"cloaker tf2","steam_id":76561198316010525,"connected_time":29000000000,"state":"active","ping":146},{"user_id":109,"name":"Cheesey","steam_id":76561198975684137,"connected_time":2624000000000,"state":"active","ping":89},{"user_id":111,"name":"corpse_cadaver","steam_id":76561199225360457,"connected_time":2609000000000,"state":"active","ping":62},{"user_id":114,"name":"unoriginalname42","steam_id":76561199200897735,"connected_time":2538000000000,"state":"active","ping":75},{"user_id":138,"name":"P","steam_id":76561198304514505,"connected_time":416000000000,"state":"active","ping":75},{"user_id":137,"name":"Lu","steam_id":76561198320532821,"connected_time":433000000000,"state":"active","ping":68},{"user_id":117,"name":"JayJ","steam_id":76561198324008555,"connected_time":2088000000000,"state":"spawning","ping":64},{"user_id":118,"name":"Du57Y","steam_id":76561198120973476,"connected_time":2051000000000,"state":"active","ping":87},{"user_id":126,"name":"smol - est","steam_id":76561198293775978,"connected_time":1859000000000,"state":"active","ping":96},{"user_id":120,"name":"Giouri","steam_id":76561199152247162,"connected_time":1990000000000,"state":"active","ping":131},{"user_id":136,"name":"professional esports fortnite","steam_id":76561198337887896,"connected_time":935000000000,"state":"active","ping":77},{"user_id":123,"name":"uptriste","steam_id":76561198158666692,"connected_time":1934000000000,"state":"active","ping":40},{"user_id":124,"name":"Steve","steam_id":76561198429235506,"connected_time":1932000000000,"state":"active","ping":82},{"user_id":125,"name":"Talkk More","steam_id":76561198305424433,"connected_time":1869000000000,"state":"active","ping":98},{"user_id":142,"name":":)","steam_id":76561198437941450,"connected_time":36000000000,"state":"active","ping":66},{"user_id":128,"name":"Windmill","steam_id":76561199230997986,"connected_time":1823000000000,"state":"active","ping":82},{"user_id":129,"name":"mayo","steam_id":76561198857766306,"connected_time":1800000000000,"state":"active","ping":61},{"user_id":130,"name":"worntag","steam_id":76561199056960214,"connected_time":1792000000000,"state":"active","ping":144},{"user_id":139,"name":"Waaz732","steam_id":76561199031817732,"connected_time":54000000000,"state":"connecting","ping":110}]},{"server_id":1,"name":"Uncletopia | Los Angeles | 1 | All Maps","name_short":"lax-1","host":"lax-1.us.uncletopia.com","port":27015,"enabled":true,"region":"us-west","cc":"us","latitude":33.94279,"longitude":-118.41004,"reserved":0,"last_update":"0001-01-01T00:00:00Z","name_a2s":"Uncletopia | Los Angeles | 1 | All Maps","protocol":17,"map":"pl_badwater","folder":"tf","game":"Team Fortress","app_id":440,"player_count":22,"max_players":24,"Bots":0,"server_type":"Dedicated","server_os":"Linux","password":true,"vac":true,"version":"7742253","steam_id":85568392924469991,"keywords":["nocrits","nodmgspread","payload","uncletopia"],"game_id":440,"stv_port":27016,"stv_name":"Uncletopia | Los Angeles | 1 | All Maps | STV","players":[{"user_id":181,"name":"master_minion","steam_id":76561198170693990,"connected_time":3749000000000,"state":"active","ping":48},{"user_id":174,"name":"Knuckles","steam_id":76561198000704259,"connected_time":4373000000000,"state":"active","ping":104},{"user_id":162,"name":"Alltrex","steam_id":76561198202254225,"connected_time":4972000000000,"state":"active","ping":72},{"user_id":182,"name":"RMBL","steam_id":76561198150137369,"connected_time":3732000000000,"state":"active","ping":45},{"user_id":205,"name":"root rot","steam_id":76561198178628466,"connected_time":2377000000000,"state":"active","ping":90},{"user_id":179,"name":"MarshallMellows","steam_id":76561198231561020,"connected_time":3814000000000,"state":"active","ping":60},{"user_id":145,"name":"WalkinMan","steam_id":76561198047941142,"connected_time":5934000000000,"state":"active","ping":53},{"user_id":222,"name":"Zobozo","steam_id":76561198028954297,"connected_time":148000000000,"state":"active","ping":46},{"user_id":208,"name":"Vole","steam_id":76561198059579392,"connected_time":2306000000000,"state":"active","ping":119},{"user_id":166,"name":"jungus","steam_id":76561198129862008,"connected_time":4920000000000,"state":"active","ping":45},{"user_id":194,"name":"Hey Kid","steam_id":76561198087089023,"connected_time":2743000000000,"state":"active","ping":95},{"user_id":224,"name":"The Paper Boy","steam_id":76561198202534848,"connected_time":109000000000,"state":"active","ping":113},{"user_id":213,"name":"herp derp ‚òï","steam_id":76561198047646956,"connected_time":2126000000000,"state":"active","ping":63},{"user_id":226,"name":"warman212","steam_id":76561198009355865,"connected_time":86000000000,"state":"active","ping":116},{"user_id":161,"name":"Mignyanne :3","steam_id":76561198048754056,"connected_time":4984000000000,"state":"active","ping":60},{"user_id":225,"name":"Potatobreeder","steam_id":76561199077867000,"connected_time":89000000000,"state":"active","ping":92},{"user_id":227,"name":"fulices","steam_id":76561198420163702,"connected_time":71000000000,"state":"active","ping":44},{"user_id":171,"name":"jawnymac","steam_id":76561198179529599,"connected_time":4694000000000,"state":"active","ping":62},{"user_id":228,"name":"DirtyDan","steam_id":76561198103631439,"connected_time":71000000000,"state":"active","ping":124},{"user_id":229,"name":"2013 was 18 years ago","steam_id":76561198133360797,"connected_time":33000000000,"state":"active","ping":60},{"user_id":230,"name":"TurboRaspberry","steam_id":76561199215360629,"connected_time":25000000000,"state":"active","ping":67},{"user_id":223,"name":"puffer","steam_id":76561199049164456,"connected_time":121000000000,"state":"active","ping":61}]},{"server_id":112,"name":"Uncletopia | Los Angeles | 2 | All Maps","name_short":"lax-2","host":"lax-1.us.uncletopia.com","port":27025,"enabled":true,"region":"us-west","cc":"us","latitude":33.94279,"longitude":-118.41004,"reserved":0,"last_update":"0001-01-01T00:00:00Z","name_a2s":"Uncletopia | Los Angeles | 2 | All Maps","protocol":17,"map":"koth_lakeside_final","folder":"tf","game":"Team Fortress","app_id":440,"player_count":0,"max_players":24,"Bots":0,"server_type":"Dedicated","server_os":"Linux","password":true,"vac":true,"version":"7742253","steam_id":85568392924469992,"keywords":["cp","nocrits","nodmgspread","uncletopia"],"game_id":440,"stv_port":27026,"stv_name":"Uncletopia | Los Angeles | 2 | All Maps | STV","players":null},{"server_id":324,"name":"Uncletopia | Los Angeles | 3 | All Maps","name_short":"lax-3","host":"lax-1.us.uncletopia.com","port":27035,"enabled":true,"region":"us-west","cc":"us","latitude":33.94279,"longitude":-118.41004,"reserved":0,"last_update":"0001-01-01T00:00:00Z","name_a2s":"Uncletopia | Los Angeles | 3 | All Maps","protocol":17,"map":"cp_altitude","folder":"tf","game":"Team Fortress","app_id":440,"player_count":0,"max_players":24,"Bots":0,"server_type":"Dedicated","server_os":"Linux","password":true,"vac":true,"version":"7742253","steam_id":85568392924510198,"keywords":["cp","nocrits","nodmgspread","uncletopia"],"game_id":440,"stv_port":27036,"stv_name":"Uncletopia | Los Angeles | 3 | All Maps | STV","players":null},{"server_id":25,"name":"Uncletopia | Los Angeles | 4 | Stopwatch Beta","name_short":"lax-4","host":"lax-1.us.uncletopia.com","port":27045,"enabled":true,"region":"us-west","cc":"us","latitude":33.94279,"longitude":-118.41004,"reserved":0,"last_update":"0001-01-01T00:00:00Z","name_a2s":"Uncletopia | Los Angeles | 4 | Stopwatch Beta","protocol":17,"map":"workshop/cp_reckoner_rc6.ugc674719999","folder":"tf","game":"Team Fortress","app_id":440,"player_count":0,"max_players":24,"Bots":0,"server_type":"Dedicated","server_os":"Linux","password":true,"vac":true,"version":"7742253","steam_id":85568392924510199,"keywords":["cp","nocrits","nodmgspread","uncletopia"],"game_id":440,"stv_port":27046,"stv_name":"Uncletopia | Los Angeles | 4 | Stopwatch Beta | STV","players":null},{"server_id":11,"name":"Uncletopia | London | 1 | All Maps","name_short":"lon-1","host":"lon-1.uk.uncletopia.com","port":27015,"enabled":true,"region":"eu","cc":"gb","latitude":51.509865,"longitude":-0.118092,"reserved":0,"last_update":"0001-01-01T00:00:00Z","name_a2s":"Uncletopia | London | 1 | All Maps","protocol":17,"map":"pl_upward","folder":"tf","game":"Team Fortress","app_id":440,"player_count":20,"max_players":24,"Bots":0,"server_type":"Dedicated","server_os":"Linux","password":true,"vac":true,"version":"7742253","steam_id":85568392924367362,"keywords":["nocrits","nodmgspread","payload","uncletopia"],"game_id":440,"stv_port":27016,"stv_name":"Uncletopia | London | 1 | All Maps | STV","players":[{"user_id":780,"name":"LunaXCBN ‚ù§ lft sniper","steam_id":76561199273774208,"connected_time":4248000000000,"state":"active","ping":76},{"user_id":775,"name":"Cranbury","steam_id":76561198079170457,"connected_time":4542000000000,"state":"active","ping":44},{"user_id":828,"name":"Noob_with_source","steam_id":76561198870362103,"connected_time":287000000000,"state":"active","ping":54},{"user_id":812,"name":"Burbie","steam_id":76561198046069449,"connected_time":1121000000000,"state":"active","ping":49},{"user_id":765,"name":"mesoni","steam_id":76561199141290973,"connected_time":5171000000000,"state":"active","ping":81},{"user_id":793,"name":"Ashley","steam_id":76561198043811437,"connected_time":2989000000000,"state":"active","ping":67},{"user_id":798,"name":"ShitpostSamuel","steam_id":76561198346660049,"connected_time":2818000000000,"state":"active","ping":53},{"user_id":824,"name":"Indium","steam_id":76561198255532796,"connected_time":511000000000,"state":"active","ping":61},{"user_id":799,"name":"Shawty","steam_id":76561198256704286,"connected_time":2814000000000,"state":"active","ping":63},{"user_id":790,"name":"Great recession of 2008","steam_id":76561198881151562,"connected_time":3040000000000,"state":"active","ping":80},{"user_id":764,"name":"Nasty","steam_id":76561198052769800,"connected_time":5218000000000,"state":"active","ping":35},{"user_id":825,"name":"Damien","steam_id":76561198079867036,"connected_time":460000000000,"state":"active","ping":51},{"user_id":823,"name":"KABOOOOM","steam_id":76561199213172125,"connected_time":596000000000,"state":"active","ping":117},{"user_id":827,"name":"Adopted?","steam_id":76561198118667043,"connected_time":394000000000,"state":"active","ping":46},{"user_id":814,"name":"TaiDni","steam_id":76561198087750392,"connected_time":1068000000000,"state":"active","ping":50},{"user_id":829,"name":"etc","steam_id":76561197998394797,"connected_time":152000000000,"state":"active","ping":56},{"user_id":830,"name":"[T]aKer","steam_id":76561198001778013,"connected_time":81000000000,"state":"active","ping":46},{"user_id":806,"name":"juicymangoes","steam_id":76561198131670413,"connected_time":2579000000000,"state":"active","ping":61},{"user_id":766,"name":"MG TF 2004!","steam_id":76561198042975907,"connected_time":5053000000000,"state":"active","ping":50}]},{"server_id":114,"name":"Uncletopia | London | 2 | All Maps","name_short":"lon-2","host":"lon-1.uk.uncletopia.com","port":27025,"enabled":true,"region":"eu","cc":"gb","latitude":51.509865,"longitude":-0.118092,"reserved":0,"last_update":"0001-01-01T00:00:00Z","name_a2s":"Uncletopia | London | 2 | All Maps","protocol":17,"map":"cp_snakewater_final1","folder":"tf","game":"Team Fortress","app_id":440,"player_count":4,"max_players":24,"Bots":0,"server_type":"Dedicated","server_os":"Linux","password":true,"vac":true,"version":"7742253","steam_id":85568392924470941,"keywords":["cp","nocrits","nodmgspread","uncletopia"],"game_id":440,"stv_port":27026,"stv_name":"Uncletopia | London | 2 | All Maps | STV","players":[{"user_id":1026,"name":"paradise punch lemonade","steam_id":76561198058012525,"connected_time":2173000000000,"state":"active","ping":77},{"user_id":1035,"name":"majin","steam_id":76561199102293508,"connected_time":1007000000000,"state":"active","ping":110},{"user_id":989,"name":"j100j","steam_id":76561198338726444,"connected_time":6952000000000,"state":"active","ping":75},{"user_id":959,"name":"IKARUS","steam_id":76561198850898422,"connected_time":10939000000000,"state":"active","ping":63}]},{"server_id":320,"name":"Uncletopia | London | 3 | All Maps","name_short":"lon-3","host":"lon-1.uk.uncletopia.com","port":27035,"enabled":true,"region":"eu","cc":"gb","latitude":51.509865,"longitude":-0.118092,"reserved":0,"last_update":"0001-01-01T00:00:00Z","name_a2s":"Uncletopia | London | 3 | All Maps","protocol":17,"map":"pl_badwater","folder":"tf","game":"Team Fortress","app_id":440,"player_count":0,"max_players":24,"Bots":0,"server_type":"Dedicated","server_os":"Linux","password":true,"vac":true,"version":"7742253","steam_id":85568392924510192,"keywords":["nocrits","nodmgspread","payload","uncletopia"],"game_id":440,"stv_port":27036,"stv_name":"Uncletopia | London | 3 | All Maps | STV","players":null},{"server_id":321,"name":"Uncletopia | London | 4 | All Maps","name_short":"lon-4","host":"lon-1.uk.uncletopia.com","port":27045,"enabled":true,"region":"eu","cc":"gb","latitude":51.509865,"longitude":-0.118092,"reserved":0,"last_update":"0001-01-01T00:00:00Z","name_a2s":"Uncletopia | London | 4 | All Maps","protocol":17,"map":"koth_cascade","folder":"tf","game":"Team Fortress","app_id":440,"player_count":0,"max_players":24,"Bots":0,"server_type":"Dedicated","server_os":"Linux","password":true,"vac":true,"version":"7742253","steam_id":85568392924510193,"keywords":["cp","nocrits","nodmgspread","uncletopia"],"game_id":440,"stv_port":27046,"stv_name":"Uncletopia | London | 4 | All Maps | STV","players":null},{"server_id":21,"name":"Uncletopia | London | 5 | All Maps","name_short":"lon-5","host":"lon-1.uk.uncletopia.com","port":27055,"enabled":true,"region":"eu","cc":"gb","latitude":51.509865,"longitude":-0.118092,"reserved":0,"last_update":"0001-01-01T00:00:00Z","name_a2s":"Uncletopia | London | 5 | All Maps","protocol":17,"map":"koth_viaduct","folder":"tf","game":"Team Fortress","app_id":440,"player_count":0,"max_players":24,"Bots":0,"server_type":"Dedicated","server_os":"Linux","password":true,"vac":true,"version":"7742253","steam_id":85568392924742829,"keywords":["cp","nocrits","nodmgspread","uncletopia"],"game_id":440,"stv_port":27056,"stv_name":"Uncletopia | London | 5 | All Maps | STV","players":null},{"server_id":22,"name":"Uncletopia | London | 6 | All Maps","name_short":"lon-6","host":"lon-1.uk.uncletopia.com","port":27065,"enabled":true,"region":"eu","cc":"gb","latitude":51.509865,"longitude":-0.118092,"reserved":0,"last_update":"0001-01-01T00:00:00Z","name_a2s":"Uncletopia | London | 6 | All Maps","protocol":17,"map":"koth_highpass","folder":"tf","game":"Team Fortress","app_id":440,"player_count":0,"max_players":24,"Bots":0,"server_type":"Dedicated","server_os":"Linux","password":true,"vac":true,"version":"7742253","steam_id":85568392924742830,"keywords":["cp","nocrits","nodmgspread","uncletopia"],"game_id":440,"stv_port":27066,"stv_name":"Uncletopia | London | 6 | All Maps | STV","players":null},{"server_id":40,"name":"Uncletopia | London | 7 | No Payload","name_short":"lon-7","host":"lon-1.uk.uncletopia.com","port":27075,"enabled":true,"region":"eu","cc":"gb","latitude":51.509865,"longitude":-0.118092,"reserved":0,"last_update":"0001-01-01T00:00:00Z","name_a2s":"Uncletopia | London | 7 | No Payload","protocol":17,"map":"koth_harvest_final","folder":"tf","game":"Team Fortress","app_id":440,"player_count":0,"max_players":24,"Bots":0,"server_type":"Dedicated","server_os":"Linux","password":true,"vac":true,"version":"7742253","steam_id":85568392924964314,"keywords":["cp","nocrits","nodmgspread","uncletopia"],"game_id":440,"stv_port":27076,"stv_name":"Uncletopia | London | 7 | No Payload | STV","players":null},{"server_id":41,"name":"Uncletopia | London | 8 | Community","name_short":"lon-8","host":"lon-1.uk.uncletopia.com","port":27085,"enabled":true,"region":"eu","cc":"gb","latitude":51.509865,"longitude":-0.118092,"reserved":0,"last_update":"0001-01-01T00:00:00Z","name_a2s":"Uncletopia | London | 8 | Community","protocol":17,"map":"workshop/pl_cactuscanyon_redux_rc4b.ugc2579644293","folder":"tf","game":"Team Fortress","app_id":440,"player_count":0,"max_players":24,"Bots":0,"server_type":"Dedicated","server_os":"Linux","password":true,"vac":true,"version":"7742253","steam_id":85568392924964315,"keywords":["nocrits","nodmgspread","payload","uncletopia"],"game_id":440,"stv_port":27086,"stv_name":"Uncletopia | London | 8 | Community | STV","players":null},{"server_id":300,"name":"Uncletopia | Montr√©al | 1 | All Maps","name_short":"mtl-1","host":"mtl-1.ca.uncletopia.com","port":27015,"enabled":true,"region":"us-east","cc":"ca","latitude":45.50889,"longitude":-73.56167,"reserved":0,"last_update":"0001-01-01T00:00:00Z","name_a2s":"Uncletopia | Montr√©al | 1 | All Maps","protocol":17,"map":"cp_altitude","folder":"tf","game":"Team Fortress","app_id":440,"player_count":0,"max_players":24,"Bots":0,"server_type":"Dedicated","server_os":"Linux","password":true,"vac":true,"version":"7742253","steam_id":85568392924500087,"keywords":["cp","nocrits","nodmgspread","uncletopia"],"game_id":440,"stv_port":27016,"stv_name":"Uncletopia | Montr√©al | 1 | All Maps | STV","players":null},{"server_id":301,"name":"Uncletopia | Montr√©al | 2 | All Maps","name_short":"mtl-2","host":"mtl-1.ca.uncletopia.com","port":27025,"enabled":true,"region":"us-east","cc":"ca","latitude":45.50889,"longitude":-73.56167,"reserved":0,"last_update":"0001-01-01T00:00:00Z","name_a2s":"Uncletopia | Montr√©al | 2 | All Maps","protocol":17,"map":"koth_highpass","folder":"tf","game":"Team Fortress","app_id":440,"player_count":0,"max_players":24,"Bots":0,"server_type":"Dedicated","server_os":"Linux","password":true,"vac":true,"version":"7742253","steam_id":85568392924500088,"keywords":["cp","nocrits","nodmgspread","uncletopia"],"game_id":440,"stv_port":27026,"stv_name":"Uncletopia | Montr√©al | 2 | All Maps | STV","players":null},{"server_id":302,"name":"Uncletopia | Montr√©al | 3 | All Maps","name_short":"mtl-3","host":"mtl-1.ca.uncletopia.com","port":27035,"enabled":true,"region":"us-east","cc":"ca","latitude":45.50889,"longitude":-73.56167,"reserved":0,"last_update":"0001-01-01T00:00:00Z","name_a2s":"Uncletopia | Montr√©al | 3 | All Maps","protocol":17,"map":"pl_borneo","folder":"tf","game":"Team Fortress","app_id":440,"player_count":0,"max_players":24,"Bots":0,"server_type":"Dedicated","server_os":"Linux","password":true,"vac":true,"version":"7742253","steam_id":85568392924500089,"keywords":["nocrits","nodmgspread","payload","uncletopia"],"game_id":440,"stv_port":27036,"stv_name":"Uncletopia | Montr√©al | 3 | All Maps | STV","players":null},{"server_id":303,"name":"Uncletopia | Montr√©al | 4 | No Payload","name_short":"mtl-4","host":"mtl-1.ca.uncletopia.com","port":27045,"enabled":true,"region":"us-east","cc":"ca","latitude":45.50889,"longitude":-73.56167,"reserved":0,"last_update":"0001-01-01T00:00:00Z","name_a2s":"Uncletopia | Montr√©al | 4 | No Payload","protocol":17,"map":"plr_pipeline","folder":"tf","game":"Team Fortress","app_id":440,"player_count":0,"max_players":24,"Bots":0,"server_type":"Dedicated","server_os":"Linux","password":true,"vac":true,"version":"7742253","steam_id":85568392924500090,"keywords":["nocrits","nodmgspread","payload","uncletopia"],"game_id":440,"stv_port":27046,"stv_name":"Uncletopia | Montr√©al | 4 | No Payload | STV","players":null},{"server_id":13,"name":"Uncletopia | New York City | 1 | All Maps","name_short":"nyc-1","host":"nyc-1.us.uncletopia.com","port":27015,"enabled":true,"region":"us-east","cc":"us","latitude":40.73061,"longitude":-73.93524,"reserved":0,"last_update":"0001-01-01T00:00:00Z","name_a2s":"Uncletopia | New York City | 1 | All Maps","protocol":17,"map":"cp_5gorge","folder":"tf","game":"Team Fortress","app_id":440,"player_count":24,"max_players":24,"Bots":0,"server_type":"Dedicated","server_os":"Linux","password":true,"vac":true,"version":"7742253","steam_id":85568392924469993,"keywords":["cp","nocrits","nodmgspread","uncletopia"],"game_id":440,"stv_port":27016,"stv_name":"Uncletopia | New York City | 1 | All Maps | STV","players":[{"user_id":481,"name":"Quansen","steam_id":76561198151594550,"connected_time":2063000000000,"state":"active","ping":66},{"user_id":498,"name":"sxl","steam_id":76561198150627999,"connected_time":632000000000,"state":"active","ping":58},{"user_id":504,"name":"Tikiwiki","steam_id":76561198009777858,"connected_time":516000000000,"state":"active","ping":129},{"user_id":500,"name":"Wigwamus","steam_id":76561198037423919,"connected_time":598000000000,"state":"active","ping":52},{"user_id":501,"name":"Smig","steam_id":76561198408846602,"connected_time":575000000000,"state":"active","ping":50},{"user_id":510,"name":"Karma","steam_id":76561198030565234,"connected_time":36000000000,"state":"active","ping":44},{"user_id":492,"name":"Biscuit","steam_id":76561199147764118,"connected_time":983000000000,"state":"active","ping":43},{"user_id":459,"name":"Japanese Rabbit Enthusiast","steam_id":76561199134895220,"connected_time":3946000000000,"state":"active","ping":53},{"user_id":482,"name":"HE‚ÄôS IN THE GODDAMN WALLS","steam_id":76561198363267009,"connected_time":2052000000000,"state":"active","ping":87},{"user_id":508,"name":"Juno was mad, knew he'd been ha","steam_id":76561198294013916,"connected_time":341000000000,"state":"active","ping":46},{"user_id":436,"name":"‚í∑‚ì™‚ì™‚ì£‚ì®‚ìí‚ìê‚ìö‚ìî‚ì¢","steam_id":76561198088776421,"connected_time":7520000000000,"state":"active","ping":85},{"user_id":496,"name":"Windowed Envelope","steam_id":76561198811526365,"connected_time":726000000000,"state":"active","ping":46},{"user_id":503,"name":"Daz","steam_id":76561198041431938,"connected_time":536000000000,"state":"active","ping":76},{"user_id":493,"name":"CanadaJay","steam_id":76561198077444944,"connected_time":972000000000,"state":"active","ping":69},{"user_id":495,"name":"Jude","steam_id":76561198041832304,"connected_time":814000000000,"state":"active","ping":62},{"user_id":490,"name":"John the Puppet","steam_id":76561199031816428,"connected_time":987000000000,"state":"active","ping":52},{"user_id":505,"name":"sithreis","steam_id":76561198000564263,"connected_time":474000000000,"state":"active","ping":74},{"user_id":430,"name":"Gitgudgame","steam_id":76561198354761942,"connected_time":7876000000000,"state":"active","ping":61},{"user_id":486,"name":"meinsword","steam_id":76561198272653535,"connected_time":1560000000000,"state":"active","ping":62},{"user_id":444,"name":"ndvr","steam_id":76561199379200102,"connected_time":6305000000000,"state":"active","ping":52},{"user_id":491,"name":"Amogus The Sussy Baka ‡∂û","steam_id":76561198008577961,"connected_time":986000000000,"state":"active","ping":74},{"user_id":506,"name":"lanoc","steam_id":76561198055415367,"connected_time":459000000000,"state":"active","ping":60},{"user_id":507,"name":"java","steam_id":76561198030276792,"connected_time":455000000000,"state":"active","ping":70},{"user_id":509,"name":"Parth Makeo","steam_id":76561198002516581,"connected_time":299000000000,"state":"active","ping":98}]},{"server_id":14,"name":"Uncletopia | New York City | 2 | All Maps","name_short":"nyc-2","host":"nyc-1.us.uncletopia.com","port":27025,"enabled":true,"region":"us-east","cc":"us","latitude":40.73061,"longitude":-73.93524,"reserved":0,"last_update":"0001-01-01T00:00:00Z","name_a2s":"Uncletopia | New York City | 2 | All Maps","protocol":17,"map":"pl_upward","folder":"tf","game":"Team Fortress","app_id":440,"player_count":0,"max_players":24,"Bots":0,"server_type":"Dedicated","server_os":"Linux","password":true,"vac":true,"version":"7742253","steam_id":85568392924469994,"keywords":["nocrits","nodmgspread","payload","uncletopia"],"game_id":440,"stv_port":27026,"stv_name":"Uncletopia | New York City | 2 | All Maps | STV","players":null},{"server_id":15,"name":"Uncletopia | New York City | 3 | Stopwatch Beta","name_short":"nyc-3","host":"nyc-1.us.uncletopia.com","port":27035,"enabled":true,"region":"us-east","cc":"us","latitude":40.73061,"longitude":-73.93524,"reserved":0,"last_update":"0001-01-01T00:00:00Z","name_a2s":"Uncletopia | New York City | 3 | Stopwatch Beta","protocol":17,"map":"pl_pier","folder":"tf","game":"Team Fortress","app_id":440,"player_count":0,"max_players":24,"Bots":0,"server_type":"Dedicated","server_os":"Linux","password":true,"vac":true,"version":"7742253","steam_id":85568392924742820,"keywords":["nocrits","nodmgspread","payload","uncletopia"],"game_id":440,"stv_port":27036,"stv_name":"Uncletopia | New York City | 3 | Stopwatch Beta | STV","players":null},{"server_id":16,"name":"Uncletopia | New York City | 4 | Community","name_short":"nyc-4","host":"nyc-1.us.uncletopia.com","port":27045,"enabled":true,"region":"us-east","cc":"us","latitude":40.73061,"longitude":-73.93524,"reserved":0,"last_update":"0001-01-01T00:00:00Z","name_a2s":"Uncletopia | New York City | 4 | Community","protocol":17,"map":"workshop/koth_slaughter_rc1.ugc1712845210","folder":"tf","game":"Team Fortress","app_id":440,"player_count":0,"max_players":24,"Bots":0,"server_type":"Dedicated","server_os":"Linux","password":true,"vac":true,"version":"7742253","steam_id":85568392924742821,"keywords":["cp","nocrits","nodmgspread","uncletopia"],"game_id":440,"stv_port":27046,"stv_name":"Uncletopia | New York City | 4 | Community | STV","players":null},{"server_id":142,"name":"Uncletopia | S√£o Paulo | 1 | All Maps","name_short":"sao-1","host":"sao-1.br.uncletopia.com","port":27015,"enabled":true,"region":"sa","cc":"br","latitude":-23.533773,"longitude":-46.62529,"reserved":0,"last_update":"0001-01-01T00:00:00Z","name_a2s":"Uncletopia | S√£o Paulo | 1 | All Maps","protocol":17,"map":"cp_snakewater_final1","folder":"tf","game":"Team Fortress","app_id":440,"player_count":0,"max_players":24,"Bots":0,"server_type":"Dedicated","server_os":"Linux","password":true,"vac":true,"version":"7742253","steam_id":85568392924469996,"keywords":["cp","nocrits","nodmgspread","uncletopia"],"game_id":440,"stv_port":27016,"stv_name":"Uncletopia | S√£o Paulo | 1 | All Maps | STV","players":null},{"server_id":143,"name":"Uncletopia | S√£o Paulo | 2 | All Maps","name_short":"sao-2","host":"sao-2.br.uncletopia.com","port":27015,"enabled":true,"region":"sa","cc":"br","latitude":-23.533773,"longitude":-46.62529,"reserved":0,"last_update":"0001-01-01T00:00:00Z","name_a2s":"Uncletopia | S√£o Paulo | 2 | All Maps","protocol":17,"map":"koth_harvest_final","folder":"tf","game":"Team Fortress","app_id":440,"player_count":0,"max_players":24,"Bots":0,"server_type":"Dedicated","server_os":"Linux","password":true,"vac":true,"version":"7742253","steam_id":85568392924485349,"keywords":["cp","nocrits","nodmgspread","uncletopia"],"game_id":440,"stv_port":27016,"stv_name":"Uncletopia | S√£o Paulo | 2 | All Maps | STV","players":null},{"server_id":7,"name":"Uncletopia | Seattle | 1 | All Maps","name_short":"sea-1","host":"sea-1.us.uncletopia.com","port":27015,"enabled":true,"region":"us-west","cc":"us","latitude":47.608013,"longitude":-122.33517,"reserved":0,"last_update":"0001-01-01T00:00:00Z","name_a2s":"Uncletopia | Seattle | 1 | All Maps","protocol":17,"map":"pl_badwater","folder":"tf","game":"Team Fortress","app_id":440,"player_count":24,"max_players":24,"Bots":0,"server_type":"Dedicated","server_os":"Linux","password":true,"vac":true,"version":"7742253","steam_id":85568392924469997,"keywords":["nocrits","nodmgspread","payload","uncletopia"],"game_id":440,"stv_port":27016,"stv_name":"Uncletopia | Seattle | 1 | All Maps | STV","players":[{"user_id":348,"name":"Strikerbolt","steam_id":76561199095622897,"connected_time":2658000000000,"state":"active","ping":84},{"user_id":369,"name":"SquishyDog","steam_id":76561198059014380,"connected_time":873000000000,"state":"active","ping":93},{"user_id":344,"name":"ORANGE","steam_id":76561198000401769,"connected_time":2708000000000,"state":"active","ping":58},{"user_id":284,"name":"Tectonic11","steam_id":76561198061169359,"connected_time":6582000000000,"state":"active","ping":112},{"user_id":371,"name":"MDE never dies","steam_id":76561199215798445,"connected_time":775000000000,"state":"active","ping":108},{"user_id":373,"name":"spenca","steam_id":76561198025371154,"connected_time":619000000000,"state":"active","ping":79},{"user_id":368,"name":"Pyrotek‚Å¥","steam_id":76561198072747672,"connected_time":1228000000000,"state":"active","ping":72},{"user_id":375,"name":"Closed.","steam_id":76561198212598967,"connected_time":404000000000,"state":"active","ping":86},{"user_id":357,"name":"Chmiken","steam_id":76561199041966499,"connected_time":1764000000000,"state":"active","ping":53},{"user_id":374,"name":"FG7","steam_id":76561198381197197,"connected_time":476000000000,"state":"active","ping":160},{"user_id":366,"name":"MaryJanee","steam_id":76561198072200952,"connected_time":1289000000000,"state":"active","ping":78},{"user_id":347,"name":"General Fisticuffs","steam_id":76561198255721392,"connected_time":2678000000000,"state":"active","ping":106},{"user_id":358,"name":"Aardappel","steam_id":76561198030894676,"connected_time":1761000000000,"state":"active","ping":65},{"user_id":363,"name":"The Male's Return.","steam_id":76561199132426068,"connected_time":1360000000000,"state":"active","ping":129},{"user_id":325,"name":"JaredTheCrow","steam_id":76561198918117347,"connected_time":4471000000000,"state":"active","ping":157},{"user_id":328,"name":"‚úûScarlet‚úû","steam_id":76561199103174090,"connected_time":4165000000000,"state":"active","ping":117},{"user_id":367,"name":"John Wick's puppy","steam_id":76561198064662875,"connected_time":1265000000000,"state":"active","ping":65},{"user_id":361,"name":"dr. chlo√© (apotropaic)","steam_id":76561198858926895,"connected_time":1488000000000,"state":"active","ping":41},{"user_id":276,"name":"Infineable","steam_id":76561198358100698,"connected_time":7643000000000,"state":"active","ping":110},{"user_id":324,"name":"Huge","steam_id":76561199030987614,"connected_time":4500000000000,"state":"active","ping":166},{"user_id":365,"name":"‚õßAlkahestry","steam_id":76561198109641497,"connected_time":1326000000000,"state":"active","ping":78},{"user_id":377,"name":"William P. Ennis","steam_id":76561198073464877,"connected_time":269000000000,"state":"active","ping":99},{"user_id":354,"name":"Foyboy‚Ñ¢","steam_id":76561198072305817,"connected_time":1805000000000,"state":"active","ping":100},{"user_id":331,"name":"p9 thunderous prophet","steam_id":76561198131166135,"connected_time":3425000000000,"state":"active","ping":43}]},{"server_id":119,"name":"Uncletopia | Seattle | 2 | All Maps","name_short":"sea-2","host":"sea-1.us.uncletopia.com","port":27025,"enabled":true,"region":"us-west","cc":"us","latitude":47.608013,"longitude":-122.33517,"reserved":0,"last_update":"0001-01-01T00:00:00Z","name_a2s":"Uncletopia | Seattle | 2 | All Maps","protocol":17,"map":"cp_steel","folder":"tf","game":"Team Fortress","app_id":440,"player_count":20,"max_players":24,"Bots":0,"server_type":"Dedicated","server_os":"Linux","password":true,"vac":true,"version":"7742253","steam_id":85568392924469998,"keywords":["cp","nocrits","nodmgspread","uncletopia"],"game_id":440,"stv_port":27026,"stv_name":"Uncletopia | Seattle | 2 | All Maps | STV","players":[{"user_id":689,"name":"bob1444","steam_id":76561198110258432,"connected_time":1000000000,"state":"spawning","ping":67},{"user_id":659,"name":"zzrat","steam_id":76561198014925415,"connected_time":2405000000000,"state":"active","ping":54},{"user_id":664,"name":"MCman","steam_id":76561198412110305,"connected_time":2079000000000,"state":"active","ping":77},{"user_id":686,"name":"EAT SPIT!","steam_id":76561198096836451,"connected_time":481000000000,"state":"active","ping":78},{"user_id":553,"name":"PAC-MATH","steam_id":76561198327729748,"connected_time":9351000000000,"state":"active","ping":113},{"user_id":601,"name":"Back with the milk","steam_id":76561199020105501,"connected_time":7133000000000,"state":"active","ping":135},{"user_id":678,"name":"TechnoPotato","steam_id":76561199007440050,"connected_time":962000000000,"state":"active","ping":47},{"user_id":688,"name":"Janus","steam_id":76561198070318988,"connected_time":110000000000,"state":"active","ping":71},{"user_id":651,"name":"Agent","steam_id":76561199389584938,"connected_time":3151000000000,"state":"active","ping":38},{"user_id":616,"name":"Lumberjane37 (She/Her)","steam_id":76561198014841793,"connected_time":6037000000000,"state":"active","ping":87},{"user_id":646,"name":"Crake","steam_id":76561198001959071,"connected_time":3415000000000,"state":"active","ping":52},{"user_id":662,"name":"Jun Manjoume","steam_id":76561198124040126,"connected_time":2222000000000,"state":"active","ping":135},{"user_id":633,"name":"Darkrain","steam_id":76561197987915511,"connected_time":4674000000000,"state":"active","ping":108},{"user_id":602,"name":"TrashCanGaming","steam_id":76561199150746424,"connected_time":7119000000000,"state":"active","ping":89},{"user_id":652,"name":"Google","steam_id":76561198857237473,"connected_time":2937000000000,"state":"active","ping":53},{"user_id":685,"name":"Mr.Thirteen","steam_id":76561198047468836,"connected_time":534000000000,"state":"active","ping":73},{"user_id":676,"name":"santas.secret.sauce","steam_id":76561198042464635,"connected_time":1043000000000,"state":"active","ping":118},{"user_id":687,"name":"Grungus","steam_id":76561198047700230,"connected_time":291000000000,"state":"active","ping":62},{"user_id":666,"name":"mooney","steam_id":76561199110622484,"connected_time":2067000000000,"state":"active","ping":52},{"user_id":682,"name":"Mr. Rat Choppa","steam_id":76561198011675372,"connected_time":918000000000,"state":"active","ping":59}]},{"server_id":406,"name":"Uncletopia | Seattle | 3 | Stopwatch Beta","name_short":"sea-3","host":"sea-1.us.uncletopia.com","port":27035,"enabled":true,"region":"us-west","cc":"us","latitude":47.608013,"longitude":-122.33517,"reserved":0,"last_update":"0001-01-01T00:00:00Z","name_a2s":"Uncletopia | Seattle | 3 | Stopwatch Beta","protocol":17,"map":"koth_highpass","folder":"tf","game":"Team Fortress","app_id":440,"player_count":0,"max_players":24,"Bots":0,"server_type":"Dedicated","server_os":"Linux","password":true,"vac":true,"version":"7742253","steam_id":85568392924515217,"keywords":["cp","nocrits","nodmgspread","uncletopia"],"game_id":440,"stv_port":27036,"stv_name":"Uncletopia | Seattle | 3 | Stopwatch Beta | STV","players":null},{"server_id":17,"name":"Uncletopia | San Francisco | 1 | All Maps","name_short":"sfo-1","host":"sfo-1.us.uncletopia.com","port":27015,"enabled":true,"region":"us-west","cc":"us","latitude":37.77397,"longitude":-122.4313,"reserved":0,"last_update":"0001-01-01T00:00:00Z","name_a2s":"Uncletopia | San Francisco | 1 | All Maps","protocol":17,"map":"cp_dustbowl","folder":"tf","game":"Team Fortress","app_id":440,"player_count":24,"max_players":24,"Bots":0,"server_type":"Dedicated","server_os":"Linux","password":true,"vac":true,"version":"7742253","steam_id":85568392924469999,"keywords":["cp","nocrits","nodmgspread","uncletopia"],"game_id":440,"stv_port":27016,"stv_name":"Uncletopia | San Francisco | 1 | All Maps | STV","players":[{"user_id":286,"name":"Cookie?","steam_id":76561198035002318,"connected_time":1744000000000,"state":"active","ping":123},{"user_id":268,"name":"xypage","steam_id":76561198050587775,"connected_time":2031000000000,"state":"active","ping":56},{"user_id":283,"name":"Sharkos","steam_id":76561198052096644,"connected_time":1783000000000,"state":"active","ping":124},{"user_id":292,"name":"Ranger Lugi","steam_id":76561198143611016,"connected_time":1646000000000,"state":"active","ping":62},{"user_id":226,"name":"conductor i have a problem","steam_id":76561198140231083,"connected_time":4341000000000,"state":"active","ping":67},{"user_id":227,"name":"Crustiest_Bill","steam_id":76561198842722858,"connected_time":4336000000000,"state":"active","ping":64},{"user_id":271,"name":"defcon","steam_id":76561198100656328,"connected_time":1895000000000,"state":"active","ping":108},{"user_id":298,"name":"Cresty","steam_id":76561199118643461,"connected_time":702000000000,"state":"active","ping":74},{"user_id":228,"name":"Magikarp_Gamer","steam_id":76561198143910511,"connected_time":4330000000000,"state":"active","ping":59},{"user_id":300,"name":"Wolverine Fingerblaster","steam_id":76561198095394582,"connected_time":610000000000,"state":"active","ping":95},{"user_id":243,"name":"I like cheese (real)","steam_id":76561198882837408,"connected_time":3810000000000,"state":"active","ping":53},{"user_id":276,"name":"Lamp","steam_id":76561198369922506,"connected_time":1849000000000,"state":"active","ping":112},{"user_id":259,"name":"bansheerubber","steam_id":76561198042009362,"connected_time":3131000000000,"state":"active","ping":59},{"user_id":303,"name":"AjProductions","steam_id":76561198217950125,"connected_time":519000000000,"state":"active","ping":73},{"user_id":295,"name":"Rix FPV","steam_id":76561198299320893,"connected_time":1396000000000,"state":"active","ping":112},{"user_id":287,"name":"Fierian","steam_id":76561198132771619,"connected_time":1743000000000,"state":"active","ping":114},{"user_id":294,"name":"Flyingcat9000","steam_id":76561198179561797,"connected_time":1485000000000,"state":"active","ping":34},{"user_id":304,"name":"Ham bones","steam_id":76561198259610648,"connected_time":415000000000,"state":"active","ping":60},{"user_id":301,"name":"Whapper","steam_id":76561198044029606,"connected_time":600000000000,"state":"active","ping":86},{"user_id":288,"name":"Danny Fentanyl","steam_id":76561197970791798,"connected_time":1721000000000,"state":"active","ping":58},{"user_id":262,"name":"AKKAWI","steam_id":76561198203159952,"connected_time":3008000000000,"state":"active","ping":59},{"user_id":305,"name":"Fostrel","steam_id":76561198152160601,"connected_time":350000000000,"state":"active","ping":101},{"user_id":302,"name":"Rhutebeer","steam_id":76561198018302761,"connected_time":546000000000,"state":"active","ping":120},{"user_id":289,"name":"Spooky Wizard","steam_id":76561198052573339,"connected_time":1720000000000,"state":"active","ping":96}]},{"server_id":18,"name":"Uncletopia | San Francisco | 2 | All Maps","name_short":"sfo-2","host":"sfo-1.us.uncletopia.com","port":27025,"enabled":true,"region":"us-west","cc":"us","latitude":37.77397,"longitude":-122.4313,"reserved":0,"last_update":"0001-01-01T00:00:00Z","name_a2s":"Uncletopia | San Francisco | 2 | All Maps","protocol":17,"map":"cp_sunshine","folder":"tf","game":"Team Fortress","app_id":440,"player_count":0,"max_players":24,"Bots":0,"server_type":"Dedicated","server_os":"Linux","password":true,"vac":true,"version":"7742253","steam_id":85568392924470000,"keywords":["cp","nocrits","nodmgspread","uncletopia"],"game_id":440,"stv_port":27026,"stv_name":"Uncletopia | San Francisco | 2 | All Maps | STV","players":null},{"server_id":19,"name":"Uncletopia | San Francisco | 3 | Stopwatch Beta","name_short":"sfo-3","host":"sfo-1.us.uncletopia.com","port":27035,"enabled":true,"region":"us-west","cc":"us","latitude":37.77397,"longitude":-122.4313,"reserved":0,"last_update":"0001-01-01T00:00:00Z","name_a2s":"Uncletopia | San Francisco | 3 | Stopwatch Beta","protocol":17,"map":"workshop/koth_clearcut_b15.ugc2107050255","folder":"tf","game":"Team Fortress","app_id":440,"player_count":0,"max_players":24,"Bots":0,"server_type":"Dedicated","server_os":"Linux","password":true,"vac":true,"version":"7742253","steam_id":85568392924742824,"keywords":["cp","nocrits","nodmgspread","uncletopia"],"game_id":440,"stv_port":27036,"stv_name":"Uncletopia | San Francisco | 3 | Stopwatch Beta | STV","players":null},{"server_id":20,"name":"Uncletopia | San Francisco | 4 | Community","name_short":"sfo-4","host":"sfo-1.us.uncletopia.com","port":27045,"enabled":true,"region":"us-west","cc":"us","latitude":37.77397,"longitude":-122.4313,"reserved":0,"last_update":"0001-01-01T00:00:00Z","name_a2s":"Uncletopia | San Francisco | 4 | Community","protocol":17,"map":"workshop/pl_barnblitz_pro7.ugc582280235","folder":"tf","game":"Team Fortress","app_id":440,"player_count":0,"max_players":24,"Bots":0,"server_type":"Dedicated","server_os":"Linux","password":true,"vac":true,"version":"7742253","steam_id":85568392924742826,"keywords":["nocrits","nodmgspread","payload","uncletopia"],"game_id":440,"stv_port":27046,"stv_name":"Uncletopia | San Francisco | 4 | Community | STV","players":null},{"server_id":141,"name":"Uncletopia | Sydney | 1 | All Maps","name_short":"syd-1","host":"syd-1.au.uncletopia.com","port":27015,"enabled":true,"region":"au","cc":"au","latitude":-33.865143,"longitude":151.2099,"reserved":0,"last_update":"0001-01-01T00:00:00Z","name_a2s":"Uncletopia | Sydney | 1 | All Maps","protocol":17,"map":"cp_badlands","folder":"tf","game":"Team Fortress","app_id":440,"player_count":4,"max_players":24,"Bots":0,"server_type":"Dedicated","server_os":"Linux","password":true,"vac":true,"version":"7742253","steam_id":85568392924470001,"keywords":["cp","nocrits","nodmgspread","uncletopia"],"game_id":440,"stv_port":27016,"stv_name":"Uncletopia | Sydney | 1 | All Maps | STV","players":[{"user_id":305,"name":"Nigel Homeless","steam_id":76561198207746773,"connected_time":356000000000,"state":"active","ping":68},{"user_id":307,"name":"Flamezenberg","steam_id":76561199297362870,"connected_time":269000000000,"state":"active","ping":323},{"user_id":308,"name":"StarFraud96","steam_id":76561198351146153,"connected_time":254000000000,"state":"active","ping":66},{"user_id":309,"name":"no more fucks to give","steam_id":76561199129974320,"connected_time":175000000000,"state":"active","ping":334}]},{"server_id":123,"name":"Uncletopia | Sydney | 2 | All Maps","name_short":"syd-2","host":"syd-1.au.uncletopia.com","port":27025,"enabled":true,"region":"au","cc":"au","latitude":-33.865143,"longitude":151.2099,"reserved":0,"last_update":"0001-01-01T00:00:00Z","name_a2s":"Uncletopia | Sydney | 2 | All Maps","protocol":17,"map":"cp_process_final","folder":"tf","game":"Team Fortress","app_id":440,"player_count":24,"max_players":24,"Bots":0,"server_type":"Dedicated","server_os":"Linux","password":true,"vac":true,"version":"7742253","steam_id":85568392924470002,"keywords":["cp","nocrits","nodmgspread","uncletopia"],"game_id":440,"stv_port":27026,"stv_name":"Uncletopia | Sydney | 2 | All Maps | STV","players":[{"user_id":67,"name":"Scetaril","steam_id":76561199232961168,"connected_time":2739000000000,"state":"active","ping":52},{"user_id":71,"name":"BilboSwaggins79","steam_id":76561198984446872,"connected_time":2433000000000,"state":"active","ping":44},{"user_id":72,"name":"Manbake","steam_id":76561198043455984,"connected_time":2263000000000,"state":"active","ping":59},{"user_id":73,"name":"Grozny Cactus","steam_id":76561198017345421,"connected_time":2213000000000,"state":"active","ping":40},{"user_id":103,"name":"Cockfight","steam_id":76561198160277649,"connected_time":628000000000,"state":"active","ping":65},{"user_id":96,"name":"Muffin","steam_id":76561198075391119,"connected_time":768000000000,"state":"active","ping":59},{"user_id":106,"name":"Pug","steam_id":76561198136794372,"connected_time":43000000000,"state":"active","ping":47},{"user_id":77,"name":"Bill Nye","steam_id":76561198312898168,"connected_time":1623000000000,"state":"active","ping":74},{"user_id":78,"name":"Enchanted Cat","steam_id":76561198866538028,"connected_time":1583000000000,"state":"active","ping":76},{"user_id":97,"name":"P1nned","steam_id":76561199122412618,"connected_time":754000000000,"state":"active","ping":41},{"user_id":80,"name":"wombraider","steam_id":76561199375834537,"connected_time":1501000000000,"state":"active","ping":135},{"user_id":81,"name":"hive","steam_id":76561199099744527,"connected_time":1471000000000,"state":"active","ping":45},{"user_id":82,"name":"Hevenlytitan","steam_id":76561198398064196,"connected_time":1396000000000,"state":"active","ping":56},{"user_id":89,"name":"Rogue (Anti-fire)","steam_id":76561198055404248,"connected_time":1147000000000,"state":"active","ping":55},{"user_id":84,"name":"phantwump","steam_id":76561198074879899,"connected_time":1383000000000,"state":"active","ping":173},{"user_id":105,"name":"squrrel","steam_id":76561198083429611,"connected_time":116000000000,"state":"active","ping":76},{"user_id":100,"name":"ben","steam_id":76561198223331996,"connected_time":682000000000,"state":"active","ping":64},{"user_id":87,"name":"Nylk","steam_id":76561198033625169,"connected_time":1263000000000,"state":"active","ping":43},{"user_id":90,"name":"April","steam_id":76561198848287180,"connected_time":1143000000000,"state":"active","ping":49},{"user_id":91,"name":"Sunfish_TV","steam_id":76561198253763443,"connected_time":1010000000000,"state":"active","ping":49},{"user_id":92,"name":"Madesign","steam_id":76561198886370390,"connected_time":970000000000,"state":"active","ping":51},{"user_id":93,"name":"Tricka ‚Ä¢","steam_id":76561197968440123,"connected_time":929000000000,"state":"active","ping":45},{"user_id":102,"name":"The Goodnight Kiwi","steam_id":76561198866433807,"connected_time":649000000000,"state":"active","ping":63},{"user_id":99,"name":"Zeal","steam_id":76561198060829393,"connected_time":726000000000,"state":"active","ping":75}]},{"server_id":395,"name":"Uncletopia | Sydney | 3 | All Maps","name_short":"syd-3","host":"syd-1.au.uncletopia.com","port":27035,"enabled":true,"region":"au","cc":"au","latitude":-33.865143,"longitude":151.2099,"reserved":0,"last_update":"0001-01-01T00:00:00Z","name_a2s":"Uncletopia | Sydney | 3 | All Maps","protocol":17,"map":"koth_viaduct","folder":"tf","game":"Team Fortress","app_id":440,"player_count":0,"max_players":24,"Bots":0,"server_type":"Dedicated","server_os":"Linux","password":true,"vac":true,"version":"7742253","steam_id":85568392925194467,"keywords":["cp","nocrits","nodmgspread","uncletopia"],"game_id":440,"stv_port":27036,"stv_name":"Uncletopia | Sydney | 3 | All Maps | STV","players":null},{"server_id":396,"name":"Uncletopia | Sydney | 4 | All Maps","name_short":"syd-4","host":"syd-1.au.uncletopia.com","port":27045,"enabled":true,"region":"au","cc":"au","latitude":-33.865143,"longitude":151.2099,"reserved":0,"last_update":"0001-01-01T00:00:00Z","name_a2s":"Uncletopia | Sydney | 4 | All Maps","protocol":17,"map":"pl_frontier_final","folder":"tf","game":"Team Fortress","app_id":440,"player_count":2,"max_players":24,"Bots":0,"server_type":"Dedicated","server_os":"Linux","password":true,"vac":true,"version":"7742253","steam_id":85568392925397958,"keywords":["nocrits","nodmgspread","payload","uncletopia"],"game_id":440,"stv_port":27046,"stv_name":"Uncletopia | Sydney | 4 | All Maps | STV","players":[{"user_id":4,"name":"Rextron","steam_id":76561198086545752,"connected_time":326000000000,"state":"active","ping":97},{"user_id":5,"name":"Ashedax","steam_id":76561198291649283,"connected_time":298000000000,"state":"active","ping":105}]},{"server_id":58,"name":"Uncletopia | Sydney | 5 | Stopwatch Beta","name_short":"syd-5","host":"syd-1.au.uncletopia.com","port":27055,"enabled":true,"region":"au","cc":"au","latitude":-33.865143,"longitude":151.2099,"reserved":0,"last_update":"0001-01-01T00:00:00Z","name_a2s":"Uncletopia | Sydney | 5 | Stopwatch Beta","protocol":17,"map":"koth_highpass","folder":"tf","game":"Team Fortress","app_id":440,"player_count":0,"max_players":24,"Bots":0,"server_type":"Dedicated","server_os":"Linux","password":true,"vac":true,"version":"7742253","steam_id":85568392925397959,"keywords":["cp","nocrits","nodmgspread","uncletopia"],"game_id":440,"stv_port":27056,"stv_name":"Uncletopia | Sydney | 5 | Stopwatch Beta | STV","players":null},{"server_id":59,"name":"Uncletopia | Sydney | 6 | Community","name_short":"syd-6","host":"syd-1.au.uncletopia.com","port":27065,"enabled":true,"region":"au","cc":"au","latitude":-33.865143,"longitude":151.2099,"reserved":0,"last_update":"0001-01-01T00:00:00Z","name_a2s":"Uncletopia | Sydney | 6 | Community","protocol":17,"map":"workshop/cp_villa_b19.ugc2113052569","folder":"tf","game":"Team Fortress","app_id":440,"player_count":0,"max_players":24,"Bots":0,"server_type":"Dedicated","server_os":"Linux","password":true,"vac":true,"version":"7742253","steam_id":85568392925397960,"keywords":["cp","nocrits","nodmgspread","uncletopia"],"game_id":440,"stv_port":27066,"stv_name":"Uncletopia | Sydney | 6 | Community | STV","players":null},{"server_id":49,"name":"Uncletopia | Warsaw | 1 | All Maps","name_short":"waw-1","host":"waw-1.pl.uncletopia.com","port":27015,"enabled":true,"region":"eu","cc":"pl","latitude":52.2297,"longitude":21.017532,"reserved":0,"last_update":"0001-01-01T00:00:00Z","name_a2s":"","protocol":0,"map":"","folder":"","game":"","app_id":0,"player_count":0,"max_players":0,"Bots":0,"server_type":"","server_os":"","password":false,"vac":false,"version":"","steam_id":0,"keywords":null,"game_id":0,"stv_port":0,"stv_name":"","players":null},{"server_id":50,"name":"Uncletopia | Warsaw | 2 | All Maps","name_short":"waw-2","host":"waw-1.pl.uncletopia.com","port":27025,"enabled":true,"region":"eu","cc":"pl","latitude":52.2297,"longitude":21.017532,"reserved":0,"last_update":"0001-01-01T00:00:00Z","name_a2s":"Uncletopia | Warsaw | 2 | All Maps","protocol":17,"map":"koth_cascade","folder":"tf","game":"Team Fortress","app_id":440,"player_count":0,"max_players":24,"Bots":0,"server_type":"Dedicated","server_os":"Linux","password":true,"vac":true,"version":"7742253","steam_id":85568392925397851,"keywords":["cp","nocrits","nodmgspread","uncletopia"],"game_id":440,"stv_port":27026,"stv_name":"Uncletopia | Warsaw | 2 | All Maps | STV","players":null},{"server_id":51,"name":"Uncletopia | Warsaw | 3 | All Maps","name_short":"waw-3","host":"waw-1.pl.uncletopia.com","port":27035,"enabled":true,"region":"eu","cc":"pl","latitude":52.2297,"longitude":21.017532,"reserved":0,"last_update":"0001-01-01T00:00:00Z","name_a2s":"Uncletopia | Warsaw | 3 | All Maps","protocol":17,"map":"koth_cascade","folder":"tf","game":"Team Fortress","app_id":440,"player_count":0,"max_players":24,"Bots":0,"server_type":"Dedicated","server_os":"Linux","password":true,"vac":true,"version":"7742253","steam_id":85568392925397852,"keywords":["cp","nocrits","nodmgspread","uncletopia"],"game_id":440,"stv_port":27036,"stv_name":"Uncletopia | Warsaw | 3 | All Maps | STV","players":null},{"server_id":52,"name":"Uncletopia | Warsaw | 4 | All Maps","name_short":"waw-4","host":"waw-1.pl.uncletopia.com","port":27045,"enabled":true,"region":"eu","cc":"pl","latitude":52.2297,"longitude":21.017532,"reserved":0,"last_update":"0001-01-01T00:00:00Z","name_a2s":"Uncletopia | Warsaw | 4 | All Maps","protocol":17,"map":"koth_highpass","folder":"tf","game":"Team Fortress","app_id":440,"player_count":0,"max_players":24,"Bots":0,"server_type":"Dedicated","server_os":"Linux","password":true,"vac":true,"version":"7742253","steam_id":85568392925397853,"keywords":["cp","nocrits","nodmgspread","uncletopia"],"game_id":440,"stv_port":27046,"stv_name":"Uncletopia | Warsaw | 4 | All Maps | STV","players":null},{"server_id":53,"name":"Uncletopia | Warsaw | 5 | Stopwatch Beta","name_short":"waw-5","host":"waw-1.pl.uncletopia.com","port":27055,"enabled":true,"region":"eu","cc":"pl","latitude":52.2297,"longitude":21.017532,"reserved":0,"last_update":"0001-01-01T00:00:00Z","name_a2s":"Uncletopia | Warsaw | 5 | Stopwatch Beta","protocol":17,"map":"pl_swiftwater_final1","folder":"tf","game":"Team Fortress","app_id":440,"player_count":0,"max_players":24,"Bots":0,"server_type":"Dedicated","server_os":"Linux","password":true,"vac":true,"version":"7742253","steam_id":85568392925397854,"keywords":["nocrits","nodmgspread","payload","uncletopia"],"game_id":440,"stv_port":27056,"stv_name":"Uncletopia | Warsaw | 5 | Stopwatch Beta | STV","players":null},{"server_id":54,"name":"Uncletopia | Warsaw | 6 | Community","name_short":"waw-6","host":"waw-1.pl.uncletopia.com","port":27065,"enabled":true,"region":"eu","cc":"pl","latitude":52.2297,"longitude":21.017532,"reserved":0,"last_update":"0001-01-01T00:00:00Z","name_a2s":"Uncletopia | Warsaw | 6 | Community","protocol":17,"map":"workshop/koth_slaughter_rc1.ugc1712845210","folder":"tf","game":"Team Fortress","app_id":440,"player_count":0,"max_players":24,"Bots":0,"server_type":"Dedicated","server_os":"Linux","password":true,"vac":true,"version":"7742253","steam_id":85568392925397856,"keywords":["cp","nocrits","nodmgspread","uncletopia"],"game_id":440,"stv_port":27066,"stv_name":"Uncletopia | Warsaw | 6 | Community | STV","players":null}]}