{"status":true,"message":"","result":[{"server_id":9,"name":"Uncletopia | Atlanta | 1 | All Maps","name_short":"atl-1","host":"atl-1.us.uncletopia.com","port":27015,"enabled":true,"region":"us-east","cc":"us","latitude":33.753746,"longitude":-84.38633,"reserved":0,"last_update":"0001-01-01T00:00:00Z","name_a2s":"Uncletopia | Atlanta | 1 | All Maps","protocol":17,"map":"cp_snakewater_final1","folder":"tf","game":"Team Fortress","app_id":440,"player_count":0,"max_players":24,"Bots":0,"server_type":"Dedicated","server_os":"Linux","password":true,"vac":true,"version":"7932396","steam_id":85568392924469982,"keywords":["cp","nocrits","nodmgspread","uncletopia"],"game_id":440,"stv_port":27016,"stv_name":"Uncletopia | Atlanta | 1 | All Maps | STV","players":null},{"server_id":104,"name":"Uncletopia | Atlanta | 2 | All Maps","name_short":"atl-2","host":"atl-1.us.uncletopia.com","port":27025,"enabled":true,"region":"us-east","cc":"us","latitude":33.753746,"longitude":-84.38633,"reserved":0,"last_update":"0001-01-01T00:00:00Z","name_a2s":"Uncletopia | Atlanta | 2 | All Maps","protocol":17,"map":"pl_borneo","folder":"tf","game":"Team Fortress","app_id":440,"player_count":22,"max_players":24,"Bots":0,"server_type":"Dedicated","server_os":"Linux","password":true,"vac":true,"version":"7932396","steam_id":85568392924469983,"keywords":["nocrits","nodmgspread","payload","uncletopia"],"game_id":440,"stv_port":27026,"stv_name":"Uncletopia | Atlanta | 2 | All Maps | STV","players":[{"user_id":734,"name":"Maybe","steam_id":76561198268304564,"connected_time":95000000000,"state":"active","ping":115},{"user_id":712,"name":"33 The Magic Number","steam_id":76561199222468650,"connected_time":479000000000,"state":"active","ping":82},{"user_id":434,"name":"not fat","steam_id":76561198808192384,"connected_time":6776000000000,"state":"active","ping":104},{"user_id":715,"name":"Transfem Catgirl \u003c3 (she/it)","steam_id":76561198807069433,"connected_time":431000000000,"state":"active","ping":110},{"user_id":682,"name":"Transfem Furry \u003c3","steam_id":76561198288036403,"connected_time":1090000000000,"state":"active","ping":128},{"user_id":728,"name":"smittenkittenmittens","steam_id":76561198130900442,"connected_time":219000000000,"state":"active","ping":149},{"user_id":711,"name":"Some Guy","steam_id":76561197968945822,"connected_time":487000000000,"state":"active","ping":62},{"user_id":692,"name":"Kirby","steam_id":76561199161858008,"connected_time":839000000000,"state":"active","ping":96},{"user_id":656,"name":"olga gurlukovich ♡","steam_id":76561198165615964,"connected_time":1530000000000,"state":"active","ping":112},{"user_id":667,"name":"Bottle","steam_id":76561198044031558,"connected_time":1244000000000,"state":"active","ping":99},{"user_id":729,"name":"Sprinklingmydoughnut","steam_id":76561198168009092,"connected_time":208000000000,"state":"active","ping":123},{"user_id":736,"name":"Pixel","steam_id":76561198129243055,"connected_time":60000000000,"state":"spawning","ping":3344},{"user_id":730,"name":"c0ckn'ball gaming","steam_id":76561199012641732,"connected_time":207000000000,"state":"active","ping":175},{"user_id":738,"name":"vargasethan34","steam_id":76561199122037357,"connected_time":43000000000,"state":"active","ping":119},{"user_id":626,"name":"Σ-男","steam_id":76561199124332716,"connected_time":2020000000000,"state":"active","ping":129},{"user_id":737,"name":"irritable vowel syndrome","steam_id":76561198117033273,"connected_time":49000000000,"state":"active","ping":174},{"user_id":733,"name":"lifted tater","steam_id":76561198404564240,"connected_time":157000000000,"state":"active","ping":101},{"user_id":717,"name":"M_jave","steam_id":76561198877312648,"connected_time":409000000000,"state":"active","ping":71},{"user_id":710,"name":"juanjoesc","steam_id":76561198186368430,"connected_time":494000000000,"state":"active","ping":147},{"user_id":687,"name":"Mr_Stevie16","steam_id":76561198414959954,"connected_time":1037000000000,"state":"active","ping":125},{"user_id":680,"name":"artgrenadier","steam_id":76561198063305359,"connected_time":1127000000000,"state":"active","ping":102},{"user_id":720,"name":"The Blind People","steam_id":76561198008387855,"connected_time":366000000000,"state":"active","ping":86}]},{"server_id":400,"name":"Uncletopia | Atlanta | 3 | Community","name_short":"atl-3","host":"atl-1.us.uncletopia.com","port":27035,"enabled":true,"region":"us-east","cc":"us","latitude":33.753746,"longitude":-84.38633,"reserved":0,"last_update":"0001-01-01T00:00:00Z","name_a2s":"Uncletopia | Atlanta | 3 | Community","protocol":17,"map":"workshop/koth_product_final.ugc454272353","folder":"tf","game":"Team Fortress","app_id":440,"player_count":0,"max_players":24,"Bots":0,"server_type":"Dedicated","server_os":"Linux","password":true,"vac":true,"version":"7932396","steam_id":85568392924515187,"keywords":["cp","nocrits","nodmgspread","uncletopia"],"game_id":440,"stv_port":27036,"stv_name":"Uncletopia | Atlanta | 3 | Community | STV","players":null},{"server_id":401,"name":"Uncletopia | Atlanta | 4 | No Payload","name_short":"atl-4","host":"atl-1.us.uncletopia.com","port":27045,"enabled":true,"region":"us-east","cc":"us","latitude":33.753746,"longitude":-84.38633,"reserved":0,"last_update":"0001-01-01T00:00:00Z","name_a2s":"","protocol":0,"map":"","folder":"","game":"","app_id":0,"player_count":0,"max_players":0,"Bots":0,"server_type":"","server_os":"","password":false,"vac":false,"version":"","steam_id":0,"keywords":null,"game_id":0,"stv_port":0,"stv_name":"","players":null},{"server_id":2,"name":"Uncletopia | Chicago | 1 | All Maps","name_short":"chi-1","host":"chi-1.us.uncletopia.com","port":27015,"enabled":true,"region":"us-central","cc":"us","latitude":41.881832,"longitude":-87.62318,"reserved":0,"last_update":"0001-01-01T00:00:00Z","name_a2s":"Uncletopia | Chicago | 1 | All Maps","protocol":17,"map":"pl_barnblitz","folder":"tf","game":"Team Fortress","app_id":440,"player_count":24,"max_players":24,"Bots":0,"server_type":"Dedicated","server_os":"Linux","password":true,"vac":true,"version":"7932396","steam_id":85568392924469984,"keywords":["nocrits","nodmgspread","payload","uncletopia"],"game_id":440,"stv_port":27016,"stv_name":"Uncletopia | Chicago | 1 | All Maps | STV","players":[{"user_id":339,"name":"Zoot","steam_id":76561198121944243,"connected_time":2632000000000,"state":"active","ping":80},{"user_id":340,"name":"blob","steam_id":76561198122375328,"connected_time":2319000000000,"state":"active","ping":56},{"user_id":343,"name":"DinoGoof","steam_id":76561198998427283,"connected_time":1701000000000,"state":"active","ping":71},{"user_id":328,"name":"Mehman","steam_id":76561199020244051,"connected_time":3183000000000,"state":"active","ping":101},{"user_id":349,"name":"emily","steam_id":76561198051872256,"connected_time":1316000000000,"state":"active","ping":57},{"user_id":354,"name":"Noodle","steam_id":76561198040872617,"connected_time":987000000000,"state":"active","ping":98},{"user_id":331,"name":"Giggles™","steam_id":76561198058708019,"connected_time":3158000000000,"state":"active","ping":55},{"user_id":289,"name":"Mank","steam_id":76561198189421005,"connected_time":8213000000000,"state":"active","ping":59},{"user_id":347,"name":"Obese Pete","steam_id":76561198203443358,"connected_time":1378000000000,"state":"active","ping":76},{"user_id":355,"name":"TobyTurner32","steam_id":76561198018801418,"connected_time":899000000000,"state":"active","ping":88},{"user_id":326,"name":"BOTBOT","steam_id":76561198271928618,"connected_time":3197000000000,"state":"active","ping":81},{"user_id":356,"name":"LWebb","steam_id":76561199162936929,"connected_time":570000000000,"state":"active","ping":87},{"user_id":329,"name":"Samitch","steam_id":76561198038247982,"connected_time":3182000000000,"state":"active","ping":69},{"user_id":327,"name":"Thundermonkey (SMOKE)","steam_id":76561198017631728,"connected_time":3192000000000,"state":"active","ping":65},{"user_id":351,"name":"JStheguy","steam_id":76561198042168350,"connected_time":1281000000000,"state":"active","ping":59},{"user_id":323,"name":"Rukks","steam_id":76561197993918954,"connected_time":3204000000000,"state":"active","ping":87},{"user_id":324,"name":"LeadHickory","steam_id":76561198219756521,"connected_time":3203000000000,"state":"active","ping":91},{"user_id":352,"name":"ament_","steam_id":76561198068538473,"connected_time":1281000000000,"state":"active","ping":75},{"user_id":345,"name":"gendermutt","steam_id":76561198152857317,"connected_time":1654000000000,"state":"active","ping":42},{"user_id":337,"name":"Lost","steam_id":76561198093713427,"connected_time":2658000000000,"state":"active","ping":60},{"user_id":333,"name":"BOX_PANDA","steam_id":76561198046908869,"connected_time":3139000000000,"state":"active","ping":144},{"user_id":280,"name":"Adam (Cursed Confetti Creature)","steam_id":76561198317690197,"connected_time":8665000000000,"state":"active","ping":51},{"user_id":251,"name":"Lia_Rein","steam_id":76561198151569597,"connected_time":11732000000000,"state":"active","ping":141},{"user_id":283,"name":"AYAYA!!!","steam_id":76561198992102180,"connected_time":8274000000000,"state":"active","ping":54}]},{"server_id":106,"name":"Uncletopia | Chicago | 2 | All Maps","name_short":"chi-2","host":"chi-1.us.uncletopia.com","port":27025,"enabled":true,"region":"us-central","cc":"us","latitude":41.881832,"longitude":-87.62318,"reserved":0,"last_update":"0001-01-01T00:00:00Z","name_a2s":"Uncletopia | Chicago | 2 | All Maps","protocol":17,"map":"pl_frontier_final","folder":"tf","game":"Team Fortress","app_id":440,"player_count":24,"max_players":24,"Bots":0,"server_type":"Dedicated","server_os":"Linux","password":true,"vac":true,"version":"7932396","steam_id":85568392924469985,"keywords":["nocrits","nodmgspread","payload","uncletopia"],"game_id":440,"stv_port":27026,"stv_name":"Uncletopia | Chicago | 2 | All Maps | STV","players":[{"user_id":476,"name":"Nodspine","steam_id":76561198253579994,"connected_time":5142000000000,"state":"active","ping":120},{"user_id":548,"name":"SAD MOSCOVIA","steam_id":76561198101081520,"connected_time":10000000000,"state":"spawning","ping":120},{"user_id":541,"name":"pigfarmer.gov","steam_id":76561199071167548,"connected_time":826000000000,"state":"active","ping":66},{"user_id":528,"name":"Reloadstudios","steam_id":76561198064775507,"connected_time":1252000000000,"state":"active","ping":89},{"user_id":545,"name":"Dreamzapp","steam_id":76561199084936632,"connected_time":328000000000,"state":"active","ping":116},{"user_id":471,"name":"lexi","steam_id":76561198176299759,"connected_time":5516000000000,"state":"active","ping":98},{"user_id":437,"name":"waowaowao","steam_id":76561198068804538,"connected_time":8277000000000,"state":"active","ping":73},{"user_id":547,"name":"Quark","steam_id":76561198328155605,"connected_time":183000000000,"state":"active","ping":48},{"user_id":544,"name":"GooniOoni","steam_id":76561198102154561,"connected_time":438000000000,"state":"active","ping":45},{"user_id":527,"name":"The Shinsh","steam_id":76561198125181238,"connected_time":1366000000000,"state":"active","ping":48},{"user_id":493,"name":"Vin","steam_id":76561198043601929,"connected_time":4576000000000,"state":"active","ping":120},{"user_id":535,"name":"Spirit","steam_id":76561198026245914,"connected_time":1126000000000,"state":"active","ping":59},{"user_id":508,"name":"God's Sleepiest Puppy Girl","steam_id":76561198070315609,"connected_time":3460000000000,"state":"active","ping":61},{"user_id":526,"name":"nhbiker","steam_id":76561198081277675,"connected_time":1422000000000,"state":"active","ping":59},{"user_id":529,"name":"Karrot","steam_id":76561198058970903,"connected_time":1211000000000,"state":"active","ping":68},{"user_id":525,"name":"sewage slurper","steam_id":76561198057076267,"connected_time":1446000000000,"state":"active","ping":64},{"user_id":495,"name":"SIN K4RMA","steam_id":76561198869287223,"connected_time":4367000000000,"state":"active","ping":78},{"user_id":531,"name":"Scut","steam_id":76561198973734291,"connected_time":1194000000000,"state":"active","ping":97},{"user_id":501,"name":"asbestos","steam_id":76561198079178866,"connected_time":3750000000000,"state":"active","ping":72},{"user_id":506,"name":"Plain Toast","steam_id":76561198451580251,"connected_time":3655000000000,"state":"active","ping":75},{"user_id":546,"name":"door knob","steam_id":76561198123441203,"connected_time":191000000000,"state":"active","ping":80},{"user_id":532,"name":"crankshaft","steam_id":76561197992798282,"connected_time":1188000000000,"state":"active","ping":98},{"user_id":534,"name":"The_Epic_Conclusion","steam_id":76561198084250179,"connected_time":1150000000000,"state":"active","ping":73},{"user_id":533,"name":"Frogninja","steam_id":76561198051418374,"connected_time":1187000000000,"state":"active","ping":99}]},{"server_id":402,"name":"Uncletopia | Chicago | 3 | All Maps","name_short":"chi-3","host":"chi-1.us.uncletopia.com","port":27035,"enabled":true,"region":"us-central","cc":"us","latitude":41.881832,"longitude":-87.62318,"reserved":0,"last_update":"0001-01-01T00:00:00Z","name_a2s":"Uncletopia | Chicago | 3 | All Maps","protocol":17,"map":"cp_powerhouse","folder":"tf","game":"Team Fortress","app_id":440,"player_count":24,"max_players":24,"Bots":0,"server_type":"Dedicated","server_os":"Linux","password":true,"vac":true,"version":"7932396","steam_id":85568392924515191,"keywords":["cp","nocrits","nodmgspread","uncletopia"],"game_id":440,"stv_port":27036,"stv_name":"Uncletopia | Chicago | 3 | All Maps | STV","players":[{"user_id":375,"name":"Letters","steam_id":76561198035508148,"connected_time":475000000000,"state":"active","ping":94},{"user_id":384,"name":"FernandoFerdinand","steam_id":76561199487761495,"connected_time":341000000000,"state":"active","ping":63},{"user_id":360,"name":"Sone","steam_id":76561198069601032,"connected_time":1719000000000,"state":"active","ping":75},{"user_id":355,"name":"Owen","steam_id":76561198025446908,"connected_time":1923000000000,"state":"active","ping":61},{"user_id":376,"name":"Discourse","steam_id":76561198984286678,"connected_time":461000000000,"state":"active","ping":54},{"user_id":374,"name":"Hemiphix","steam_id":76561198329316429,"connected_time":481000000000,"state":"active","ping":73},{"user_id":343,"name":"d00ie","steam_id":76561198151032242,"connected_time":3057000000000,"state":"active","ping":61},{"user_id":344,"name":"The Dark Knight","steam_id":76561198277454031,"connected_time":3057000000000,"state":"active","ping":110},{"user_id":340,"name":"Spy achungus","steam_id":76561198135651070,"connected_time":3117000000000,"state":"active","ping":87},{"user_id":361,"name":"bruhmajorL69","steam_id":76561198870063561,"connected_time":1705000000000,"state":"active","ping":82},{"user_id":378,"name":"Mr_Frosty","steam_id":76561199380389079,"connected_time":417000000000,"state":"active","ping":97},{"user_id":332,"name":"crashymicsplody","steam_id":76561198213916765,"connected_time":4176000000000,"state":"active","ping":72},{"user_id":379,"name":"M249 | Spectre","steam_id":76561198118334485,"connected_time":397000000000,"state":"active","ping":71},{"user_id":380,"name":"Kerbal01","steam_id":76561198080296298,"connected_time":380000000000,"state":"active","ping":67},{"user_id":381,"name":"里芋 - Tarooo","steam_id":76561198392986348,"connected_time":357000000000,"state":"active","ping":80},{"user_id":366,"name":"Broadsword","steam_id":76561198011160411,"connected_time":1534000000000,"state":"active","ping":90},{"user_id":386,"name":"Red Future","steam_id":76561198205420063,"connected_time":254000000000,"state":"active","ping":86},{"user_id":365,"name":"TommoSFMO","steam_id":76561198855070608,"connected_time":1559000000000,"state":"active","ping":79},{"user_id":351,"name":"MILKY","steam_id":76561198073114061,"connected_time":2752000000000,"state":"active","ping":73},{"user_id":373,"name":"ThatDarnRoboGuy","steam_id":76561198073658568,"connected_time":761000000000,"state":"active","ping":74},{"user_id":368,"name":"Zebulon","steam_id":76561198025719753,"connected_time":1285000000000,"state":"active","ping":89},{"user_id":382,"name":"Grilled Jizo","steam_id":76561199250875340,"connected_time":352000000000,"state":"active","ping":76},{"user_id":383,"name":"-iG. chungy BLANC_ -IWNL-私は","steam_id":76561198215559840,"connected_time":351000000000,"state":"active","ping":61},{"user_id":372,"name":"daBigBoss","steam_id":76561198120428029,"connected_time":1052000000000,"state":"active","ping":95}]},{"server_id":403,"name":"Uncletopia | Chicago | 4 | All Maps","name_short":"chi-4","host":"chi-1.us.uncletopia.com","port":27045,"enabled":true,"region":"us-central","cc":"us","latitude":41.881832,"longitude":-87.62318,"reserved":0,"last_update":"0001-01-01T00:00:00Z","name_a2s":"Uncletopia | Chicago | 4 | All Maps","protocol":17,"map":"pl_snowycoast","folder":"tf","game":"Team Fortress","app_id":440,"player_count":24,"max_players":24,"Bots":0,"server_type":"Dedicated","server_os":"Linux","password":true,"vac":true,"version":"7932396","steam_id":85568392924515193,"keywords":["nocrits","nodmgspread","payload","uncletopia"],"game_id":440,"stv_port":27046,"stv_name":"Uncletopia | Chicago | 4 | All Maps | STV","players":[{"user_id":390,"name":"Theodore Roosevelt","steam_id":76561197993295656,"connected_time":3369000000000,"state":"active","ping":48},{"user_id":423,"name":"Mark","steam_id":76561198855925338,"connected_time":788000000000,"state":"active","ping":61},{"user_id":438,"name":"Swifgz","steam_id":76561198162875756,"connected_time":86000000000,"state":"active","ping":67},{"user_id":424,"name":"Burt Macklin","steam_id":76561198038080028,"connected_time":785000000000,"state":"active","ping":90},{"user_id":440,"name":"Wang of Wall St","steam_id":76561198047460598,"connected_time":47000000000,"state":"active","ping":77},{"user_id":413,"name":":)","steam_id":76561198093921290,"connected_time":2056000000000,"state":"active","ping":46},{"user_id":432,"name":"abcdefghijklmnopqrstuvwxyz","steam_id":76561198175741741,"connected_time":568000000000,"state":"active","ping":76},{"user_id":410,"name":"HUNGRY DOGS EAT FASTER","steam_id":76561198040440984,"connected_time":2258000000000,"state":"active","ping":77},{"user_id":425,"name":"slep.py","steam_id":76561197988287144,"connected_time":783000000000,"state":"active","ping":52},{"user_id":393,"name":"Retro Phoenix","steam_id":76561198077176271,"connected_time":3141000000000,"state":"active","ping":68},{"user_id":430,"name":"Hotduken","steam_id":76561198448920422,"connected_time":712000000000,"state":"active","ping":78},{"user_id":429,"name":"Likeia #Savetf2","steam_id":76561198005214207,"connected_time":751000000000,"state":"active","ping":56},{"user_id":375,"name":"Bag","steam_id":76561198012395490,"connected_time":4628000000000,"state":"active","ping":63},{"user_id":414,"name":"MEATBALL","steam_id":76561198028499312,"connected_time":1607000000000,"state":"active","ping":64},{"user_id":436,"name":"Twilight Princess","steam_id":76561198049460281,"connected_time":419000000000,"state":"active","ping":67},{"user_id":389,"name":"Ghost","steam_id":76561198110914180,"connected_time":3526000000000,"state":"active","ping":182},{"user_id":383,"name":"cxcn","steam_id":76561199215821942,"connected_time":4395000000000,"state":"active","ping":74},{"user_id":435,"name":"Chode Mode","steam_id":76561198353840477,"connected_time":451000000000,"state":"active","ping":53},{"user_id":427,"name":"Supersonic","steam_id":76561199005421983,"connected_time":771000000000,"state":"active","ping":93},{"user_id":405,"name":"Konrad Vilulf","steam_id":76561198111124481,"connected_time":2335000000000,"state":"active","ping":92},{"user_id":437,"name":"we're so back","steam_id":76561198058485742,"connected_time":410000000000,"state":"active","ping":76},{"user_id":406,"name":"phone","steam_id":76561198029268743,"connected_time":2335000000000,"state":"active","ping":73},{"user_id":439,"name":"PTR","steam_id":76561198237253772,"connected_time":68000000000,"state":"active","ping":95},{"user_id":409,"name":"THELootGoblin","steam_id":76561198251891962,"connected_time":2278000000000,"state":"active","ping":63}]},{"server_id":36,"name":"Uncletopia | Chicago | 5 | All Maps","name_short":"chi-5","host":"chi-2.us.uncletopia.com","port":27015,"enabled":true,"region":"us-central","cc":"us","latitude":41.881832,"longitude":-87.62318,"reserved":0,"last_update":"0001-01-01T00:00:00Z","name_a2s":"Uncletopia | Chicago | 5 | All Maps","protocol":17,"map":"pl_badwater","folder":"tf","game":"Team Fortress","app_id":440,"player_count":24,"max_players":24,"Bots":0,"server_type":"Dedicated","server_os":"Linux","password":true,"vac":true,"version":"7932396","steam_id":85568392924866362,"keywords":["nocrits","nodmgspread","payload","uncletopia"],"game_id":440,"stv_port":27016,"stv_name":"Uncletopia | Chicago | 5 | All Maps | STV","players":[{"user_id":604,"name":"Elusion","steam_id":76561197998672043,"connected_time":1045000000000,"state":"active","ping":61},{"user_id":620,"name":"tobrehto","steam_id":76561198097544038,"connected_time":459000000000,"state":"active","ping":90},{"user_id":518,"name":"Pixeled","steam_id":76561198088917077,"connected_time":8886000000000,"state":"active","ping":86},{"user_id":586,"name":"•PixelGhost25•","steam_id":76561197998922428,"connected_time":3716000000000,"state":"active","ping":67},{"user_id":623,"name":"Capybara Enjoyer","steam_id":76561199147114434,"connected_time":281000000000,"state":"active","ping":116},{"user_id":612,"name":"mendokusai","steam_id":76561197965022076,"connected_time":974000000000,"state":"active","ping":60},{"user_id":570,"name":"daemon","steam_id":76561198001541433,"connected_time":5481000000000,"state":"active","ping":60},{"user_id":596,"name":"Wilson","steam_id":76561197988413004,"connected_time":2364000000000,"state":"active","ping":151},{"user_id":617,"name":"Λlxium","steam_id":76561198131272900,"connected_time":886000000000,"state":"active","ping":51},{"user_id":621,"name":"Sheppy","steam_id":76561198295126940,"connected_time":457000000000,"state":"active","ping":67},{"user_id":616,"name":"gaming elliptical","steam_id":76561198013456569,"connected_time":906000000000,"state":"active","ping":45},{"user_id":625,"name":"Wigl","steam_id":76561198019324464,"connected_time":32000000000,"state":"active","ping":53},{"user_id":571,"name":"Vladikr1","steam_id":76561198401495362,"connected_time":5391000000000,"state":"active","ping":72},{"user_id":587,"name":"Tom","steam_id":76561198139202942,"connected_time":3415000000000,"state":"active","ping":82},{"user_id":606,"name":"bobletoob","steam_id":76561199184464900,"connected_time":1031000000000,"state":"active","ping":109},{"user_id":585,"name":"Blue","steam_id":76561199093604072,"connected_time":4058000000000,"state":"active","ping":80},{"user_id":601,"name":"Reginald","steam_id":76561198109783729,"connected_time":2260000000000,"state":"active","ping":47},{"user_id":624,"name":"b4b00n","steam_id":76561198074903868,"connected_time":125000000000,"state":"active","ping":77},{"user_id":597,"name":"CyberZayne","steam_id":76561198002351356,"connected_time":2361000000000,"state":"active","ping":85},{"user_id":611,"name":"gmaay","steam_id":76561199104911185,"connected_time":984000000000,"state":"active","ping":68},{"user_id":602,"name":"Skele","steam_id":76561198154574280,"connected_time":1843000000000,"state":"active","ping":69},{"user_id":615,"name":"Narh","steam_id":76561198025216294,"connected_time":944000000000,"state":"active","ping":81},{"user_id":574,"name":"Wolf Hat","steam_id":76561198099996051,"connected_time":5362000000000,"state":"active","ping":72},{"user_id":605,"name":"Raptortastic","steam_id":76561198105613110,"connected_time":1044000000000,"state":"active","ping":69}]},{"server_id":37,"name":"Uncletopia | Chicago | 6 | All Maps","name_short":"chi-6","host":"chi-2.us.uncletopia.com","port":27025,"enabled":true,"region":"us-central","cc":"us","latitude":41.881832,"longitude":-87.62318,"reserved":0,"last_update":"0001-01-01T00:00:00Z","name_a2s":"Uncletopia | Chicago | 6 | All Maps","protocol":17,"map":"pl_upward","folder":"tf","game":"Team Fortress","app_id":440,"player_count":22,"max_players":24,"Bots":0,"server_type":"Dedicated","server_os":"Linux","password":true,"vac":true,"version":"7932396","steam_id":85568392924866363,"keywords":["nocrits","nodmgspread","payload","uncletopia"],"game_id":440,"stv_port":27026,"stv_name":"Uncletopia | Chicago | 6 | All Maps | STV","players":[{"user_id":675,"name":"SCATTER","steam_id":76561198405168492,"connected_time":2422000000000,"state":"active","ping":81},{"user_id":700,"name":"A Puppy","steam_id":76561198828184456,"connected_time":38000000000,"state":"active","ping":54},{"user_id":686,"name":"coolplums","steam_id":76561198072154720,"connected_time":1356000000000,"state":"active","ping":50},{"user_id":685,"name":"waltuh","steam_id":76561198363541736,"connected_time":1402000000000,"state":"active","ping":79},{"user_id":704,"name":"Hank the Tank","steam_id":76561198424853684,"connected_time":6000000000,"state":"spawning","ping":70},{"user_id":681,"name":"Torrensz64(But weezer)","steam_id":76561198239036482,"connected_time":1705000000000,"state":"active","ping":44},{"user_id":687,"name":"Orion","steam_id":76561198000418837,"connected_time":1340000000000,"state":"active","ping":81},{"user_id":683,"name":"PinkLemonade","steam_id":76561198799286228,"connected_time":1549000000000,"state":"active","ping":74},{"user_id":650,"name":"Sorbet Shark Cookie","steam_id":76561198133082665,"connected_time":3974000000000,"state":"active","ping":68},{"user_id":668,"name":"Genderneutron","steam_id":76561199022773775,"connected_time":2630000000000,"state":"active","ping":100},{"user_id":702,"name":"Person","steam_id":76561198093244204,"connected_time":17000000000,"state":"spawning","ping":63},{"user_id":695,"name":"FHC | Nyle","steam_id":76561198045652639,"connected_time":725000000000,"state":"active","ping":119},{"user_id":701,"name":"JimGrimm","steam_id":76561198044573050,"connected_time":28000000000,"state":"spawning","ping":74},{"user_id":547,"name":"Str0mboli","steam_id":76561198155003395,"connected_time":10856000000000,"state":"active","ping":66},{"user_id":640,"name":"Xavibite","steam_id":76561198209380493,"connected_time":4852000000000,"state":"active","ping":48},{"user_id":677,"name":"imng","steam_id":76561198014988031,"connected_time":2242000000000,"state":"active","ping":72},{"user_id":678,"name":"François Viète","steam_id":76561198072975518,"connected_time":2082000000000,"state":"active","ping":69},{"user_id":697,"name":"trobin120","steam_id":76561199122420273,"connected_time":643000000000,"state":"active","ping":59},{"user_id":699,"name":"jeremy elbertson","steam_id":76561198044420428,"connected_time":556000000000,"state":"active","ping":58},{"user_id":636,"name":"blossom","steam_id":76561198042735130,"connected_time":5015000000000,"state":"active","ping":108},{"user_id":691,"name":"tasty","steam_id":76561198083839061,"connected_time":1117000000000,"state":"active","ping":54},{"user_id":703,"name":"Racoon.zip","steam_id":76561199023759321,"connected_time":17000000000,"state":"spawning","ping":65}]},{"server_id":38,"name":"Uncletopia | Chicago | 7 | Stopwatch Beta","name_short":"chi-7","host":"chi-2.us.uncletopia.com","port":27035,"enabled":true,"region":"us-central","cc":"us","latitude":41.881832,"longitude":-87.62318,"reserved":0,"last_update":"0001-01-01T00:00:00Z","name_a2s":"Uncletopia | Chicago | 7 | Stopwatch Beta","protocol":17,"map":"pl_swiftwater_final1","folder":"tf","game":"Team Fortress","app_id":440,"player_count":0,"max_players":24,"Bots":0,"server_type":"Dedicated","server_os":"Linux","password":true,"vac":true,"version":"7932396","steam_id":85568392924866364,"keywords":["nocrits","nodmgspread","payload","uncletopia"],"game_id":440,"stv_port":27036,"stv_name":"Uncletopia | Chicago | 7 | Stopwatch Beta | STV","players":null},{"server_id":39,"name":"Uncletopia | Chicago | 8 | Community","name_short":"chi-8","host":"chi-2.us.uncletopia.com","port":27045,"enabled":true,"region":"us-central","cc":"us","latitude":41.881832,"longitude":-87.62318,"reserved":0,"last_update":"0001-01-01T00:00:00Z","name_a2s":"Uncletopia | Chicago | 8 | Community","protocol":17,"map":"workshop/koth_ashville_final.ugc2130459942","folder":"tf","game":"Team Fortress","app_id":440,"player_count":23,"max_players":24,"Bots":0,"server_type":"Dedicated","server_os":"Linux","password":true,"vac":true,"version":"7932396","steam_id":85568392924866365,"keywords":["cp","nocrits","nodmgspread","uncletopia"],"game_id":440,"stv_port":27046,"stv_name":"Uncletopia | Chicago | 8 | Community | STV","players":[{"user_id":54,"name":"MetalTao","steam_id":76561198189408110,"connected_time":3258000000000,"state":"active","ping":87},{"user_id":100,"name":"☆Doggirl Genius☆","steam_id":76561198083243888,"connected_time":31000000000,"state":"active","ping":97},{"user_id":74,"name":"tome123","steam_id":76561198078206722,"connected_time":1748000000000,"state":"active","ping":96},{"user_id":87,"name":"Canadian Caber Gaming","steam_id":76561198043115724,"connected_time":276000000000,"state":"active","ping":85},{"user_id":88,"name":"Huntpk","steam_id":76561198340591674,"connected_time":272000000000,"state":"active","ping":40},{"user_id":83,"name":"Ciaphas Cain","steam_id":76561198185598330,"connected_time":724000000000,"state":"active","ping":86},{"user_id":38,"name":"DaMultiversalist","steam_id":76561198239552412,"connected_time":3878000000000,"state":"active","ping":69},{"user_id":73,"name":"Lindes","steam_id":76561198132472867,"connected_time":1806000000000,"state":"active","ping":44},{"user_id":39,"name":"T9 Raincool","steam_id":76561198042953645,"connected_time":3870000000000,"state":"active","ping":74},{"user_id":89,"name":"Lovedaddy","steam_id":76561198006569710,"connected_time":258000000000,"state":"active","ping":81},{"user_id":90,"name":"☹","steam_id":76561198804763186,"connected_time":247000000000,"state":"active","ping":58},{"user_id":69,"name":"msay","steam_id":76561198170888029,"connected_time":2010000000000,"state":"active","ping":93},{"user_id":91,"name":"JTCR","steam_id":76561198128156322,"connected_time":230000000000,"state":"active","ping":63},{"user_id":92,"name":"GameboyAdvancedSPMobileHotspot","steam_id":76561198413739460,"connected_time":226000000000,"state":"active","ping":210},{"user_id":76,"name":"-π- BakaD","steam_id":76561197960559169,"connected_time":1329000000000,"state":"active","ping":55},{"user_id":93,"name":"Some random dude","steam_id":76561199477705792,"connected_time":226000000000,"state":"active","ping":124},{"user_id":94,"name":"Big Soup","steam_id":76561198045609958,"connected_time":222000000000,"state":"active","ping":74},{"user_id":95,"name":"Zeppy but legal","steam_id":76561199068188042,"connected_time":209000000000,"state":"active","ping":147},{"user_id":96,"name":"Jade Jetts [She/They]","steam_id":76561198206130076,"connected_time":157000000000,"state":"active","ping":100},{"user_id":99,"name":"Centipede on a Game Boy","steam_id":76561199016285746,"connected_time":52000000000,"state":"active","ping":82},{"user_id":97,"name":"mer5277","steam_id":76561198192171041,"connected_time":118000000000,"state":"active","ping":112},{"user_id":98,"name":"SheppoBeppo","steam_id":76561198133734515,"connected_time":97000000000,"state":"active","ping":69},{"user_id":70,"name":"glusttony ♡","steam_id":76561198084708100,"connected_time":2009000000000,"state":"active","ping":101}]},{"server_id":8,"name":"Uncletopia | Dallas | 1 | All Maps","name_short":"dal-1","host":"dal-1.us.uncletopia.com","port":27015,"enabled":true,"region":"us-central","cc":"us","latitude":32.779167,"longitude":-96.80889,"reserved":0,"last_update":"0001-01-01T00:00:00Z","name_a2s":"Uncletopia | Dallas | 1 | All Maps","protocol":17,"map":"ctf_2fort","folder":"tf","game":"Team Fortress","app_id":440,"player_count":24,"max_players":24,"Bots":0,"server_type":"Dedicated","server_os":"Linux","password":true,"vac":true,"version":"7932396","steam_id":85568392924469986,"keywords":["ctf","nocrits","nodmgspread","uncletopia"],"game_id":440,"stv_port":27016,"stv_name":"Uncletopia | Dallas | 1 | All Maps | STV","players":[{"user_id":347,"name":"Ocvember","steam_id":76561198206308152,"connected_time":1043000000000,"state":"active","ping":129},{"user_id":337,"name":"Greg Boberton 2012","steam_id":76561198983566026,"connected_time":1435000000000,"state":"active","ping":80},{"user_id":338,"name":"Winter the Witchie | B-DAY","steam_id":76561198151971178,"connected_time":1160000000000,"state":"active","ping":84},{"user_id":349,"name":"sandwich salesman","steam_id":76561198882986104,"connected_time":1018000000000,"state":"active","ping":106},{"user_id":358,"name":"Yoshimelon","steam_id":76561198253054325,"connected_time":720000000000,"state":"active","ping":45},{"user_id":364,"name":"pastaroasta","steam_id":76561198302965298,"connected_time":250000000000,"state":"active","ping":52},{"user_id":359,"name":"Everness","steam_id":76561197994803883,"connected_time":691000000000,"state":"active","ping":172},{"user_id":365,"name":"KatzenMeister","steam_id":76561198315056580,"connected_time":135000000000,"state":"active","ping":67},{"user_id":366,"name":"Rat With No Name","steam_id":76561198249146526,"connected_time":127000000000,"state":"active","ping":86},{"user_id":329,"name":"ducky","steam_id":76561198007764271,"connected_time":2292000000000,"state":"active","ping":61},{"user_id":363,"name":"Oopsie Daisy ❋","steam_id":76561198042144492,"connected_time":392000000000,"state":"active","ping":68},{"user_id":345,"name":"{ST} Oxythemoron","steam_id":76561198060089965,"connected_time":1067000000000,"state":"active","ping":51},{"user_id":369,"name":"Petah","steam_id":76561198222343492,"connected_time":3000000000,"state":"spawning","ping":89},{"user_id":360,"name":"floppy muppet","steam_id":76561198003076261,"connected_time":679000000000,"state":"active","ping":80},{"user_id":351,"name":"Ashes | (She/Her)","steam_id":76561198122027532,"connected_time":963000000000,"state":"active","ping":81},{"user_id":357,"name":"XxSwagMater420xX","steam_id":76561198172537138,"connected_time":783000000000,"state":"active","ping":56},{"user_id":328,"name":"storyboard","steam_id":76561199088496817,"connected_time":2509000000000,"state":"active","ping":67},{"user_id":353,"name":"Cinnamon","steam_id":76561198345472118,"connected_time":921000000000,"state":"active","ping":79},{"user_id":367,"name":"Ground Control to Majortom","steam_id":76561198065589126,"connected_time":125000000000,"state":"active","ping":76},{"user_id":362,"name":"Charlie","steam_id":76561198798127908,"connected_time":574000000000,"state":"active","ping":85},{"user_id":354,"name":"mr. nine","steam_id":76561198097599414,"connected_time":907000000000,"state":"active","ping":96},{"user_id":305,"name":"Vestuvian","steam_id":76561199007823355,"connected_time":4071000000000,"state":"active","ping":51},{"user_id":356,"name":"archerboss","steam_id":76561199180368565,"connected_time":862000000000,"state":"active","ping":69},{"user_id":368,"name":"Bogey","steam_id":76561198096227944,"connected_time":82000000000,"state":"active","ping":45}]},{"server_id":108,"name":"Uncletopia | Dallas | 2 | All Maps","name_short":"dal-2","host":"dal-1.us.uncletopia.com","port":27025,"enabled":true,"region":"us-central","cc":"us","latitude":32.779167,"longitude":-96.80889,"reserved":0,"last_update":"0001-01-01T00:00:00Z","name_a2s":"Uncletopia | Dallas | 2 | All Maps","protocol":17,"map":"cp_mountainlab","folder":"tf","game":"Team Fortress","app_id":440,"player_count":23,"max_players":24,"Bots":0,"server_type":"Dedicated","server_os":"Linux","password":true,"vac":true,"version":"7932396","steam_id":85568392924469988,"keywords":["cp","nocrits","nodmgspread","uncletopia"],"game_id":440,"stv_port":27026,"stv_name":"Uncletopia | Dallas | 2 | All Maps | STV","players":[{"user_id":237,"name":"Horse","steam_id":76561198004583631,"connected_time":526000000000,"state":"active","ping":102},{"user_id":230,"name":"Rad0Dragon","steam_id":76561199351578880,"connected_time":909000000000,"state":"active","ping":98},{"user_id":227,"name":"mork","steam_id":76561198279396425,"connected_time":948000000000,"state":"active","ping":67},{"user_id":238,"name":"すべての Pyros は自殺す","steam_id":76561198990902905,"connected_time":155000000000,"state":"active","ping":81},{"user_id":219,"name":"oh the treachery","steam_id":76561198127851014,"connected_time":2009000000000,"state":"active","ping":47},{"user_id":226,"name":"Noble Sax","steam_id":76561198183283495,"connected_time":1145000000000,"state":"active","ping":60},{"user_id":231,"name":"Professionalidiot","steam_id":76561198994182750,"connected_time":906000000000,"state":"active","ping":91},{"user_id":232,"name":"BigBubble42","steam_id":76561198136286123,"connected_time":904000000000,"state":"active","ping":30},{"user_id":139,"name":"Neco-Arc (real)","steam_id":76561198353010811,"connected_time":8470000000000,"state":"active","ping":46},{"user_id":233,"name":"uwuziel","steam_id":76561198143355561,"connected_time":860000000000,"state":"active","ping":80},{"user_id":218,"name":"Furious George","steam_id":76561198405111646,"connected_time":2160000000000,"state":"active","ping":86},{"user_id":228,"name":"Unwavering Flavor","steam_id":76561198053306065,"connected_time":946000000000,"state":"active","ping":53},{"user_id":197,"name":"Evangelion","steam_id":76561198059690074,"connected_time":3726000000000,"state":"active","ping":45},{"user_id":137,"name":"PostBASH","steam_id":76561199194134673,"connected_time":8509000000000,"state":"active","ping":61},{"user_id":234,"name":"Getter Ray (Mute)","steam_id":76561198037784368,"connected_time":846000000000,"state":"active","ping":63},{"user_id":240,"name":"Aliobro","steam_id":76561199169651667,"connected_time":129000000000,"state":"active","ping":69},{"user_id":187,"name":"Doctor Emerald(real)","steam_id":76561199123003872,"connected_time":4114000000000,"state":"active","ping":87},{"user_id":208,"name":"Rare_Igor","steam_id":76561198329611355,"connected_time":2274000000000,"state":"active","ping":57},{"user_id":241,"name":"attentiondeficit","steam_id":76561198129682583,"connected_time":107000000000,"state":"active","ping":46},{"user_id":215,"name":"Jade Greenleaf","steam_id":76561198304845413,"connected_time":2193000000000,"state":"active","ping":108},{"user_id":204,"name":"Tuvok Shakur","steam_id":76561198018875334,"connected_time":2758000000000,"state":"active","ping":85},{"user_id":235,"name":"charm","steam_id":76561198126751384,"connected_time":830000000000,"state":"active","ping":69},{"user_id":147,"name":"Bearly Playable","steam_id":76561197984011511,"connected_time":8406000000000,"state":"active","ping":65}]},{"server_id":5,"name":"Uncletopia | Frankfurt | 1 | All Maps","name_short":"frk-1","host":"frk-1.de.uncletopia.com","port":27015,"enabled":true,"region":"eu","cc":"de","latitude":50.110924,"longitude":8.682127,"reserved":0,"last_update":"0001-01-01T00:00:00Z","name_a2s":"Uncletopia | Frankfurt | 1 | All Maps","protocol":17,"map":"pl_snowycoast","folder":"tf","game":"Team Fortress","app_id":440,"player_count":0,"max_players":24,"Bots":0,"server_type":"Dedicated","server_os":"Linux","password":true,"vac":true,"version":"7932396","steam_id":85568392924469989,"keywords":["nocrits","nodmgspread","payload","uncletopia"],"game_id":440,"stv_port":27016,"stv_name":"Uncletopia | Frankfurt | 1 | All Maps | STV","players":null},{"server_id":110,"name":"Uncletopia | Frankfurt | 2 | All Maps","name_short":"frk-2","host":"frk-1.de.uncletopia.com","port":27025,"enabled":true,"region":"eu","cc":"de","latitude":50.110924,"longitude":8.682127,"reserved":0,"last_update":"0001-01-01T00:00:00Z","name_a2s":"Uncletopia | Frankfurt | 2 | All Maps","protocol":17,"map":"cp_mountainlab","folder":"tf","game":"Team Fortress","app_id":440,"player_count":23,"max_players":24,"Bots":0,"server_type":"Dedicated","server_os":"Linux","password":true,"vac":true,"version":"7932396","steam_id":85568392924469990,"keywords":["cp","nocrits","nodmgspread","uncletopia"],"game_id":440,"stv_port":27026,"stv_name":"Uncletopia | Frankfurt | 2 | All Maps | STV","players":[{"user_id":783,"name":"Talvy","steam_id":76561198009083535,"connected_time":1451000000000,"state":"active","ping":80},{"user_id":784,"name":"isteb","steam_id":76561198081032627,"connected_time":1353000000000,"state":"active","ping":38},{"user_id":785,"name":"DJpocalypse","steam_id":76561199230125964,"connected_time":1324000000000,"state":"active","ping":177},{"user_id":786,"name":"I'M JEWISH IN MINECRAFT","steam_id":76561198798803845,"connected_time":1305000000000,"state":"active","ping":46},{"user_id":797,"name":"Divorce Agreement","steam_id":76561198999493859,"connected_time":827000000000,"state":"active","ping":143},{"user_id":782,"name":"Samurai Pimp","steam_id":76561198208448312,"connected_time":1796000000000,"state":"active","ping":70},{"user_id":760,"name":"Gamelo-aka-Tokey","steam_id":76561198321456383,"connected_time":3359000000000,"state":"active","ping":62},{"user_id":780,"name":"weedminion","steam_id":76561198061248329,"connected_time":2562000000000,"state":"active","ping":59},{"user_id":801,"name":"BD[PL]","steam_id":76561198115995871,"connected_time":294000000000,"state":"active","ping":76},{"user_id":749,"name":"lithium tremors","steam_id":76561198280834819,"connected_time":4722000000000,"state":"active","ping":50},{"user_id":777,"name":"Pvt. Prinny","steam_id":76561198030278562,"connected_time":2790000000000,"state":"active","ping":56},{"user_id":788,"name":"Bappo","steam_id":76561198843314397,"connected_time":1249000000000,"state":"active","ping":103},{"user_id":798,"name":"Kyle","steam_id":76561198071181745,"connected_time":764000000000,"state":"active","ping":73},{"user_id":791,"name":"Squishie","steam_id":76561198321025400,"connected_time":1200000000000,"state":"active","ping":60},{"user_id":802,"name":"MrGazdag","steam_id":76561198238900054,"connected_time":87000000000,"state":"active","ping":53},{"user_id":764,"name":"Pico","steam_id":76561198063552545,"connected_time":3121000000000,"state":"active","ping":99},{"user_id":765,"name":"Lilliputt","steam_id":76561198090146457,"connected_time":3098000000000,"state":"active","ping":49},{"user_id":803,"name":"Solarwolf64 #SaveTF2","steam_id":76561198023570251,"connected_time":40000000000,"state":"spawning","ping":104},{"user_id":767,"name":"nightcore car crash","steam_id":76561198088624259,"connected_time":3092000000000,"state":"active","ping":63},{"user_id":804,"name":"Vitphire","steam_id":76561198842686821,"connected_time":24000000000,"state":"active","ping":65},{"user_id":769,"name":"nebu","steam_id":76561198307037169,"connected_time":3085000000000,"state":"active","ping":64},{"user_id":795,"name":"charlatan","steam_id":76561198167104693,"connected_time":1148000000000,"state":"active","ping":60},{"user_id":774,"name":"Maranhadas","steam_id":76561198152856761,"connected_time":2961000000000,"state":"active","ping":91}]},{"server_id":308,"name":"Uncletopia | Frankfurt | 3 | All Maps","name_short":"frk-3","host":"frk-1.de.uncletopia.com","port":27035,"enabled":true,"region":"eu","cc":"de","latitude":50.110924,"longitude":8.682127,"reserved":0,"last_update":"0001-01-01T00:00:00Z","name_a2s":"Uncletopia | Frankfurt | 3 | All Maps","protocol":17,"map":"koth_viaduct","folder":"tf","game":"Team Fortress","app_id":440,"player_count":0,"max_players":24,"Bots":0,"server_type":"Dedicated","server_os":"Linux","password":true,"vac":true,"version":"7932396","steam_id":85568392924504274,"keywords":["cp","nocrits","nodmgspread","uncletopia"],"game_id":440,"stv_port":27036,"stv_name":"Uncletopia | Frankfurt | 3 | All Maps | STV","players":null},{"server_id":309,"name":"Uncletopia | Frankfurt | 4 | All Maps","name_short":"frk-4","host":"frk-1.de.uncletopia.com","port":27045,"enabled":true,"region":"eu","cc":"de","latitude":50.110924,"longitude":8.682127,"reserved":0,"last_update":"0001-01-01T00:00:00Z","name_a2s":"Uncletopia | Frankfurt | 4 | All Maps","protocol":17,"map":"pl_snowycoast","folder":"tf","game":"Team Fortress","app_id":440,"player_count":24,"max_players":24,"Bots":0,"server_type":"Dedicated","server_os":"Linux","password":true,"vac":true,"version":"7932396","steam_id":85568392924504275,"keywords":["nocrits","nodmgspread","payload","uncletopia"],"game_id":440,"stv_port":27046,"stv_name":"Uncletopia | Frankfurt | 4 | All Maps | STV","players":[{"user_id":446,"name":"khamba \u003e\u003e\u003e+\u003c\u003c\u003c","steam_id":76561198054783240,"connected_time":429000000000,"state":"active","ping":123},{"user_id":371,"name":"Volcyy","steam_id":76561198063979124,"connected_time":8213000000000,"state":"active","ping":37},{"user_id":428,"name":"Kleiner Engel","steam_id":76561198009922500,"connected_time":2975000000000,"state":"active","ping":46},{"user_id":429,"name":"fb","steam_id":76561197988802856,"connected_time":2947000000000,"state":"active","ping":57},{"user_id":423,"name":"Miss Bari","steam_id":76561198365286092,"connected_time":3301000000000,"state":"active","ping":52},{"user_id":399,"name":"mohemmedmokhter2005","steam_id":76561199197650506,"connected_time":5661000000000,"state":"active","ping":107},{"user_id":441,"name":"Suetolog","steam_id":76561199053090212,"connected_time":967000000000,"state":"active","ping":55},{"user_id":440,"name":"Nohudi","steam_id":76561198073367240,"connected_time":1060000000000,"state":"active","ping":84},{"user_id":447,"name":"dogs_drink_water","steam_id":76561198296630670,"connected_time":417000000000,"state":"active","ping":82},{"user_id":329,"name":"The Lady","steam_id":76561198029895809,"connected_time":12196000000000,"state":"active","ping":78},{"user_id":445,"name":"Yelowchy","steam_id":76561198199416121,"connected_time":494000000000,"state":"active","ping":67},{"user_id":437,"name":"Le epic gamer","steam_id":76561198016657120,"connected_time":1159000000000,"state":"active","ping":115},{"user_id":416,"name":"dd","steam_id":76561198257836694,"connected_time":3718000000000,"state":"active","ping":47},{"user_id":431,"name":"puck_panzer","steam_id":76561198121260981,"connected_time":2684000000000,"state":"active","ping":57},{"user_id":424,"name":"Pestdoktor","steam_id":76561198058159271,"connected_time":3296000000000,"state":"active","ping":67},{"user_id":434,"name":"Kwajongen","steam_id":76561198051685232,"connected_time":2546000000000,"state":"active","ping":57},{"user_id":443,"name":"Obamna","steam_id":76561198094993151,"connected_time":697000000000,"state":"active","ping":51},{"user_id":436,"name":"stuntz","steam_id":76561197974814348,"connected_time":1639000000000,"state":"active","ping":75},{"user_id":435,"name":"Raymus","steam_id":76561198021330407,"connected_time":2542000000000,"state":"active","ping":48},{"user_id":427,"name":"cinny","steam_id":76561198832112629,"connected_time":3247000000000,"state":"active","ping":82},{"user_id":439,"name":"bagasser","steam_id":76561198051283300,"connected_time":1123000000000,"state":"active","ping":62},{"user_id":420,"name":"TheEventGuy","steam_id":76561197972797744,"connected_time":3463000000000,"state":"active","ping":63},{"user_id":425,"name":"pizza [ITA]","steam_id":76561199380849468,"connected_time":3289000000000,"state":"active","ping":60},{"user_id":426,"name":"Bill Carr","steam_id":76561198110033943,"connected_time":3277000000000,"state":"active","ping":52}]},{"server_id":310,"name":"Uncletopia | Frankfurt | 5 | All Maps","name_short":"frk-5","host":"frk-1.de.uncletopia.com","port":27055,"enabled":true,"region":"eu","cc":"de","latitude":50.110924,"longitude":8.682127,"reserved":0,"last_update":"0001-01-01T00:00:00Z","name_a2s":"Uncletopia | Frankfurt | 5 | All Maps","protocol":17,"map":"koth_lakeside_final","folder":"tf","game":"Team Fortress","app_id":440,"player_count":0,"max_players":24,"Bots":0,"server_type":"Dedicated","server_os":"Linux","password":true,"vac":true,"version":"7932396","steam_id":85568392924504277,"keywords":["cp","nocrits","nodmgspread","uncletopia"],"game_id":440,"stv_port":27056,"stv_name":"Uncletopia | Frankfurt | 5 | All Maps | STV","players":null},{"server_id":311,"name":"Uncletopia | Frankfurt | 6 | All Maps","name_short":"frk-6","host":"frk-1.de.uncletopia.com","port":27065,"enabled":true,"region":"eu","cc":"de","latitude":50.110924,"longitude":8.682127,"reserved":0,"last_update":"0001-01-01T00:00:00Z","name_a2s":"Uncletopia | Frankfurt | 6 | All Maps","protocol":17,"map":"pl_frontier_final","folder":"tf","game":"Team Fortress","app_id":440,"player_count":0,"max_players":24,"Bots":0,"server_type":"Dedicated","server_os":"Linux","password":true,"vac":true,"version":"7932396","steam_id":85568392924504278,"keywords":["nocrits","nodmgspread","payload","uncletopia"],"game_id":440,"stv_port":27066,"stv_name":"Uncletopia | Frankfurt | 6 | All Maps | STV","players":null},{"server_id":23,"name":"Uncletopia | Frankfurt | 7 | Stopwatch Beta","name_short":"frk-7","host":"frk-1.de.uncletopia.com","port":27075,"enabled":true,"region":"eu","cc":"de","latitude":50.110924,"longitude":8.682127,"reserved":0,"last_update":"0001-01-01T00:00:00Z","name_a2s":"Uncletopia | Frankfurt | 7 | Stopwatch Beta","protocol":17,"map":"workshop/koth_product_final.ugc454272353","folder":"tf","game":"Team Fortress","app_id":440,"player_count":0,"max_players":24,"Bots":0,"server_type":"Dedicated","server_os":"Linux","password":true,"vac":true,"version":"7932396","steam_id":85568392924742827,"keywords":["cp","nocrits","nodmgspread","uncletopia"],"game_id":440,"stv_port":27076,"stv_name":"Uncletopia | Frankfurt | 7 | Stopwatch Beta | STV","players":null},{"server_id":24,"name":"Uncletopia | Frankfurt | 8 | Community","name_short":"frk-8","host":"frk-1.de.uncletopia.com","port":27085,"enabled":true,"region":"eu","cc":"de","latitude":50.110924,"longitude":8.682127,"reserved":0,"last_update":"0001-01-01T00:00:00Z","name_a2s":"Uncletopia | Frankfurt | 8 | Community","protocol":17,"map":"workshop/koth_slaughter_rc1.ugc1712845210","folder":"tf","game":"Team Fortress","app_id":440,"player_count":0,"max_players":24,"Bots":0,"server_type":"Dedicated","server_os":"Linux","password":true,"vac":true,"version":"7932396","steam_id":85568392924742828,"keywords":["cp","nocrits","nodmgspread","uncletopia"],"game_id":440,"stv_port":27086,"stv_name":"Uncletopia | Frankfurt | 8 | Community | STV","players":null},{"server_id":202,"name":"Uncletopia | Hong Kong | 1 | All Maps","name_short":"hgk-1","host":"hgk-1.hk.uncletopia.com","port":27015,"enabled":true,"region":"asia","cc":"hk","latitude":22.302711,"longitude":114.177216,"reserved":0,"last_update":"0001-01-01T00:00:00Z","name_a2s":"Uncletopia | Hong Kong | 1 | All Maps","protocol":17,"map":"pl_badwater","folder":"tf","game":"Team Fortress","app_id":440,"player_count":0,"max_players":24,"Bots":0,"server_type":"Dedicated","server_os":"Linux","password":true,"vac":true,"version":"7932396","steam_id":85568392924494504,"keywords":["nocrits","nodmgspread","payload","uncletopia"],"game_id":440,"stv_port":27016,"stv_name":"Uncletopia | Hong Kong | 1 | All Maps | STV","players":null},{"server_id":1,"name":"Uncletopia | Los Angeles | 1 | All Maps","name_short":"lax-1","host":"lax-1.us.uncletopia.com","port":27015,"enabled":true,"region":"us-west","cc":"us","latitude":33.94279,"longitude":-118.41004,"reserved":0,"last_update":"0001-01-01T00:00:00Z","name_a2s":"Uncletopia | Los Angeles | 1 | All Maps","protocol":17,"map":"pl_badwater","folder":"tf","game":"Team Fortress","app_id":440,"player_count":24,"max_players":24,"Bots":0,"server_type":"Dedicated","server_os":"Linux","password":true,"vac":true,"version":"7932396","steam_id":85568392924469991,"keywords":["nocrits","nodmgspread","payload","uncletopia"],"game_id":440,"stv_port":27016,"stv_name":"Uncletopia | Los Angeles | 1 | All Maps | STV","players":[{"user_id":273,"name":"Mr. Blubber","steam_id":76561198338906916,"connected_time":2608000000000,"state":"active","ping":45},{"user_id":301,"name":"frostedflakes99","steam_id":76561199049292578,"connected_time":206000000000,"state":"active","ping":50},{"user_id":292,"name":"dohnuts","steam_id":76561198025965230,"connected_time":850000000000,"state":"active","ping":115},{"user_id":280,"name":"BrightOrangeMango","steam_id":76561198023144607,"connected_time":2180000000000,"state":"active","ping":61},{"user_id":281,"name":"GRONT","steam_id":76561198040464533,"connected_time":2169000000000,"state":"active","ping":101},{"user_id":277,"name":"Five","steam_id":76561198026640473,"connected_time":2534000000000,"state":"active","ping":60},{"user_id":267,"name":"El Super Monkey Ball","steam_id":76561198135634819,"connected_time":4205000000000,"state":"active","ping":47},{"user_id":293,"name":"cyclops","steam_id":76561197970370198,"connected_time":838000000000,"state":"active","ping":100},{"user_id":300,"name":"surrender to the void","steam_id":76561198055494039,"connected_time":217000000000,"state":"active","ping":116},{"user_id":283,"name":"I'mChris_","steam_id":76561198061718534,"connected_time":1792000000000,"state":"active","ping":93},{"user_id":298,"name":"werolat","steam_id":76561197960544784,"connected_time":232000000000,"state":"active","ping":62},{"user_id":254,"name":"super clickteam fusion","steam_id":76561198275101482,"connected_time":5671000000000,"state":"active","ping":179},{"user_id":262,"name":"Chirp","steam_id":76561198240780230,"connected_time":4568000000000,"state":"active","ping":45},{"user_id":291,"name":"\u003c3","steam_id":76561198196829267,"connected_time":927000000000,"state":"active","ping":58},{"user_id":211,"name":"Bluedemon","steam_id":76561199212058684,"connected_time":9708000000000,"state":"active","ping":56},{"user_id":275,"name":"nom","steam_id":76561198105374054,"connected_time":2603000000000,"state":"active","ping":61},{"user_id":302,"name":"Maid Knight","steam_id":76561198214370515,"connected_time":204000000000,"state":"active","ping":118},{"user_id":303,"name":"UneditedAndy","steam_id":76561198982544947,"connected_time":203000000000,"state":"active","ping":55},{"user_id":258,"name":"Chicken_Claws","steam_id":76561198161368766,"connected_time":5275000000000,"state":"active","ping":55},{"user_id":304,"name":"Cpl Coomer","steam_id":76561199143310951,"connected_time":165000000000,"state":"active","ping":115},{"user_id":279,"name":"BLU3","steam_id":76561198059652670,"connected_time":2394000000000,"state":"active","ping":72},{"user_id":295,"name":"Hey Guys Did You Know That","steam_id":76561198160552593,"connected_time":690000000000,"state":"active","ping":45},{"user_id":278,"name":"ORANGE","steam_id":76561198000401769,"connected_time":2500000000000,"state":"active","ping":75},{"user_id":297,"name":"Jimmy","steam_id":76561198857959855,"connected_time":243000000000,"state":"active","ping":51}]},{"server_id":112,"name":"Uncletopia | Los Angeles | 2 | All Maps","name_short":"lax-2","host":"lax-1.us.uncletopia.com","port":27025,"enabled":true,"region":"us-west","cc":"us","latitude":33.94279,"longitude":-118.41004,"reserved":0,"last_update":"0001-01-01T00:00:00Z","name_a2s":"Uncletopia | Los Angeles | 2 | All Maps","protocol":17,"map":"koth_highpass","folder":"tf","game":"Team Fortress","app_id":440,"player_count":24,"max_players":24,"Bots":0,"server_type":"Dedicated","server_os":"Linux","password":true,"vac":true,"version":"7932396","steam_id":85568392924469992,"keywords":["cp","nocrits","nodmgspread","uncletopia"],"game_id":440,"stv_port":27026,"stv_name":"Uncletopia | Los Angeles | 2 | All Maps | STV","players":[{"user_id":50,"name":"Gunboats Reliant Subhuman","steam_id":76561198046526036,"connected_time":698000000000,"state":"active","ping":47},{"user_id":29,"name":"Gay Cake","steam_id":76561198004388831,"connected_time":1567000000000,"state":"active","ping":119},{"user_id":22,"name":"JellyRoll Jerry","steam_id":76561198037149474,"connected_time":2209000000000,"state":"active","ping":57},{"user_id":27,"name":"Arched","steam_id":76561198985975285,"connected_time":1674000000000,"state":"active","ping":80},{"user_id":24,"name":"Kid_with_beanie","steam_id":76561198799382173,"connected_time":2191000000000,"state":"active","ping":55},{"user_id":51,"name":"roof cabage from PvZ one!","steam_id":76561198060886742,"connected_time":621000000000,"state":"active","ping":121},{"user_id":30,"name":"GamerMan","steam_id":76561199058616824,"connected_time":1563000000000,"state":"active","ping":52},{"user_id":53,"name":"Marz","steam_id":76561198799364911,"connected_time":428000000000,"state":"active","ping":74},{"user_id":32,"name":"Thequirka #ForFountainMann","steam_id":76561198968058652,"connected_time":1379000000000,"state":"active","ping":74},{"user_id":33,"name":"brucking","steam_id":76561198348213337,"connected_time":1336000000000,"state":"active","ping":67},{"user_id":34,"name":"Featherless Biped","steam_id":76561198034171721,"connected_time":1333000000000,"state":"active","ping":108},{"user_id":35,"name":"Leaderofthe00fkins","steam_id":76561198281999872,"connected_time":1291000000000,"state":"active","ping":58},{"user_id":36,"name":"CCNikova","steam_id":76561198398190933,"connected_time":1285000000000,"state":"active","ping":60},{"user_id":52,"name":"elephant thumb","steam_id":76561198118859752,"connected_time":493000000000,"state":"active","ping":45},{"user_id":38,"name":"Cheesed Burger","steam_id":76561198066425198,"connected_time":1056000000000,"state":"active","ping":58},{"user_id":54,"name":"Green_GarBear","steam_id":76561199468912415,"connected_time":231000000000,"state":"active","ping":61},{"user_id":40,"name":"how do i control my guy?","steam_id":76561198158855211,"connected_time":976000000000,"state":"active","ping":70},{"user_id":48,"name":"yes we can get much higher stfu","steam_id":76561199039337171,"connected_time":724000000000,"state":"active","ping":93},{"user_id":42,"name":"Ayayayayayahuasca","steam_id":76561199002906056,"connected_time":948000000000,"state":"active","ping":73},{"user_id":43,"name":"tf_anvildrop 1","steam_id":76561198138221795,"connected_time":946000000000,"state":"active","ping":104},{"user_id":44,"name":"Dragitsune","steam_id":76561198078225343,"connected_time":932000000000,"state":"active","ping":52},{"user_id":49,"name":"p1ckl #pedestrian_runner","steam_id":76561198152818418,"connected_time":720000000000,"state":"active","ping":84},{"user_id":46,"name":"TheCowledWiz","steam_id":76561198016735868,"connected_time":917000000000,"state":"active","ping":78},{"user_id":47,"name":"Lock'd","steam_id":76561198170108230,"connected_time":903000000000,"state":"active","ping":47}]},{"server_id":324,"name":"Uncletopia | Los Angeles | 3 | All Maps","name_short":"lax-3","host":"lax-1.us.uncletopia.com","port":27035,"enabled":true,"region":"us-west","cc":"us","latitude":33.94279,"longitude":-118.41004,"reserved":0,"last_update":"0001-01-01T00:00:00Z","name_a2s":"Uncletopia | Los Angeles | 3 | All Maps","protocol":17,"map":"koth_highpass","folder":"tf","game":"Team Fortress","app_id":440,"player_count":4,"max_players":24,"Bots":0,"server_type":"Dedicated","server_os":"Linux","password":true,"vac":true,"version":"7932396","steam_id":85568392924510198,"keywords":["cp","nocrits","nodmgspread","uncletopia"],"game_id":440,"stv_port":27036,"stv_name":"Uncletopia | Los Angeles | 3 | All Maps | STV","players":[{"user_id":5,"name":"BDMango","steam_id":76561199323225729,"connected_time":1951000000000,"state":"active","ping":62},{"user_id":7,"name":"kdoubledizz","steam_id":76561199226501998,"connected_time":1720000000000,"state":"active","ping":61},{"user_id":9,"name":"asm_ghost","steam_id":76561199205363547,"connected_time":85000000000,"state":"active","ping":69},{"user_id":10,"name":"_Ati","steam_id":76561198339777801,"connected_time":33000000000,"state":"active","ping":59}]},{"server_id":25,"name":"Uncletopia | Los Angeles | 4 | Stopwatch Beta","name_short":"lax-4","host":"lax-1.us.uncletopia.com","port":27045,"enabled":true,"region":"us-west","cc":"us","latitude":33.94279,"longitude":-118.41004,"reserved":0,"last_update":"0001-01-01T00:00:00Z","name_a2s":"Uncletopia | Los Angeles | 4 | Stopwatch Beta","protocol":17,"map":"koth_viaduct","folder":"tf","game":"Team Fortress","app_id":440,"player_count":5,"max_players":24,"Bots":0,"server_type":"Dedicated","server_os":"Linux","password":true,"vac":true,"version":"7932396","steam_id":85568392924510199,"keywords":["cp","nocrits","nodmgspread","uncletopia"],"game_id":440,"stv_port":27046,"stv_name":"Uncletopia | Los Angeles | 4 | Stopwatch Beta | STV","players":[{"user_id":14,"name":"coWolves","steam_id":76561198171921618,"connected_time":1927000000000,"state":"active","ping":59},{"user_id":15,"name":"riSygneD","steam_id":76561198331618687,"connected_time":1866000000000,"state":"active","ping":21},{"user_id":16,"name":"firstlastmcgee","steam_id":76561198170187989,"connected_time":728000000000,"state":"active","ping":75},{"user_id":18,"name":"The Roof Guy","steam_id":76561198963469265,"connected_time":504000000000,"state":"active","ping":64},{"user_id":20,"name":"Morse","steam_id":76561198039944542,"connected_time":115000000000,"state":"active","ping":73}]},{"server_id":11,"name":"Uncletopia | London | 1 | All Maps","name_short":"lon-1","host":"lon-1.uk.uncletopia.com","port":27015,"enabled":true,"region":"eu","cc":"gb","latitude":51.509865,"longitude":-0.118092,"reserved":0,"last_update":"0001-01-01T00:00:00Z","name_a2s":"Uncletopia | London | 1 | All Maps","protocol":17,"map":"pl_thundermountain","folder":"tf","game":"Team Fortress","app_id":440,"player_count":22,"max_players":24,"Bots":0,"server_type":"Dedicated","server_os":"Linux","password":true,"vac":true,"version":"7932396","steam_id":85568392924367362,"keywords":["nocrits","nodmgspread","payload","uncletopia"],"game_id":440,"stv_port":27016,"stv_name":"Uncletopia | London | 1 | All Maps | STV","players":[{"user_id":723,"name":"プロパパンダ","steam_id":76561199196528528,"connected_time":1127000000000,"state":"spawning","ping":43},{"user_id":724,"name":"Zlyron","steam_id":76561198951447833,"connected_time":863000000000,"state":"spawning","ping":66},{"user_id":729,"name":"Fart Goblin","steam_id":76561198072147068,"connected_time":165000000000,"state":"spawning","ping":63},{"user_id":715,"name":"zee","steam_id":76561197994492154,"connected_time":1464000000000,"state":"spawning","ping":84},{"user_id":706,"name":"Marquis de Hoto","steam_id":76561198080687708,"connected_time":1726000000000,"state":"spawning","ping":66},{"user_id":658,"name":"beebo","steam_id":76561199120277007,"connected_time":6284000000000,"state":"spawning","ping":50},{"user_id":716,"name":"General Petrov","steam_id":76561198027204104,"connected_time":1463000000000,"state":"spawning","ping":58},{"user_id":726,"name":"BuzzBees ❤","steam_id":76561198101502273,"connected_time":715000000000,"state":"spawning","ping":63},{"user_id":725,"name":"KittyKate ❤","steam_id":76561198116340817,"connected_time":858000000000,"state":"spawning","ping":66},{"user_id":676,"name":"Meira","steam_id":76561198057786932,"connected_time":4686000000000,"state":"spawning","ping":64},{"user_id":714,"name":"kimchiking82","steam_id":76561198008423339,"connected_time":1592000000000,"state":"spawning","ping":132},{"user_id":663,"name":"Cabbch","steam_id":76561198045955679,"connected_time":5999000000000,"state":"spawning","ping":52},{"user_id":664,"name":"slippin jimmy","steam_id":76561198090788590,"connected_time":5845000000000,"state":"spawning","ping":36},{"user_id":689,"name":"Zwoz","steam_id":76561198221841968,"connected_time":3493000000000,"state":"spawning","ping":108},{"user_id":690,"name":"ttv/kbbq_tf","steam_id":76561198346638308,"connected_time":3468000000000,"state":"spawning","ping":55},{"user_id":717,"name":"morose","steam_id":76561198349648942,"connected_time":1457000000000,"state":"spawning","ping":87},{"user_id":718,"name":"nedilya","steam_id":76561198039692077,"connected_time":1453000000000,"state":"spawning","ping":67},{"user_id":683,"name":"Aaron","steam_id":76561197990046953,"connected_time":4338000000000,"state":"spawning","ping":65},{"user_id":721,"name":"TheMasterOfTheZaZa","steam_id":76561197994310420,"connected_time":1336000000000,"state":"spawning","ping":73},{"user_id":728,"name":"Ch4bby","steam_id":76561198058792875,"connected_time":273000000000,"state":"spawning","ping":67},{"user_id":720,"name":"asko","steam_id":76561198081966620,"connected_time":1388000000000,"state":"spawning","ping":102},{"user_id":730,"name":"MOLITOV","steam_id":76561198392150484,"connected_time":144000000000,"state":"spawning","ping":94}]},{"server_id":114,"name":"Uncletopia | London | 2 | All Maps","name_short":"lon-2","host":"lon-1.uk.uncletopia.com","port":27025,"enabled":true,"region":"eu","cc":"gb","latitude":51.509865,"longitude":-0.118092,"reserved":0,"last_update":"0001-01-01T00:00:00Z","name_a2s":"Uncletopia | London | 2 | All Maps","protocol":17,"map":"koth_viaduct","folder":"tf","game":"Team Fortress","app_id":440,"player_count":0,"max_players":24,"Bots":0,"server_type":"Dedicated","server_os":"Linux","password":true,"vac":true,"version":"7932396","steam_id":85568392924470941,"keywords":["cp","nocrits","nodmgspread","uncletopia"],"game_id":440,"stv_port":27026,"stv_name":"Uncletopia | London | 2 | All Maps | STV","players":null},{"server_id":320,"name":"Uncletopia | London | 3 | All Maps","name_short":"lon-3","host":"lon-1.uk.uncletopia.com","port":27035,"enabled":true,"region":"eu","cc":"gb","latitude":51.509865,"longitude":-0.118092,"reserved":0,"last_update":"0001-01-01T00:00:00Z","name_a2s":"Uncletopia | London | 3 | All Maps","protocol":17,"map":"koth_lakeside_final","folder":"tf","game":"Team Fortress","app_id":440,"player_count":0,"max_players":24,"Bots":0,"server_type":"Dedicated","server_os":"Linux","password":true,"vac":true,"version":"7932396","steam_id":85568392924510192,"keywords":["cp","nocrits","nodmgspread","uncletopia"],"game_id":440,"stv_port":27036,"stv_name":"Uncletopia | London | 3 | All Maps | STV","players":null},{"server_id":321,"name":"Uncletopia | London | 4 | All Maps","name_short":"lon-4","host":"lon-1.uk.uncletopia.com","port":27045,"enabled":true,"region":"eu","cc":"gb","latitude":51.509865,"longitude":-0.118092,"reserved":0,"last_update":"0001-01-01T00:00:00Z","name_a2s":"Uncletopia | London | 4 | All Maps","protocol":17,"map":"cp_snakewater_final1","folder":"tf","game":"Team Fortress","app_id":440,"player_count":18,"max_players":24,"Bots":0,"server_type":"Dedicated","server_os":"Linux","password":true,"vac":true,"version":"7932396","steam_id":85568392924510193,"keywords":["cp","nocrits","nodmgspread","uncletopia"],"game_id":440,"stv_port":27046,"stv_name":"Uncletopia | London | 4 | All Maps | STV","players":[{"user_id":391,"name":"aneary4689","steam_id":76561199446345212,"connected_time":1351000000000,"state":"active","ping":67},{"user_id":392,"name":"Jammy120","steam_id":76561198353380444,"connected_time":1341000000000,"state":"active","ping":69},{"user_id":379,"name":"Darkslinger","steam_id":76561197999124928,"connected_time":2080000000000,"state":"active","ping":55},{"user_id":410,"name":"Krinkle-","steam_id":76561198279439892,"connected_time":13000000000,"state":"spawning","ping":120},{"user_id":384,"name":"GoblinGaming","steam_id":76561198360395476,"connected_time":1841000000000,"state":"active","ping":42},{"user_id":403,"name":"ムngel☯","steam_id":76561198009888169,"connected_time":715000000000,"state":"active","ping":70},{"user_id":394,"name":"Tortes","steam_id":76561199049185884,"connected_time":1243000000000,"state":"active","ping":103},{"user_id":375,"name":"Valdis","steam_id":76561198057340489,"connected_time":2321000000000,"state":"active","ping":59},{"user_id":368,"name":"Alos","steam_id":76561198023772457,"connected_time":2955000000000,"state":"active","ping":55},{"user_id":376,"name":"Adib al-asfar","steam_id":76561198095691592,"connected_time":2271000000000,"state":"active","ping":68},{"user_id":395,"name":"Jinxie","steam_id":76561198008762303,"connected_time":1230000000000,"state":"active","ping":66},{"user_id":396,"name":"Taha ,","steam_id":76561199259524970,"connected_time":1201000000000,"state":"active","ping":89},{"user_id":388,"name":"Famous Collector","steam_id":76561198097693666,"connected_time":1717000000000,"state":"active","ping":46},{"user_id":397,"name":"LGh","steam_id":76561198300460680,"connected_time":1182000000000,"state":"active","ping":131},{"user_id":398,"name":"Mittep","steam_id":76561198082888891,"connected_time":1167000000000,"state":"active","ping":37},{"user_id":405,"name":"Sputnik","steam_id":76561198138660241,"connected_time":461000000000,"state":"active","ping":57},{"user_id":406,"name":"zepal","steam_id":76561197980984607,"connected_time":382000000000,"state":"active","ping":45},{"user_id":407,"name":"donny d","steam_id":76561198115324554,"connected_time":177000000000,"state":"active","ping":48}]},{"server_id":21,"name":"Uncletopia | London | 5 | All Maps","name_short":"lon-5","host":"lon-1.uk.uncletopia.com","port":27055,"enabled":true,"region":"eu","cc":"gb","latitude":51.509865,"longitude":-0.118092,"reserved":0,"last_update":"0001-01-01T00:00:00Z","name_a2s":"Uncletopia | London | 5 | All Maps","protocol":17,"map":"koth_lakeside_final","folder":"tf","game":"Team Fortress","app_id":440,"player_count":0,"max_players":24,"Bots":0,"server_type":"Dedicated","server_os":"Linux","password":true,"vac":true,"version":"7932396","steam_id":85568392924742829,"keywords":["cp","nocrits","nodmgspread","uncletopia"],"game_id":440,"stv_port":27056,"stv_name":"Uncletopia | London | 5 | All Maps | STV","players":null},{"server_id":22,"name":"Uncletopia | London | 6 | All Maps","name_short":"lon-6","host":"lon-1.uk.uncletopia.com","port":27065,"enabled":true,"region":"eu","cc":"gb","latitude":51.509865,"longitude":-0.118092,"reserved":0,"last_update":"0001-01-01T00:00:00Z","name_a2s":"Uncletopia | London | 6 | All Maps","protocol":17,"map":"koth_highpass","folder":"tf","game":"Team Fortress","app_id":440,"player_count":0,"max_players":24,"Bots":0,"server_type":"Dedicated","server_os":"Linux","password":true,"vac":true,"version":"7932396","steam_id":85568392924742830,"keywords":["cp","nocrits","nodmgspread","uncletopia"],"game_id":440,"stv_port":27066,"stv_name":"Uncletopia | London | 6 | All Maps | STV","players":null},{"server_id":40,"name":"Uncletopia | London | 7 | No Payload","name_short":"lon-7","host":"lon-1.uk.uncletopia.com","port":27075,"enabled":true,"region":"eu","cc":"gb","latitude":51.509865,"longitude":-0.118092,"reserved":0,"last_update":"0001-01-01T00:00:00Z","name_a2s":"Uncletopia | London | 7 | No Payload","protocol":17,"map":"koth_highpass","folder":"tf","game":"Team Fortress","app_id":440,"player_count":0,"max_players":24,"Bots":0,"server_type":"Dedicated","server_os":"Linux","password":true,"vac":true,"version":"7932396","steam_id":85568392924964314,"keywords":["cp","nocrits","nodmgspread","uncletopia"],"game_id":440,"stv_port":27076,"stv_name":"Uncletopia | London | 7 | No Payload | STV","players":null},{"server_id":41,"name":"Uncletopia | London | 8 | Community","name_short":"lon-8","host":"lon-1.uk.uncletopia.com","port":27085,"enabled":true,"region":"eu","cc":"gb","latitude":51.509865,"longitude":-0.118092,"reserved":0,"last_update":"0001-01-01T00:00:00Z","name_a2s":"Uncletopia | London | 8 | Community","protocol":17,"map":"workshop/pl_eruption_b9a.ugc2807898013","folder":"tf","game":"Team Fortress","app_id":440,"player_count":0,"max_players":24,"Bots":0,"server_type":"Dedicated","server_os":"Linux","password":true,"vac":true,"version":"7932396","steam_id":85568392924964315,"keywords":["nocrits","nodmgspread","payload","uncletopia"],"game_id":440,"stv_port":27086,"stv_name":"Uncletopia | London | 8 | Community | STV","players":null},{"server_id":300,"name":"Uncletopia | Montréal | 1 | All Maps","name_short":"mtl-1","host":"mtl-1.ca.uncletopia.com","port":27015,"enabled":true,"region":"us-east","cc":"ca","latitude":45.50889,"longitude":-73.56167,"reserved":0,"last_update":"0001-01-01T00:00:00Z","name_a2s":"Uncletopia | Montréal | 1 | All Maps","protocol":17,"map":"pl_badwater","folder":"tf","game":"Team Fortress","app_id":440,"player_count":0,"max_players":24,"Bots":0,"server_type":"Dedicated","server_os":"Linux","password":true,"vac":true,"version":"7932396","steam_id":85568392924500087,"keywords":["nocrits","nodmgspread","payload","uncletopia"],"game_id":440,"stv_port":27016,"stv_name":"Uncletopia | Montréal | 1 | All Maps | STV","players":null},{"server_id":301,"name":"Uncletopia | Montréal | 2 | All Maps","name_short":"mtl-2","host":"mtl-1.ca.uncletopia.com","port":27025,"enabled":true,"region":"us-east","cc":"ca","latitude":45.50889,"longitude":-73.56167,"reserved":0,"last_update":"0001-01-01T00:00:00Z","name_a2s":"Uncletopia | Montréal | 2 | All Maps","protocol":17,"map":"cp_mountainlab","folder":"tf","game":"Team Fortress","app_id":440,"player_count":0,"max_players":24,"Bots":0,"server_type":"Dedicated","server_os":"Linux","password":true,"vac":true,"version":"7932396","steam_id":85568392924500088,"keywords":["cp","nocrits","nodmgspread","uncletopia"],"game_id":440,"stv_port":27026,"stv_name":"Uncletopia | Montréal | 2 | All Maps | STV","players":null},{"server_id":302,"name":"Uncletopia | Montréal | 3 | All Maps","name_short":"mtl-3","host":"mtl-1.ca.uncletopia.com","port":27035,"enabled":true,"region":"us-east","cc":"ca","latitude":45.50889,"longitude":-73.56167,"reserved":0,"last_update":"0001-01-01T00:00:00Z","name_a2s":"Uncletopia | Montréal | 3 | All Maps","protocol":17,"map":"pl_badwater","folder":"tf","game":"Team Fortress","app_id":440,"player_count":0,"max_players":24,"Bots":0,"server_type":"Dedicated","server_os":"Linux","password":true,"vac":true,"version":"7932396","steam_id":85568392924500089,"keywords":["nocrits","nodmgspread","payload","uncletopia"],"game_id":440,"stv_port":27036,"stv_name":"Uncletopia | Montréal | 3 | All Maps | STV","players":null},{"server_id":303,"name":"Uncletopia | Montréal | 4 | No Payload","name_short":"mtl-4","host":"mtl-1.ca.uncletopia.com","port":27045,"enabled":true,"region":"us-east","cc":"ca","latitude":45.50889,"longitude":-73.56167,"reserved":0,"last_update":"0001-01-01T00:00:00Z","name_a2s":"Uncletopia | Montréal | 4 | No Payload","protocol":17,"map":"cp_badlands","folder":"tf","game":"Team Fortress","app_id":440,"player_count":0,"max_players":24,"Bots":0,"server_type":"Dedicated","server_os":"Linux","password":true,"vac":true,"version":"7932396","steam_id":85568392924500090,"keywords":["cp","nocrits","nodmgspread","uncletopia"],"game_id":440,"stv_port":27046,"stv_name":"Uncletopia | Montréal | 4 | No Payload | STV","players":null},{"server_id":13,"name":"Uncletopia | New York City | 1 | All Maps","name_short":"nyc-1","host":"nyc-1.us.uncletopia.com","port":27015,"enabled":true,"region":"us-east","cc":"us","latitude":40.73061,"longitude":-73.93524,"reserved":0,"last_update":"0001-01-01T00:00:00Z","name_a2s":"Uncletopia | New York City | 1 | All Maps","protocol":17,"map":"cp_steel","folder":"tf","game":"Team Fortress","app_id":440,"player_count":24,"max_players":24,"Bots":0,"server_type":"Dedicated","server_os":"Linux","password":true,"vac":true,"version":"7932396","steam_id":85568392924469993,"keywords":["cp","nocrits","nodmgspread","uncletopia"],"game_id":440,"stv_port":27016,"stv_name":"Uncletopia | New York City | 1 | All Maps | STV","players":[{"user_id":228,"name":"Irregulars","steam_id":76561198048498230,"connected_time":1290000000000,"state":"active","ping":30},{"user_id":234,"name":"pele","steam_id":76561198021224745,"connected_time":958000000000,"state":"active","ping":34},{"user_id":226,"name":"Parth Makeo","steam_id":76561198002516581,"connected_time":1374000000000,"state":"active","ping":34},{"user_id":205,"name":"JHLO","steam_id":76561198074359967,"connected_time":2569000000000,"state":"active","ping":60},{"user_id":214,"name":"Xraverz","steam_id":76561198008891628,"connected_time":2373000000000,"state":"active","ping":72},{"user_id":209,"name":"AreYouMyMummy?","steam_id":76561197995101745,"connected_time":2469000000000,"state":"active","ping":64},{"user_id":230,"name":"O-mega","steam_id":76561199175970696,"connected_time":1029000000000,"state":"active","ping":154},{"user_id":232,"name":"dog food eater","steam_id":76561198047950170,"connected_time":1008000000000,"state":"active","ping":79},{"user_id":250,"name":"meowfang","steam_id":76561198123056791,"connected_time":361000000000,"state":"active","ping":58},{"user_id":220,"name":"CRAZY engineer","steam_id":76561198887937902,"connected_time":1821000000000,"state":"active","ping":57},{"user_id":244,"name":"Crisp","steam_id":76561198132644084,"connected_time":736000000000,"state":"active","ping":54},{"user_id":249,"name":"Goofball","steam_id":76561198074189084,"connected_time":374000000000,"state":"active","ping":37},{"user_id":241,"name":"Pingle","steam_id":76561198096221632,"connected_time":779000000000,"state":"active","ping":61},{"user_id":252,"name":"Queso2469","steam_id":76561197993024580,"connected_time":115000000000,"state":"active","ping":43},{"user_id":236,"name":"xujsmeow","steam_id":76561199225542840,"connected_time":887000000000,"state":"active","ping":56},{"user_id":251,"name":"Chewbacca","steam_id":76561198041927925,"connected_time":312000000000,"state":"active","ping":55},{"user_id":247,"name":"liquid bread","steam_id":76561198012441419,"connected_time":580000000000,"state":"active","ping":62},{"user_id":254,"name":"vyx","steam_id":76561198037205391,"connected_time":101000000000,"state":"active","ping":67},{"user_id":237,"name":"Kuai","steam_id":76561198321216513,"connected_time":836000000000,"state":"active","ping":61},{"user_id":238,"name":"Kidzbopsicle","steam_id":76561198047660691,"connected_time":835000000000,"state":"active","ping":42},{"user_id":221,"name":"Acolyte Of Pain","steam_id":76561198143094194,"connected_time":1761000000000,"state":"active","ping":54},{"user_id":245,"name":"Lexabyte","steam_id":76561198065032237,"connected_time":624000000000,"state":"active","ping":57},{"user_id":229,"name":"Trash Fire","steam_id":76561198870515262,"connected_time":1055000000000,"state":"active","ping":69},{"user_id":246,"name":"Strangelove","steam_id":76561198353773611,"connected_time":623000000000,"state":"active","ping":82}]},{"server_id":14,"name":"Uncletopia | New York City | 2 | All Maps","name_short":"nyc-2","host":"nyc-1.us.uncletopia.com","port":27025,"enabled":true,"region":"us-east","cc":"us","latitude":40.73061,"longitude":-73.93524,"reserved":0,"last_update":"0001-01-01T00:00:00Z","name_a2s":"Uncletopia | New York City | 2 | All Maps","protocol":17,"map":"pl_swiftwater_final1","folder":"tf","game":"Team Fortress","app_id":440,"player_count":24,"max_players":24,"Bots":0,"server_type":"Dedicated","server_os":"Linux","password":true,"vac":true,"version":"7932396","steam_id":85568392924469994,"keywords":["nocrits","nodmgspread","payload","uncletopia"],"game_id":440,"stv_port":27026,"stv_name":"Uncletopia | New York City | 2 | All Maps | STV","players":[{"user_id":132,"name":"Slime Rancher 2 Enjoyer","steam_id":76561199171272762,"connected_time":1724000000000,"state":"active","ping":71},{"user_id":130,"name":"sqerkbo","steam_id":76561198080012700,"connected_time":1940000000000,"state":"active","ping":45},{"user_id":122,"name":"Sudo","steam_id":76561198123714026,"connected_time":2442000000000,"state":"active","ping":126},{"user_id":144,"name":"Plutia","steam_id":76561197996787193,"connected_time":616000000000,"state":"active","ping":74},{"user_id":133,"name":"vandeer","steam_id":76561198120124007,"connected_time":1722000000000,"state":"active","ping":72},{"user_id":142,"name":"athletesfoot","steam_id":76561197997331867,"connected_time":680000000000,"state":"active","ping":39},{"user_id":146,"name":"GummybearKillr","steam_id":76561198031235750,"connected_time":556000000000,"state":"active","ping":52},{"user_id":121,"name":"Anamm","steam_id":76561198328762510,"connected_time":2642000000000,"state":"active","ping":55},{"user_id":119,"name":"10KO!","steam_id":76561199134895220,"connected_time":3147000000000,"state":"active","ping":60},{"user_id":117,"name":"Cat in Your Backyard","steam_id":76561197979078330,"connected_time":3350000000000,"state":"active","ping":62},{"user_id":111,"name":"Cogsmon","steam_id":76561198044977767,"connected_time":3599000000000,"state":"active","ping":71},{"user_id":145,"name":"countlesschromosome","steam_id":76561197972601902,"connected_time":598000000000,"state":"active","ping":99},{"user_id":123,"name":"anoobis","steam_id":76561199120731573,"connected_time":2431000000000,"state":"active","ping":73},{"user_id":99,"name":"Sprucelass","steam_id":76561197998391724,"connected_time":4521000000000,"state":"active","ping":68},{"user_id":143,"name":"Fuzzy Toast","steam_id":76561198028067781,"connected_time":623000000000,"state":"active","ping":59},{"user_id":112,"name":"jimmyfnaf172198yay","steam_id":76561198311446636,"connected_time":3592000000000,"state":"active","ping":81},{"user_id":125,"name":"Diplodocus","steam_id":76561198023323121,"connected_time":2410000000000,"state":"active","ping":81},{"user_id":139,"name":"The Horselords and Animal Gods","steam_id":76561197975094050,"connected_time":1403000000000,"state":"active","ping":124},{"user_id":120,"name":"Boinker!","steam_id":76561198272961376,"connected_time":3135000000000,"state":"active","ping":105},{"user_id":116,"name":"Bat Georgi","steam_id":76561198361144342,"connected_time":3514000000000,"state":"active","ping":172},{"user_id":104,"name":"cellogamer","steam_id":76561198016937098,"connected_time":3945000000000,"state":"active","ping":61},{"user_id":127,"name":"carrot cake","steam_id":76561198055174915,"connected_time":2388000000000,"state":"active","ping":72},{"user_id":140,"name":"jalapeno handjob","steam_id":76561198123298824,"connected_time":1403000000000,"state":"active","ping":118},{"user_id":141,"name":"deimos","steam_id":76561198148357768,"connected_time":1403000000000,"state":"active","ping":60}]},{"server_id":15,"name":"Uncletopia | New York City | 3 | Stopwatch Beta","name_short":"nyc-3","host":"nyc-1.us.uncletopia.com","port":27035,"enabled":true,"region":"us-east","cc":"us","latitude":40.73061,"longitude":-73.93524,"reserved":0,"last_update":"0001-01-01T00:00:00Z","name_a2s":"Uncletopia | New York City | 3 | Stopwatch Beta","protocol":17,"map":"workshop/cp_process_f12.ugc2302948105","folder":"tf","game":"Team Fortress","app_id":440,"player_count":3,"max_players":24,"Bots":0,"server_type":"Dedicated","server_os":"Linux","password":true,"vac":true,"version":"7932396","steam_id":85568392924742820,"keywords":["cp","nocrits","nodmgspread","uncletopia"],"game_id":440,"stv_port":27036,"stv_name":"Uncletopia | New York City | 3 | Stopwatch Beta | STV","players":[{"user_id":11,"name":"Bee_Pirate","steam_id":76561199000599111,"connected_time":157000000000,"state":"active","ping":63},{"user_id":7,"name":"Evan","steam_id":76561197972292926,"connected_time":667000000000,"state":"active","ping":61},{"user_id":10,"name":"businessman minly","steam_id":76561199078991134,"connected_time":523000000000,"state":"active","ping":75}]},{"server_id":16,"name":"Uncletopia | New York City | 4 | Community","name_short":"nyc-4","host":"nyc-1.us.uncletopia.com","port":27045,"enabled":true,"region":"us-east","cc":"us","latitude":40.73061,"longitude":-73.93524,"reserved":0,"last_update":"0001-01-01T00:00:00Z","name_a2s":"Uncletopia | New York City | 4 | Community","protocol":17,"map":"workshop/koth_ramjam_rc1.ugc459778887","folder":"tf","game":"Team Fortress","app_id":440,"player_count":0,"max_players":24,"Bots":0,"server_type":"Dedicated","server_os":"Linux","password":true,"vac":true,"version":"7932396","steam_id":85568392924742821,"keywords":["cp","nocrits","nodmgspread","uncletopia"],"game_id":440,"stv_port":27046,"stv_name":"Uncletopia | New York City | 4 | Community | STV","players":null},{"server_id":142,"name":"Uncletopia | São Paulo | 1 | All Maps","name_short":"sao-1","host":"sao-1.br.uncletopia.com","port":27015,"enabled":true,"region":"sa","cc":"br","latitude":-23.533773,"longitude":-46.62529,"reserved":0,"last_update":"0001-01-01T00:00:00Z","name_a2s":"Uncletopia | São Paulo | 1 | All Maps","protocol":17,"map":"koth_highpass","folder":"tf","game":"Team Fortress","app_id":440,"player_count":0,"max_players":24,"Bots":0,"server_type":"Dedicated","server_os":"Linux","password":true,"vac":true,"version":"7932396","steam_id":85568392924469996,"keywords":["cp","nocrits","nodmgspread","uncletopia"],"game_id":440,"stv_port":27016,"stv_name":"Uncletopia | São Paulo | 1 | All Maps | STV","players":null},{"server_id":143,"name":"Uncletopia | São Paulo | 2 | All Maps","name_short":"sao-2","host":"sao-2.br.uncletopia.com","port":27015,"enabled":true,"region":"sa","cc":"br","latitude":-23.533773,"longitude":-46.62529,"reserved":0,"last_update":"0001-01-01T00:00:00Z","name_a2s":"Uncletopia | São Paulo | 2 | All Maps","protocol":17,"map":"pl_borneo","folder":"tf","game":"Team Fortress","app_id":440,"player_count":9,"max_players":24,"Bots":0,"server_type":"Dedicated","server_os":"Linux","password":true,"vac":true,"version":"7932396","steam_id":85568392924485349,"keywords":["nocrits","nodmgspread","payload","uncletopia"],"game_id":440,"stv_port":27016,"stv_name":"Uncletopia | São Paulo | 2 | All Maps | STV","players":[{"user_id":32,"name":"iko","steam_id":76561198965538287,"connected_time":945000000000,"state":"active","ping":43},{"user_id":33,"name":"goiaba ghost","steam_id":76561199439940801,"connected_time":681000000000,"state":"active","ping":37},{"user_id":34,"name":"SwearsGamers","steam_id":76561198985449294,"connected_time":588000000000,"state":"active","ping":45},{"user_id":35,"name":"Frans","steam_id":76561198207928860,"connected_time":471000000000,"state":"active","ping":31},{"user_id":36,"name":"Hércules","steam_id":76561199017999458,"connected_time":312000000000,"state":"active","ping":81},{"user_id":37,"name":"jooop","steam_id":76561199467496449,"connected_time":241000000000,"state":"active","ping":214},{"user_id":38,"name":"Darakrish","steam_id":76561198133126686,"connected_time":223000000000,"state":"active","ping":198},{"user_id":39,"name":"Anders575","steam_id":76561198220386384,"connected_time":151000000000,"state":"active","ping":46},{"user_id":40,"name":"bichhh","steam_id":76561198147879192,"connected_time":100000000000,"state":"active","ping":46}]},{"server_id":7,"name":"Uncletopia | Seattle | 1 | All Maps","name_short":"sea-1","host":"sea-1.us.uncletopia.com","port":27015,"enabled":true,"region":"us-west","cc":"us","latitude":47.608013,"longitude":-122.33517,"reserved":0,"last_update":"0001-01-01T00:00:00Z","name_a2s":"Uncletopia | Seattle | 1 | All Maps","protocol":17,"map":"pl_barnblitz","folder":"tf","game":"Team Fortress","app_id":440,"player_count":24,"max_players":24,"Bots":0,"server_type":"Dedicated","server_os":"Linux","password":true,"vac":true,"version":"7932396","steam_id":85568392924469997,"keywords":["nocrits","nodmgspread","payload","uncletopia"],"game_id":440,"stv_port":27016,"stv_name":"Uncletopia | Seattle | 1 | All Maps | STV","players":[{"user_id":380,"name":"Not so local trans hottie","steam_id":76561198085813708,"connected_time":3007000000000,"state":"active","ping":116},{"user_id":405,"name":"Warhead","steam_id":76561198067746049,"connected_time":336000000000,"state":"active","ping":60},{"user_id":340,"name":"Huell Howser","steam_id":76561198035658537,"connected_time":5587000000000,"state":"active","ping":45},{"user_id":397,"name":"bishiro","steam_id":76561198129564488,"connected_time":1249000000000,"state":"active","ping":58},{"user_id":399,"name":"curious inclinations","steam_id":76561198042913843,"connected_time":988000000000,"state":"active","ping":56},{"user_id":406,"name":"XngelproFMJ","steam_id":76561199002273585,"connected_time":296000000000,"state":"active","ping":85},{"user_id":400,"name":"MCman","steam_id":76561198412110305,"connected_time":987000000000,"state":"active","ping":75},{"user_id":389,"name":"gloobern","steam_id":76561198341190679,"connected_time":2010000000000,"state":"active","ping":72},{"user_id":402,"name":"Lord Hater","steam_id":76561199158148782,"connected_time":681000000000,"state":"active","ping":52},{"user_id":366,"name":"jacix3 [gay wolfgirl]{she/it}","steam_id":76561198205004165,"connected_time":4552000000000,"state":"active","ping":64},{"user_id":372,"name":"Barton","steam_id":76561198203088523,"connected_time":3847000000000,"state":"active","ping":70},{"user_id":388,"name":"VerminKing","steam_id":76561198060887391,"connected_time":2572000000000,"state":"active","ping":56},{"user_id":390,"name":"♥ President Shitfart ♥","steam_id":76561198141819053,"connected_time":1798000000000,"state":"active","ping":65},{"user_id":368,"name":"Astronat","steam_id":76561198096321896,"connected_time":4479000000000,"state":"active","ping":74},{"user_id":396,"name":"Integral","steam_id":76561198158225481,"connected_time":1313000000000,"state":"active","ping":67},{"user_id":391,"name":"Gaiduk","steam_id":76561198112323877,"connected_time":1681000000000,"state":"active","ping":123},{"user_id":392,"name":"insane jester","steam_id":76561198079609974,"connected_time":1579000000000,"state":"active","ping":87},{"user_id":360,"name":"Renz","steam_id":76561198118995036,"connected_time":4838000000000,"state":"active","ping":50},{"user_id":378,"name":"veryscaryreaper","steam_id":76561198380018244,"connected_time":3481000000000,"state":"active","ping":67},{"user_id":393,"name":"Femcel Avery","steam_id":76561199035402139,"connected_time":1441000000000,"state":"active","ping":49},{"user_id":344,"name":"forest (minecraft npc)","steam_id":76561198157960257,"connected_time":5386000000000,"state":"active","ping":44},{"user_id":398,"name":"Cherry_Grenadine","steam_id":76561198152281230,"connected_time":1232000000000,"state":"active","ping":62},{"user_id":394,"name":"Elfy","steam_id":76561199166448617,"connected_time":1438000000000,"state":"active","ping":55},{"user_id":383,"name":"Zephyr","steam_id":76561198063155482,"connected_time":2976000000000,"state":"active","ping":114}]},{"server_id":119,"name":"Uncletopia | Seattle | 2 | All Maps","name_short":"sea-2","host":"sea-1.us.uncletopia.com","port":27025,"enabled":true,"region":"us-west","cc":"us","latitude":47.608013,"longitude":-122.33517,"reserved":0,"last_update":"0001-01-01T00:00:00Z","name_a2s":"Uncletopia | Seattle | 2 | All Maps","protocol":17,"map":"cp_dustbowl","folder":"tf","game":"Team Fortress","app_id":440,"player_count":24,"max_players":24,"Bots":0,"server_type":"Dedicated","server_os":"Linux","password":true,"vac":true,"version":"7932396","steam_id":85568392924469998,"keywords":["cp","nocrits","nodmgspread","uncletopia"],"game_id":440,"stv_port":27026,"stv_name":"Uncletopia | Seattle | 2 | All Maps | STV","players":[{"user_id":199,"name":"Pizza \u003c3","steam_id":76561198087357023,"connected_time":90000000000,"state":"active","ping":47},{"user_id":91,"name":"\u003c3Elise\u003c3","steam_id":76561198146435005,"connected_time":8202000000000,"state":"active","ping":68},{"user_id":193,"name":"Kedata","steam_id":76561198047750050,"connected_time":712000000000,"state":"active","ping":99},{"user_id":198,"name":"Dimple #TF2Center","steam_id":76561198980324190,"connected_time":192000000000,"state":"active","ping":51},{"user_id":172,"name":"dougrocks421","steam_id":76561198165063918,"connected_time":2660000000000,"state":"active","ping":33},{"user_id":186,"name":"Deathkillsme","steam_id":76561198059468746,"connected_time":1323000000000,"state":"active","ping":46},{"user_id":127,"name":"PJROCK101","steam_id":76561198070616561,"connected_time":5588000000000,"state":"active","ping":67},{"user_id":188,"name":"methed up criminal vs baby","steam_id":76561198213385439,"connected_time":1261000000000,"state":"active","ping":88},{"user_id":183,"name":"SoldMyKidneyForCollege","steam_id":76561198096329559,"connected_time":2051000000000,"state":"active","ping":106},{"user_id":153,"name":"oo","steam_id":76561198119626492,"connected_time":4454000000000,"state":"active","ping":81},{"user_id":195,"name":"Tokiw","steam_id":76561197996334383,"connected_time":668000000000,"state":"active","ping":60},{"user_id":131,"name":"✿ corecore² Matador","steam_id":76561198106938500,"connected_time":5428000000000,"state":"active","ping":84},{"user_id":180,"name":"Lazulf","steam_id":76561198041410859,"connected_time":2437000000000,"state":"active","ping":78},{"user_id":184,"name":"WhatAmIDoing","steam_id":76561199060028126,"connected_time":1824000000000,"state":"active","ping":87},{"user_id":191,"name":"match1stick","steam_id":76561199103743083,"connected_time":757000000000,"state":"active","ping":55},{"user_id":74,"name":"Lesbian Futa Mommy","steam_id":76561198130479030,"connected_time":9525000000000,"state":"active","ping":59},{"user_id":154,"name":"Real Kenny G","steam_id":76561198360620446,"connected_time":4450000000000,"state":"active","ping":68},{"user_id":143,"name":"Heatseeker","steam_id":76561198084093538,"connected_time":5079000000000,"state":"active","ping":94},{"user_id":192,"name":"chunkysquare","steam_id":76561199076468383,"connected_time":736000000000,"state":"active","ping":59},{"user_id":166,"name":"Baggage","steam_id":76561198215128080,"connected_time":3004000000000,"state":"active","ping":74},{"user_id":196,"name":"Meh","steam_id":76561198078187920,"connected_time":648000000000,"state":"active","ping":142},{"user_id":182,"name":"shelf","steam_id":76561198260021696,"connected_time":2114000000000,"state":"active","ping":47},{"user_id":197,"name":"Strikerbolt","steam_id":76561199095622897,"connected_time":509000000000,"state":"active","ping":79},{"user_id":174,"name":"Degenerate","steam_id":76561198121784227,"connected_time":2650000000000,"state":"active","ping":94}]},{"server_id":406,"name":"Uncletopia | Seattle | 3 | Stopwatch Beta","name_short":"sea-3","host":"sea-1.us.uncletopia.com","port":27035,"enabled":true,"region":"us-west","cc":"us","latitude":47.608013,"longitude":-122.33517,"reserved":0,"last_update":"0001-01-01T00:00:00Z","name_a2s":"Uncletopia | Seattle | 3 | Stopwatch Beta","protocol":17,"map":"workshop/koth_bagel_rc6.ugc2514036946","folder":"tf","game":"Team Fortress","app_id":440,"player_count":0,"max_players":24,"Bots":0,"server_type":"Dedicated","server_os":"Linux","password":true,"vac":true,"version":"7932396","steam_id":85568392924515217,"keywords":["cp","nocrits","nodmgspread","uncletopia"],"game_id":440,"stv_port":27036,"stv_name":"Uncletopia | Seattle | 3 | Stopwatch Beta | STV","players":null},{"server_id":17,"name":"Uncletopia | San Francisco | 1 | All Maps","name_short":"sfo-1","host":"sfo-1.us.uncletopia.com","port":27015,"enabled":true,"region":"us-west","cc":"us","latitude":37.77397,"longitude":-122.4313,"reserved":0,"last_update":"0001-01-01T00:00:00Z","name_a2s":"Uncletopia | San Francisco | 1 | All Maps","protocol":17,"map":"cp_altitude","folder":"tf","game":"Team Fortress","app_id":440,"player_count":24,"max_players":24,"Bots":0,"server_type":"Dedicated","server_os":"Linux","password":true,"vac":true,"version":"7932396","steam_id":85568392924469999,"keywords":["cp","nocrits","nodmgspread","uncletopia"],"game_id":440,"stv_port":27016,"stv_name":"Uncletopia | San Francisco | 1 | All Maps | STV","players":[{"user_id":139,"name":"Paulus","steam_id":76561198814014565,"connected_time":474000000000,"state":"active","ping":59},{"user_id":132,"name":"Femboi OwO {He/They}","steam_id":76561199184000174,"connected_time":572000000000,"state":"active","ping":198},{"user_id":136,"name":"Audrey \u003c3","steam_id":76561199102371298,"connected_time":497000000000,"state":"active","ping":57},{"user_id":122,"name":"Adam Levine (Real)","steam_id":76561199199257149,"connected_time":1702000000000,"state":"active","ping":68},{"user_id":151,"name":"ggjjpp360","steam_id":76561199275187032,"connected_time":63000000000,"state":"active","ping":97},{"user_id":103,"name":"Raphael","steam_id":76561198101425586,"connected_time":3243000000000,"state":"active","ping":70},{"user_id":127,"name":"Grassman (Cc)","steam_id":76561198026488532,"connected_time":951000000000,"state":"active","ping":48},{"user_id":131,"name":"TheXDoctor","steam_id":76561198196014379,"connected_time":596000000000,"state":"active","ping":53},{"user_id":137,"name":"NickKnack","steam_id":76561198074935892,"connected_time":482000000000,"state":"active","ping":81},{"user_id":134,"name":"Oneshot","steam_id":76561199061899768,"connected_time":524000000000,"state":"active","ping":116},{"user_id":143,"name":"Honeybunch","steam_id":76561198014850580,"connected_time":422000000000,"state":"active","ping":52},{"user_id":110,"name":"McDonald","steam_id":76561199028533497,"connected_time":2779000000000,"state":"active","ping":59},{"user_id":138,"name":"Catherine","steam_id":76561198125233120,"connected_time":479000000000,"state":"active","ping":48},{"user_id":140,"name":"okayxairen","steam_id":76561198426788934,"connected_time":470000000000,"state":"active","ping":71},{"user_id":150,"name":"Dcoyotzi","steam_id":76561199124707627,"connected_time":105000000000,"state":"active","ping":61},{"user_id":114,"name":"creechy","steam_id":76561197994634234,"connected_time":2214000000000,"state":"active","ping":44},{"user_id":144,"name":"RooTwo","steam_id":76561198084942908,"connected_time":414000000000,"state":"active","ping":150},{"user_id":145,"name":"hiko3.aug","steam_id":76561198379650478,"connected_time":409000000000,"state":"active","ping":161},{"user_id":148,"name":"jBracko","steam_id":76561198019261602,"connected_time":236000000000,"state":"active","ping":45},{"user_id":125,"name":"ShredMaan","steam_id":76561198429982138,"connected_time":1493000000000,"state":"active","ping":66},{"user_id":115,"name":"Seriously Bruh","steam_id":76561198070408485,"connected_time":2090000000000,"state":"active","ping":71},{"user_id":126,"name":"Quagsire Acquired","steam_id":76561198417169465,"connected_time":1493000000000,"state":"active","ping":91},{"user_id":147,"name":"theconqueror","steam_id":76561199229806456,"connected_time":373000000000,"state":"active","ping":123},{"user_id":108,"name":"LittleFieryOne","steam_id":76561198107463724,"connected_time":3137000000000,"state":"active","ping":109}]},{"server_id":18,"name":"Uncletopia | San Francisco | 2 | All Maps","name_short":"sfo-2","host":"sfo-1.us.uncletopia.com","port":27025,"enabled":true,"region":"us-west","cc":"us","latitude":37.77397,"longitude":-122.4313,"reserved":0,"last_update":"0001-01-01T00:00:00Z","name_a2s":"Uncletopia | San Francisco | 2 | All Maps","protocol":17,"map":"pl_frontier_final","folder":"tf","game":"Team Fortress","app_id":440,"player_count":0,"max_players":24,"Bots":0,"server_type":"Dedicated","server_os":"Linux","password":true,"vac":true,"version":"7932396","steam_id":85568392924470000,"keywords":["nocrits","nodmgspread","payload","uncletopia"],"game_id":440,"stv_port":27026,"stv_name":"Uncletopia | San Francisco | 2 | All Maps | STV","players":null},{"server_id":19,"name":"Uncletopia | San Francisco | 3 | Stopwatch Beta","name_short":"sfo-3","host":"sfo-1.us.uncletopia.com","port":27035,"enabled":true,"region":"us-west","cc":"us","latitude":37.77397,"longitude":-122.4313,"reserved":0,"last_update":"0001-01-01T00:00:00Z","name_a2s":"Uncletopia | San Francisco | 3 | Stopwatch Beta","protocol":17,"map":"cp_dustbowl","folder":"tf","game":"Team Fortress","app_id":440,"player_count":0,"max_players":24,"Bots":0,"server_type":"Dedicated","server_os":"Linux","password":true,"vac":true,"version":"7932396","steam_id":85568392924742824,"keywords":["cp","nocrits","nodmgspread","uncletopia"],"game_id":440,"stv_port":27036,"stv_name":"Uncletopia | San Francisco | 3 | Stopwatch Beta | STV","players":null},{"server_id":20,"name":"Uncletopia | San Francisco | 4 | Community","name_short":"sfo-4","host":"sfo-1.us.uncletopia.com","port":27045,"enabled":true,"region":"us-west","cc":"us","latitude":37.77397,"longitude":-122.4313,"reserved":0,"last_update":"0001-01-01T00:00:00Z","name_a2s":"Uncletopia | San Francisco | 4 | Community","protocol":17,"map":"workshop/koth_ashville_final.ugc2130459942","folder":"tf","game":"Team Fortress","app_id":440,"player_count":0,"max_players":24,"Bots":0,"server_type":"Dedicated","server_os":"Linux","password":true,"vac":true,"version":"7932396","steam_id":85568392924742826,"keywords":["cp","nocrits","nodmgspread","uncletopia"],"game_id":440,"stv_port":27046,"stv_name":"Uncletopia | San Francisco | 4 | Community | STV","players":null},{"server_id":141,"name":"Uncletopia | Sydney | 1 | All Maps","name_short":"syd-1","host":"syd-1.au.uncletopia.com","port":27015,"enabled":true,"region":"au","cc":"au","latitude":-33.865143,"longitude":151.2099,"reserved":0,"last_update":"0001-01-01T00:00:00Z","name_a2s":"Uncletopia | Sydney | 1 | All Maps","protocol":17,"map":"cp_mountainlab","folder":"tf","game":"Team Fortress","app_id":440,"player_count":0,"max_players":24,"Bots":0,"server_type":"Dedicated","server_os":"Linux","password":true,"vac":true,"version":"7932396","steam_id":85568392924470001,"keywords":["cp","nocrits","nodmgspread","uncletopia"],"game_id":440,"stv_port":27016,"stv_name":"Uncletopia | Sydney | 1 | All Maps | STV","players":null},{"server_id":123,"name":"Uncletopia | Sydney | 2 | All Maps","name_short":"syd-2","host":"syd-1.au.uncletopia.com","port":27025,"enabled":true,"region":"au","cc":"au","latitude":-33.865143,"longitude":151.2099,"reserved":0,"last_update":"0001-01-01T00:00:00Z","name_a2s":"Uncletopia | Sydney | 2 | All Maps","protocol":17,"map":"cp_dustbowl","folder":"tf","game":"Team Fortress","app_id":440,"player_count":0,"max_players":24,"Bots":0,"server_type":"Dedicated","server_os":"Linux","password":true,"vac":true,"version":"7932396","steam_id":85568392924470002,"keywords":["cp","nocrits","nodmgspread","uncletopia"],"game_id":440,"stv_port":27026,"stv_name":"Uncletopia | Sydney | 2 | All Maps | STV","players":null},{"server_id":395,"name":"Uncletopia | Sydney | 3 | All Maps","name_short":"syd-3","host":"syd-1.au.uncletopia.com","port":27035,"enabled":true,"region":"au","cc":"au","latitude":-33.865143,"longitude":151.2099,"reserved":0,"last_update":"0001-01-01T00:00:00Z","name_a2s":"Uncletopia | Sydney | 3 | All Maps","protocol":17,"map":"cp_mountainlab","folder":"tf","game":"Team Fortress","app_id":440,"player_count":0,"max_players":24,"Bots":0,"server_type":"Dedicated","server_os":"Linux","password":true,"vac":true,"version":"7932396","steam_id":85568392925194467,"keywords":["cp","nocrits","nodmgspread","uncletopia"],"game_id":440,"stv_port":27036,"stv_name":"Uncletopia | Sydney | 3 | All Maps | STV","players":null},{"server_id":396,"name":"Uncletopia | Sydney | 4 | All Maps","name_short":"syd-4","host":"syd-1.au.uncletopia.com","port":27045,"enabled":true,"region":"au","cc":"au","latitude":-33.865143,"longitude":151.2099,"reserved":0,"last_update":"0001-01-01T00:00:00Z","name_a2s":"Uncletopia | Sydney | 4 | All Maps","protocol":17,"map":"koth_viaduct","folder":"tf","game":"Team Fortress","app_id":440,"player_count":0,"max_players":24,"Bots":0,"server_type":"Dedicated","server_os":"Linux","password":true,"vac":true,"version":"7932396","steam_id":85568392925397958,"keywords":["cp","nocrits","nodmgspread","uncletopia"],"game_id":440,"stv_port":27046,"stv_name":"Uncletopia | Sydney | 4 | All Maps | STV","players":null},{"server_id":58,"name":"Uncletopia | Sydney | 5 | Stopwatch Beta","name_short":"syd-5","host":"syd-1.au.uncletopia.com","port":27055,"enabled":true,"region":"au","cc":"au","latitude":-33.865143,"longitude":151.2099,"reserved":0,"last_update":"0001-01-01T00:00:00Z","name_a2s":"Uncletopia | Sydney | 5 | Stopwatch Beta","protocol":17,"map":"workshop/pl_vigil_rc9.ugc1266210012","folder":"tf","game":"Team Fortress","app_id":440,"player_count":0,"max_players":24,"Bots":0,"server_type":"Dedicated","server_os":"Linux","password":true,"vac":true,"version":"7932396","steam_id":85568392925397959,"keywords":["nocrits","nodmgspread","payload","uncletopia"],"game_id":440,"stv_port":27056,"stv_name":"Uncletopia | Sydney | 5 | Stopwatch Beta | STV","players":null},{"server_id":59,"name":"Uncletopia | Sydney | 6 | Community","name_short":"syd-6","host":"syd-1.au.uncletopia.com","port":27065,"enabled":true,"region":"au","cc":"au","latitude":-33.865143,"longitude":151.2099,"reserved":0,"last_update":"0001-01-01T00:00:00Z","name_a2s":"Uncletopia | Sydney | 6 | Community","protocol":17,"map":"cp_altitude","folder":"tf","game":"Team Fortress","app_id":440,"player_count":0,"max_players":24,"Bots":0,"server_type":"Dedicated","server_os":"Linux","password":true,"vac":true,"version":"7932396","steam_id":85568392925397960,"keywords":["cp","nocrits","nodmgspread","uncletopia"],"game_id":440,"stv_port":27066,"stv_name":"Uncletopia | Sydney | 6 | Community | STV","players":null},{"server_id":49,"name":"Uncletopia | Warsaw | 1 | All Maps","name_short":"waw-1","host":"waw-1.pl.uncletopia.com","port":27015,"enabled":true,"region":"eu","cc":"pl","latitude":52.2297,"longitude":21.017532,"reserved":0,"last_update":"0001-01-01T00:00:00Z","name_a2s":"","protocol":0,"map":"","folder":"","game":"","app_id":0,"player_count":0,"max_players":0,"Bots":0,"server_type":"","server_os":"","password":false,"vac":false,"version":"","steam_id":0,"keywords":null,"game_id":0,"stv_port":0,"stv_name":"","players":null},{"server_id":50,"name":"Uncletopia | Warsaw | 2 | All Maps","name_short":"waw-2","host":"waw-1.pl.uncletopia.com","port":27025,"enabled":true,"region":"eu","cc":"pl","latitude":52.2297,"longitude":21.017532,"reserved":0,"last_update":"0001-01-01T00:00:00Z","name_a2s":"Uncletopia | Warsaw | 2 | All Maps","protocol":17,"map":"pl_frontier_final","folder":"tf","game":"Team Fortress","app_id":440,"player_count":0,"max_players":24,"Bots":0,"server_type":"Dedicated","server_os":"Linux","password":true,"vac":true,"version":"7932396","steam_id":85568392925397851,"keywords":["nocrits","nodmgspread","payload","uncletopia"],"game_id":440,"stv_port":27026,"stv_name":"Uncletopia | Warsaw | 2 | All Maps | STV","players":null},{"server_id":51,"name":"Uncletopia | Warsaw | 3 | All Maps","name_short":"waw-3","host":"waw-1.pl.uncletopia.com","port":27035,"enabled":true,"region":"eu","cc":"pl","latitude":52.2297,"longitude":21.017532,"reserved":0,"last_update":"0001-01-01T00:00:00Z","name_a2s":"Uncletopia | Warsaw | 3 | All Maps","protocol":17,"map":"koth_lakeside_final","folder":"tf","game":"Team Fortress","app_id":440,"player_count":0,"max_players":24,"Bots":0,"server_type":"Dedicated","server_os":"Linux","password":true,"vac":true,"version":"7932396","steam_id":85568392925397852,"keywords":["cp","nocrits","nodmgspread","uncletopia"],"game_id":440,"stv_port":27036,"stv_name":"Uncletopia | Warsaw | 3 | All Maps | STV","players":null},{"server_id":52,"name":"Uncletopia | Warsaw | 4 | All Maps","name_short":"waw-4","host":"waw-1.pl.uncletopia.com","port":27045,"enabled":true,"region":"eu","cc":"pl","latitude":52.2297,"longitude":21.017532,"reserved":0,"last_update":"0001-01-01T00:00:00Z","name_a2s":"Uncletopia | Warsaw | 4 | All Maps","protocol":17,"map":"koth_lakeside_final","folder":"tf","game":"Team Fortress","app_id":440,"player_count":0,"max_players":24,"Bots":0,"server_type":"Dedicated","server_os":"Linux","password":true,"vac":true,"version":"7932396","steam_id":85568392925397853,"keywords":["cp","nocrits","nodmgspread","uncletopia"],"game_id":440,"stv_port":27046,"stv_name":"Uncletopia | Warsaw | 4 | All Maps | STV","players":null},{"server_id":53,"name":"Uncletopia | Warsaw | 5 | Stopwatch Beta","name_short":"waw-5","host":"waw-1.pl.uncletopia.com","port":27055,"enabled":true,"region":"eu","cc":"pl","latitude":52.2297,"longitude":21.017532,"reserved":0,"last_update":"0001-01-01T00:00:00Z","name_a2s":"Uncletopia | Warsaw | 5 | Stopwatch Beta","protocol":17,"map":"koth_cascade","folder":"tf","game":"Team Fortress","app_id":440,"player_count":0,"max_players":24,"Bots":0,"server_type":"Dedicated","server_os":"Linux","password":true,"vac":true,"version":"7932396","steam_id":85568392925397854,"keywords":["cp","nocrits","nodmgspread","uncletopia"],"game_id":440,"stv_port":27056,"stv_name":"Uncletopia | Warsaw | 5 | Stopwatch Beta | STV","players":null},{"server_id":54,"name":"Uncletopia | Warsaw | 6 | Community","name_short":"waw-6","host":"waw-1.pl.uncletopia.com","port":27065,"enabled":true,"region":"eu","cc":"pl","latitude":52.2297,"longitude":21.017532,"reserved":0,"last_update":"0001-01-01T00:00:00Z","name_a2s":"Uncletopia | Warsaw | 6 | Community","protocol":17,"map":"workshop/cp_propaganda_b18.ugc1603743849","folder":"tf","game":"Team Fortress","app_id":440,"player_count":0,"max_players":24,"Bots":0,"server_type":"Dedicated","server_os":"Linux","password":true,"vac":true,"version":"7932396","steam_id":85568392925397856,"keywords":["cp","nocrits","nodmgspread","uncletopia"],"game_id":440,"stv_port":27066,"stv_name":"Uncletopia | Warsaw | 6 | Community | STV","players":null}]}