{"status":true,"message":"","result":[{"server_id":9,"name":"Uncletopia | Atlanta | 1 | All Maps","name_short":"atl-1","host":"atl-1.us.uncletopia.com","port":27015,"enabled":true,"region":"us-east","cc":"us","latitude":33.753746,"longitude":-84.38633,"reserved":0,"last_update":"0001-01-01T00:00:00Z","name_a2s":"Uncletopia | Atlanta | 1 | All Maps","protocol":17,"map":"pl_pier","folder":"tf","game":"Team Fortress","app_id":440,"player_count":24,"max_players":24,"Bots":0,"server_type":"Dedicated","server_os":"Linux","password":true,"vac":true,"version":"7757534","steam_id":85568392924469982,"keywords":["nocrits","nodmgspread","payload","uncletopia"],"game_id":440,"stv_port":27016,"stv_name":"Uncletopia | Atlanta | 1 | All Maps | STV","players":[{"user_id":650,"name":"Karma","steam_id":76561198030565234,"connected_time":1050000000000,"state":"active","ping":76},{"user_id":626,"name":"Ashes!","steam_id":76561197998475441,"connected_time":3629000000000,"state":"active","ping":90},{"user_id":656,"name":"Clay Pot","steam_id":76561199030644557,"connected_time":814000000000,"state":"active","ping":68},{"user_id":596,"name":"DevSlashUser","steam_id":76561198805884205,"connected_time":6033000000000,"state":"active","ping":67},{"user_id":640,"name":"Moonglass Kaiju","steam_id":76561198043431819,"connected_time":2473000000000,"state":"active","ping":74},{"user_id":633,"name":"YukiTanuki","steam_id":76561198873907851,"connected_time":2880000000000,"state":"active","ping":66},{"user_id":642,"name":"Eins","steam_id":76561199030343810,"connected_time":1809000000000,"state":"active","ping":40},{"user_id":655,"name":"Scita","steam_id":76561198066861559,"connected_time":869000000000,"state":"active","ping":70},{"user_id":653,"name":"solaris","steam_id":76561198874885945,"connected_time":980000000000,"state":"active","ping":76},{"user_id":618,"name":"‚áå StriKeR ‚áã","steam_id":76561199389089862,"connected_time":3933000000000,"state":"active","ping":137},{"user_id":651,"name":"the follower","steam_id":76561198921045691,"connected_time":1049000000000,"state":"active","ping":84},{"user_id":632,"name":"Nyx","steam_id":76561198046768602,"connected_time":2895000000000,"state":"active","ping":78},{"user_id":645,"name":"DIYspaceship17","steam_id":76561199042640810,"connected_time":1607000000000,"state":"active","ping":93},{"user_id":588,"name":"Cecilian","steam_id":76561198092582478,"connected_time":7442000000000,"state":"active","ping":74},{"user_id":657,"name":"ATLS1 | Krissy","steam_id":76561197960848174,"connected_time":451000000000,"state":"active","ping":60},{"user_id":649,"name":"Hunto","steam_id":76561198328052562,"connected_time":1066000000000,"state":"active","ping":68},{"user_id":628,"name":"the-willy12","steam_id":76561199145029672,"connected_time":3529000000000,"state":"active","ping":89},{"user_id":347,"name":"500,000 rabid chihuahuas in Ohi","steam_id":76561198130772096,"connected_time":27844000000000,"state":"active","ping":58},{"user_id":636,"name":"white ray","steam_id":76561198026664629,"connected_time":2803000000000,"state":"active","ping":56},{"user_id":648,"name":"vid_","steam_id":76561198065159053,"connected_time":1269000000000,"state":"active","ping":54},{"user_id":639,"name":"Motreir","steam_id":76561198151717946,"connected_time":2697000000000,"state":"active","ping":77},{"user_id":617,"name":"RED1 | snoops","steam_id":76561197986760351,"connected_time":3938000000000,"state":"active","ping":81},{"user_id":658,"name":"Tue","steam_id":76561198181668501,"connected_time":210000000000,"state":"active","ping":63},{"user_id":598,"name":"Im High","steam_id":76561198049954886,"connected_time":6026000000000,"state":"active","ping":74}]},{"server_id":400,"name":"Uncletopia | Atlanta | 3 | Community","name_short":"atl-3","host":"atl-1.us.uncletopia.com","port":27035,"enabled":true,"region":"us-east","cc":"us","latitude":33.753746,"longitude":-84.38633,"reserved":0,"last_update":"0001-01-01T00:00:00Z","name_a2s":"Uncletopia | Atlanta | 3 | Community","protocol":17,"map":"workshop/pl_eruption_b9a.ugc2807898013","folder":"tf","game":"Team Fortress","app_id":440,"player_count":25,"max_players":32,"Bots":0,"server_type":"Dedicated","server_os":"Linux","password":true,"vac":true,"version":"7757534","steam_id":85568392924515187,"keywords":["increased_maxplayers","nocrits","nodmgspread","payload","uncletopia"],"game_id":440,"stv_port":27036,"stv_name":"Uncletopia | Atlanta | 3 | Community | STV","players":[{"user_id":324,"name":"ËÇâ„ÉºThe King of Meat„ÉºÁéã","steam_id":76561198058787521,"connected_time":1458000000000,"state":"active","ping":122},{"user_id":350,"name":"Krispy","steam_id":76561198127005410,"connected_time":844000000000,"state":"active","ping":106},{"user_id":325,"name":"yoda's shortstack gobbo bussy","steam_id":76561198226377940,"connected_time":1453000000000,"state":"active","ping":117},{"user_id":293,"name":"oh god i'm gonna CHUM","steam_id":76561198019210187,"connected_time":2136000000000,"state":"active","ping":71},{"user_id":347,"name":"Unicorntwin","steam_id":76561198066843598,"connected_time":1010000000000,"state":"active","ping":97},{"user_id":326,"name":"AveraGeo","steam_id":76561198216949631,"connected_time":1453000000000,"state":"active","ping":106},{"user_id":348,"name":"Stoned2theBones","steam_id":76561198136971119,"connected_time":998000000000,"state":"active","ping":88},{"user_id":145,"name":"ATLS1 | SparkStorm","steam_id":76561198095817025,"connected_time":4849000000000,"state":"active","ping":42},{"user_id":349,"name":"yahboided1","steam_id":76561199359449181,"connected_time":988000000000,"state":"active","ping":114},{"user_id":265,"name":"‚òô Corrupt ‚ùß","steam_id":76561197977631915,"connected_time":2820000000000,"state":"active","ping":75},{"user_id":352,"name":"If i backstab you you bad fr","steam_id":76561198432036026,"connected_time":579000000000,"state":"active","ping":58},{"user_id":328,"name":"John Rambo","steam_id":76561198055732081,"connected_time":1449000000000,"state":"active","ping":86},{"user_id":244,"name":"‚úØAgent √Ü120‚úØ","steam_id":76561198202370363,"connected_time":3377000000000,"state":"active","ping":75},{"user_id":135,"name":"stink","steam_id":76561198099318923,"connected_time":6352000000000,"state":"active","ping":76},{"user_id":353,"name":"BobSoup89","steam_id":76561198908566221,"connected_time":565000000000,"state":"active","ping":58},{"user_id":373,"name":"Captain Jack Sparrow (Jessy)","steam_id":76561198058926028,"connected_time":18000000000,"state":"spawning","ping":186},{"user_id":356,"name":"Chillin Turt","steam_id":76561198025796849,"connected_time":477000000000,"state":"active","ping":67},{"user_id":330,"name":"viper","steam_id":76561198839942937,"connected_time":1448000000000,"state":"active","ping":88},{"user_id":357,"name":"Decolour","steam_id":76561199045608372,"connected_time":455000000000,"state":"active","ping":81},{"user_id":358,"name":"Jim Finger","steam_id":76561199135417348,"connected_time":452000000000,"state":"active","ping":76},{"user_id":140,"name":"com lag","steam_id":76561198019019392,"connected_time":5344000000000,"state":"active","ping":71},{"user_id":98,"name":"RED1 | Avo","steam_id":76561197993340494,"connected_time":9016000000000,"state":"active","ping":61},{"user_id":359,"name":"SHADE","steam_id":76561199230840941,"connected_time":357000000000,"state":"active","ping":129},{"user_id":360,"name":"Red","steam_id":76561198031865869,"connected_time":356000000000,"state":"active","ping":74},{"user_id":363,"name":"Majinken","steam_id":76561198285026879,"connected_time":193000000000,"state":"spawning","ping":189}]},{"server_id":401,"name":"Uncletopia | Atlanta | 4 | No Payload","name_short":"atl-4","host":"atl-1.us.uncletopia.com","port":27045,"enabled":true,"region":"us-east","cc":"us","latitude":33.753746,"longitude":-84.38633,"reserved":0,"last_update":"0001-01-01T00:00:00Z","name_a2s":"","protocol":0,"map":"","folder":"","game":"","app_id":0,"player_count":0,"max_players":0,"Bots":0,"server_type":"","server_os":"","password":false,"vac":false,"version":"","steam_id":0,"keywords":null,"game_id":0,"stv_port":0,"stv_name":"","players":null},{"server_id":2,"name":"Uncletopia | Chicago | 1 | All Maps","name_short":"chi-1","host":"chi-1.us.uncletopia.com","port":27015,"enabled":true,"region":"us-central","cc":"us","latitude":41.881832,"longitude":-87.62318,"reserved":0,"last_update":"0001-01-01T00:00:00Z","name_a2s":"Uncletopia | Chicago | 1 | All Maps","protocol":17,"map":"pl_upward","folder":"tf","game":"Team Fortress","app_id":440,"player_count":24,"max_players":24,"Bots":0,"server_type":"Dedicated","server_os":"Linux","password":true,"vac":true,"version":"7757534","steam_id":85568392924469984,"keywords":["nocrits","nodmgspread","payload","uncletopia"],"game_id":440,"stv_port":27016,"stv_name":"Uncletopia | Chicago | 1 | All Maps | STV","players":[{"user_id":720,"name":"the deadliest pyroshark","steam_id":76561198374227766,"connected_time":9123000000000,"state":"active","ping":74},{"user_id":794,"name":"stockhack","steam_id":76561198050220225,"connected_time":1254000000000,"state":"active","ping":70},{"user_id":771,"name":"LegendaryMister151","steam_id":76561198064890524,"connected_time":4927000000000,"state":"active","ping":86},{"user_id":808,"name":"tired monke","steam_id":76561199013246567,"connected_time":614000000000,"state":"active","ping":77},{"user_id":796,"name":"techytag","steam_id":76561198260220126,"connected_time":1193000000000,"state":"active","ping":88},{"user_id":810,"name":"Penny #girl","steam_id":76561198144281771,"connected_time":532000000000,"state":"active","ping":70},{"user_id":773,"name":"blob","steam_id":76561198122375328,"connected_time":4661000000000,"state":"active","ping":67},{"user_id":797,"name":"Sh/7 Stain","steam_id":76561198408817739,"connected_time":1173000000000,"state":"active","ping":74},{"user_id":742,"name":"no way","steam_id":76561198082496000,"connected_time":7728000000000,"state":"active","ping":85},{"user_id":786,"name":"Snom","steam_id":76561198333827920,"connected_time":3405000000000,"state":"active","ping":94},{"user_id":792,"name":"LunarStorm","steam_id":76561198321826743,"connected_time":1891000000000,"state":"active","ping":62},{"user_id":798,"name":"Bocchi the Rock","steam_id":76561198025668771,"connected_time":1165000000000,"state":"active","ping":120},{"user_id":793,"name":"edwinbrood","steam_id":76561198044848769,"connected_time":1286000000000,"state":"active","ping":56},{"user_id":811,"name":"[UHS] K24A4 2.4","steam_id":76561199072970627,"connected_time":168000000000,"state":"active","ping":46},{"user_id":807,"name":"Ros","steam_id":76561199055963822,"connected_time":668000000000,"state":"active","ping":88},{"user_id":800,"name":"Baka!‚ë®‚ë®‚ë®‚ë®","steam_id":76561198152948254,"connected_time":1141000000000,"state":"active","ping":67},{"user_id":805,"name":"brr skibidi dop dop dop","steam_id":76561198991982630,"connected_time":1038000000000,"state":"active","ping":60},{"user_id":801,"name":"gene","steam_id":76561198116908911,"connected_time":1129000000000,"state":"active","ping":58},{"user_id":803,"name":"Busl","steam_id":76561198038392433,"connected_time":1105000000000,"state":"active","ping":72},{"user_id":776,"name":"wiiblob","steam_id":76561198109106242,"connected_time":4226000000000,"state":"active","ping":146},{"user_id":809,"name":"GAUGUIN","steam_id":76561198246193520,"connected_time":610000000000,"state":"active","ping":59},{"user_id":804,"name":"The Freak","steam_id":76561198145304571,"connected_time":1051000000000,"state":"active","ping":106},{"user_id":783,"name":"Crab Rangoon","steam_id":76561198059310510,"connected_time":3963000000000,"state":"active","ping":68},{"user_id":770,"name":"gps","steam_id":76561198067492304,"connected_time":4939000000000,"state":"active","ping":84}]},{"server_id":106,"name":"Uncletopia | Chicago | 2 | All Maps","name_short":"chi-2","host":"chi-1.us.uncletopia.com","port":27025,"enabled":true,"region":"us-central","cc":"us","latitude":41.881832,"longitude":-87.62318,"reserved":0,"last_update":"0001-01-01T00:00:00Z","name_a2s":"Uncletopia | Chicago | 2 | All Maps","protocol":17,"map":"pl_frontier_final","folder":"tf","game":"Team Fortress","app_id":440,"player_count":24,"max_players":24,"Bots":0,"server_type":"Dedicated","server_os":"Linux","password":true,"vac":true,"version":"7757534","steam_id":85568392924469985,"keywords":["nocrits","nodmgspread","payload","uncletopia"],"game_id":440,"stv_port":27026,"stv_name":"Uncletopia | Chicago | 2 | All Maps | STV","players":[{"user_id":550,"name":"goldenninja76","steam_id":76561198123341944,"connected_time":1270000000000,"state":"active","ping":93},{"user_id":548,"name":"MagnumX","steam_id":76561198259103096,"connected_time":1626000000000,"state":"active","ping":57},{"user_id":563,"name":"butt3r_","steam_id":76561198156374792,"connected_time":64000000000,"state":"active","ping":91},{"user_id":523,"name":"muzikelretifhbr","steam_id":76561198445169719,"connected_time":3681000000000,"state":"active","ping":112},{"user_id":552,"name":"the doo doo man","steam_id":76561198057076267,"connected_time":1203000000000,"state":"active","ping":72},{"user_id":528,"name":"Skeleton Hotel","steam_id":76561198041704727,"connected_time":3220000000000,"state":"active","ping":56},{"user_id":536,"name":"e0e0","steam_id":76561198293839750,"connected_time":3078000000000,"state":"active","ping":65},{"user_id":559,"name":"The Jar","steam_id":76561198146013385,"connected_time":328000000000,"state":"active","ping":76},{"user_id":522,"name":"PinkLemonade","steam_id":76561198799286228,"connected_time":3729000000000,"state":"active","ping":72},{"user_id":557,"name":"Dug","steam_id":76561198017691029,"connected_time":821000000000,"state":"active","ping":56},{"user_id":561,"name":"Swifgz","steam_id":76561198162875756,"connected_time":185000000000,"state":"active","ping":62},{"user_id":510,"name":"Number One Basil Fan","steam_id":76561198066227208,"connected_time":5178000000000,"state":"active","ping":60},{"user_id":494,"name":"‚ù§ Ashley ‚ù§","steam_id":76561198056428303,"connected_time":6352000000000,"state":"active","ping":104},{"user_id":543,"name":"deepwoken","steam_id":76561198055439054,"connected_time":2367000000000,"state":"active","ping":80},{"user_id":508,"name":"Xavibite","steam_id":76561198209380493,"connected_time":5591000000000,"state":"active","ping":63},{"user_id":539,"name":"Oli B\u003eQS/BP/Bulk w/ 500+ keys","steam_id":76561198140316312,"connected_time":2759000000000,"state":"active","ping":58},{"user_id":541,"name":"chanoc","steam_id":76561198026734746,"connected_time":2408000000000,"state":"active","ping":108},{"user_id":549,"name":"qiulongtao","steam_id":76561198977558717,"connected_time":1273000000000,"state":"active","ping":87},{"user_id":538,"name":"Clean Lines","steam_id":76561197960691518,"connected_time":2955000000000,"state":"active","ping":57},{"user_id":532,"name":"self sufficient kitten","steam_id":76561197960592612,"connected_time":3172000000000,"state":"active","ping":104},{"user_id":554,"name":"Kip The Goon","steam_id":76561197998180212,"connected_time":1173000000000,"state":"active","ping":63},{"user_id":562,"name":"Green‚Ñ¢","steam_id":76561198136522734,"connected_time":133000000000,"state":"active","ping":64},{"user_id":524,"name":"ZombieSkeletor2","steam_id":76561198244937990,"connected_time":3488000000000,"state":"active","ping":113},{"user_id":535,"name":"corygaming","steam_id":76561198035669409,"connected_time":3110000000000,"state":"active","ping":104}]},{"server_id":402,"name":"Uncletopia | Chicago | 3 | All Maps","name_short":"chi-3","host":"chi-1.us.uncletopia.com","port":27035,"enabled":true,"region":"us-central","cc":"us","latitude":41.881832,"longitude":-87.62318,"reserved":0,"last_update":"0001-01-01T00:00:00Z","name_a2s":"Uncletopia | Chicago | 3 | All Maps","protocol":17,"map":"pl_goldrush","folder":"tf","game":"Team Fortress","app_id":440,"player_count":23,"max_players":24,"Bots":0,"server_type":"Dedicated","server_os":"Linux","password":true,"vac":true,"version":"7757534","steam_id":85568392924515191,"keywords":["nocrits","nodmgspread","payload","uncletopia"],"game_id":440,"stv_port":27036,"stv_name":"Uncletopia | Chicago | 3 | All Maps | STV","players":[{"user_id":252,"name":"Cee","steam_id":76561199114277048,"connected_time":44000000000,"state":"active","ping":47},{"user_id":241,"name":"Kasey","steam_id":76561198055510230,"connected_time":1474000000000,"state":"active","ping":54},{"user_id":249,"name":"Leinans","steam_id":76561198041869759,"connected_time":253000000000,"state":"active","ping":46},{"user_id":125,"name":"math","steam_id":76561198056105936,"connected_time":10375000000000,"state":"active","ping":60},{"user_id":238,"name":"Dannzo","steam_id":76561198046326488,"connected_time":1662000000000,"state":"active","ping":58},{"user_id":126,"name":"you are loved","steam_id":76561198108524571,"connected_time":10374000000000,"state":"active","ping":62},{"user_id":212,"name":"Mr.Silver","steam_id":76561198156382508,"connected_time":3790000000000,"state":"active","ping":57},{"user_id":128,"name":"kairOs.fk","steam_id":76561197972421260,"connected_time":10315000000000,"state":"active","ping":58},{"user_id":236,"name":"Nnyllazxz","steam_id":76561198247797436,"connected_time":1854000000000,"state":"active","ping":82},{"user_id":251,"name":"Lorberry","steam_id":76561198023706058,"connected_time":58000000000,"state":"active","ping":30},{"user_id":194,"name":"Dokkibai","steam_id":76561198355935693,"connected_time":5572000000000,"state":"spawning","ping":50},{"user_id":223,"name":"havesomepizza","steam_id":76561198030051048,"connected_time":2302000000000,"state":"active","ping":46},{"user_id":254,"name":"e doctor","steam_id":76561198081851446,"connected_time":38000000000,"state":"active","ping":48},{"user_id":250,"name":"gunman","steam_id":76561198150982973,"connected_time":166000000000,"state":"active","ping":102},{"user_id":257,"name":"Uncle","steam_id":76561197988647705,"connected_time":22000000000,"state":"spawning","ping":51},{"user_id":255,"name":"Billy McChucks","steam_id":76561198062189578,"connected_time":33000000000,"state":"active","ping":57},{"user_id":244,"name":"Ranger Plague","steam_id":76561198174647666,"connected_time":1120000000000,"state":"active","ping":81},{"user_id":256,"name":"King Dubious","steam_id":76561199033412197,"connected_time":29000000000,"state":"active","ping":43},{"user_id":220,"name":"Waluigi","steam_id":76561198891626233,"connected_time":2531000000000,"state":"active","ping":58},{"user_id":219,"name":"GatorAIDS","steam_id":76561198043220092,"connected_time":3178000000000,"state":"active","ping":75},{"user_id":234,"name":"Lord TriM","steam_id":76561198048332533,"connected_time":1980000000000,"state":"active","ping":60},{"user_id":235,"name":"looloopaa","steam_id":76561198048179242,"connected_time":1979000000000,"state":"active","ping":59},{"user_id":258,"name":"ThePirateKenway","steam_id":76561198115156181,"connected_time":12000000000,"state":"active","ping":149}]},{"server_id":403,"name":"Uncletopia | Chicago | 4 | All Maps","name_short":"chi-4","host":"chi-1.us.uncletopia.com","port":27045,"enabled":true,"region":"us-central","cc":"us","latitude":41.881832,"longitude":-87.62318,"reserved":0,"last_update":"0001-01-01T00:00:00Z","name_a2s":"Uncletopia | Chicago | 4 | All Maps","protocol":17,"map":"ctf_2fort","folder":"tf","game":"Team Fortress","app_id":440,"player_count":22,"max_players":24,"Bots":0,"server_type":"Dedicated","server_os":"Linux","password":true,"vac":true,"version":"7757534","steam_id":85568392924515193,"keywords":["ctf","nocrits","nodmgspread","uncletopia"],"game_id":440,"stv_port":27046,"stv_name":"Uncletopia | Chicago | 4 | All Maps | STV","players":[{"user_id":702,"name":"Parker","steam_id":76561198046044893,"connected_time":330000000000,"state":"active","ping":54},{"user_id":700,"name":"dyce_\u003c33","steam_id":76561199273443432,"connected_time":350000000000,"state":"active","ping":96},{"user_id":698,"name":"cyanideknife","steam_id":76561198346351549,"connected_time":638000000000,"state":"active","ping":116},{"user_id":691,"name":"OrionKid","steam_id":76561198359094901,"connected_time":1079000000000,"state":"active","ping":78},{"user_id":710,"name":"Demoman Gaming","steam_id":76561199051587231,"connected_time":102000000000,"state":"active","ping":71},{"user_id":639,"name":"Awildrock","steam_id":76561198040401086,"connected_time":6490000000000,"state":"active","ping":82},{"user_id":711,"name":"when she travis on my touchdown","steam_id":76561198128164970,"connected_time":81000000000,"state":"active","ping":106},{"user_id":703,"name":"Iroquois Pliskin","steam_id":76561198056704533,"connected_time":320000000000,"state":"active","ping":101},{"user_id":668,"name":"SPIRE_FAN","steam_id":76561198001486573,"connected_time":4799000000000,"state":"active","ping":63},{"user_id":713,"name":"Platino","steam_id":76561198410957728,"connected_time":65000000000,"state":"active","ping":43},{"user_id":712,"name":"Moz","steam_id":76561198027171160,"connected_time":77000000000,"state":"active","ping":41},{"user_id":695,"name":"Salt_water_Rat","steam_id":76561198450695542,"connected_time":790000000000,"state":"active","ping":114},{"user_id":699,"name":"King Col","steam_id":76561198033384990,"connected_time":464000000000,"state":"active","ping":60},{"user_id":705,"name":"Black Mesa Scientist","steam_id":76561198064466577,"connected_time":267000000000,"state":"active","ping":75},{"user_id":634,"name":"Yukko Aioi TF2","steam_id":76561198889857835,"connected_time":6985000000000,"state":"active","ping":132},{"user_id":571,"name":"Deal yo","steam_id":76561198282395338,"connected_time":12278000000000,"state":"active","ping":82},{"user_id":669,"name":"Space Cops","steam_id":76561198032414253,"connected_time":4765000000000,"state":"active","ping":51},{"user_id":706,"name":"Mef","steam_id":76561198247400482,"connected_time":255000000000,"state":"active","ping":73},{"user_id":603,"name":"ConnectedUser","steam_id":76561199126217062,"connected_time":9078000000000,"state":"active","ping":63},{"user_id":677,"name":"TheSmolPopato","steam_id":76561199076606348,"connected_time":3240000000000,"state":"active","ping":58},{"user_id":679,"name":"Rahma Noodles","steam_id":76561198868094248,"connected_time":3093000000000,"state":"active","ping":84},{"user_id":709,"name":"shadow wizard","steam_id":76561198165212575,"connected_time":167000000000,"state":"active","ping":64}]},{"server_id":36,"name":"Uncletopia | Chicago | 5 | All Maps","name_short":"chi-5","host":"chi-2.us.uncletopia.com","port":27015,"enabled":true,"region":"us-central","cc":"us","latitude":41.881832,"longitude":-87.62318,"reserved":0,"last_update":"0001-01-01T00:00:00Z","name_a2s":"Uncletopia | Chicago | 5 | All Maps","protocol":17,"map":"pl_swiftwater_final1","folder":"tf","game":"Team Fortress","app_id":440,"player_count":24,"max_players":24,"Bots":0,"server_type":"Dedicated","server_os":"Linux","password":true,"vac":true,"version":"7757534","steam_id":85568392924866362,"keywords":["nocrits","nodmgspread","payload","uncletopia"],"game_id":440,"stv_port":27016,"stv_name":"Uncletopia | Chicago | 5 | All Maps | STV","players":[{"user_id":889,"name":"galunga","steam_id":76561198027184320,"connected_time":11000000000,"state":"spawning","ping":68},{"user_id":854,"name":"steakfarmasian","steam_id":76561198212754036,"connected_time":1913000000000,"state":"active","ping":46},{"user_id":811,"name":"jan kili","steam_id":76561198289894834,"connected_time":4175000000000,"state":"active","ping":63},{"user_id":858,"name":"Caretnose","steam_id":76561198021762583,"connected_time":1760000000000,"state":"active","ping":49},{"user_id":885,"name":"thundermuffin","steam_id":76561198067770965,"connected_time":244000000000,"state":"active","ping":51},{"user_id":821,"name":"Humper","steam_id":76561198272961376,"connected_time":4018000000000,"state":"active","ping":75},{"user_id":856,"name":"Monterfart","steam_id":76561198125034271,"connected_time":1817000000000,"state":"active","ping":65},{"user_id":887,"name":"Missing Minus","steam_id":76561198120822928,"connected_time":105000000000,"state":"active","ping":62},{"user_id":823,"name":"drugger. (charlemagne implant)","steam_id":76561198353463585,"connected_time":3976000000000,"state":"active","ping":83},{"user_id":888,"name":"hummus in my tummus","steam_id":76561199438698036,"connected_time":47000000000,"state":"active","ping":54},{"user_id":886,"name":"PINGAS DISPENSER‚Ñ¢","steam_id":76561198014868070,"connected_time":137000000000,"state":"active","ping":105},{"user_id":874,"name":"pudding","steam_id":76561198064941909,"connected_time":643000000000,"state":"active","ping":56},{"user_id":875,"name":"Anahata","steam_id":76561198045441962,"connected_time":624000000000,"state":"active","ping":72},{"user_id":884,"name":"Dzhoshua","steam_id":76561198071915251,"connected_time":311000000000,"state":"active","ping":62},{"user_id":877,"name":"greg","steam_id":76561199195205705,"connected_time":579000000000,"state":"active","ping":89},{"user_id":866,"name":"foxxy","steam_id":76561198211308328,"connected_time":1515000000000,"state":"active","ping":65},{"user_id":882,"name":"Model CHP-3Y","steam_id":76561198107806145,"connected_time":474000000000,"state":"active","ping":76},{"user_id":864,"name":"maxie!","steam_id":76561197962607364,"connected_time":1621000000000,"state":"active","ping":72},{"user_id":818,"name":"the","steam_id":76561198311446636,"connected_time":4088000000000,"state":"active","ping":60},{"user_id":879,"name":"Coolman3214","steam_id":76561198443366140,"connected_time":534000000000,"state":"active","ping":81},{"user_id":883,"name":"Marc Antony","steam_id":76561198011366517,"connected_time":455000000000,"state":"active","ping":61},{"user_id":819,"name":"cabbage enthusiast","steam_id":76561198049221816,"connected_time":4080000000000,"state":"active","ping":77},{"user_id":867,"name":"a garbage can","steam_id":76561198403626105,"connected_time":1484000000000,"state":"active","ping":58},{"user_id":880,"name":"Wallish","steam_id":76561198057175636,"connected_time":525000000000,"state":"active","ping":112}]},{"server_id":37,"name":"Uncletopia | Chicago | 6 | All Maps","name_short":"chi-6","host":"chi-2.us.uncletopia.com","port":27025,"enabled":true,"region":"us-central","cc":"us","latitude":41.881832,"longitude":-87.62318,"reserved":0,"last_update":"0001-01-01T00:00:00Z","name_a2s":"Uncletopia | Chicago | 6 | All Maps","protocol":17,"map":"koth_lakeside_final","folder":"tf","game":"Team Fortress","app_id":440,"player_count":24,"max_players":24,"Bots":0,"server_type":"Dedicated","server_os":"Linux","password":true,"vac":true,"version":"7757534","steam_id":85568392924866363,"keywords":["cp","nocrits","nodmgspread","uncletopia"],"game_id":440,"stv_port":27026,"stv_name":"Uncletopia | Chicago | 6 | All Maps | STV","players":[{"user_id":291,"name":"Vladikr1","steam_id":76561198401495362,"connected_time":252000000000,"state":"active","ping":65},{"user_id":286,"name":"Obama's Last Name","steam_id":76561198121256119,"connected_time":1218000000000,"state":"active","ping":57},{"user_id":292,"name":"Ground Control to Majortom","steam_id":76561198065589126,"connected_time":250000000000,"state":"active","ping":83},{"user_id":293,"name":"The_Skull_boy","steam_id":76561198227692664,"connected_time":214000000000,"state":"active","ping":112},{"user_id":269,"name":"undertime slopper","steam_id":76561198030994735,"connected_time":1785000000000,"state":"active","ping":134},{"user_id":255,"name":"pumby","steam_id":76561198273915351,"connected_time":2411000000000,"state":"active","ping":67},{"user_id":294,"name":"i accidentally got an ausi blut","steam_id":76561198314662811,"connected_time":132000000000,"state":"active","ping":101},{"user_id":254,"name":"Tannenbaum Trotsky","steam_id":76561199101638460,"connected_time":2473000000000,"state":"active","ping":67},{"user_id":301,"name":"IItsPrimeTime","steam_id":76561199140401867,"connected_time":13000000000,"state":"active","ping":373},{"user_id":268,"name":"MrCalmL.I","steam_id":76561198966598137,"connected_time":1851000000000,"state":"active","ping":69},{"user_id":270,"name":"DeMino","steam_id":76561198442955360,"connected_time":1783000000000,"state":"active","ping":56},{"user_id":260,"name":"magickxanadu","steam_id":76561199117360103,"connected_time":2222000000000,"state":"active","ping":81},{"user_id":271,"name":"Klepto","steam_id":76561198259662819,"connected_time":1782000000000,"state":"active","ping":115},{"user_id":288,"name":"Riske","steam_id":76561198115840568,"connected_time":871000000000,"state":"active","ping":73},{"user_id":272,"name":"Nermal from the show GARFIELD","steam_id":76561197987032600,"connected_time":1781000000000,"state":"active","ping":119},{"user_id":273,"name":"VALE_3K ‚ùä","steam_id":76561198073407290,"connected_time":1776000000000,"state":"active","ping":145},{"user_id":274,"name":"Ownage","steam_id":76561198029295072,"connected_time":1764000000000,"state":"active","ping":59},{"user_id":285,"name":"Chepu","steam_id":76561198821873384,"connected_time":1546000000000,"state":"active","ping":97},{"user_id":296,"name":"Dr.KombatPhD.ttv","steam_id":76561198263847667,"connected_time":88000000000,"state":"active","ping":62},{"user_id":277,"name":"Milton","steam_id":76561198922775486,"connected_time":1743000000000,"state":"active","ping":69},{"user_id":279,"name":"Bielogical Stuff","steam_id":76561198259309836,"connected_time":1729000000000,"state":"active","ping":157},{"user_id":299,"name":"topsilk420 Trade.tf","steam_id":76561198308903387,"connected_time":65000000000,"state":"active","ping":109},{"user_id":281,"name":"SquiDIO","steam_id":76561198027508994,"connected_time":1708000000000,"state":"active","ping":148},{"user_id":300,"name":"Jynxix","steam_id":76561198045487389,"connected_time":61000000000,"state":"active","ping":59}]},{"server_id":38,"name":"Uncletopia | Chicago | 7 | Stopwatch Beta","name_short":"chi-7","host":"chi-2.us.uncletopia.com","port":27035,"enabled":true,"region":"us-central","cc":"us","latitude":41.881832,"longitude":-87.62318,"reserved":0,"last_update":"0001-01-01T00:00:00Z","name_a2s":"Uncletopia | Chicago | 7 | Stopwatch Beta","protocol":17,"map":"pl_upward","folder":"tf","game":"Team Fortress","app_id":440,"player_count":0,"max_players":24,"Bots":0,"server_type":"Dedicated","server_os":"Linux","password":true,"vac":true,"version":"7757534","steam_id":85568392924866364,"keywords":["nocrits","nodmgspread","payload","uncletopia"],"game_id":440,"stv_port":27036,"stv_name":"Uncletopia | Chicago | 7 | Stopwatch Beta | STV","players":null},{"server_id":39,"name":"Uncletopia | Chicago | 8 | Community","name_short":"chi-8","host":"chi-2.us.uncletopia.com","port":27045,"enabled":true,"region":"us-central","cc":"us","latitude":41.881832,"longitude":-87.62318,"reserved":0,"last_update":"0001-01-01T00:00:00Z","name_a2s":"Uncletopia | Chicago | 8 | Community","protocol":17,"map":"workshop/koth_ashville_final.ugc2130459942","folder":"tf","game":"Team Fortress","app_id":440,"player_count":21,"max_players":24,"Bots":0,"server_type":"Dedicated","server_os":"Linux","password":true,"vac":true,"version":"7757534","steam_id":85568392924866365,"keywords":["cp","nocrits","nodmgspread","uncletopia"],"game_id":440,"stv_port":27046,"stv_name":"Uncletopia | Chicago | 8 | Community | STV","players":[{"user_id":502,"name":"Clown Industries","steam_id":76561198920293639,"connected_time":35000000000,"state":"active","ping":105},{"user_id":488,"name":"KGN \\ \\ \\","steam_id":76561198147746558,"connected_time":856000000000,"state":"active","ping":61},{"user_id":489,"name":"Mister36","steam_id":76561198019132100,"connected_time":698000000000,"state":"active","ping":58},{"user_id":490,"name":"Matte :)","steam_id":76561198070631073,"connected_time":661000000000,"state":"active","ping":90},{"user_id":491,"name":"IMPACT!","steam_id":76561198131458027,"connected_time":582000000000,"state":"active","ping":64},{"user_id":492,"name":"MixedNuts","steam_id":76561199104812195,"connected_time":560000000000,"state":"active","ping":76},{"user_id":503,"name":"Prunsel","steam_id":76561198813790543,"connected_time":29000000000,"state":"active","ping":61},{"user_id":486,"name":"KingCrawful","steam_id":76561198104291657,"connected_time":1051000000000,"state":"active","ping":51},{"user_id":504,"name":"Corn","steam_id":76561198177186718,"connected_time":2000000000,"state":"spawning","ping":44},{"user_id":427,"name":"Zin","steam_id":76561199041369507,"connected_time":7324000000000,"state":"active","ping":69},{"user_id":493,"name":"Soap Man","steam_id":76561198000490235,"connected_time":548000000000,"state":"active","ping":137},{"user_id":465,"name":"Hindmost","steam_id":76561199081837220,"connected_time":4537000000000,"state":"active","ping":77},{"user_id":500,"name":"djfigs1","steam_id":76561198138725392,"connected_time":337000000000,"state":"active","ping":48},{"user_id":485,"name":"Oopsie Daisy ‚ùã","steam_id":76561198042144492,"connected_time":1788000000000,"state":"active","ping":73},{"user_id":495,"name":"Colin102004","steam_id":76561198202384334,"connected_time":462000000000,"state":"active","ping":50},{"user_id":496,"name":"theRainyMute","steam_id":76561198127625760,"connected_time":455000000000,"state":"active","ping":59},{"user_id":497,"name":"Lennu","steam_id":76561198060730154,"connected_time":452000000000,"state":"active","ping":73},{"user_id":501,"name":"Colonel_Corn24","steam_id":76561198144993661,"connected_time":231000000000,"state":"active","ping":98},{"user_id":499,"name":"super","steam_id":76561198800358844,"connected_time":420000000000,"state":"active","ping":74},{"user_id":451,"name":"BONZ","steam_id":76561199445629071,"connected_time":5306000000000,"state":"active","ping":73},{"user_id":459,"name":"Kromeousible","steam_id":76561198087317232,"connected_time":5030000000000,"state":"active","ping":74}]},{"server_id":8,"name":"Uncletopia | Dallas | 1 | All Maps","name_short":"dal-1","host":"dal-1.us.uncletopia.com","port":27015,"enabled":true,"region":"us-central","cc":"us","latitude":32.779167,"longitude":-96.80889,"reserved":0,"last_update":"0001-01-01T00:00:00Z","name_a2s":"Uncletopia | Dallas | 1 | All Maps","protocol":17,"map":"cp_process_final","folder":"tf","game":"Team Fortress","app_id":440,"player_count":23,"max_players":24,"Bots":0,"server_type":"Dedicated","server_os":"Linux","password":true,"vac":true,"version":"7757534","steam_id":85568392924469986,"keywords":["cp","nocrits","nodmgspread","uncletopia"],"game_id":440,"stv_port":27016,"stv_name":"Uncletopia | Dallas | 1 | All Maps | STV","players":[{"user_id":458,"name":"Gelliterate","steam_id":76561198107233070,"connected_time":3360000000000,"state":"active","ping":46},{"user_id":481,"name":"Toastasawrus Rex","steam_id":76561198070834237,"connected_time":1806000000000,"state":"active","ping":73},{"user_id":466,"name":"Stillkill","steam_id":76561198065069057,"connected_time":3194000000000,"state":"active","ping":35},{"user_id":485,"name":"sexypringle","steam_id":76561198401282091,"connected_time":1688000000000,"state":"active","ping":72},{"user_id":452,"name":"Joe Swanson","steam_id":76561199089907740,"connected_time":4159000000000,"state":"active","ping":70},{"user_id":483,"name":"Saulen","steam_id":76561198150726407,"connected_time":1696000000000,"state":"active","ping":60},{"user_id":493,"name":"SleepyTimes","steam_id":76561198883645873,"connected_time":1171000000000,"state":"active","ping":73},{"user_id":496,"name":"trash beast","steam_id":76561198015792736,"connected_time":1136000000000,"state":"active","ping":78},{"user_id":494,"name":"Kioxik","steam_id":76561198240081498,"connected_time":1171000000000,"state":"active","ping":116},{"user_id":502,"name":"Autogyro","steam_id":76561198047943679,"connected_time":526000000000,"state":"active","ping":49},{"user_id":324,"name":"·ö£·ö≥·õä·ö∏","steam_id":76561198103507176,"connected_time":11380000000000,"state":"active","ping":80},{"user_id":498,"name":"dansal","steam_id":76561197997042510,"connected_time":1114000000000,"state":"active","ping":65},{"user_id":503,"name":"Le Pinguino","steam_id":76561198320530905,"connected_time":523000000000,"state":"active","ping":53},{"user_id":461,"name":"gritty 2024","steam_id":76561198165567310,"connected_time":3263000000000,"state":"active","ping":83},{"user_id":476,"name":"Lane","steam_id":76561197965828506,"connected_time":2068000000000,"state":"active","ping":59},{"user_id":400,"name":";-;","steam_id":76561198044443985,"connected_time":6571000000000,"state":"active","ping":65},{"user_id":491,"name":"Lt. Birb","steam_id":76561199086146261,"connected_time":1364000000000,"state":"active","ping":73},{"user_id":470,"name":"Cricket Girl!","steam_id":76561198838054669,"connected_time":2909000000000,"state":"active","ping":91},{"user_id":480,"name":"Royal Birb","steam_id":76561198124184158,"connected_time":2011000000000,"state":"active","ping":85},{"user_id":499,"name":"Toucan Stan","steam_id":76561198149967920,"connected_time":1089000000000,"state":"active","ping":122},{"user_id":484,"name":"OrphanObliterator","steam_id":76561199185087795,"connected_time":1694000000000,"state":"active","ping":114},{"user_id":487,"name":"DannyM","steam_id":76561198351165570,"connected_time":1647000000000,"state":"active","ping":36},{"user_id":478,"name":"heimdall","steam_id":76561198069380992,"connected_time":2036000000000,"state":"active","ping":69}]},{"server_id":108,"name":"Uncletopia | Dallas | 2 | All Maps","name_short":"dal-2","host":"dal-1.us.uncletopia.com","port":27025,"enabled":true,"region":"us-central","cc":"us","latitude":32.779167,"longitude":-96.80889,"reserved":0,"last_update":"0001-01-01T00:00:00Z","name_a2s":"Uncletopia | Dallas | 2 | All Maps","protocol":17,"map":"pl_badwater","folder":"tf","game":"Team Fortress","app_id":440,"player_count":24,"max_players":24,"Bots":0,"server_type":"Dedicated","server_os":"Linux","password":true,"vac":true,"version":"7757534","steam_id":85568392924469988,"keywords":["nocrits","nodmgspread","payload","uncletopia"],"game_id":440,"stv_port":27026,"stv_name":"Uncletopia | Dallas | 2 | All Maps | STV","players":[{"user_id":313,"name":"GreenApples","steam_id":76561198120559543,"connected_time":199000000000,"state":"active","ping":85},{"user_id":288,"name":"ashamed owner of a thin epiglot","steam_id":76561198010019214,"connected_time":3305000000000,"state":"active","ping":60},{"user_id":306,"name":"GLG.Liz","steam_id":76561198021957956,"connected_time":707000000000,"state":"active","ping":45},{"user_id":260,"name":"DaSoulFlaya","steam_id":76561198047916808,"connected_time":5615000000000,"state":"active","ping":99},{"user_id":261,"name":"Holy Dwight","steam_id":76561198012334980,"connected_time":5614000000000,"state":"active","ping":87},{"user_id":298,"name":"fettuccine sequence","steam_id":76561198000564263,"connected_time":1281000000000,"state":"active","ping":66},{"user_id":309,"name":"Tritium","steam_id":76561198043305626,"connected_time":227000000000,"state":"active","ping":100},{"user_id":290,"name":"java","steam_id":76561198030276792,"connected_time":2725000000000,"state":"active","ping":74},{"user_id":286,"name":"GLG MUTT","steam_id":76561198147785541,"connected_time":3325000000000,"state":"active","ping":58},{"user_id":301,"name":"purply-ghost","steam_id":76561199204779865,"connected_time":1046000000000,"state":"active","ping":39},{"user_id":271,"name":"lanoc","steam_id":76561198055415367,"connected_time":4209000000000,"state":"active","ping":66},{"user_id":264,"name":"Gengoron","steam_id":76561197994829919,"connected_time":5371000000000,"state":"active","ping":111},{"user_id":292,"name":"Onyx","steam_id":76561198275349640,"connected_time":2518000000000,"state":"active","ping":57},{"user_id":252,"name":"El Camino","steam_id":76561197992848313,"connected_time":6432000000000,"state":"active","ping":88},{"user_id":284,"name":"SlimPorkchops","steam_id":76561198958586069,"connected_time":3354000000000,"state":"active","ping":63},{"user_id":296,"name":"bonk","steam_id":76561198004823930,"connected_time":1326000000000,"state":"active","ping":76},{"user_id":307,"name":"Sydney","steam_id":76561198797603297,"connected_time":334000000000,"state":"active","ping":49},{"user_id":314,"name":"proud owner of a large tongue","steam_id":76561198106690989,"connected_time":174000000000,"state":"active","ping":91},{"user_id":258,"name":"FoamyPirate.h","steam_id":76561197970312151,"connected_time":5656000000000,"state":"active","ping":77},{"user_id":310,"name":"supbreak20","steam_id":76561199121826901,"connected_time":226000000000,"state":"active","ping":67},{"user_id":305,"name":"Saikyo","steam_id":76561198212461467,"connected_time":828000000000,"state":"active","ping":48},{"user_id":311,"name":"pudl","steam_id":76561198043726592,"connected_time":225000000000,"state":"active","ping":46},{"user_id":308,"name":"One of them Idiots","steam_id":76561198010708247,"connected_time":305000000000,"state":"active","ping":91},{"user_id":312,"name":"Dullahan","steam_id":76561198119668908,"connected_time":224000000000,"state":"active","ping":91}]},{"server_id":5,"name":"Uncletopia | Frankfurt | 1 | All Maps","name_short":"frk-1","host":"frk-1.de.uncletopia.com","port":27015,"enabled":true,"region":"eu","cc":"de","latitude":50.110924,"longitude":8.682127,"reserved":0,"last_update":"0001-01-01T00:00:00Z","name_a2s":"Uncletopia | Frankfurt | 1 | All Maps","protocol":17,"map":"pl_frontier_final","folder":"tf","game":"Team Fortress","app_id":440,"player_count":23,"max_players":24,"Bots":0,"server_type":"Dedicated","server_os":"Linux","password":true,"vac":true,"version":"7757534","steam_id":85568392924469989,"keywords":["nocrits","nodmgspread","payload","uncletopia"],"game_id":440,"stv_port":27016,"stv_name":"Uncletopia | Frankfurt | 1 | All Maps | STV","players":[{"user_id":659,"name":"Arget","steam_id":76561198084121867,"connected_time":4450000000000,"state":"active","ping":91},{"user_id":700,"name":"Blurry","steam_id":76561198884908952,"connected_time":1533000000000,"state":"active","ping":62},{"user_id":698,"name":"Dr.Disrespect","steam_id":76561198043820228,"connected_time":1865000000000,"state":"active","ping":47},{"user_id":671,"name":"dec","steam_id":76561198009660168,"connected_time":3658000000000,"state":"active","ping":68},{"user_id":681,"name":"Enigmus","steam_id":76561197994063627,"connected_time":3163000000000,"state":"active","ping":75},{"user_id":702,"name":"John Fortress","steam_id":76561198043743881,"connected_time":1502000000000,"state":"active","ping":45},{"user_id":692,"name":"Ôº≠ÔΩÅÔΩÉÔΩâÔΩéÔΩîÔΩèÔΩìÔΩà","steam_id":76561198074294565,"connected_time":2521000000000,"state":"active","ping":80},{"user_id":703,"name":"hh3-","steam_id":76561198448881626,"connected_time":1433000000000,"state":"active","ping":132},{"user_id":676,"name":"engie?","steam_id":76561198331852832,"connected_time":3585000000000,"state":"active","ping":62},{"user_id":704,"name":"r0la","steam_id":76561198128315340,"connected_time":1415000000000,"state":"active","ping":85},{"user_id":712,"name":"[TR] G√∂ka√ßƒ±nlar","steam_id":76561198374283928,"connected_time":468000000000,"state":"active","ping":91},{"user_id":713,"name":"Coca162","steam_id":76561198230656540,"connected_time":411000000000,"state":"active","ping":59},{"user_id":664,"name":"Slow Mode","steam_id":76561199414716848,"connected_time":3819000000000,"state":"active","ping":61},{"user_id":686,"name":"TheFallenFox","steam_id":76561199074190919,"connected_time":2917000000000,"state":"active","ping":61},{"user_id":705,"name":"Arky ü¶ë","steam_id":76561198027448234,"connected_time":1319000000000,"state":"active","ping":74},{"user_id":706,"name":"Meatstick With a M.D","steam_id":76561198070137469,"connected_time":1197000000000,"state":"active","ping":88},{"user_id":708,"name":"jermaketamine958","steam_id":76561198031325797,"connected_time":1028000000000,"state":"active","ping":60},{"user_id":709,"name":"MellOH!","steam_id":76561198023820665,"connected_time":627000000000,"state":"active","ping":85},{"user_id":710,"name":"Hann√º","steam_id":76561197969886128,"connected_time":553000000000,"state":"active","ping":74},{"user_id":654,"name":"MAGGOTS!!BBX","steam_id":76561198326015472,"connected_time":4842000000000,"state":"active","ping":69},{"user_id":714,"name":"Dude Time","steam_id":76561198092991160,"connected_time":385000000000,"state":"active","ping":157},{"user_id":696,"name":"Sophie","steam_id":76561198970075085,"connected_time":2387000000000,"state":"active","ping":60},{"user_id":697,"name":"Taste","steam_id":76561197994506978,"connected_time":2355000000000,"state":"active","ping":70}]},{"server_id":110,"name":"Uncletopia | Frankfurt | 2 | All Maps","name_short":"frk-2","host":"frk-1.de.uncletopia.com","port":27025,"enabled":true,"region":"eu","cc":"de","latitude":50.110924,"longitude":8.682127,"reserved":0,"last_update":"0001-01-01T00:00:00Z","name_a2s":"Uncletopia | Frankfurt | 2 | All Maps","protocol":17,"map":"pl_upward","folder":"tf","game":"Team Fortress","app_id":440,"player_count":0,"max_players":24,"Bots":0,"server_type":"Dedicated","server_os":"Linux","password":true,"vac":true,"version":"7757534","steam_id":85568392924469990,"keywords":["nocrits","nodmgspread","payload","uncletopia"],"game_id":440,"stv_port":27026,"stv_name":"Uncletopia | Frankfurt | 2 | All Maps | STV","players":null},{"server_id":308,"name":"Uncletopia | Frankfurt | 3 | All Maps","name_short":"frk-3","host":"frk-1.de.uncletopia.com","port":27035,"enabled":true,"region":"eu","cc":"de","latitude":50.110924,"longitude":8.682127,"reserved":0,"last_update":"0001-01-01T00:00:00Z","name_a2s":"Uncletopia | Frankfurt | 3 | All Maps","protocol":17,"map":"pl_pier","folder":"tf","game":"Team Fortress","app_id":440,"player_count":0,"max_players":24,"Bots":0,"server_type":"Dedicated","server_os":"Linux","password":true,"vac":true,"version":"7757534","steam_id":85568392924504274,"keywords":["nocrits","nodmgspread","payload","uncletopia"],"game_id":440,"stv_port":27036,"stv_name":"Uncletopia | Frankfurt | 3 | All Maps | STV","players":null},{"server_id":309,"name":"Uncletopia | Frankfurt | 4 | All Maps","name_short":"frk-4","host":"frk-1.de.uncletopia.com","port":27045,"enabled":true,"region":"eu","cc":"de","latitude":50.110924,"longitude":8.682127,"reserved":0,"last_update":"0001-01-01T00:00:00Z","name_a2s":"Uncletopia | Frankfurt | 4 | All Maps","protocol":17,"map":"koth_highpass","folder":"tf","game":"Team Fortress","app_id":440,"player_count":0,"max_players":24,"Bots":0,"server_type":"Dedicated","server_os":"Linux","password":true,"vac":true,"version":"7757534","steam_id":85568392924504275,"keywords":["cp","nocrits","nodmgspread","uncletopia"],"game_id":440,"stv_port":27046,"stv_name":"Uncletopia | Frankfurt | 4 | All Maps | STV","players":null},{"server_id":310,"name":"Uncletopia | Frankfurt | 5 | All Maps","name_short":"frk-5","host":"frk-1.de.uncletopia.com","port":27055,"enabled":true,"region":"eu","cc":"de","latitude":50.110924,"longitude":8.682127,"reserved":0,"last_update":"0001-01-01T00:00:00Z","name_a2s":"Uncletopia | Frankfurt | 5 | All Maps","protocol":17,"map":"pl_borneo","folder":"tf","game":"Team Fortress","app_id":440,"player_count":0,"max_players":24,"Bots":0,"server_type":"Dedicated","server_os":"Linux","password":true,"vac":true,"version":"7757534","steam_id":85568392924504277,"keywords":["nocrits","nodmgspread","payload","uncletopia"],"game_id":440,"stv_port":27056,"stv_name":"Uncletopia | Frankfurt | 5 | All Maps | STV","players":null},{"server_id":311,"name":"Uncletopia | Frankfurt | 6 | All Maps","name_short":"frk-6","host":"frk-1.de.uncletopia.com","port":27065,"enabled":true,"region":"eu","cc":"de","latitude":50.110924,"longitude":8.682127,"reserved":0,"last_update":"0001-01-01T00:00:00Z","name_a2s":"Uncletopia | Frankfurt | 6 | All Maps","protocol":17,"map":"koth_highpass","folder":"tf","game":"Team Fortress","app_id":440,"player_count":0,"max_players":24,"Bots":0,"server_type":"Dedicated","server_os":"Linux","password":true,"vac":true,"version":"7757534","steam_id":85568392924504278,"keywords":["cp","nocrits","nodmgspread","uncletopia"],"game_id":440,"stv_port":27066,"stv_name":"Uncletopia | Frankfurt | 6 | All Maps | STV","players":null},{"server_id":23,"name":"Uncletopia | Frankfurt | 7 | Stopwatch Beta","name_short":"frk-7","host":"frk-1.de.uncletopia.com","port":27075,"enabled":true,"region":"eu","cc":"de","latitude":50.110924,"longitude":8.682127,"reserved":0,"last_update":"0001-01-01T00:00:00Z","name_a2s":"Uncletopia | Frankfurt | 7 | Stopwatch Beta","protocol":17,"map":"pl_upward","folder":"tf","game":"Team Fortress","app_id":440,"player_count":0,"max_players":24,"Bots":0,"server_type":"Dedicated","server_os":"Linux","password":true,"vac":true,"version":"7757534","steam_id":85568392924742827,"keywords":["nocrits","nodmgspread","payload","uncletopia"],"game_id":440,"stv_port":27076,"stv_name":"Uncletopia | Frankfurt | 7 | Stopwatch Beta | STV","players":null},{"server_id":24,"name":"Uncletopia | Frankfurt | 8 | Community","name_short":"frk-8","host":"frk-1.de.uncletopia.com","port":27085,"enabled":true,"region":"eu","cc":"de","latitude":50.110924,"longitude":8.682127,"reserved":0,"last_update":"0001-01-01T00:00:00Z","name_a2s":"Uncletopia | Frankfurt | 8 | Community","protocol":17,"map":"workshop/koth_slaughter_rc1.ugc1712845210","folder":"tf","game":"Team Fortress","app_id":440,"player_count":0,"max_players":24,"Bots":0,"server_type":"Dedicated","server_os":"Linux","password":true,"vac":true,"version":"7757534","steam_id":85568392924742828,"keywords":["cp","nocrits","nodmgspread","uncletopia"],"game_id":440,"stv_port":27086,"stv_name":"Uncletopia | Frankfurt | 8 | Community | STV","players":null},{"server_id":202,"name":"Uncletopia | Hong Kong | 1 | All Maps","name_short":"hgk-1","host":"hgk-1.hk.uncletopia.com","port":27015,"enabled":true,"region":"asia","cc":"hk","latitude":22.302711,"longitude":114.177216,"reserved":0,"last_update":"0001-01-01T00:00:00Z","name_a2s":"Uncletopia | Hong Kong | 1 | All Maps","protocol":17,"map":"pl_pier","folder":"tf","game":"Team Fortress","app_id":440,"player_count":14,"max_players":24,"Bots":0,"server_type":"Dedicated","server_os":"Linux","password":true,"vac":true,"version":"7757534","steam_id":85568392924494504,"keywords":["nocrits","nodmgspread","payload","uncletopia"],"game_id":440,"stv_port":27016,"stv_name":"Uncletopia | Hong Kong | 1 | All Maps | STV","players":[{"user_id":11,"name":"Pillboi","steam_id":76561198011172886,"connected_time":5000000000000,"state":"active","ping":42},{"user_id":51,"name":"Prof Booster","steam_id":76561199148930929,"connected_time":83000000000,"state":"active","ping":39},{"user_id":42,"name":"Yonkers092","steam_id":76561199438595119,"connected_time":1064000000000,"state":"active","ping":120},{"user_id":49,"name":"screaming sniper","steam_id":76561199085568674,"connected_time":163000000000,"state":"active","ping":67},{"user_id":44,"name":"SUUTEI TSAI","steam_id":76561198846610729,"connected_time":686000000000,"state":"active","ping":105},{"user_id":22,"name":"killman47","steam_id":76561198348487408,"connected_time":2058000000000,"state":"active","ping":38},{"user_id":50,"name":"sauceyert","steam_id":76561199085409122,"connected_time":131000000000,"state":"active","ping":56},{"user_id":48,"name":"Ohio Henchmen","steam_id":76561199234460334,"connected_time":299000000000,"state":"active","ping":147},{"user_id":40,"name":"p1st0n","steam_id":76561198992723983,"connected_time":1137000000000,"state":"active","ping":96},{"user_id":27,"name":"Corhix","steam_id":76561198968706355,"connected_time":1883000000000,"state":"active","ping":47},{"user_id":52,"name":"Signed_In_Again","steam_id":76561199446481404,"connected_time":82000000000,"state":"active","ping":119},{"user_id":34,"name":"colme0104","steam_id":76561199164653025,"connected_time":1427000000000,"state":"active","ping":66},{"user_id":38,"name":"ASVAL IS BEST GRILL","steam_id":76561198413260375,"connected_time":1285000000000,"state":"active","ping":62},{"user_id":41,"name":"let cook","steam_id":76561198055553140,"connected_time":1133000000000,"state":"active","ping":75}]},{"server_id":1,"name":"Uncletopia | Los Angeles | 1 | All Maps","name_short":"lax-1","host":"lax-1.us.uncletopia.com","port":27015,"enabled":true,"region":"us-west","cc":"us","latitude":33.94279,"longitude":-118.41004,"reserved":0,"last_update":"0001-01-01T00:00:00Z","name_a2s":"Uncletopia | Los Angeles | 1 | All Maps","protocol":17,"map":"pl_swiftwater_final1","folder":"tf","game":"Team Fortress","app_id":440,"player_count":24,"max_players":24,"Bots":0,"server_type":"Dedicated","server_os":"Linux","password":true,"vac":true,"version":"7757534","steam_id":85568392924469991,"keywords":["nocrits","nodmgspread","payload","uncletopia"],"game_id":440,"stv_port":27016,"stv_name":"Uncletopia | Los Angeles | 1 | All Maps | STV","players":[{"user_id":390,"name":"c953","steam_id":76561198798981682,"connected_time":993000000000,"state":"active","ping":125},{"user_id":377,"name":"bird","steam_id":76561198992371280,"connected_time":1299000000000,"state":"active","ping":127},{"user_id":359,"name":"shrimpboi783","steam_id":76561199091069924,"connected_time":1983000000000,"state":"active","ping":59},{"user_id":394,"name":"Veritox","steam_id":76561198075778026,"connected_time":717000000000,"state":"active","ping":68},{"user_id":369,"name":"MoopStoop","steam_id":76561198140936620,"connected_time":1485000000000,"state":"active","ping":75},{"user_id":364,"name":"‡πá‡πá‡πá‡πá‡πá","steam_id":76561198118859752,"connected_time":1699000000000,"state":"active","ping":45},{"user_id":286,"name":"WaluigiPinball","steam_id":76561198170415589,"connected_time":7967000000000,"state":"active","ping":62},{"user_id":368,"name":"YO_WUBBOX_DRIP","steam_id":76561199192607427,"connected_time":1518000000000,"state":"active","ping":109},{"user_id":396,"name":"hoopswoop9","steam_id":76561199203050556,"connected_time":179000000000,"state":"active","ping":58},{"user_id":378,"name":"scot the waz","steam_id":76561198372030749,"connected_time":1293000000000,"state":"active","ping":131},{"user_id":371,"name":"Sham Cow","steam_id":76561198064556977,"connected_time":1472000000000,"state":"active","ping":102},{"user_id":350,"name":"StunSeed","steam_id":76561198311602710,"connected_time":2295000000000,"state":"active","ping":49},{"user_id":397,"name":"en.wikipedia.org/wiki/Nae_Nae","steam_id":76561198418288939,"connected_time":141000000000,"state":"active","ping":69},{"user_id":395,"name":"squid","steam_id":76561198070236972,"connected_time":440000000000,"state":"active","ping":60},{"user_id":379,"name":"Captain Scoundrel","steam_id":76561198412322703,"connected_time":1281000000000,"state":"active","ping":134},{"user_id":380,"name":"Crazy Hungarian","steam_id":76561198025498172,"connected_time":1233000000000,"state":"active","ping":72},{"user_id":381,"name":"squid were","steam_id":76561198237025688,"connected_time":1221000000000,"state":"active","ping":108},{"user_id":382,"name":"UPS","steam_id":76561198214115167,"connected_time":1200000000000,"state":"active","ping":123},{"user_id":392,"name":"rustyorion","steam_id":76561198439186347,"connected_time":904000000000,"state":"active","ping":93},{"user_id":393,"name":"breaking the exosphere","steam_id":76561198825658971,"connected_time":902000000000,"state":"active","ping":46},{"user_id":386,"name":"Sykes10","steam_id":76561198279623105,"connected_time":1165000000000,"state":"active","ping":50},{"user_id":387,"name":"Munch","steam_id":76561198069357768,"connected_time":1162000000000,"state":"active","ping":110},{"user_id":388,"name":"zinnk","steam_id":76561198092081825,"connected_time":1097000000000,"state":"active","ping":45},{"user_id":389,"name":"DrFTW","steam_id":76561198175527267,"connected_time":1093000000000,"state":"active","ping":76}]},{"server_id":112,"name":"Uncletopia | Los Angeles | 2 | All Maps","name_short":"lax-2","host":"lax-1.us.uncletopia.com","port":27025,"enabled":true,"region":"us-west","cc":"us","latitude":33.94279,"longitude":-118.41004,"reserved":0,"last_update":"0001-01-01T00:00:00Z","name_a2s":"Uncletopia | Los Angeles | 2 | All Maps","protocol":17,"map":"pl_swiftwater_final1","folder":"tf","game":"Team Fortress","app_id":440,"player_count":24,"max_players":24,"Bots":0,"server_type":"Dedicated","server_os":"Linux","password":true,"vac":true,"version":"7757534","steam_id":85568392924469992,"keywords":["nocrits","nodmgspread","payload","uncletopia"],"game_id":440,"stv_port":27026,"stv_name":"Uncletopia | Los Angeles | 2 | All Maps | STV","players":[{"user_id":186,"name":"Capn. Wing Ding","steam_id":76561198076068424,"connected_time":11318000000000,"state":"active","ping":118},{"user_id":304,"name":"oracle","steam_id":76561198110033553,"connected_time":3953000000000,"state":"active","ping":103},{"user_id":342,"name":"autumnal.messenger","steam_id":76561199345816635,"connected_time":1113000000000,"state":"active","ping":84},{"user_id":349,"name":"MakutaArty1987","steam_id":76561199048865492,"connected_time":253000000000,"state":"active","ping":101},{"user_id":268,"name":"BURGER!!","steam_id":76561198110342686,"connected_time":5960000000000,"state":"active","ping":94},{"user_id":324,"name":"judesro","steam_id":76561198352244888,"connected_time":2495000000000,"state":"active","ping":144},{"user_id":305,"name":"Superman123389","steam_id":76561198267472539,"connected_time":3926000000000,"state":"active","ping":92},{"user_id":333,"name":"TheTruthOfTheCessationOfDukkha","steam_id":76561198214370515,"connected_time":2267000000000,"state":"active","ping":99},{"user_id":345,"name":"dmitri","steam_id":76561198060559286,"connected_time":724000000000,"state":"active","ping":57},{"user_id":319,"name":"Sugary","steam_id":76561198088267265,"connected_time":2964000000000,"state":"active","ping":75},{"user_id":320,"name":"ForAPessimistImPrettyOptimistic","steam_id":76561198170128009,"connected_time":2896000000000,"state":"active","ping":63},{"user_id":282,"name":"neon","steam_id":76561198081955560,"connected_time":5373000000000,"state":"active","ping":62},{"user_id":353,"name":"oil","steam_id":76561198099980149,"connected_time":102000000000,"state":"active","ping":53},{"user_id":351,"name":"WannaSeeA","steam_id":76561198097701042,"connected_time":207000000000,"state":"active","ping":87},{"user_id":273,"name":"RC Cola ¬Æ","steam_id":76561198165074941,"connected_time":5902000000000,"state":"active","ping":52},{"user_id":329,"name":"Mupu Mupu","steam_id":76561198808795775,"connected_time":2318000000000,"state":"active","ping":100},{"user_id":348,"name":"moodi catgirl","steam_id":76561198124028045,"connected_time":319000000000,"state":"active","ping":117},{"user_id":346,"name":"yeah.","steam_id":76561198873663168,"connected_time":704000000000,"state":"active","ping":99},{"user_id":276,"name":"Shwee","steam_id":76561199439625082,"connected_time":5877000000000,"state":"active","ping":75},{"user_id":352,"name":"bewilderson","steam_id":76561198201585955,"connected_time":181000000000,"state":"active","ping":103},{"user_id":311,"name":"Wilhelmktx","steam_id":76561198158102295,"connected_time":3469000000000,"state":"active","ping":112},{"user_id":340,"name":"SleezeBaggerMcSwagger","steam_id":76561198397836238,"connected_time":1368000000000,"state":"active","ping":60},{"user_id":341,"name":"Ska√∞i","steam_id":76561198063949642,"connected_time":1153000000000,"state":"active","ping":69},{"user_id":308,"name":"catgirl giantess in heat","steam_id":76561198439042583,"connected_time":3904000000000,"state":"active","ping":91}]},{"server_id":324,"name":"Uncletopia | Los Angeles | 3 | All Maps","name_short":"lax-3","host":"lax-1.us.uncletopia.com","port":27035,"enabled":true,"region":"us-west","cc":"us","latitude":33.94279,"longitude":-118.41004,"reserved":0,"last_update":"0001-01-01T00:00:00Z","name_a2s":"Uncletopia | Los Angeles | 3 | All Maps","protocol":17,"map":"pl_thundermountain","folder":"tf","game":"Team Fortress","app_id":440,"player_count":10,"max_players":24,"Bots":0,"server_type":"Dedicated","server_os":"Linux","password":true,"vac":true,"version":"7757534","steam_id":85568392924510198,"keywords":["nocrits","nodmgspread","payload","uncletopia"],"game_id":440,"stv_port":27036,"stv_name":"Uncletopia | Los Angeles | 3 | All Maps | STV","players":[{"user_id":267,"name":"PandaWithHat2313","steam_id":76561199116285411,"connected_time":3385000000000,"state":"active","ping":57},{"user_id":323,"name":"dipinpreet","steam_id":76561198329035044,"connected_time":34000000000,"state":"active","ping":106},{"user_id":283,"name":"jerma enthusiast","steam_id":76561198359466264,"connected_time":2903000000000,"state":"active","ping":118},{"user_id":260,"name":"Feel the bern","steam_id":76561198078824519,"connected_time":4537000000000,"state":"active","ping":46},{"user_id":317,"name":"Fanout","steam_id":76561198075619480,"connected_time":826000000000,"state":"active","ping":48},{"user_id":320,"name":"Not A Rapper","steam_id":76561198077523537,"connected_time":512000000000,"state":"active","ping":130},{"user_id":273,"name":"The Backstabbing Bastard","steam_id":76561198112635823,"connected_time":3097000000000,"state":"active","ping":77},{"user_id":314,"name":"jesus christ","steam_id":76561198315825042,"connected_time":1327000000000,"state":"active","ping":60},{"user_id":291,"name":"I Can't Stop Smelling My Finger","steam_id":76561198189445709,"connected_time":2616000000000,"state":"active","ping":95},{"user_id":292,"name":"uberwolf64000","steam_id":76561198905661211,"connected_time":2592000000000,"state":"active","ping":105}]},{"server_id":25,"name":"Uncletopia | Los Angeles | 4 | Stopwatch Beta","name_short":"lax-4","host":"lax-1.us.uncletopia.com","port":27045,"enabled":true,"region":"us-west","cc":"us","latitude":33.94279,"longitude":-118.41004,"reserved":0,"last_update":"0001-01-01T00:00:00Z","name_a2s":"Uncletopia | Los Angeles | 4 | Stopwatch Beta","protocol":17,"map":"pl_frontier_final","folder":"tf","game":"Team Fortress","app_id":440,"player_count":0,"max_players":24,"Bots":0,"server_type":"Dedicated","server_os":"Linux","password":true,"vac":true,"version":"7757534","steam_id":85568392924510199,"keywords":["nocrits","nodmgspread","payload","uncletopia"],"game_id":440,"stv_port":27046,"stv_name":"Uncletopia | Los Angeles | 4 | Stopwatch Beta | STV","players":null},{"server_id":11,"name":"Uncletopia | London | 1 | All Maps","name_short":"lon-1","host":"lon-1.uk.uncletopia.com","port":27015,"enabled":true,"region":"eu","cc":"gb","latitude":51.509865,"longitude":-0.118092,"reserved":0,"last_update":"0001-01-01T00:00:00Z","name_a2s":"Uncletopia | London | 1 | All Maps","protocol":17,"map":"koth_viaduct","folder":"tf","game":"Team Fortress","app_id":440,"player_count":3,"max_players":24,"Bots":0,"server_type":"Dedicated","server_os":"Linux","password":true,"vac":true,"version":"7757534","steam_id":85568392924367362,"keywords":["cp","nocrits","nodmgspread","uncletopia"],"game_id":440,"stv_port":27016,"stv_name":"Uncletopia | London | 1 | All Maps | STV","players":[{"user_id":914,"name":"MarkBV","steam_id":76561198427014506,"connected_time":39000000000,"state":"active","ping":145},{"user_id":895,"name":"JackDegle","steam_id":76561198427027677,"connected_time":4983000000000,"state":"active","ping":89},{"user_id":859,"name":"Avocado [Ham Mafia]","steam_id":76561199007231261,"connected_time":9450000000000,"state":"active","ping":66}]},{"server_id":114,"name":"Uncletopia | London | 2 | All Maps","name_short":"lon-2","host":"lon-1.uk.uncletopia.com","port":27025,"enabled":true,"region":"eu","cc":"gb","latitude":51.509865,"longitude":-0.118092,"reserved":0,"last_update":"0001-01-01T00:00:00Z","name_a2s":"Uncletopia | London | 2 | All Maps","protocol":17,"map":"koth_lakeside_final","folder":"tf","game":"Team Fortress","app_id":440,"player_count":0,"max_players":24,"Bots":0,"server_type":"Dedicated","server_os":"Linux","password":true,"vac":true,"version":"7757534","steam_id":85568392924470941,"keywords":["cp","nocrits","nodmgspread","uncletopia"],"game_id":440,"stv_port":27026,"stv_name":"Uncletopia | London | 2 | All Maps | STV","players":null},{"server_id":320,"name":"Uncletopia | London | 3 | All Maps","name_short":"lon-3","host":"lon-1.uk.uncletopia.com","port":27035,"enabled":true,"region":"eu","cc":"gb","latitude":51.509865,"longitude":-0.118092,"reserved":0,"last_update":"0001-01-01T00:00:00Z","name_a2s":"Uncletopia | London | 3 | All Maps","protocol":17,"map":"koth_king","folder":"tf","game":"Team Fortress","app_id":440,"player_count":0,"max_players":24,"Bots":0,"server_type":"Dedicated","server_os":"Linux","password":true,"vac":true,"version":"7757534","steam_id":85568392924510192,"keywords":["cp","nocrits","nodmgspread","uncletopia"],"game_id":440,"stv_port":27036,"stv_name":"Uncletopia | London | 3 | All Maps | STV","players":null},{"server_id":321,"name":"Uncletopia | London | 4 | All Maps","name_short":"lon-4","host":"lon-1.uk.uncletopia.com","port":27045,"enabled":true,"region":"eu","cc":"gb","latitude":51.509865,"longitude":-0.118092,"reserved":0,"last_update":"0001-01-01T00:00:00Z","name_a2s":"Uncletopia | London | 4 | All Maps","protocol":17,"map":"koth_lakeside_final","folder":"tf","game":"Team Fortress","app_id":440,"player_count":0,"max_players":24,"Bots":0,"server_type":"Dedicated","server_os":"Linux","password":true,"vac":true,"version":"7757534","steam_id":85568392924510193,"keywords":["cp","nocrits","nodmgspread","uncletopia"],"game_id":440,"stv_port":27046,"stv_name":"Uncletopia | London | 4 | All Maps | STV","players":null},{"server_id":21,"name":"Uncletopia | London | 5 | All Maps","name_short":"lon-5","host":"lon-1.uk.uncletopia.com","port":27055,"enabled":true,"region":"eu","cc":"gb","latitude":51.509865,"longitude":-0.118092,"reserved":0,"last_update":"0001-01-01T00:00:00Z","name_a2s":"Uncletopia | London | 5 | All Maps","protocol":17,"map":"pl_barnblitz","folder":"tf","game":"Team Fortress","app_id":440,"player_count":0,"max_players":24,"Bots":0,"server_type":"Dedicated","server_os":"Linux","password":true,"vac":true,"version":"7757534","steam_id":85568392924742829,"keywords":["nocrits","nodmgspread","payload","uncletopia"],"game_id":440,"stv_port":27056,"stv_name":"Uncletopia | London | 5 | All Maps | STV","players":null},{"server_id":22,"name":"Uncletopia | London | 6 | All Maps","name_short":"lon-6","host":"lon-1.uk.uncletopia.com","port":27065,"enabled":true,"region":"eu","cc":"gb","latitude":51.509865,"longitude":-0.118092,"reserved":0,"last_update":"0001-01-01T00:00:00Z","name_a2s":"Uncletopia | London | 6 | All Maps","protocol":17,"map":"koth_viaduct","folder":"tf","game":"Team Fortress","app_id":440,"player_count":0,"max_players":24,"Bots":0,"server_type":"Dedicated","server_os":"Linux","password":true,"vac":true,"version":"7757534","steam_id":85568392924742830,"keywords":["cp","nocrits","nodmgspread","uncletopia"],"game_id":440,"stv_port":27066,"stv_name":"Uncletopia | London | 6 | All Maps | STV","players":null},{"server_id":40,"name":"Uncletopia | London | 7 | No Payload","name_short":"lon-7","host":"lon-1.uk.uncletopia.com","port":27075,"enabled":true,"region":"eu","cc":"gb","latitude":51.509865,"longitude":-0.118092,"reserved":0,"last_update":"0001-01-01T00:00:00Z","name_a2s":"Uncletopia | London | 7 | No Payload","protocol":17,"map":"ctf_turbine","folder":"tf","game":"Team Fortress","app_id":440,"player_count":0,"max_players":24,"Bots":0,"server_type":"Dedicated","server_os":"Linux","password":true,"vac":true,"version":"7757534","steam_id":85568392924964314,"keywords":["ctf","nocrits","nodmgspread","uncletopia"],"game_id":440,"stv_port":27076,"stv_name":"Uncletopia | London | 7 | No Payload | STV","players":null},{"server_id":41,"name":"Uncletopia | London | 8 | Community","name_short":"lon-8","host":"lon-1.uk.uncletopia.com","port":27085,"enabled":true,"region":"eu","cc":"gb","latitude":51.509865,"longitude":-0.118092,"reserved":0,"last_update":"0001-01-01T00:00:00Z","name_a2s":"Uncletopia | London | 8 | Community","protocol":17,"map":"workshop/koth_ashville_final.ugc2130459942","folder":"tf","game":"Team Fortress","app_id":440,"player_count":0,"max_players":24,"Bots":0,"server_type":"Dedicated","server_os":"Linux","password":true,"vac":true,"version":"7757534","steam_id":85568392924964315,"keywords":["cp","nocrits","nodmgspread","uncletopia"],"game_id":440,"stv_port":27086,"stv_name":"Uncletopia | London | 8 | Community | STV","players":null},{"server_id":300,"name":"Uncletopia | Montr√©al | 1 | All Maps","name_short":"mtl-1","host":"mtl-1.ca.uncletopia.com","port":27015,"enabled":true,"region":"us-east","cc":"ca","latitude":45.50889,"longitude":-73.56167,"reserved":0,"last_update":"0001-01-01T00:00:00Z","name_a2s":"Uncletopia | Montr√©al | 1 | All Maps","protocol":17,"map":"koth_lakeside_final","folder":"tf","game":"Team Fortress","app_id":440,"player_count":0,"max_players":24,"Bots":0,"server_type":"Dedicated","server_os":"Linux","password":true,"vac":true,"version":"7757534","steam_id":85568392924500087,"keywords":["cp","nocrits","nodmgspread","uncletopia"],"game_id":440,"stv_port":27016,"stv_name":"Uncletopia | Montr√©al | 1 | All Maps | STV","players":null},{"server_id":301,"name":"Uncletopia | Montr√©al | 2 | All Maps","name_short":"mtl-2","host":"mtl-1.ca.uncletopia.com","port":27025,"enabled":true,"region":"us-east","cc":"ca","latitude":45.50889,"longitude":-73.56167,"reserved":0,"last_update":"0001-01-01T00:00:00Z","name_a2s":"Uncletopia | Montr√©al | 2 | All Maps","protocol":17,"map":"koth_cascade","folder":"tf","game":"Team Fortress","app_id":440,"player_count":0,"max_players":24,"Bots":0,"server_type":"Dedicated","server_os":"Linux","password":true,"vac":true,"version":"7757534","steam_id":85568392924500088,"keywords":["cp","nocrits","nodmgspread","uncletopia"],"game_id":440,"stv_port":27026,"stv_name":"Uncletopia | Montr√©al | 2 | All Maps | STV","players":null},{"server_id":302,"name":"Uncletopia | Montr√©al | 3 | All Maps","name_short":"mtl-3","host":"mtl-1.ca.uncletopia.com","port":27035,"enabled":true,"region":"us-east","cc":"ca","latitude":45.50889,"longitude":-73.56167,"reserved":0,"last_update":"0001-01-01T00:00:00Z","name_a2s":"Uncletopia | Montr√©al | 3 | All Maps","protocol":17,"map":"koth_harvest_final","folder":"tf","game":"Team Fortress","app_id":440,"player_count":23,"max_players":24,"Bots":0,"server_type":"Dedicated","server_os":"Linux","password":true,"vac":true,"version":"7757534","steam_id":85568392924500089,"keywords":["cp","nocrits","nodmgspread","uncletopia"],"game_id":440,"stv_port":27036,"stv_name":"Uncletopia | Montr√©al | 3 | All Maps | STV","players":[{"user_id":60,"name":"margarine blastbeat","steam_id":76561198001781616,"connected_time":5778000000000,"state":"active","ping":31},{"user_id":116,"name":"Turk Turkleton","steam_id":76561198073265101,"connected_time":1099000000000,"state":"active","ping":91},{"user_id":113,"name":"uVeins","steam_id":76561198067445528,"connected_time":1142000000000,"state":"active","ping":42},{"user_id":120,"name":"TheVandive","steam_id":76561199014510667,"connected_time":722000000000,"state":"active","ping":153},{"user_id":114,"name":"Gargling Chupacabra Piss","steam_id":76561198108274773,"connected_time":1134000000000,"state":"active","ping":63},{"user_id":75,"name":"[ ≥·µÉ·µó]Entropy","steam_id":76561198324087024,"connected_time":4658000000000,"state":"active","ping":82},{"user_id":98,"name":"Andromeda","steam_id":76561199070853177,"connected_time":2465000000000,"state":"active","ping":76},{"user_id":124,"name":"Common Courtesy","steam_id":76561198873483122,"connected_time":493000000000,"state":"active","ping":72},{"user_id":117,"name":"Challenger Charles","steam_id":76561198005576553,"connected_time":1095000000000,"state":"active","ping":50},{"user_id":119,"name":"Sqiddwr","steam_id":76561197998071622,"connected_time":754000000000,"state":"active","ping":76},{"user_id":99,"name":"ShitWagon","steam_id":76561198984067733,"connected_time":2463000000000,"state":"active","ping":106},{"user_id":100,"name":"Jelx_","steam_id":76561198087109541,"connected_time":2441000000000,"state":"active","ping":55},{"user_id":101,"name":"iogentagium","steam_id":76561198350425313,"connected_time":2420000000000,"state":"active","ping":137},{"user_id":122,"name":"Grape Juice","steam_id":76561198380337568,"connected_time":652000000000,"state":"active","ping":93},{"user_id":125,"name":"Shagbark","steam_id":76561198173447342,"connected_time":420000000000,"state":"active","ping":81},{"user_id":110,"name":"Steel","steam_id":76561199160718573,"connected_time":1589000000000,"state":"active","ping":56},{"user_id":126,"name":"[ ≥·µÉ·µó]RaviRavioli","steam_id":76561198968636443,"connected_time":408000000000,"state":"active","ping":94},{"user_id":133,"name":"yeyoi","steam_id":76561198069821885,"connected_time":14000000000,"state":"active","ping":63},{"user_id":111,"name":"Huskenator","steam_id":76561198272907401,"connected_time":1572000000000,"state":"active","ping":64},{"user_id":129,"name":"Vivi","steam_id":76561198132698345,"connected_time":386000000000,"state":"active","ping":48},{"user_id":131,"name":"sheigrim degen","steam_id":76561198066068001,"connected_time":303000000000,"state":"active","ping":87},{"user_id":132,"name":"alex","steam_id":76561198095203229,"connected_time":249000000000,"state":"active","ping":65},{"user_id":70,"name":"www.ennui.com/rat","steam_id":76561198054279302,"connected_time":5353000000000,"state":"active","ping":74}]},{"server_id":303,"name":"Uncletopia | Montr√©al | 4 | No Payload","name_short":"mtl-4","host":"mtl-1.ca.uncletopia.com","port":27045,"enabled":true,"region":"us-east","cc":"ca","latitude":45.50889,"longitude":-73.56167,"reserved":0,"last_update":"0001-01-01T00:00:00Z","name_a2s":"Uncletopia | Montr√©al | 4 | No Payload","protocol":17,"map":"koth_viaduct","folder":"tf","game":"Team Fortress","app_id":440,"player_count":0,"max_players":24,"Bots":0,"server_type":"Dedicated","server_os":"Linux","password":true,"vac":true,"version":"7757534","steam_id":85568392924500090,"keywords":["cp","nocrits","nodmgspread","uncletopia"],"game_id":440,"stv_port":27046,"stv_name":"Uncletopia | Montr√©al | 4 | No Payload | STV","players":null},{"server_id":13,"name":"Uncletopia | New York City | 1 | All Maps","name_short":"nyc-1","host":"nyc-1.us.uncletopia.com","port":27015,"enabled":true,"region":"us-east","cc":"us","latitude":40.73061,"longitude":-73.93524,"reserved":0,"last_update":"0001-01-01T00:00:00Z","name_a2s":"Uncletopia | New York City | 1 | All Maps","protocol":17,"map":"pl_pier","folder":"tf","game":"Team Fortress","app_id":440,"player_count":24,"max_players":24,"Bots":0,"server_type":"Dedicated","server_os":"Linux","password":true,"vac":true,"version":"7757534","steam_id":85568392924469993,"keywords":["nocrits","nodmgspread","payload","uncletopia"],"game_id":440,"stv_port":27016,"stv_name":"Uncletopia | New York City | 1 | All Maps | STV","players":[{"user_id":597,"name":"kritik","steam_id":76561198075216115,"connected_time":665000000000,"state":"active","ping":135},{"user_id":584,"name":"kefkja","steam_id":76561198283963218,"connected_time":1125000000000,"state":"active","ping":69},{"user_id":570,"name":"Strange Festive Femboy","steam_id":76561198050385093,"connected_time":2325000000000,"state":"active","ping":69},{"user_id":586,"name":"DarthRevan","steam_id":76561198164492361,"connected_time":1095000000000,"state":"active","ping":67},{"user_id":585,"name":"smocc","steam_id":76561197993726746,"connected_time":1115000000000,"state":"active","ping":46},{"user_id":605,"name":"DAG","steam_id":76561198219508244,"connected_time":47000000000,"state":"active","ping":56},{"user_id":588,"name":"Huevo Frito","steam_id":76561198896811394,"connected_time":951000000000,"state":"active","ping":36},{"user_id":595,"name":"Yuzu","steam_id":76561198417913035,"connected_time":802000000000,"state":"active","ping":78},{"user_id":553,"name":"transhumanist trans humanist","steam_id":76561198078168885,"connected_time":3167000000000,"state":"active","ping":77},{"user_id":590,"name":"jack","steam_id":76561198054073158,"connected_time":892000000000,"state":"active","ping":59},{"user_id":604,"name":"goodheartchris","steam_id":76561198045836210,"connected_time":65000000000,"state":"active","ping":80},{"user_id":589,"name":"Facet","steam_id":76561197999782628,"connected_time":920000000000,"state":"active","ping":87},{"user_id":568,"name":"fi_ji","steam_id":76561198126087725,"connected_time":2448000000000,"state":"active","ping":58},{"user_id":591,"name":"viscodolante","steam_id":76561198013650292,"connected_time":864000000000,"state":"active","ping":105},{"user_id":592,"name":"dont suck me i uber","steam_id":76561198281968441,"connected_time":862000000000,"state":"active","ping":120},{"user_id":599,"name":"Atomic Waffles","steam_id":76561197970935570,"connected_time":599000000000,"state":"active","ping":89},{"user_id":558,"name":"Maxxycat","steam_id":76561198194062681,"connected_time":2748000000000,"state":"active","ping":77},{"user_id":583,"name":"cellogamer","steam_id":76561198016937098,"connected_time":1164000000000,"state":"active","ping":54},{"user_id":551,"name":"Zerathen","steam_id":76561199083333718,"connected_time":3346000000000,"state":"active","ping":70},{"user_id":557,"name":"KingNeptune","steam_id":76561198965549228,"connected_time":2785000000000,"state":"active","ping":67},{"user_id":571,"name":"Spike","steam_id":76561198141356571,"connected_time":2316000000000,"state":"active","ping":76},{"user_id":601,"name":"Uncle Majic the Hip Hop Magicia","steam_id":76561198107924303,"connected_time":265000000000,"state":"active","ping":44},{"user_id":572,"name":"Rockguy21","steam_id":76561198121303359,"connected_time":2277000000000,"state":"active","ping":77},{"user_id":594,"name":"Snugboo","steam_id":76561198147970327,"connected_time":831000000000,"state":"active","ping":43}]},{"server_id":14,"name":"Uncletopia | New York City | 2 | All Maps","name_short":"nyc-2","host":"nyc-1.us.uncletopia.com","port":27025,"enabled":true,"region":"us-east","cc":"us","latitude":40.73061,"longitude":-73.93524,"reserved":0,"last_update":"0001-01-01T00:00:00Z","name_a2s":"Uncletopia | New York City | 2 | All Maps","protocol":17,"map":"pl_snowycoast","folder":"tf","game":"Team Fortress","app_id":440,"player_count":24,"max_players":24,"Bots":0,"server_type":"Dedicated","server_os":"Linux","password":true,"vac":true,"version":"7757534","steam_id":85568392924469994,"keywords":["nocrits","nodmgspread","payload","uncletopia"],"game_id":440,"stv_port":27026,"stv_name":"Uncletopia | New York City | 2 | All Maps | STV","players":[{"user_id":414,"name":"Lanky Kong","steam_id":76561198142455488,"connected_time":568000000000,"state":"active","ping":44},{"user_id":417,"name":"Polar","steam_id":76561198108010247,"connected_time":185000000000,"state":"active","ping":56},{"user_id":405,"name":"Nice21","steam_id":76561199427548141,"connected_time":1115000000000,"state":"active","ping":76},{"user_id":400,"name":"Dumpster Man","steam_id":76561198323159516,"connected_time":1912000000000,"state":"active","ping":75},{"user_id":418,"name":"ADHDking","steam_id":76561198116099017,"connected_time":152000000000,"state":"active","ping":44},{"user_id":390,"name":"Sir Quacksalot","steam_id":76561198048942777,"connected_time":3203000000000,"state":"active","ping":96},{"user_id":369,"name":"Merci?","steam_id":76561198096823118,"connected_time":5488000000000,"state":"active","ping":99},{"user_id":398,"name":"the real babytron","steam_id":76561197989627918,"connected_time":2015000000000,"state":"active","ping":72},{"user_id":411,"name":"Rudy","steam_id":76561198013456828,"connected_time":809000000000,"state":"active","ping":54},{"user_id":365,"name":"T.C","steam_id":76561198316660147,"connected_time":5557000000000,"state":"active","ping":83},{"user_id":335,"name":"athletesfoot","steam_id":76561197997331867,"connected_time":9836000000000,"state":"active","ping":41},{"user_id":363,"name":"Lavender","steam_id":76561198142770666,"connected_time":5564000000000,"state":"active","ping":72},{"user_id":399,"name":"ApertureCity","steam_id":76561198004153607,"connected_time":1980000000000,"state":"active","ping":69},{"user_id":408,"name":"JHLO","steam_id":76561198074359967,"connected_time":1050000000000,"state":"active","ping":58},{"user_id":419,"name":"Okter","steam_id":76561198035908873,"connected_time":142000000000,"state":"active","ping":92},{"user_id":395,"name":"RedSerif","steam_id":76561198251089796,"connected_time":2424000000000,"state":"active","ping":58},{"user_id":389,"name":"Braamklauw","steam_id":76561198283287697,"connected_time":3505000000000,"state":"active","ping":135},{"user_id":404,"name":"Goretron","steam_id":76561198001320198,"connected_time":1463000000000,"state":"active","ping":106},{"user_id":410,"name":"Lichy","steam_id":76561198310682841,"connected_time":968000000000,"state":"active","ping":31},{"user_id":376,"name":"what the devil","steam_id":76561198326083509,"connected_time":5062000000000,"state":"active","ping":81},{"user_id":412,"name":"frank","steam_id":76561198045436159,"connected_time":605000000000,"state":"active","ping":91},{"user_id":373,"name":"StraySheep","steam_id":76561198256003811,"connected_time":5322000000000,"state":"active","ping":48},{"user_id":368,"name":"zeredis","steam_id":76561198076596689,"connected_time":5532000000000,"state":"active","ping":54},{"user_id":382,"name":"M.X 234","steam_id":76561198806937802,"connected_time":4713000000000,"state":"active","ping":72}]},{"server_id":15,"name":"Uncletopia | New York City | 3 | Stopwatch Beta","name_short":"nyc-3","host":"nyc-1.us.uncletopia.com","port":27035,"enabled":true,"region":"us-east","cc":"us","latitude":40.73061,"longitude":-73.93524,"reserved":0,"last_update":"0001-01-01T00:00:00Z","name_a2s":"Uncletopia | New York City | 3 | Stopwatch Beta","protocol":17,"map":"workshop/koth_ramjam_rc1.ugc459778887","folder":"tf","game":"Team Fortress","app_id":440,"player_count":0,"max_players":24,"Bots":0,"server_type":"Dedicated","server_os":"Linux","password":true,"vac":true,"version":"7757534","steam_id":85568392924742820,"keywords":["cp","nocrits","nodmgspread","uncletopia"],"game_id":440,"stv_port":27036,"stv_name":"Uncletopia | New York City | 3 | Stopwatch Beta | STV","players":null},{"server_id":16,"name":"Uncletopia | New York City | 4 | Community","name_short":"nyc-4","host":"nyc-1.us.uncletopia.com","port":27045,"enabled":true,"region":"us-east","cc":"us","latitude":40.73061,"longitude":-73.93524,"reserved":0,"last_update":"0001-01-01T00:00:00Z","name_a2s":"Uncletopia | New York City | 4 | Community","protocol":17,"map":"workshop/pl_badwater_pro_v12.ugc2142942074","folder":"tf","game":"Team Fortress","app_id":440,"player_count":0,"max_players":24,"Bots":0,"server_type":"Dedicated","server_os":"Linux","password":true,"vac":true,"version":"7757534","steam_id":85568392924742821,"keywords":["nocrits","nodmgspread","payload","uncletopia"],"game_id":440,"stv_port":27046,"stv_name":"Uncletopia | New York City | 4 | Community | STV","players":null},{"server_id":142,"name":"Uncletopia | S√£o Paulo | 1 | All Maps","name_short":"sao-1","host":"sao-1.br.uncletopia.com","port":27015,"enabled":true,"region":"sa","cc":"br","latitude":-23.533773,"longitude":-46.62529,"reserved":0,"last_update":"0001-01-01T00:00:00Z","name_a2s":"Uncletopia | S√£o Paulo | 1 | All Maps","protocol":17,"map":"koth_viaduct","folder":"tf","game":"Team Fortress","app_id":440,"player_count":0,"max_players":24,"Bots":0,"server_type":"Dedicated","server_os":"Linux","password":true,"vac":true,"version":"7757534","steam_id":85568392924469996,"keywords":["cp","nocrits","nodmgspread","uncletopia"],"game_id":440,"stv_port":27016,"stv_name":"Uncletopia | S√£o Paulo | 1 | All Maps | STV","players":null},{"server_id":143,"name":"Uncletopia | S√£o Paulo | 2 | All Maps","name_short":"sao-2","host":"sao-2.br.uncletopia.com","port":27015,"enabled":true,"region":"sa","cc":"br","latitude":-23.533773,"longitude":-46.62529,"reserved":0,"last_update":"0001-01-01T00:00:00Z","name_a2s":"Uncletopia | S√£o Paulo | 2 | All Maps","protocol":17,"map":"koth_lakeside_final","folder":"tf","game":"Team Fortress","app_id":440,"player_count":0,"max_players":24,"Bots":0,"server_type":"Dedicated","server_os":"Linux","password":true,"vac":true,"version":"7757534","steam_id":85568392924485349,"keywords":["cp","nocrits","nodmgspread","uncletopia"],"game_id":440,"stv_port":27016,"stv_name":"Uncletopia | S√£o Paulo | 2 | All Maps | STV","players":null},{"server_id":7,"name":"Uncletopia | Seattle | 1 | All Maps","name_short":"sea-1","host":"sea-1.us.uncletopia.com","port":27015,"enabled":true,"region":"us-west","cc":"us","latitude":47.608013,"longitude":-122.33517,"reserved":0,"last_update":"0001-01-01T00:00:00Z","name_a2s":"Uncletopia | Seattle | 1 | All Maps","protocol":17,"map":"pl_goldrush","folder":"tf","game":"Team Fortress","app_id":440,"player_count":24,"max_players":24,"Bots":0,"server_type":"Dedicated","server_os":"Linux","password":true,"vac":true,"version":"7757534","steam_id":85568392924469997,"keywords":["nocrits","nodmgspread","payload","uncletopia"],"game_id":440,"stv_port":27016,"stv_name":"Uncletopia | Seattle | 1 | All Maps | STV","players":[{"user_id":590,"name":"[GUT] RiDiK¬Æ","steam_id":76561197969756446,"connected_time":2124000000000,"state":"active","ping":89},{"user_id":594,"name":"Sloppy John (Extra Sauce)","steam_id":76561198359703432,"connected_time":1509000000000,"state":"active","ping":75},{"user_id":587,"name":"Yack Skag","steam_id":76561198068251493,"connected_time":2184000000000,"state":"active","ping":67},{"user_id":576,"name":"HaphazardHazel","steam_id":76561198316812693,"connected_time":3417000000000,"state":"active","ping":138},{"user_id":548,"name":"Eris","steam_id":76561199471434875,"connected_time":5814000000000,"state":"active","ping":42},{"user_id":595,"name":"Robert E.T.","steam_id":76561197986439371,"connected_time":1362000000000,"state":"active","ping":55},{"user_id":599,"name":"NEBULA","steam_id":76561198086878595,"connected_time":1102000000000,"state":"active","ping":73},{"user_id":581,"name":"Mignyanne :3","steam_id":76561198048754056,"connected_time":2309000000000,"state":"active","ping":66},{"user_id":602,"name":"soup","steam_id":76561198043209046,"connected_time":232000000000,"state":"active","ping":86},{"user_id":501,"name":"Lord Hater","steam_id":76561199158148782,"connected_time":8933000000000,"state":"active","ping":60},{"user_id":603,"name":"Samiho","steam_id":76561198984374561,"connected_time":217000000000,"state":"active","ping":67},{"user_id":582,"name":"TROY","steam_id":76561197983852176,"connected_time":2241000000000,"state":"active","ping":76},{"user_id":593,"name":"amoeba","steam_id":76561198970261784,"connected_time":1562000000000,"state":"active","ping":52},{"user_id":564,"name":"Tom Skirrett","steam_id":76561198014600788,"connected_time":4556000000000,"state":"active","ping":69},{"user_id":560,"name":"Cam(era)","steam_id":76561198285054047,"connected_time":4851000000000,"state":"active","ping":77},{"user_id":574,"name":"jacix3 [gay wolfgirl]{she/it}","steam_id":76561198205004165,"connected_time":3693000000000,"state":"active","ping":66},{"user_id":566,"name":"„Ä£dust„Ä£ -she/her-","steam_id":76561198045218909,"connected_time":4284000000000,"state":"active","ping":42},{"user_id":591,"name":"jungus","steam_id":76561198129862008,"connected_time":1813000000000,"state":"active","ping":79},{"user_id":547,"name":"The Population of Sweden","steam_id":76561198202201644,"connected_time":5844000000000,"state":"active","ping":42},{"user_id":572,"name":"Archimedes!","steam_id":76561199446023933,"connected_time":3980000000000,"state":"active","ping":85},{"user_id":598,"name":"Admiral Crumbs","steam_id":76561198108791583,"connected_time":1105000000000,"state":"active","ping":52},{"user_id":525,"name":"AmiableNebula","steam_id":76561198094306627,"connected_time":7310000000000,"state":"active","ping":77},{"user_id":601,"name":"der","steam_id":76561198060762287,"connected_time":504000000000,"state":"active","ping":49},{"user_id":586,"name":"lavender","steam_id":76561199069518286,"connected_time":2203000000000,"state":"active","ping":77}]},{"server_id":119,"name":"Uncletopia | Seattle | 2 | All Maps","name_short":"sea-2","host":"sea-1.us.uncletopia.com","port":27025,"enabled":true,"region":"us-west","cc":"us","latitude":47.608013,"longitude":-122.33517,"reserved":0,"last_update":"0001-01-01T00:00:00Z","name_a2s":"Uncletopia | Seattle | 2 | All Maps","protocol":17,"map":"cp_sunshine","folder":"tf","game":"Team Fortress","app_id":440,"player_count":19,"max_players":24,"Bots":0,"server_type":"Dedicated","server_os":"Linux","password":true,"vac":true,"version":"7757534","steam_id":85568392924469998,"keywords":["cp","nocrits","nodmgspread","uncletopia"],"game_id":440,"stv_port":27026,"stv_name":"Uncletopia | Seattle | 2 | All Maps | STV","players":[{"user_id":503,"name":"Anika","steam_id":76561198276724202,"connected_time":1486000000000,"state":"active","ping":96},{"user_id":516,"name":"lol","steam_id":76561198026491738,"connected_time":62000000000,"state":"active","ping":85},{"user_id":517,"name":"Comcast Gaming","steam_id":76561197979056451,"connected_time":18000000000,"state":"active","ping":44},{"user_id":459,"name":"m1","steam_id":76561198004133638,"connected_time":5219000000000,"state":"active","ping":77},{"user_id":485,"name":"mooney","steam_id":76561199110622484,"connected_time":3244000000000,"state":"active","ping":59},{"user_id":498,"name":"oo","steam_id":76561198119626492,"connected_time":1617000000000,"state":"active","ping":84},{"user_id":511,"name":"Grant","steam_id":76561198059313367,"connected_time":345000000000,"state":"active","ping":31},{"user_id":509,"name":"goldhed","steam_id":76561198051751133,"connected_time":403000000000,"state":"active","ping":56},{"user_id":518,"name":"MAK","steam_id":76561198089361823,"connected_time":4000000000,"state":"spawning","ping":77},{"user_id":514,"name":"u know i keep","steam_id":76561198094615739,"connected_time":219000000000,"state":"active","ping":80},{"user_id":495,"name":"[DATS‚û°] Sugar Meowth","steam_id":76561197995251793,"connected_time":1747000000000,"state":"active","ping":44},{"user_id":515,"name":"jadeite","steam_id":76561198022298676,"connected_time":183000000000,"state":"active","ping":30},{"user_id":482,"name":"‚ù§‚ô°ÔΩ•ÔæüBubblesÔΩ•Ôæü‚ô°‚ù§","steam_id":76561198041057042,"connected_time":3862000000000,"state":"active","ping":90},{"user_id":501,"name":"squish","steam_id":76561198097657352,"connected_time":1533000000000,"state":"active","ping":90},{"user_id":438,"name":"the watcher","steam_id":76561198870649125,"connected_time":6353000000000,"state":"active","ping":75},{"user_id":480,"name":"bash -lc ./asshat.sh","steam_id":76561198004584315,"connected_time":3926000000000,"state":"active","ping":89},{"user_id":473,"name":"The dreaded jar","steam_id":76561199087010656,"connected_time":4617000000000,"state":"active","ping":50},{"user_id":487,"name":"The Best Healer","steam_id":76561198079452621,"connected_time":2862000000000,"state":"active","ping":55},{"user_id":506,"name":"O","steam_id":76561198450073779,"connected_time":1238000000000,"state":"active","ping":40}]},{"server_id":406,"name":"Uncletopia | Seattle | 3 | Stopwatch Beta","name_short":"sea-3","host":"sea-1.us.uncletopia.com","port":27035,"enabled":true,"region":"us-west","cc":"us","latitude":47.608013,"longitude":-122.33517,"reserved":0,"last_update":"0001-01-01T00:00:00Z","name_a2s":"Uncletopia | Seattle | 3 | Stopwatch Beta","protocol":17,"map":"cp_process_final","folder":"tf","game":"Team Fortress","app_id":440,"player_count":0,"max_players":24,"Bots":0,"server_type":"Dedicated","server_os":"Linux","password":true,"vac":true,"version":"7757534","steam_id":85568392924515217,"keywords":["cp","nocrits","nodmgspread","uncletopia"],"game_id":440,"stv_port":27036,"stv_name":"Uncletopia | Seattle | 3 | Stopwatch Beta | STV","players":null},{"server_id":17,"name":"Uncletopia | San Francisco | 1 | All Maps","name_short":"sfo-1","host":"sfo-1.us.uncletopia.com","port":27015,"enabled":true,"region":"us-west","cc":"us","latitude":37.77397,"longitude":-122.4313,"reserved":0,"last_update":"0001-01-01T00:00:00Z","name_a2s":"Uncletopia | San Francisco | 1 | All Maps","protocol":17,"map":"pl_barnblitz","folder":"tf","game":"Team Fortress","app_id":440,"player_count":24,"max_players":24,"Bots":0,"server_type":"Dedicated","server_os":"Linux","password":true,"vac":true,"version":"7757534","steam_id":85568392924469999,"keywords":["nocrits","nodmgspread","payload","uncletopia"],"game_id":440,"stv_port":27016,"stv_name":"Uncletopia | San Francisco | 1 | All Maps | STV","players":[{"user_id":346,"name":"buggy schlap","steam_id":76561198978665598,"connected_time":684000000000,"state":"active","ping":37},{"user_id":188,"name":"Kraftlos","steam_id":76561198074350350,"connected_time":13043000000000,"state":"active","ping":118},{"user_id":347,"name":"warpig","steam_id":76561199226313309,"connected_time":598000000000,"state":"active","ping":130},{"user_id":327,"name":"MrJokester","steam_id":76561198019101367,"connected_time":3017000000000,"state":"active","ping":72},{"user_id":286,"name":"DeckofDragons","steam_id":76561198057398213,"connected_time":5373000000000,"state":"active","ping":90},{"user_id":348,"name":"Maid 'n' China","steam_id":76561198423392976,"connected_time":528000000000,"state":"active","ping":50},{"user_id":349,"name":"croissantcrusader","steam_id":76561198813533235,"connected_time":438000000000,"state":"active","ping":115},{"user_id":350,"name":"izzydex","steam_id":76561199101531034,"connected_time":424000000000,"state":"active","ping":118},{"user_id":351,"name":"Artyom","steam_id":76561198152149679,"connected_time":420000000000,"state":"active","ping":59},{"user_id":334,"name":"Whapper","steam_id":76561198044029606,"connected_time":2548000000000,"state":"active","ping":56},{"user_id":352,"name":"evan_is_sauce","steam_id":76561199086802383,"connected_time":393000000000,"state":"active","ping":112},{"user_id":341,"name":"beheeyem","steam_id":76561198042867745,"connected_time":1314000000000,"state":"active","ping":61},{"user_id":304,"name":"Grammaring","steam_id":76561198867366139,"connected_time":4953000000000,"state":"active","ping":82},{"user_id":353,"name":"zam","steam_id":76561199010236650,"connected_time":392000000000,"state":"active","ping":118},{"user_id":67,"name":"Uncle Feathers McGraw","steam_id":76561198046442707,"connected_time":21191000000000,"state":"active","ping":64},{"user_id":354,"name":"Adam Levine (Real)","steam_id":76561199199257149,"connected_time":371000000000,"state":"active","ping":71},{"user_id":355,"name":"Biznickel","steam_id":76561199422511230,"connected_time":344000000000,"state":"active","ping":68},{"user_id":359,"name":"golia","steam_id":76561198000264266,"connected_time":103000000000,"state":"active","ping":58},{"user_id":357,"name":"Eadguy","steam_id":76561198029852831,"connected_time":313000000000,"state":"active","ping":75},{"user_id":342,"name":"TeriyakiDynamite","steam_id":76561198050049346,"connected_time":1287000000000,"state":"active","ping":74},{"user_id":337,"name":"A UsedNom","steam_id":76561198402832756,"connected_time":2150000000000,"state":"active","ping":30},{"user_id":344,"name":"Livin' Like Larry","steam_id":76561198313360974,"connected_time":886000000000,"state":"active","ping":39},{"user_id":358,"name":"Burgie","steam_id":76561198066425198,"connected_time":311000000000,"state":"active","ping":68},{"user_id":340,"name":"Not a Can","steam_id":76561198064264767,"connected_time":1851000000000,"state":"active","ping":70}]},{"server_id":18,"name":"Uncletopia | San Francisco | 2 | All Maps","name_short":"sfo-2","host":"sfo-1.us.uncletopia.com","port":27025,"enabled":true,"region":"us-west","cc":"us","latitude":37.77397,"longitude":-122.4313,"reserved":0,"last_update":"0001-01-01T00:00:00Z","name_a2s":"Uncletopia | San Francisco | 2 | All Maps","protocol":17,"map":"koth_highpass","folder":"tf","game":"Team Fortress","app_id":440,"player_count":2,"max_players":24,"Bots":0,"server_type":"Dedicated","server_os":"Linux","password":true,"vac":true,"version":"7757534","steam_id":85568392924470000,"keywords":["cp","nocrits","nodmgspread","uncletopia"],"game_id":440,"stv_port":27026,"stv_name":"Uncletopia | San Francisco | 2 | All Maps | STV","players":[{"user_id":23,"name":"OldCheese","steam_id":76561199208623418,"connected_time":1600000000000,"state":"active","ping":70},{"user_id":24,"name":"kirader1023","steam_id":76561199185519856,"connected_time":1557000000000,"state":"active","ping":97}]},{"server_id":19,"name":"Uncletopia | San Francisco | 3 | Stopwatch Beta","name_short":"sfo-3","host":"sfo-1.us.uncletopia.com","port":27035,"enabled":true,"region":"us-west","cc":"us","latitude":37.77397,"longitude":-122.4313,"reserved":0,"last_update":"0001-01-01T00:00:00Z","name_a2s":"Uncletopia | San Francisco | 3 | Stopwatch Beta","protocol":17,"map":"pl_borneo","folder":"tf","game":"Team Fortress","app_id":440,"player_count":0,"max_players":24,"Bots":0,"server_type":"Dedicated","server_os":"Linux","password":true,"vac":true,"version":"7757534","steam_id":85568392924742824,"keywords":["nocrits","nodmgspread","payload","uncletopia"],"game_id":440,"stv_port":27036,"stv_name":"Uncletopia | San Francisco | 3 | Stopwatch Beta | STV","players":null},{"server_id":20,"name":"Uncletopia | San Francisco | 4 | Community","name_short":"sfo-4","host":"sfo-1.us.uncletopia.com","port":27045,"enabled":true,"region":"us-west","cc":"us","latitude":37.77397,"longitude":-122.4313,"reserved":0,"last_update":"0001-01-01T00:00:00Z","name_a2s":"Uncletopia | San Francisco | 4 | Community","protocol":17,"map":"workshop/cp_croissant_final.ugc458840209","folder":"tf","game":"Team Fortress","app_id":440,"player_count":0,"max_players":24,"Bots":0,"server_type":"Dedicated","server_os":"Linux","password":true,"vac":true,"version":"7757534","steam_id":85568392924742826,"keywords":["cp","nocrits","nodmgspread","uncletopia"],"game_id":440,"stv_port":27046,"stv_name":"Uncletopia | San Francisco | 4 | Community | STV","players":null},{"server_id":141,"name":"Uncletopia | Sydney | 1 | All Maps","name_short":"syd-1","host":"syd-1.au.uncletopia.com","port":27015,"enabled":true,"region":"au","cc":"au","latitude":-33.865143,"longitude":151.2099,"reserved":0,"last_update":"0001-01-01T00:00:00Z","name_a2s":"Uncletopia | Sydney | 1 | All Maps","protocol":17,"map":"cp_dustbowl","folder":"tf","game":"Team Fortress","app_id":440,"player_count":24,"max_players":24,"Bots":0,"server_type":"Dedicated","server_os":"Linux","password":true,"vac":true,"version":"7757534","steam_id":85568392924470001,"keywords":["cp","nocrits","nodmgspread","uncletopia"],"game_id":440,"stv_port":27016,"stv_name":"Uncletopia | Sydney | 1 | All Maps | STV","players":[{"user_id":168,"name":"Toody","steam_id":76561198212656752,"connected_time":1154000000000,"state":"active","ping":45},{"user_id":171,"name":"Charm","steam_id":76561198028891054,"connected_time":1046000000000,"state":"active","ping":59},{"user_id":149,"name":"Z.O.E. Nemo","steam_id":76561198054096076,"connected_time":2169000000000,"state":"active","ping":50},{"user_id":179,"name":"EmmArrGus","steam_id":76561198106343847,"connected_time":561000000000,"state":"active","ping":56},{"user_id":163,"name":"R\u0026R","steam_id":76561198318485462,"connected_time":1308000000000,"state":"active","ping":52},{"user_id":148,"name":"cimpact","steam_id":76561198452258917,"connected_time":2175000000000,"state":"active","ping":157},{"user_id":184,"name":"Mr.Deathclaw","steam_id":76561198025419320,"connected_time":375000000000,"state":"active","ping":45},{"user_id":165,"name":"yeetingbaby","steam_id":76561199011454860,"connected_time":1249000000000,"state":"active","ping":53},{"user_id":180,"name":"piratespy22","steam_id":76561198042198744,"connected_time":534000000000,"state":"active","ping":48},{"user_id":187,"name":"Diming","steam_id":76561198325584599,"connected_time":175000000000,"state":"active","ping":68},{"user_id":105,"name":"nurf","steam_id":76561198019391327,"connected_time":7051000000000,"state":"active","ping":78},{"user_id":156,"name":"A KNIFE!","steam_id":76561198160390701,"connected_time":2107000000000,"state":"active","ping":62},{"user_id":122,"name":"Bernie the boomer remover","steam_id":76561198094168455,"connected_time":5032000000000,"state":"active","ping":76},{"user_id":181,"name":"Mousemoose","steam_id":76561198027405790,"connected_time":534000000000,"state":"active","ping":67},{"user_id":150,"name":"JayTheLlamaKing","steam_id":76561198836354249,"connected_time":2167000000000,"state":"active","ping":67},{"user_id":152,"name":"Raypest","steam_id":76561197980678745,"connected_time":2152000000000,"state":"active","ping":41},{"user_id":177,"name":"Dingo","steam_id":76561198315774295,"connected_time":712000000000,"state":"active","ping":64},{"user_id":81,"name":"Jimsehy","steam_id":76561198061059871,"connected_time":8537000000000,"state":"active","ping":74},{"user_id":140,"name":"Lancer","steam_id":76561198122813810,"connected_time":3148000000000,"state":"active","ping":65},{"user_id":182,"name":"Sex God Bob Ross","steam_id":76561198175728367,"connected_time":509000000000,"state":"active","ping":55},{"user_id":173,"name":"zerk","steam_id":76561199031909793,"connected_time":1005000000000,"state":"active","ping":55},{"user_id":91,"name":"itsjustmarvin77","steam_id":76561199375656301,"connected_time":8286000000000,"state":"active","ping":75},{"user_id":172,"name":"Lastone","steam_id":76561198131381380,"connected_time":1042000000000,"state":"active","ping":54},{"user_id":176,"name":"HellfirePhoenix","steam_id":76561198035554989,"connected_time":803000000000,"state":"active","ping":77}]},{"server_id":123,"name":"Uncletopia | Sydney | 2 | All Maps","name_short":"syd-2","host":"syd-1.au.uncletopia.com","port":27025,"enabled":true,"region":"au","cc":"au","latitude":-33.865143,"longitude":151.2099,"reserved":0,"last_update":"0001-01-01T00:00:00Z","name_a2s":"Uncletopia | Sydney | 2 | All Maps","protocol":17,"map":"koth_viaduct","folder":"tf","game":"Team Fortress","app_id":440,"player_count":0,"max_players":24,"Bots":0,"server_type":"Dedicated","server_os":"Linux","password":true,"vac":true,"version":"7757534","steam_id":85568392924470002,"keywords":["cp","nocrits","nodmgspread","uncletopia"],"game_id":440,"stv_port":27026,"stv_name":"Uncletopia | Sydney | 2 | All Maps | STV","players":null},{"server_id":395,"name":"Uncletopia | Sydney | 3 | All Maps","name_short":"syd-3","host":"syd-1.au.uncletopia.com","port":27035,"enabled":true,"region":"au","cc":"au","latitude":-33.865143,"longitude":151.2099,"reserved":0,"last_update":"0001-01-01T00:00:00Z","name_a2s":"Uncletopia | Sydney | 3 | All Maps","protocol":17,"map":"koth_viaduct","folder":"tf","game":"Team Fortress","app_id":440,"player_count":0,"max_players":24,"Bots":0,"server_type":"Dedicated","server_os":"Linux","password":true,"vac":true,"version":"7757534","steam_id":85568392925194467,"keywords":["cp","nocrits","nodmgspread","uncletopia"],"game_id":440,"stv_port":27036,"stv_name":"Uncletopia | Sydney | 3 | All Maps | STV","players":null},{"server_id":396,"name":"Uncletopia | Sydney | 4 | All Maps","name_short":"syd-4","host":"syd-1.au.uncletopia.com","port":27045,"enabled":true,"region":"au","cc":"au","latitude":-33.865143,"longitude":151.2099,"reserved":0,"last_update":"0001-01-01T00:00:00Z","name_a2s":"Uncletopia | Sydney | 4 | All Maps","protocol":17,"map":"pl_badwater","folder":"tf","game":"Team Fortress","app_id":440,"player_count":12,"max_players":24,"Bots":0,"server_type":"Dedicated","server_os":"Linux","password":true,"vac":true,"version":"7757534","steam_id":85568392925397958,"keywords":["nocrits","nodmgspread","payload","uncletopia"],"game_id":440,"stv_port":27046,"stv_name":"Uncletopia | Sydney | 4 | All Maps | STV","players":[{"user_id":10,"name":"Cris.p bacon","steam_id":76561199230423491,"connected_time":1590000000000,"state":"active","ping":102},{"user_id":11,"name":"The Bisoneer TF2","steam_id":76561199446773766,"connected_time":1559000000000,"state":"active","ping":86},{"user_id":13,"name":"Putramandela","steam_id":76561199373932400,"connected_time":1428000000000,"state":"active","ping":147},{"user_id":14,"name":"doctor morbin' (real)","steam_id":76561199365241695,"connected_time":1313000000000,"state":"active","ping":128},{"user_id":15,"name":"TheCardboardKing","steam_id":76561199099769110,"connected_time":1155000000000,"state":"active","ping":51},{"user_id":22,"name":"uwu","steam_id":76561198040991779,"connected_time":104000000000,"state":"active","ping":61},{"user_id":18,"name":"Bowl","steam_id":76561198345777684,"connected_time":699000000000,"state":"active","ping":66},{"user_id":19,"name":"( Õ°¬∞ Õú ñ Õ°¬∞)","steam_id":76561199262196710,"connected_time":471000000000,"state":"active","ping":43},{"user_id":20,"name":"MikkyD","steam_id":76561198043452962,"connected_time":459000000000,"state":"active","ping":62},{"user_id":26,"name":"The Ghastly Gibus Gamer","steam_id":76561199146515563,"connected_time":25000000000,"state":"active","ping":53},{"user_id":24,"name":"aldogga","steam_id":76561198071330654,"connected_time":77000000000,"state":"active","ping":67},{"user_id":27,"name":"¬Ø\\_(„ÉÑ)_/¬Ø","steam_id":76561199206182584,"connected_time":18000000000,"state":"spawning","ping":91}]},{"server_id":58,"name":"Uncletopia | Sydney | 5 | Stopwatch Beta","name_short":"syd-5","host":"syd-1.au.uncletopia.com","port":27055,"enabled":true,"region":"au","cc":"au","latitude":-33.865143,"longitude":151.2099,"reserved":0,"last_update":"0001-01-01T00:00:00Z","name_a2s":"Uncletopia | Sydney | 5 | Stopwatch Beta","protocol":17,"map":"workshop/pl_summercoast_rc8e.ugc1761528829","folder":"tf","game":"Team Fortress","app_id":440,"player_count":0,"max_players":24,"Bots":0,"server_type":"Dedicated","server_os":"Linux","password":true,"vac":true,"version":"7757534","steam_id":85568392925397959,"keywords":["nocrits","nodmgspread","payload","uncletopia"],"game_id":440,"stv_port":27056,"stv_name":"Uncletopia | Sydney | 5 | Stopwatch Beta | STV","players":null},{"server_id":59,"name":"Uncletopia | Sydney | 6 | Community","name_short":"syd-6","host":"syd-1.au.uncletopia.com","port":27065,"enabled":true,"region":"au","cc":"au","latitude":-33.865143,"longitude":151.2099,"reserved":0,"last_update":"0001-01-01T00:00:00Z","name_a2s":"Uncletopia | Sydney | 6 | Community","protocol":17,"map":"cp_sunshine","folder":"tf","game":"Team Fortress","app_id":440,"player_count":0,"max_players":24,"Bots":0,"server_type":"Dedicated","server_os":"Linux","password":true,"vac":true,"version":"7757534","steam_id":85568392925397960,"keywords":["cp","nocrits","nodmgspread","uncletopia"],"game_id":440,"stv_port":27066,"stv_name":"Uncletopia | Sydney | 6 | Community | STV","players":null},{"server_id":49,"name":"Uncletopia | Warsaw | 1 | All Maps","name_short":"waw-1","host":"waw-1.pl.uncletopia.com","port":27015,"enabled":true,"region":"eu","cc":"pl","latitude":52.2297,"longitude":21.017532,"reserved":0,"last_update":"0001-01-01T00:00:00Z","name_a2s":"","protocol":0,"map":"","folder":"","game":"","app_id":0,"player_count":0,"max_players":0,"Bots":0,"server_type":"","server_os":"","password":false,"vac":false,"version":"","steam_id":0,"keywords":null,"game_id":0,"stv_port":0,"stv_name":"","players":null},{"server_id":50,"name":"Uncletopia | Warsaw | 2 | All Maps","name_short":"waw-2","host":"waw-1.pl.uncletopia.com","port":27025,"enabled":true,"region":"eu","cc":"pl","latitude":52.2297,"longitude":21.017532,"reserved":0,"last_update":"0001-01-01T00:00:00Z","name_a2s":"Uncletopia | Warsaw | 2 | All Maps","protocol":17,"map":"koth_cascade","folder":"tf","game":"Team Fortress","app_id":440,"player_count":0,"max_players":24,"Bots":0,"server_type":"Dedicated","server_os":"Linux","password":true,"vac":true,"version":"7757534","steam_id":85568392925397851,"keywords":["cp","nocrits","nodmgspread","uncletopia"],"game_id":440,"stv_port":27026,"stv_name":"Uncletopia | Warsaw | 2 | All Maps | STV","players":null},{"server_id":51,"name":"Uncletopia | Warsaw | 3 | All Maps","name_short":"waw-3","host":"waw-1.pl.uncletopia.com","port":27035,"enabled":true,"region":"eu","cc":"pl","latitude":52.2297,"longitude":21.017532,"reserved":0,"last_update":"0001-01-01T00:00:00Z","name_a2s":"Uncletopia | Warsaw | 3 | All Maps","protocol":17,"map":"pl_upward","folder":"tf","game":"Team Fortress","app_id":440,"player_count":0,"max_players":24,"Bots":0,"server_type":"Dedicated","server_os":"Linux","password":true,"vac":true,"version":"7757534","steam_id":85568392925397852,"keywords":["nocrits","nodmgspread","payload","uncletopia"],"game_id":440,"stv_port":27036,"stv_name":"Uncletopia | Warsaw | 3 | All Maps | STV","players":null},{"server_id":52,"name":"Uncletopia | Warsaw | 4 | All Maps","name_short":"waw-4","host":"waw-1.pl.uncletopia.com","port":27045,"enabled":true,"region":"eu","cc":"pl","latitude":52.2297,"longitude":21.017532,"reserved":0,"last_update":"0001-01-01T00:00:00Z","name_a2s":"Uncletopia | Warsaw | 4 | All Maps","protocol":17,"map":"pl_borneo","folder":"tf","game":"Team Fortress","app_id":440,"player_count":0,"max_players":24,"Bots":0,"server_type":"Dedicated","server_os":"Linux","password":true,"vac":true,"version":"7757534","steam_id":85568392925397853,"keywords":["nocrits","nodmgspread","payload","uncletopia"],"game_id":440,"stv_port":27046,"stv_name":"Uncletopia | Warsaw | 4 | All Maps | STV","players":null},{"server_id":53,"name":"Uncletopia | Warsaw | 5 | Stopwatch Beta","name_short":"waw-5","host":"waw-1.pl.uncletopia.com","port":27055,"enabled":true,"region":"eu","cc":"pl","latitude":52.2297,"longitude":21.017532,"reserved":0,"last_update":"0001-01-01T00:00:00Z","name_a2s":"Uncletopia | Warsaw | 5 | Stopwatch Beta","protocol":17,"map":"pl_barnblitz","folder":"tf","game":"Team Fortress","app_id":440,"player_count":0,"max_players":24,"Bots":0,"server_type":"Dedicated","server_os":"Linux","password":true,"vac":true,"version":"7757534","steam_id":85568392925397854,"keywords":["nocrits","nodmgspread","payload","uncletopia"],"game_id":440,"stv_port":27056,"stv_name":"Uncletopia | Warsaw | 5 | Stopwatch Beta | STV","players":null},{"server_id":54,"name":"Uncletopia | Warsaw | 6 | Community","name_short":"waw-6","host":"waw-1.pl.uncletopia.com","port":27065,"enabled":true,"region":"eu","cc":"pl","latitude":52.2297,"longitude":21.017532,"reserved":0,"last_update":"0001-01-01T00:00:00Z","name_a2s":"Uncletopia | Warsaw | 6 | Community","protocol":17,"map":"workshop/koth_ashville_final.ugc2130459942","folder":"tf","game":"Team Fortress","app_id":440,"player_count":0,"max_players":24,"Bots":0,"server_type":"Dedicated","server_os":"Linux","password":true,"vac":true,"version":"7757534","steam_id":85568392925397856,"keywords":["cp","nocrits","nodmgspread","uncletopia"],"game_id":440,"stv_port":27066,"stv_name":"Uncletopia | Warsaw | 6 | Community | STV","players":null}]}