{"status":true,"message":"","result":[{"server_id":9,"name":"Uncletopia | Atlanta | 1 | All Maps","name_short":"atl-1","host":"atl-1.us.uncletopia.com","port":27015,"enabled":true,"region":"us-east","cc":"us","latitude":33.753746,"longitude":-84.38633,"reserved":0,"last_update":"0001-01-01T00:00:00Z","name_a2s":"Uncletopia | Atlanta | 1 | All Maps","protocol":17,"map":"pl_upward","folder":"tf","game":"Team Fortress","app_id":440,"player_count":24,"max_players":24,"Bots":0,"server_type":"Dedicated","server_os":"Linux","password":true,"vac":true,"version":"7757534","steam_id":85568392924469982,"keywords":["nocrits","nodmgspread","payload","uncletopia"],"game_id":440,"stv_port":27016,"stv_name":"Uncletopia | Atlanta | 1 | All Maps | STV","players":[{"user_id":160,"name":"RED1 | BeastRyder","steam_id":76561198330281584,"connected_time":4342000000000,"state":"active","ping":83},{"user_id":193,"name":"Cam(era)","steam_id":76561198285054047,"connected_time":987000000000,"state":"active","ping":75},{"user_id":171,"name":"Momki","steam_id":76561198072944509,"connected_time":4077000000000,"state":"active","ping":87},{"user_id":159,"name":"The Spy from TF2","steam_id":76561199121276474,"connected_time":4511000000000,"state":"active","ping":84},{"user_id":182,"name":"BLU1 | Lav4ie they/them","steam_id":76561198825997674,"connected_time":2560000000000,"state":"active","ping":45},{"user_id":201,"name":"Fantastibad","steam_id":76561199087329262,"connected_time":237000000000,"state":"active","ping":71},{"user_id":165,"name":"luxin","steam_id":76561198399383047,"connected_time":4235000000000,"state":"active","ping":50},{"user_id":187,"name":"BLU1 | Pango","steam_id":76561198069811545,"connected_time":1232000000000,"state":"active","ping":45},{"user_id":198,"name":"swan","steam_id":76561198012569200,"connected_time":531000000000,"state":"active","ping":74},{"user_id":202,"name":"trans rights","steam_id":76561198044183038,"connected_time":1000000000,"state":"spawning","ping":45},{"user_id":178,"name":"Gram Tokers Count Doinkula","steam_id":76561198112811565,"connected_time":2988000000000,"state":"active","ping":75},{"user_id":175,"name":"JaketheDog217","steam_id":76561198424859448,"connected_time":3119000000000,"state":"active","ping":90},{"user_id":197,"name":"Walrus Walter","steam_id":76561198298416058,"connected_time":591000000000,"state":"active","ping":78},{"user_id":189,"name":"lu","steam_id":76561198080731872,"connected_time":1113000000000,"state":"active","ping":71},{"user_id":140,"name":"Fudgely","steam_id":76561198039425862,"connected_time":6156000000000,"state":"active","ping":70},{"user_id":88,"name":"hamal cine","steam_id":76561198079619374,"connected_time":9343000000000,"state":"active","ping":57},{"user_id":190,"name":"Phantom_03","steam_id":76561198217929829,"connected_time":1095000000000,"state":"active","ping":105},{"user_id":184,"name":"Tone0501","steam_id":76561198371962520,"connected_time":2051000000000,"state":"active","ping":72},{"user_id":45,"name":"Allegedly Angry Adam","steam_id":76561198449656454,"connected_time":13513000000000,"state":"active","ping":75},{"user_id":196,"name":"the meat man","steam_id":76561198037921140,"connected_time":870000000000,"state":"active","ping":95},{"user_id":95,"name":"rathotel","steam_id":76561198208126512,"connected_time":9040000000000,"state":"active","ping":78},{"user_id":191,"name":"Public Library Gamer","steam_id":76561198066405611,"connected_time":1091000000000,"state":"active","ping":74},{"user_id":199,"name":"‚í∑‚ì™‚ì™‚ì£‚ì®‚ìí‚ìê‚ìö‚ìî‚ì¢","steam_id":76561198088776421,"connected_time":494000000000,"state":"active","ping":83},{"user_id":200,"name":"SMHTMFTTF","steam_id":76561199079614516,"connected_time":487000000000,"state":"active","ping":59}]},{"server_id":400,"name":"Uncletopia | Atlanta | 3 | Stopwatch Beta","name_short":"atl-3","host":"atl-1.us.uncletopia.com","port":27035,"enabled":true,"region":"us-east","cc":"us","latitude":33.753746,"longitude":-84.38633,"reserved":0,"last_update":"0001-01-01T00:00:00Z","name_a2s":"Uncletopia | Atlanta | 3 | Stopwatch Beta","protocol":17,"map":"pl_upward","folder":"tf","game":"Team Fortress","app_id":440,"player_count":0,"max_players":24,"Bots":0,"server_type":"Dedicated","server_os":"Linux","password":true,"vac":true,"version":"7757534","steam_id":85568392924515187,"keywords":["nocrits","nodmgspread","payload","uncletopia"],"game_id":440,"stv_port":27036,"stv_name":"Uncletopia | Atlanta | 3 | Stopwatch Beta | STV","players":null},{"server_id":401,"name":"Uncletopia | Atlanta | 4 | No Payload","name_short":"atl-4","host":"atl-1.us.uncletopia.com","port":27045,"enabled":true,"region":"us-east","cc":"us","latitude":33.753746,"longitude":-84.38633,"reserved":0,"last_update":"0001-01-01T00:00:00Z","name_a2s":"Uncletopia | Atlanta | 4 | No Payload","protocol":17,"map":"pl_pier","folder":"tf","game":"Team Fortress","app_id":440,"player_count":0,"max_players":24,"Bots":0,"server_type":"Dedicated","server_os":"Linux","password":true,"vac":true,"version":"7723704","steam_id":85568392924515188,"keywords":["nocrits","nodmgspread","payload","uncletopia"],"game_id":440,"stv_port":27046,"stv_name":"Uncletopia | Atlanta | 4 | No Payload | STV","players":null},{"server_id":2,"name":"Uncletopia | Chicago | 1 | All Maps","name_short":"chi-1","host":"chi-1.us.uncletopia.com","port":27015,"enabled":true,"region":"us-central","cc":"us","latitude":41.881832,"longitude":-87.62318,"reserved":0,"last_update":"0001-01-01T00:00:00Z","name_a2s":"Uncletopia | Chicago | 1 | All Maps","protocol":17,"map":"pl_goldrush","folder":"tf","game":"Team Fortress","app_id":440,"player_count":25,"max_players":24,"Bots":0,"server_type":"Dedicated","server_os":"Linux","password":true,"vac":true,"version":"7757534","steam_id":85568392924469984,"keywords":["nocrits","nodmgspread","payload","uncletopia"],"game_id":440,"stv_port":27016,"stv_name":"Uncletopia | Chicago | 1 | All Maps | STV","players":[{"user_id":105,"name":"PENJAMIN CITY HISTORIAN","steam_id":76561198116572221,"connected_time":1731000000000,"state":"active","ping":61},{"user_id":139,"name":"__Creed__","steam_id":76561198138564169,"connected_time":939000000000,"state":"active","ping":84},{"user_id":39,"name":"Rornir","steam_id":76561198081829615,"connected_time":7943000000000,"state":"active","ping":42},{"user_id":56,"name":"blob","steam_id":76561198122375328,"connected_time":5812000000000,"state":"active","ping":69},{"user_id":150,"name":"the only thing i know for real","steam_id":76561198807273770,"connected_time":608000000000,"state":"active","ping":162},{"user_id":149,"name":"the brawler","steam_id":76561198139761609,"connected_time":634000000000,"state":"active","ping":60},{"user_id":140,"name":"not a funny guy","steam_id":76561199124486408,"connected_time":937000000000,"state":"active","ping":76},{"user_id":141,"name":"soup time","steam_id":76561197961488590,"connected_time":863000000000,"state":"active","ping":60},{"user_id":53,"name":"Swedish Crowbar","steam_id":76561199105488936,"connected_time":6142000000000,"state":"active","ping":161},{"user_id":52,"name":"Korota","steam_id":76561198095891641,"connected_time":6318000000000,"state":"active","ping":50},{"user_id":142,"name":"Waterboy","steam_id":76561197989347906,"connected_time":853000000000,"state":"active","ping":84},{"user_id":107,"name":"Daksuki","steam_id":76561198084127751,"connected_time":1703000000000,"state":"active","ping":69},{"user_id":50,"name":"‚ô• Femboy‚ô•Ventily ‚ô•","steam_id":76561198157260335,"connected_time":6430000000000,"state":"active","ping":55},{"user_id":145,"name":"mepng","steam_id":76561199018758598,"connected_time":781000000000,"state":"active","ping":100},{"user_id":122,"name":"TeeTree","steam_id":76561198862307874,"connected_time":1471000000000,"state":"active","ping":62},{"user_id":132,"name":"capybara","steam_id":76561198798828328,"connected_time":1184000000000,"state":"active","ping":51},{"user_id":160,"name":"Squirt City DJs","steam_id":76561198085755375,"connected_time":307000000000,"state":"active","ping":92},{"user_id":116,"name":"ROGUE-PLANET","steam_id":76561198116023052,"connected_time":1522000000000,"state":"active","ping":75},{"user_id":138,"name":"Velocircopter","steam_id":76561198847582048,"connected_time":1014000000000,"state":"active","ping":81},{"user_id":103,"name":"Nodspine","steam_id":76561198253579994,"connected_time":1881000000000,"state":"active","ping":135},{"user_id":151,"name":"Tyler\u0026Fingers","steam_id":76561198085154485,"connected_time":600000000000,"state":"active","ping":87},{"user_id":166,"name":"Nox","steam_id":76561198348793344,"connected_time":6000000000,"state":"spawning","ping":53},{"user_id":81,"name":"Lennu","steam_id":76561198060730154,"connected_time":3786000000000,"state":"active","ping":77},{"user_id":85,"name":"Errrmmett","steam_id":76561198041314051,"connected_time":3537000000000,"state":"active","ping":72},{"user_id":109,"name":"defs98","steam_id":76561198134813102,"connected_time":1674000000000,"state":"active","ping":60}]},{"server_id":106,"name":"Uncletopia | Chicago | 2 | All Maps","name_short":"chi-2","host":"chi-1.us.uncletopia.com","port":27025,"enabled":true,"region":"us-central","cc":"us","latitude":41.881832,"longitude":-87.62318,"reserved":0,"last_update":"0001-01-01T00:00:00Z","name_a2s":"Uncletopia | Chicago | 2 | All Maps","protocol":17,"map":"pl_upward","folder":"tf","game":"Team Fortress","app_id":440,"player_count":24,"max_players":24,"Bots":0,"server_type":"Dedicated","server_os":"Linux","password":true,"vac":true,"version":"7757534","steam_id":85568392924469985,"keywords":["nocrits","nodmgspread","payload","uncletopia"],"game_id":440,"stv_port":27026,"stv_name":"Uncletopia | Chicago | 2 | All Maps | STV","players":[{"user_id":303,"name":"Lost","steam_id":76561198025933206,"connected_time":298000000000,"state":"active","ping":61},{"user_id":295,"name":"conscripted monk","steam_id":76561199029246232,"connected_time":597000000000,"state":"active","ping":71},{"user_id":144,"name":"wobba wobba","steam_id":76561198249206656,"connected_time":12327000000000,"state":"active","ping":61},{"user_id":297,"name":"QuarterAnnualLiposuction #SvTF2","steam_id":76561198119886429,"connected_time":467000000000,"state":"active","ping":84},{"user_id":281,"name":"uhooter","steam_id":76561198007829078,"connected_time":1885000000000,"state":"active","ping":51},{"user_id":213,"name":"creeeeeee","steam_id":76561198392539722,"connected_time":7096000000000,"state":"active","ping":83},{"user_id":306,"name":"tavi","steam_id":76561198050192689,"connected_time":272000000000,"state":"active","ping":102},{"user_id":309,"name":"Do Moose go Moo?","steam_id":76561198073550620,"connected_time":137000000000,"state":"active","ping":45},{"user_id":298,"name":"Dentivent","steam_id":76561197971953043,"connected_time":450000000000,"state":"active","ping":117},{"user_id":286,"name":"jack's vitamin d","steam_id":76561198036032168,"connected_time":1617000000000,"state":"active","ping":54},{"user_id":207,"name":"Blart","steam_id":76561198101234582,"connected_time":7813000000000,"state":"active","ping":93},{"user_id":240,"name":"Drachma","steam_id":76561198007310514,"connected_time":5189000000000,"state":"active","ping":71},{"user_id":221,"name":"teafy","steam_id":76561198406252824,"connected_time":6000000000000,"state":"active","ping":105},{"user_id":296,"name":"Joker","steam_id":76561199208034454,"connected_time":523000000000,"state":"active","ping":188},{"user_id":300,"name":"Raydn","steam_id":76561198418414338,"connected_time":425000000000,"state":"active","ping":84},{"user_id":293,"name":"[CTC] kooldan","steam_id":76561198136593625,"connected_time":1106000000000,"state":"active","ping":107},{"user_id":294,"name":"Xeronuclear","steam_id":76561198167712775,"connected_time":629000000000,"state":"active","ping":154},{"user_id":305,"name":"Iron Argus","steam_id":76561198181088245,"connected_time":285000000000,"state":"active","ping":67},{"user_id":302,"name":"deech","steam_id":76561198066429444,"connected_time":350000000000,"state":"active","ping":64},{"user_id":285,"name":"f1bg","steam_id":76561199107952644,"connected_time":1705000000000,"state":"active","ping":67},{"user_id":308,"name":"flexer_2000","steam_id":76561198084422657,"connected_time":215000000000,"state":"active","ping":91},{"user_id":310,"name":"Dispenser (Twan)","steam_id":76561197991064908,"connected_time":80000000000,"state":"active","ping":61},{"user_id":269,"name":"Mug Moment Gaming","steam_id":76561198233098136,"connected_time":3338000000000,"state":"active","ping":72}]},{"server_id":402,"name":"Uncletopia | Chicago | 3 | All Maps","name_short":"chi-3","host":"chi-1.us.uncletopia.com","port":27035,"enabled":true,"region":"us-central","cc":"us","latitude":41.881832,"longitude":-87.62318,"reserved":0,"last_update":"0001-01-01T00:00:00Z","name_a2s":"Uncletopia | Chicago | 3 | All Maps","protocol":17,"map":"pl_snowycoast","folder":"tf","game":"Team Fortress","app_id":440,"player_count":22,"max_players":24,"Bots":0,"server_type":"Dedicated","server_os":"Linux","password":true,"vac":true,"version":"7757534","steam_id":85568392924515191,"keywords":["nocrits","nodmgspread","payload","uncletopia"],"game_id":440,"stv_port":27036,"stv_name":"Uncletopia | Chicago | 3 | All Maps | STV","players":[{"user_id":38,"name":"twitch.tv/rustyorion","steam_id":76561198439186347,"connected_time":2435000000000,"state":"active","ping":103},{"user_id":70,"name":"Walter Motrin","steam_id":76561198139095697,"connected_time":721000000000,"state":"active","ping":74},{"user_id":80,"name":"Nerpuge","steam_id":76561198032316546,"connected_time":267000000000,"state":"active","ping":85},{"user_id":72,"name":"paddington_bear_rulez25","steam_id":76561199230125550,"connected_time":680000000000,"state":"active","ping":68},{"user_id":81,"name":"Sapphireblitz","steam_id":76561198272635379,"connected_time":265000000000,"state":"active","ping":78},{"user_id":82,"name":"oog","steam_id":76561198272986152,"connected_time":194000000000,"state":"active","ping":92},{"user_id":55,"name":"CUNA","steam_id":76561198047622097,"connected_time":1665000000000,"state":"active","ping":59},{"user_id":15,"name":"his flatulence","steam_id":76561198799404824,"connected_time":3010000000000,"state":"active","ping":74},{"user_id":16,"name":"WAKEUP!","steam_id":76561198254479725,"connected_time":2967000000000,"state":"active","ping":45},{"user_id":62,"name":"Drilly22","steam_id":76561198068838338,"connected_time":1174000000000,"state":"active","ping":88},{"user_id":64,"name":"My meme now","steam_id":76561199244327387,"connected_time":1029000000000,"state":"active","ping":188},{"user_id":68,"name":"Ejaculation Zach","steam_id":76561198203765200,"connected_time":931000000000,"state":"active","ping":63},{"user_id":73,"name":"Jerkface","steam_id":76561198130815383,"connected_time":654000000000,"state":"active","ping":76},{"user_id":22,"name":"The Juice","steam_id":76561198065307144,"connected_time":2813000000000,"state":"active","ping":79},{"user_id":74,"name":"CeigeBirb","steam_id":76561198068538473,"connected_time":648000000000,"state":"active","ping":76},{"user_id":75,"name":"Back with the milk","steam_id":76561199020105501,"connected_time":643000000000,"state":"active","ping":62},{"user_id":78,"name":"Underwear Monster","steam_id":76561198175742775,"connected_time":370000000000,"state":"active","ping":101},{"user_id":76,"name":"Fluffeline","steam_id":76561198352909489,"connected_time":631000000000,"state":"active","ping":202},{"user_id":79,"name":"Bread Baker","steam_id":76561198185335103,"connected_time":330000000000,"state":"active","ping":55},{"user_id":29,"name":"heavy nft","steam_id":76561198068113077,"connected_time":2689000000000,"state":"active","ping":112},{"user_id":83,"name":"Quansen","steam_id":76561198151594550,"connected_time":187000000000,"state":"active","ping":56},{"user_id":66,"name":"G6 1920","steam_id":76561198111669774,"connected_time":1021000000000,"state":"active","ping":45}]},{"server_id":403,"name":"Uncletopia | Chicago | 4 | All Maps","name_short":"chi-4","host":"chi-1.us.uncletopia.com","port":27045,"enabled":true,"region":"us-central","cc":"us","latitude":41.881832,"longitude":-87.62318,"reserved":0,"last_update":"0001-01-01T00:00:00Z","name_a2s":"Uncletopia | Chicago | 4 | All Maps","protocol":17,"map":"pl_badwater","folder":"tf","game":"Team Fortress","app_id":440,"player_count":24,"max_players":24,"Bots":0,"server_type":"Dedicated","server_os":"Linux","password":true,"vac":true,"version":"7757534","steam_id":85568392924515193,"keywords":["nocrits","nodmgspread","payload","uncletopia"],"game_id":440,"stv_port":27046,"stv_name":"Uncletopia | Chicago | 4 | All Maps | STV","players":[{"user_id":62,"name":"Misho","steam_id":76561199105787215,"connected_time":159000000000,"state":"active","ping":99},{"user_id":8,"name":"Red_Hatkins","steam_id":76561198214004105,"connected_time":2443000000000,"state":"active","ping":84},{"user_id":54,"name":"Suited","steam_id":76561198293226214,"connected_time":1018000000000,"state":"active","ping":70},{"user_id":61,"name":"üçÉSmellyPineappleüçÉ","steam_id":76561198043248645,"connected_time":204000000000,"state":"active","ping":113},{"user_id":23,"name":"Cooki","steam_id":76561198051705314,"connected_time":1973000000000,"state":"active","ping":70},{"user_id":16,"name":"Count Dooku","steam_id":76561198410886034,"connected_time":2186000000000,"state":"active","ping":50},{"user_id":15,"name":"Trans Clown GF","steam_id":76561198797904267,"connected_time":2199000000000,"state":"active","ping":45},{"user_id":63,"name":"Tyrone","steam_id":76561198189429665,"connected_time":123000000000,"state":"active","ping":72},{"user_id":28,"name":"Don't Fuckle with Shuckle","steam_id":76561199020102367,"connected_time":1911000000000,"state":"active","ping":82},{"user_id":19,"name":"GaiBerd","steam_id":76561198177100634,"connected_time":2083000000000,"state":"active","ping":67},{"user_id":29,"name":"Mus Cogitabat","steam_id":76561198141578759,"connected_time":1886000000000,"state":"active","ping":86},{"user_id":60,"name":"also here","steam_id":76561199122466169,"connected_time":786000000000,"state":"active","ping":79},{"user_id":25,"name":"Trans Bumblebee","steam_id":76561198119393205,"connected_time":1942000000000,"state":"active","ping":69},{"user_id":59,"name":"James","steam_id":76561198081313916,"connected_time":860000000000,"state":"active","ping":66},{"user_id":38,"name":"Sho.","steam_id":76561198139765453,"connected_time":1759000000000,"state":"active","ping":118},{"user_id":31,"name":"footoftheday","steam_id":76561198052712449,"connected_time":1862000000000,"state":"active","ping":65},{"user_id":64,"name":"yomokha","steam_id":76561198063175935,"connected_time":22000000000,"state":"active","ping":76},{"user_id":33,"name":"Ecliptica","steam_id":76561198171951333,"connected_time":1836000000000,"state":"active","ping":113},{"user_id":45,"name":"Chucklin","steam_id":76561198010823579,"connected_time":1563000000000,"state":"active","ping":94},{"user_id":55,"name":"Konrad Vilulf","steam_id":76561198111124481,"connected_time":986000000000,"state":"active","ping":92},{"user_id":51,"name":"Monsterjessy","steam_id":76561198035630985,"connected_time":1265000000000,"state":"active","ping":60},{"user_id":52,"name":"Sal Vulcano","steam_id":76561198016677665,"connected_time":1205000000000,"state":"active","ping":62},{"user_id":57,"name":"Evan","steam_id":76561198081165364,"connected_time":895000000000,"state":"active","ping":83},{"user_id":58,"name":"8ish","steam_id":76561199184599042,"connected_time":882000000000,"state":"active","ping":60}]},{"server_id":36,"name":"Uncletopia | Chicago | 5 | All Maps","name_short":"chi-5","host":"chi-2.us.uncletopia.com","port":27015,"enabled":true,"region":"us-central","cc":"us","latitude":41.881832,"longitude":-87.62318,"reserved":0,"last_update":"0001-01-01T00:00:00Z","name_a2s":"Uncletopia | Chicago | 5 | All Maps","protocol":17,"map":"koth_cascade","folder":"tf","game":"Team Fortress","app_id":440,"player_count":0,"max_players":24,"Bots":0,"server_type":"Dedicated","server_os":"Linux","password":true,"vac":true,"version":"7757534","steam_id":85568392924866362,"keywords":["cp","nocrits","nodmgspread","uncletopia"],"game_id":440,"stv_port":27016,"stv_name":"Uncletopia | Chicago | 5 | All Maps | STV","players":null},{"server_id":37,"name":"Uncletopia | Chicago | 6 | All Maps","name_short":"chi-6","host":"chi-2.us.uncletopia.com","port":27025,"enabled":true,"region":"us-central","cc":"us","latitude":41.881832,"longitude":-87.62318,"reserved":0,"last_update":"0001-01-01T00:00:00Z","name_a2s":"Uncletopia | Chicago | 6 | All Maps","protocol":17,"map":"koth_cascade","folder":"tf","game":"Team Fortress","app_id":440,"player_count":0,"max_players":24,"Bots":0,"server_type":"Dedicated","server_os":"Linux","password":true,"vac":true,"version":"7757534","steam_id":85568392924866363,"keywords":["cp","nocrits","nodmgspread","uncletopia"],"game_id":440,"stv_port":27026,"stv_name":"Uncletopia | Chicago | 6 | All Maps | STV","players":null},{"server_id":38,"name":"Uncletopia | Chicago | 7 | Stopwatch Beta","name_short":"chi-7","host":"chi-2.us.uncletopia.com","port":27035,"enabled":true,"region":"us-central","cc":"us","latitude":41.881832,"longitude":-87.62318,"reserved":0,"last_update":"0001-01-01T00:00:00Z","name_a2s":"Uncletopia | Chicago | 7 | Stopwatch Beta","protocol":17,"map":"cp_sunshine","folder":"tf","game":"Team Fortress","app_id":440,"player_count":0,"max_players":24,"Bots":0,"server_type":"Dedicated","server_os":"Linux","password":true,"vac":true,"version":"7757534","steam_id":85568392924866364,"keywords":["cp","nocrits","nodmgspread","uncletopia"],"game_id":440,"stv_port":27036,"stv_name":"Uncletopia | Chicago | 7 | Stopwatch Beta | STV","players":null},{"server_id":39,"name":"Uncletopia | Chicago | 8 | Community","name_short":"chi-8","host":"chi-2.us.uncletopia.com","port":27045,"enabled":true,"region":"us-central","cc":"us","latitude":41.881832,"longitude":-87.62318,"reserved":0,"last_update":"0001-01-01T00:00:00Z","name_a2s":"Uncletopia | Chicago | 8 | Community","protocol":17,"map":"pl_pier","folder":"tf","game":"Team Fortress","app_id":440,"player_count":0,"max_players":24,"Bots":0,"server_type":"Dedicated","server_os":"Linux","password":true,"vac":true,"version":"7757534","steam_id":85568392924866365,"keywords":["nocrits","nodmgspread","payload","uncletopia"],"game_id":440,"stv_port":27046,"stv_name":"Uncletopia | Chicago | 8 | Community | STV","players":null},{"server_id":8,"name":"Uncletopia | Dallas | 1 | All Maps","name_short":"dal-1","host":"dal-1.us.uncletopia.com","port":27015,"enabled":true,"region":"us-central","cc":"us","latitude":32.779167,"longitude":-96.80889,"reserved":0,"last_update":"0001-01-01T00:00:00Z","name_a2s":"Uncletopia | Dallas | 1 | All Maps","protocol":17,"map":"pl_badwater","folder":"tf","game":"Team Fortress","app_id":440,"player_count":23,"max_players":24,"Bots":0,"server_type":"Dedicated","server_os":"Linux","password":true,"vac":true,"version":"7757534","steam_id":85568392924469986,"keywords":["nocrits","nodmgspread","payload","uncletopia"],"game_id":440,"stv_port":27016,"stv_name":"Uncletopia | Dallas | 1 | All Maps | STV","players":[{"user_id":159,"name":"A Fruit","steam_id":76561198951830050,"connected_time":1071000000000,"state":"active","ping":44},{"user_id":89,"name":"big boy","steam_id":76561198053832401,"connected_time":6703000000000,"state":"active","ping":109},{"user_id":168,"name":"mikey | I'm Burning Bright!","steam_id":76561198985847893,"connected_time":568000000000,"state":"active","ping":46},{"user_id":175,"name":"Scorpianswag","steam_id":76561198260651036,"connected_time":121000000000,"state":"active","ping":60},{"user_id":172,"name":"Chunts up with that?","steam_id":76561198063808137,"connected_time":189000000000,"state":"active","ping":65},{"user_id":153,"name":"Flying Emu","steam_id":76561198121632924,"connected_time":2080000000000,"state":"active","ping":54},{"user_id":69,"name":"pepsi fan","steam_id":76561198292814336,"connected_time":8623000000000,"state":"active","ping":76},{"user_id":97,"name":"Batso","steam_id":76561198106589452,"connected_time":5815000000000,"state":"active","ping":100},{"user_id":163,"name":"Cam","steam_id":76561198139174433,"connected_time":874000000000,"state":"active","ping":73},{"user_id":174,"name":"Uncle Darnell","steam_id":76561198211473307,"connected_time":150000000000,"state":"active","ping":79},{"user_id":63,"name":"Filthy Hobo","steam_id":76561198174373015,"connected_time":9243000000000,"state":"active","ping":111},{"user_id":176,"name":"Good Mudkip","steam_id":76561198439784449,"connected_time":114000000000,"state":"active","ping":159},{"user_id":161,"name":"Yimi","steam_id":76561198097984345,"connected_time":911000000000,"state":"active","ping":71},{"user_id":72,"name":"yitz","steam_id":76561198375575841,"connected_time":8588000000000,"state":"active","ping":72},{"user_id":178,"name":"ÕìÕìÃùÕôÃ†ÃùÕñÕâÃ•CÕÇÕëÕ¨ÕõÕãÃø","steam_id":76561198423390455,"connected_time":81000000000,"state":"active","ping":114},{"user_id":179,"name":"Michaelpc1","steam_id":76561198088365519,"connected_time":40000000000,"state":"active","ping":79},{"user_id":180,"name":"SorcererCat","steam_id":76561199219316179,"connected_time":25000000000,"state":"active","ping":163},{"user_id":127,"name":"Hunto","steam_id":76561198328052562,"connected_time":3555000000000,"state":"active","ping":109},{"user_id":162,"name":"Shark Sandwich","steam_id":76561198025007938,"connected_time":897000000000,"state":"active","ping":104},{"user_id":166,"name":"N0_J0K3","steam_id":76561198287102197,"connected_time":682000000000,"state":"active","ping":52},{"user_id":169,"name":"james may","steam_id":76561198043857339,"connected_time":555000000000,"state":"active","ping":82},{"user_id":167,"name":"Chimpish","steam_id":76561199263493270,"connected_time":676000000000,"state":"active","ping":93},{"user_id":46,"name":"(Edited)","steam_id":76561198201657342,"connected_time":10423000000000,"state":"active","ping":76}]},{"server_id":108,"name":"Uncletopia | Dallas | 2 | All Maps","name_short":"dal-2","host":"dal-1.us.uncletopia.com","port":27025,"enabled":true,"region":"us-central","cc":"us","latitude":32.779167,"longitude":-96.80889,"reserved":0,"last_update":"0001-01-01T00:00:00Z","name_a2s":"Uncletopia | Dallas | 2 | All Maps","protocol":17,"map":"pl_swiftwater_final1","folder":"tf","game":"Team Fortress","app_id":440,"player_count":15,"max_players":24,"Bots":0,"server_type":"Dedicated","server_os":"Linux","password":true,"vac":true,"version":"7757534","steam_id":85568392924469988,"keywords":["nocrits","nodmgspread","payload","uncletopia"],"game_id":440,"stv_port":27026,"stv_name":"Uncletopia | Dallas | 2 | All Maps | STV","players":[{"user_id":71,"name":"Kashgan45.TTV","steam_id":76561198198177959,"connected_time":2049000000000,"state":"active","ping":180},{"user_id":89,"name":"asterismz","steam_id":76561198271895997,"connected_time":68000000000,"state":"active","ping":120},{"user_id":81,"name":"GP1","steam_id":76561198202815931,"connected_time":1106000000000,"state":"active","ping":107},{"user_id":91,"name":"Wesudo *o*","steam_id":76561198995177194,"connected_time":24000000000,"state":"spawning","ping":201},{"user_id":90,"name":"Beelzebub","steam_id":76561198990699576,"connected_time":64000000000,"state":"active","ping":81},{"user_id":83,"name":"Danny Fentanyl","steam_id":76561197970791798,"connected_time":1086000000000,"state":"active","ping":89},{"user_id":85,"name":"soulcantspeech","steam_id":76561198186690945,"connected_time":968000000000,"state":"active","ping":93},{"user_id":53,"name":"dangergirl99","steam_id":76561198121651564,"connected_time":3532000000000,"state":"active","ping":79},{"user_id":74,"name":"pencilneck","steam_id":76561198865971290,"connected_time":1734000000000,"state":"active","ping":89},{"user_id":78,"name":"ShredMaan","steam_id":76561198429982138,"connected_time":1371000000000,"state":"active","ping":83},{"user_id":28,"name":"FG7","steam_id":76561198381197197,"connected_time":4202000000000,"state":"active","ping":102},{"user_id":30,"name":"Deltaco","steam_id":76561198094572694,"connected_time":4117000000000,"state":"active","ping":120},{"user_id":87,"name":"thundermuffin","steam_id":76561198067770965,"connected_time":437000000000,"state":"active","ping":74},{"user_id":63,"name":"None of that $9.99 bullshit","steam_id":76561198116169903,"connected_time":2689000000000,"state":"active","ping":75},{"user_id":55,"name":"D(b) Hell","steam_id":76561198067869016,"connected_time":3301000000000,"state":"active","ping":63}]},{"server_id":5,"name":"Uncletopia | Frankfurt | 1 | All Maps","name_short":"frk-1","host":"frk-1.de.uncletopia.com","port":27015,"enabled":true,"region":"eu","cc":"de","latitude":50.110924,"longitude":8.682127,"reserved":0,"last_update":"0001-01-01T00:00:00Z","name_a2s":"Uncletopia | Frankfurt | 1 | All Maps","protocol":17,"map":"pl_swiftwater_final1","folder":"tf","game":"Team Fortress","app_id":440,"player_count":24,"max_players":24,"Bots":0,"server_type":"Dedicated","server_os":"Linux","password":true,"vac":true,"version":"7757534","steam_id":85568392924469989,"keywords":["nocrits","nodmgspread","payload","uncletopia"],"game_id":440,"stv_port":27016,"stv_name":"Uncletopia | Frankfurt | 1 | All Maps | STV","players":[{"user_id":43,"name":"HeroldBaum","steam_id":76561198063420715,"connected_time":1368000000000,"state":"active","ping":44},{"user_id":44,"name":"MOON_RUNNER","steam_id":76561199086396171,"connected_time":1327000000000,"state":"active","ping":97},{"user_id":45,"name":"≈†FO","steam_id":76561198132104112,"connected_time":1307000000000,"state":"active","ping":73},{"user_id":36,"name":"GoodCombine","steam_id":76561198014057015,"connected_time":1692000000000,"state":"active","ping":74},{"user_id":37,"name":"Lolihunter","steam_id":76561198285406228,"connected_time":1681000000000,"state":"active","ping":76},{"user_id":68,"name":"Dispenser (Lopata)","steam_id":76561198820264239,"connected_time":580000000000,"state":"active","ping":89},{"user_id":47,"name":"Kili","steam_id":76561198138456346,"connected_time":1120000000000,"state":"active","ping":60},{"user_id":77,"name":"‚Ä¢stepbro‚Ä¢","steam_id":76561198119607160,"connected_time":85000000000,"state":"active","ping":67},{"user_id":48,"name":"some femboy","steam_id":76561198967978555,"connected_time":1112000000000,"state":"active","ping":79},{"user_id":73,"name":"BSantos57","steam_id":76561198000597094,"connected_time":494000000000,"state":"active","ping":96},{"user_id":75,"name":"wootabs","steam_id":76561198831766743,"connected_time":311000000000,"state":"active","ping":71},{"user_id":76,"name":"Hetmanych","steam_id":76561198870926865,"connected_time":216000000000,"state":"active","ping":53},{"user_id":57,"name":"Winters Fall","steam_id":76561198303707290,"connected_time":827000000000,"state":"active","ping":86},{"user_id":53,"name":"beemschurger","steam_id":76561198849230027,"connected_time":907000000000,"state":"active","ping":79},{"user_id":54,"name":"TheBegugeMan","steam_id":76561198371243452,"connected_time":891000000000,"state":"active","ping":89},{"user_id":69,"name":"Bosnian Ketamine Mafia","steam_id":76561198163571788,"connected_time":567000000000,"state":"active","ping":92},{"user_id":56,"name":"rednight on the pc","steam_id":76561199043940899,"connected_time":852000000000,"state":"active","ping":76},{"user_id":58,"name":"Why?","steam_id":76561198970833545,"connected_time":820000000000,"state":"active","ping":78},{"user_id":71,"name":"YEEET","steam_id":76561198914938199,"connected_time":539000000000,"state":"active","ping":90},{"user_id":61,"name":"Lil B√ºsh","steam_id":76561198171008946,"connected_time":753000000000,"state":"active","ping":68},{"user_id":62,"name":"azeroy","steam_id":76561198079277466,"connected_time":749000000000,"state":"active","ping":59},{"user_id":63,"name":"chr","steam_id":76561198073016365,"connected_time":737000000000,"state":"active","ping":85},{"user_id":64,"name":"Lieutenant Lead","steam_id":76561198336867604,"connected_time":714000000000,"state":"active","ping":45},{"user_id":72,"name":"lore","steam_id":76561198120984188,"connected_time":537000000000,"state":"active","ping":68}]},{"server_id":110,"name":"Uncletopia | Frankfurt | 2 | All Maps","name_short":"frk-2","host":"frk-1.de.uncletopia.com","port":27025,"enabled":true,"region":"eu","cc":"de","latitude":50.110924,"longitude":8.682127,"reserved":0,"last_update":"0001-01-01T00:00:00Z","name_a2s":"Uncletopia | Frankfurt | 2 | All Maps","protocol":17,"map":"pl_pier","folder":"tf","game":"Team Fortress","app_id":440,"player_count":24,"max_players":24,"Bots":0,"server_type":"Dedicated","server_os":"Linux","password":true,"vac":true,"version":"7757534","steam_id":85568392924469990,"keywords":["nocrits","nodmgspread","payload","uncletopia"],"game_id":440,"stv_port":27026,"stv_name":"Uncletopia | Frankfurt | 2 | All Maps | STV","players":[{"user_id":322,"name":"Carrot","steam_id":76561198119340863,"connected_time":136000000000,"state":"active","ping":47},{"user_id":317,"name":"Th√§as","steam_id":76561198264708239,"connected_time":252000000000,"state":"active","ping":58},{"user_id":312,"name":":)","steam_id":76561198103988618,"connected_time":1216000000000,"state":"active","ping":64},{"user_id":300,"name":"kiki","steam_id":76561198838277022,"connected_time":1856000000000,"state":"active","ping":65},{"user_id":311,"name":"SoupER","steam_id":76561198063056668,"connected_time":1237000000000,"state":"active","ping":62},{"user_id":260,"name":"Jesse Fatcoc","steam_id":76561199004942770,"connected_time":4765000000000,"state":"active","ping":62},{"user_id":319,"name":"petrice","steam_id":76561198258838926,"connected_time":211000000000,"state":"active","ping":102},{"user_id":320,"name":"Deva Path","steam_id":76561198085763542,"connected_time":185000000000,"state":"active","ping":75},{"user_id":302,"name":"‚ùÑ Kami ‚ùÑ","steam_id":76561198158209651,"connected_time":1845000000000,"state":"active","ping":73},{"user_id":268,"name":"Datenegassie","steam_id":76561198089417032,"connected_time":4261000000000,"state":"active","ping":63},{"user_id":327,"name":"Nokia 3.1","steam_id":76561199170010907,"connected_time":56000000000,"state":"active","ping":83},{"user_id":325,"name":"The 4th Doctor","steam_id":76561198191516706,"connected_time":112000000000,"state":"active","ping":65},{"user_id":321,"name":"G/3","steam_id":76561198234844188,"connected_time":166000000000,"state":"active","ping":57},{"user_id":306,"name":"Penis Contortionist","steam_id":76561198073663784,"connected_time":1365000000000,"state":"active","ping":52},{"user_id":323,"name":"jona3838","steam_id":76561199097658195,"connected_time":120000000000,"state":"active","ping":106},{"user_id":236,"name":"catboy trickster","steam_id":76561198075665211,"connected_time":7504000000000,"state":"active","ping":38},{"user_id":309,"name":"Ahi","steam_id":76561199174579733,"connected_time":1290000000000,"state":"active","ping":143},{"user_id":279,"name":"john fortress","steam_id":76561198013237629,"connected_time":3624000000000,"state":"active","ping":98},{"user_id":324,"name":"!!!","steam_id":76561199099057716,"connected_time":117000000000,"state":"active","ping":79},{"user_id":301,"name":"Hood","steam_id":76561199229682408,"connected_time":1852000000000,"state":"active","ping":59},{"user_id":328,"name":"Mata_FM11","steam_id":76561198044824504,"connected_time":46000000000,"state":"active","ping":70},{"user_id":313,"name":"wave","steam_id":76561198267167505,"connected_time":1160000000000,"state":"active","ping":75},{"user_id":316,"name":"Fuvuk","steam_id":76561198044458593,"connected_time":635000000000,"state":"active","ping":93},{"user_id":270,"name":"Fran","steam_id":76561199070516960,"connected_time":4215000000000,"state":"active","ping":61}]},{"server_id":308,"name":"Uncletopia | Frankfurt | 3 | All Maps","name_short":"frk-3","host":"frk-1.de.uncletopia.com","port":27035,"enabled":true,"region":"eu","cc":"de","latitude":50.110924,"longitude":8.682127,"reserved":0,"last_update":"0001-01-01T00:00:00Z","name_a2s":"Uncletopia | Frankfurt | 3 | All Maps","protocol":17,"map":"cp_gullywash_final1","folder":"tf","game":"Team Fortress","app_id":440,"player_count":21,"max_players":24,"Bots":0,"server_type":"Dedicated","server_os":"Linux","password":true,"vac":true,"version":"7757534","steam_id":85568392924504274,"keywords":["cp","nocrits","nodmgspread","uncletopia"],"game_id":440,"stv_port":27036,"stv_name":"Uncletopia | Frankfurt | 3 | All Maps | STV","players":[{"user_id":95,"name":"Dingerfish","steam_id":76561199075378341,"connected_time":20000000000,"state":"active","ping":117},{"user_id":91,"name":"Sanctified","steam_id":76561198057092208,"connected_time":202000000000,"state":"active","ping":59},{"user_id":46,"name":"Barb√Ätrou","steam_id":76561199439141531,"connected_time":2583000000000,"state":"active","ping":50},{"user_id":23,"name":"roblan11","steam_id":76561198066839258,"connected_time":3931000000000,"state":"active","ping":44},{"user_id":24,"name":"D_for_Dumbass","steam_id":76561198908993740,"connected_time":3854000000000,"state":"active","ping":53},{"user_id":93,"name":"Daddy Donovan","steam_id":76561198140938904,"connected_time":120000000000,"state":"active","ping":87},{"user_id":89,"name":"a straight white male","steam_id":76561198381120660,"connected_time":237000000000,"state":"active","ping":88},{"user_id":77,"name":"sesw","steam_id":76561198057332404,"connected_time":1020000000000,"state":"active","ping":54},{"user_id":39,"name":"Izzie","steam_id":76561198090287325,"connected_time":2731000000000,"state":"active","ping":71},{"user_id":92,"name":"bANji","steam_id":76561198108898161,"connected_time":158000000000,"state":"active","ping":32},{"user_id":78,"name":"Proud Jojo Fan #TF2SP","steam_id":76561198847327216,"connected_time":980000000000,"state":"active","ping":62},{"user_id":42,"name":"Lokinn","steam_id":76561198127117580,"connected_time":2633000000000,"state":"active","ping":65},{"user_id":32,"name":"Arturias","steam_id":76561198188720263,"connected_time":3152000000000,"state":"active","ping":57},{"user_id":96,"name":"YOUR MOTHER IS A SPY!","steam_id":76561199075962899,"connected_time":11000000000,"state":"spawning","ping":107},{"user_id":44,"name":"PanPatrik","steam_id":76561198293331527,"connected_time":2614000000000,"state":"active","ping":60},{"user_id":87,"name":"Toon","steam_id":76561198065421595,"connected_time":352000000000,"state":"active","ping":51},{"user_id":75,"name":"Fish 'n' Chips","steam_id":76561198033476886,"connected_time":1219000000000,"state":"active","ping":46},{"user_id":68,"name":"Bonuxer","steam_id":76561198093098132,"connected_time":1533000000000,"state":"active","ping":78},{"user_id":51,"name":"patypiranja2","steam_id":76561198145410403,"connected_time":2495000000000,"state":"active","ping":47},{"user_id":80,"name":"yeldad","steam_id":76561198447264153,"connected_time":887000000000,"state":"active","ping":189},{"user_id":86,"name":"demoman boober.","steam_id":76561198831191199,"connected_time":417000000000,"state":"active","ping":99}]},{"server_id":309,"name":"Uncletopia | Frankfurt | 4 | All Maps","name_short":"frk-4","host":"frk-1.de.uncletopia.com","port":27045,"enabled":true,"region":"eu","cc":"de","latitude":50.110924,"longitude":8.682127,"reserved":0,"last_update":"0001-01-01T00:00:00Z","name_a2s":"Uncletopia | Frankfurt | 4 | All Maps","protocol":17,"map":"pl_pier","folder":"tf","game":"Team Fortress","app_id":440,"player_count":24,"max_players":24,"Bots":0,"server_type":"Dedicated","server_os":"Linux","password":true,"vac":true,"version":"7757534","steam_id":85568392924504275,"keywords":["nocrits","nodmgspread","payload","uncletopia"],"game_id":440,"stv_port":27046,"stv_name":"Uncletopia | Frankfurt | 4 | All Maps | STV","players":[{"user_id":427,"name":"Cossack","steam_id":76561198076661772,"connected_time":1188000000000,"state":"active","ping":83},{"user_id":443,"name":"Ragnar","steam_id":76561199052739261,"connected_time":87000000000,"state":"active","ping":97},{"user_id":428,"name":"walking plane","steam_id":76561198146779559,"connected_time":1117000000000,"state":"active","ping":91},{"user_id":425,"name":"Joe mama","steam_id":76561198806718750,"connected_time":1204000000000,"state":"active","ping":68},{"user_id":382,"name":"I was good before.","steam_id":76561198187045217,"connected_time":4739000000000,"state":"active","ping":78},{"user_id":429,"name":"Andreas","steam_id":76561198115745782,"connected_time":1010000000000,"state":"active","ping":71},{"user_id":426,"name":"[RANDOM CRITS]","steam_id":76561198442302735,"connected_time":1203000000000,"state":"active","ping":68},{"user_id":419,"name":"remove poland","steam_id":76561199433578516,"connected_time":1390000000000,"state":"active","ping":78},{"user_id":421,"name":"skibidi bop yes yes yes","steam_id":76561198306177608,"connected_time":1255000000000,"state":"active","ping":69},{"user_id":378,"name":"dirty","steam_id":76561197995572935,"connected_time":4917000000000,"state":"active","ping":80},{"user_id":401,"name":"Sonder","steam_id":76561198115893794,"connected_time":3319000000000,"state":"active","ping":92},{"user_id":442,"name":"Vitamin Weee","steam_id":76561199183937747,"connected_time":325000000000,"state":"active","ping":85},{"user_id":414,"name":"xenia","steam_id":76561198062107879,"connected_time":1656000000000,"state":"active","ping":85},{"user_id":355,"name":"XavierSweet","steam_id":76561198091781913,"connected_time":6212000000000,"state":"active","ping":69},{"user_id":431,"name":"astralscr","steam_id":76561199090360946,"connected_time":1008000000000,"state":"active","ping":65},{"user_id":409,"name":"Kaze","steam_id":76561197965669842,"connected_time":1921000000000,"state":"active","ping":78},{"user_id":390,"name":"MagicTITIKAKA","steam_id":76561198129509548,"connected_time":4447000000000,"state":"active","ping":112},{"user_id":411,"name":"ike","steam_id":76561198039573338,"connected_time":1887000000000,"state":"active","ping":92},{"user_id":432,"name":"Moloch","steam_id":76561197989678245,"connected_time":970000000000,"state":"active","ping":82},{"user_id":417,"name":"Rodia","steam_id":76561197968293161,"connected_time":1466000000000,"state":"active","ping":60},{"user_id":433,"name":"BottledSprite","steam_id":76561199131957081,"connected_time":957000000000,"state":"active","ping":91},{"user_id":441,"name":"Gaius","steam_id":76561198188174963,"connected_time":461000000000,"state":"active","ping":59},{"user_id":407,"name":"ScarredPixel123","steam_id":76561199165112703,"connected_time":1991000000000,"state":"active","ping":81},{"user_id":439,"name":"Hoodiebud","steam_id":76561198335687042,"connected_time":643000000000,"state":"active","ping":70}]},{"server_id":310,"name":"Uncletopia | Frankfurt | 5 | All Maps","name_short":"frk-5","host":"frk-1.de.uncletopia.com","port":27055,"enabled":true,"region":"eu","cc":"de","latitude":50.110924,"longitude":8.682127,"reserved":0,"last_update":"0001-01-01T00:00:00Z","name_a2s":"Uncletopia | Frankfurt | 5 | All Maps","protocol":17,"map":"pl_frontier_final","folder":"tf","game":"Team Fortress","app_id":440,"player_count":24,"max_players":24,"Bots":0,"server_type":"Dedicated","server_os":"Linux","password":true,"vac":true,"version":"7757534","steam_id":85568392924504277,"keywords":["nocrits","nodmgspread","payload","uncletopia"],"game_id":440,"stv_port":27056,"stv_name":"Uncletopia | Frankfurt | 5 | All Maps | STV","players":[{"user_id":245,"name":"eduardo","steam_id":76561198014491925,"connected_time":3780000000000,"state":"active","ping":82},{"user_id":283,"name":"T1 (ted1)","steam_id":76561199229022826,"connected_time":415000000000,"state":"active","ping":103},{"user_id":260,"name":"FLYING DWARF","steam_id":76561199048614286,"connected_time":2531000000000,"state":"active","ping":99},{"user_id":272,"name":"Optimist 50","steam_id":76561198039631442,"connected_time":2121000000000,"state":"active","ping":79},{"user_id":284,"name":"redddz","steam_id":76561198065593840,"connected_time":411000000000,"state":"active","ping":88},{"user_id":270,"name":"El`Capitano Flex","steam_id":76561198061813730,"connected_time":2215000000000,"state":"active","ping":66},{"user_id":276,"name":"MEDiUM","steam_id":76561198112328561,"connected_time":1667000000000,"state":"active","ping":79},{"user_id":216,"name":"The Yes Man","steam_id":76561198112558416,"connected_time":5267000000000,"state":"active","ping":42},{"user_id":290,"name":"LoboPaciente","steam_id":76561198088870962,"connected_time":74000000000,"state":"active","ping":73},{"user_id":285,"name":"Raven","steam_id":76561198087296188,"connected_time":406000000000,"state":"active","ping":86},{"user_id":237,"name":"KGiorgios_Bully","steam_id":76561198825392728,"connected_time":3863000000000,"state":"active","ping":122},{"user_id":286,"name":"kbbq","steam_id":76561198346638308,"connected_time":405000000000,"state":"active","ping":60},{"user_id":280,"name":"Laxslow","steam_id":76561198065361846,"connected_time":1054000000000,"state":"active","ping":60},{"user_id":279,"name":"blue","steam_id":76561198216200092,"connected_time":1281000000000,"state":"active","ping":66},{"user_id":287,"name":"Accident","steam_id":76561198115160396,"connected_time":390000000000,"state":"active","ping":69},{"user_id":288,"name":"That Stupid Engineer :D","steam_id":76561198823999754,"connected_time":366000000000,"state":"active","ping":131},{"user_id":242,"name":"DeCypher","steam_id":76561198171992619,"connected_time":3799000000000,"state":"active","ping":70},{"user_id":289,"name":"Andy","steam_id":76561198136364381,"connected_time":338000000000,"state":"active","ping":62},{"user_id":273,"name":"KyraMelody","steam_id":76561198030308767,"connected_time":2021000000000,"state":"active","ping":58},{"user_id":263,"name":"CarBombEnthusiast","steam_id":76561199448185434,"connected_time":2320000000000,"state":"active","ping":70},{"user_id":225,"name":"galaxy","steam_id":76561198164819022,"connected_time":5066000000000,"state":"active","ping":66},{"user_id":274,"name":"Soerlssoelss√∂en","steam_id":76561197993060585,"connected_time":1700000000000,"state":"active","ping":78},{"user_id":271,"name":"Realist 40","steam_id":76561198052476979,"connected_time":2207000000000,"state":"active","ping":105},{"user_id":254,"name":"-makina","steam_id":76561198273042780,"connected_time":3113000000000,"state":"active","ping":65}]},{"server_id":311,"name":"Uncletopia | Frankfurt | 6 | All Maps","name_short":"frk-6","host":"frk-1.de.uncletopia.com","port":27065,"enabled":true,"region":"eu","cc":"de","latitude":50.110924,"longitude":8.682127,"reserved":0,"last_update":"0001-01-01T00:00:00Z","name_a2s":"Uncletopia | Frankfurt | 6 | All Maps","protocol":17,"map":"cp_snakewater_final1","folder":"tf","game":"Team Fortress","app_id":440,"player_count":23,"max_players":24,"Bots":0,"server_type":"Dedicated","server_os":"Linux","password":true,"vac":true,"version":"7757534","steam_id":85568392924504278,"keywords":["cp","nocrits","nodmgspread","uncletopia"],"game_id":440,"stv_port":27066,"stv_name":"Uncletopia | Frankfurt | 6 | All Maps | STV","players":[{"user_id":133,"name":"The Masterplan","steam_id":76561198158631465,"connected_time":679000000000,"state":"active","ping":60},{"user_id":127,"name":"Moe Jama","steam_id":76561198021676997,"connected_time":1111000000000,"state":"active","ping":72},{"user_id":136,"name":"Raku","steam_id":76561198398959735,"connected_time":327000000000,"state":"active","ping":53},{"user_id":138,"name":"Boner","steam_id":76561199109140140,"connected_time":251000000000,"state":"active","ping":71},{"user_id":88,"name":"Dinges360","steam_id":76561198042032834,"connected_time":4995000000000,"state":"active","ping":55},{"user_id":134,"name":"Mr.Weis","steam_id":76561198115443579,"connected_time":469000000000,"state":"active","ping":60},{"user_id":125,"name":"ViciousVinnyD","steam_id":76561198053822329,"connected_time":1150000000000,"state":"active","ping":69},{"user_id":93,"name":"hourglass","steam_id":76561198166613799,"connected_time":4210000000000,"state":"active","ping":79},{"user_id":106,"name":"Tioghi","steam_id":76561199210186788,"connected_time":3115000000000,"state":"active","ping":60},{"user_id":144,"name":"QUASO","steam_id":76561198295305088,"connected_time":17000000000,"state":"spawning","ping":51},{"user_id":128,"name":"Osiris x Saint-14 9k Page Fanfi","steam_id":76561198133063760,"connected_time":1089000000000,"state":"active","ping":65},{"user_id":112,"name":"NORTH KOREAN SPY","steam_id":76561198875472890,"connected_time":2691000000000,"state":"active","ping":76},{"user_id":141,"name":"whatever","steam_id":76561198095943461,"connected_time":82000000000,"state":"active","ping":61},{"user_id":118,"name":"Sneaky boi","steam_id":76561199195985387,"connected_time":2342000000000,"state":"active","ping":84},{"user_id":142,"name":"ankaramessi","steam_id":76561198890409949,"connected_time":67000000000,"state":"active","ping":90},{"user_id":143,"name":"TravIS","steam_id":76561198202115036,"connected_time":61000000000,"state":"active","ping":68},{"user_id":124,"name":"Mike Doe","steam_id":76561198331251922,"connected_time":1166000000000,"state":"active","ping":75},{"user_id":132,"name":"w4gthp0h","steam_id":76561198133193445,"connected_time":1011000000000,"state":"active","ping":77},{"user_id":49,"name":"citronous","steam_id":76561198093290934,"connected_time":7382000000000,"state":"active","ping":50},{"user_id":113,"name":"404 bomb","steam_id":76561198115755832,"connected_time":2680000000000,"state":"active","ping":87},{"user_id":80,"name":"Thomas_Is_Ready","steam_id":76561199072059059,"connected_time":5438000000000,"state":"active","ping":55},{"user_id":99,"name":"Marokyea","steam_id":76561198069433161,"connected_time":4056000000000,"state":"active","ping":72},{"user_id":123,"name":"Oceanic | tuesday maybe","steam_id":76561197979741827,"connected_time":2110000000000,"state":"active","ping":59}]},{"server_id":23,"name":"Uncletopia | Frankfurt | 7 | Stopwatch Beta","name_short":"frk-7","host":"frk-1.de.uncletopia.com","port":27075,"enabled":true,"region":"eu","cc":"de","latitude":50.110924,"longitude":8.682127,"reserved":0,"last_update":"0001-01-01T00:00:00Z","name_a2s":"Uncletopia | Frankfurt | 7 | Stopwatch Beta","protocol":17,"map":"pl_borneo","folder":"tf","game":"Team Fortress","app_id":440,"player_count":0,"max_players":24,"Bots":0,"server_type":"Dedicated","server_os":"Linux","password":true,"vac":true,"version":"7757534","steam_id":85568392924742827,"keywords":["nocrits","nodmgspread","payload","uncletopia"],"game_id":440,"stv_port":27076,"stv_name":"Uncletopia | Frankfurt | 7 | Stopwatch Beta | STV","players":null},{"server_id":24,"name":"Uncletopia | Frankfurt | 8 | Community","name_short":"frk-8","host":"frk-1.de.uncletopia.com","port":27085,"enabled":true,"region":"eu","cc":"de","latitude":50.110924,"longitude":8.682127,"reserved":0,"last_update":"0001-01-01T00:00:00Z","name_a2s":"Uncletopia | Frankfurt | 8 | Community","protocol":17,"map":"workshop/pl_eruption_b9a.ugc2807898013","folder":"tf","game":"Team Fortress","app_id":440,"player_count":0,"max_players":24,"Bots":0,"server_type":"Dedicated","server_os":"Linux","password":true,"vac":true,"version":"7757534","steam_id":85568392924742828,"keywords":["nocrits","nodmgspread","payload","uncletopia"],"game_id":440,"stv_port":27086,"stv_name":"Uncletopia | Frankfurt | 8 | Community | STV","players":null},{"server_id":202,"name":"Uncletopia | Hong Kong | 1 | All Maps","name_short":"hgk-1","host":"hgk-1.hk.uncletopia.com","port":27015,"enabled":true,"region":"asia","cc":"hk","latitude":22.302711,"longitude":114.177216,"reserved":0,"last_update":"0001-01-01T00:00:00Z","name_a2s":"Uncletopia | Hong Kong | 1 | All Maps","protocol":17,"map":"koth_suijin","folder":"tf","game":"Team Fortress","app_id":440,"player_count":0,"max_players":24,"Bots":0,"server_type":"Dedicated","server_os":"Linux","password":true,"vac":true,"version":"7757534","steam_id":85568392924494504,"keywords":["cp","nocrits","nodmgspread","uncletopia"],"game_id":440,"stv_port":27016,"stv_name":"Uncletopia | Hong Kong | 1 | All Maps | STV","players":null},{"server_id":1,"name":"Uncletopia | Los Angeles | 1 | All Maps","name_short":"lax-1","host":"lax-1.us.uncletopia.com","port":27015,"enabled":true,"region":"us-west","cc":"us","latitude":33.94279,"longitude":-118.41004,"reserved":0,"last_update":"0001-01-01T00:00:00Z","name_a2s":"Uncletopia | Los Angeles | 1 | All Maps","protocol":17,"map":"koth_lakeside_final","folder":"tf","game":"Team Fortress","app_id":440,"player_count":0,"max_players":24,"Bots":0,"server_type":"Dedicated","server_os":"Linux","password":true,"vac":true,"version":"7757534","steam_id":85568392924469991,"keywords":["cp","nocrits","nodmgspread","uncletopia"],"game_id":440,"stv_port":27016,"stv_name":"Uncletopia | Los Angeles | 1 | All Maps | STV","players":null},{"server_id":112,"name":"Uncletopia | Los Angeles | 2 | All Maps","name_short":"lax-2","host":"lax-1.us.uncletopia.com","port":27025,"enabled":true,"region":"us-west","cc":"us","latitude":33.94279,"longitude":-118.41004,"reserved":0,"last_update":"0001-01-01T00:00:00Z","name_a2s":"Uncletopia | Los Angeles | 2 | All Maps","protocol":17,"map":"cp_mountainlab","folder":"tf","game":"Team Fortress","app_id":440,"player_count":0,"max_players":24,"Bots":0,"server_type":"Dedicated","server_os":"Linux","password":true,"vac":true,"version":"7757534","steam_id":85568392924469992,"keywords":["cp","nocrits","nodmgspread","uncletopia"],"game_id":440,"stv_port":27026,"stv_name":"Uncletopia | Los Angeles | 2 | All Maps | STV","players":null},{"server_id":324,"name":"Uncletopia | Los Angeles | 3 | All Maps","name_short":"lax-3","host":"lax-1.us.uncletopia.com","port":27035,"enabled":true,"region":"us-west","cc":"us","latitude":33.94279,"longitude":-118.41004,"reserved":0,"last_update":"0001-01-01T00:00:00Z","name_a2s":"Uncletopia | Los Angeles | 3 | All Maps","protocol":17,"map":"cp_mountainlab","folder":"tf","game":"Team Fortress","app_id":440,"player_count":0,"max_players":24,"Bots":0,"server_type":"Dedicated","server_os":"Linux","password":true,"vac":true,"version":"7757534","steam_id":85568392924510198,"keywords":["cp","nocrits","nodmgspread","uncletopia"],"game_id":440,"stv_port":27036,"stv_name":"Uncletopia | Los Angeles | 3 | All Maps | STV","players":null},{"server_id":25,"name":"Uncletopia | Los Angeles | 4 | Stopwatch Beta","name_short":"lax-4","host":"lax-1.us.uncletopia.com","port":27045,"enabled":true,"region":"us-west","cc":"us","latitude":33.94279,"longitude":-118.41004,"reserved":0,"last_update":"0001-01-01T00:00:00Z","name_a2s":"Uncletopia | Los Angeles | 4 | Stopwatch Beta","protocol":17,"map":"koth_viaduct","folder":"tf","game":"Team Fortress","app_id":440,"player_count":0,"max_players":24,"Bots":0,"server_type":"Dedicated","server_os":"Linux","password":true,"vac":true,"version":"7757534","steam_id":85568392924510199,"keywords":["cp","nocrits","nodmgspread","uncletopia"],"game_id":440,"stv_port":27046,"stv_name":"Uncletopia | Los Angeles | 4 | Stopwatch Beta | STV","players":null},{"server_id":11,"name":"Uncletopia | London | 1 | All Maps","name_short":"lon-1","host":"lon-1.uk.uncletopia.com","port":27015,"enabled":true,"region":"eu","cc":"gb","latitude":51.509865,"longitude":-0.118092,"reserved":0,"last_update":"0001-01-01T00:00:00Z","name_a2s":"Uncletopia | London | 1 | All Maps","protocol":17,"map":"pl_swiftwater_final1","folder":"tf","game":"Team Fortress","app_id":440,"player_count":24,"max_players":24,"Bots":0,"server_type":"Dedicated","server_os":"Linux","password":true,"vac":true,"version":"7757534","steam_id":85568392924367362,"keywords":["nocrits","nodmgspread","payload","uncletopia"],"game_id":440,"stv_port":27016,"stv_name":"Uncletopia | London | 1 | All Maps | STV","players":[{"user_id":671,"name":"rat performance","steam_id":76561198065854668,"connected_time":5156000000000,"state":"active","ping":41},{"user_id":720,"name":"Element-118","steam_id":76561198303170872,"connected_time":1911000000000,"state":"active","ping":61},{"user_id":696,"name":"nudjura","steam_id":76561198281986139,"connected_time":3007000000000,"state":"active","ping":43},{"user_id":692,"name":"Swiss_Nostalgia","steam_id":76561199159896259,"connected_time":3476000000000,"state":"active","ping":61},{"user_id":739,"name":"oepidus","steam_id":76561198963841479,"connected_time":1162000000000,"state":"active","ping":91},{"user_id":678,"name":"makin' piss","steam_id":76561198052136478,"connected_time":4373000000000,"state":"active","ping":67},{"user_id":743,"name":"let me cook","steam_id":76561198010380786,"connected_time":485000000000,"state":"active","ping":45},{"user_id":734,"name":"r06u3","steam_id":76561198254099253,"connected_time":1392000000000,"state":"active","ping":179},{"user_id":735,"name":"hello kitty gaming","steam_id":76561197972008326,"connected_time":1381000000000,"state":"active","ping":71},{"user_id":723,"name":"Aurora","steam_id":76561199385280253,"connected_time":1778000000000,"state":"active","ping":126},{"user_id":687,"name":"mid goth girl","steam_id":76561198118989010,"connected_time":4033000000000,"state":"active","ping":46},{"user_id":689,"name":"bee #transrights","steam_id":76561199125727569,"connected_time":3710000000000,"state":"active","ping":72},{"user_id":736,"name":"Rollerben1201","steam_id":76561198799582391,"connected_time":1363000000000,"state":"active","ping":84},{"user_id":745,"name":"RIFT","steam_id":76561198991622379,"connected_time":434000000000,"state":"active","ping":43},{"user_id":570,"name":"ciliorkun18","steam_id":76561198228942500,"connected_time":14835000000000,"state":"active","ping":93},{"user_id":708,"name":"wickEd_","steam_id":76561198048068999,"connected_time":2530000000000,"state":"active","ping":161},{"user_id":728,"name":"big jill","steam_id":76561199191948102,"connected_time":1452000000000,"state":"active","ping":59},{"user_id":705,"name":"MarioThePlumber","steam_id":76561198314229530,"connected_time":2591000000000,"state":"active","ping":82},{"user_id":695,"name":"Fasj.","steam_id":76561198049975379,"connected_time":3176000000000,"state":"active","ping":47},{"user_id":731,"name":"Savorex","steam_id":76561199057775472,"connected_time":1431000000000,"state":"active","ping":98},{"user_id":742,"name":"Christmas Ham","steam_id":76561198119601623,"connected_time":751000000000,"state":"active","ping":53},{"user_id":713,"name":"Ben Doverr","steam_id":76561198034264020,"connected_time":2191000000000,"state":"active","ping":127},{"user_id":717,"name":"toust","steam_id":76561199103417422,"connected_time":2114000000000,"state":"active","ping":68},{"user_id":741,"name":"Nanitus","steam_id":76561198241772340,"connected_time":994000000000,"state":"active","ping":106}]},{"server_id":114,"name":"Uncletopia | London | 2 | All Maps","name_short":"lon-2","host":"lon-1.uk.uncletopia.com","port":27025,"enabled":true,"region":"eu","cc":"gb","latitude":51.509865,"longitude":-0.118092,"reserved":0,"last_update":"0001-01-01T00:00:00Z","name_a2s":"Uncletopia | London | 2 | All Maps","protocol":17,"map":"pl_frontier_final","folder":"tf","game":"Team Fortress","app_id":440,"player_count":23,"max_players":24,"Bots":0,"server_type":"Dedicated","server_os":"Linux","password":true,"vac":true,"version":"7757534","steam_id":85568392924470941,"keywords":["nocrits","nodmgspread","payload","uncletopia"],"game_id":440,"stv_port":27026,"stv_name":"Uncletopia | London | 2 | All Maps | STV","players":[{"user_id":591,"name":"Uncle Motong","steam_id":76561198029093635,"connected_time":774000000000,"state":"active","ping":63},{"user_id":602,"name":"Nykristen nykterist","steam_id":76561198106133548,"connected_time":17000000000,"state":"active","ping":78},{"user_id":563,"name":"Tlad2","steam_id":76561198854897667,"connected_time":2783000000000,"state":"active","ping":69},{"user_id":537,"name":"Mondy","steam_id":76561198081196528,"connected_time":5741000000000,"state":"active","ping":54},{"user_id":566,"name":"Jiggie","steam_id":76561198018134884,"connected_time":2498000000000,"state":"active","ping":72},{"user_id":479,"name":"Thesis","steam_id":76561199308784371,"connected_time":11293000000000,"state":"active","ping":56},{"user_id":595,"name":"Carl's Marx","steam_id":76561198059700045,"connected_time":283000000000,"state":"active","ping":64},{"user_id":570,"name":"„Åô LightFlight „Åó","steam_id":76561198079007530,"connected_time":2036000000000,"state":"active","ping":53},{"user_id":597,"name":"Senior","steam_id":76561198065014164,"connected_time":246000000000,"state":"active","ping":45},{"user_id":546,"name":"Orochi","steam_id":76561198265192382,"connected_time":4217000000000,"state":"active","ping":62},{"user_id":589,"name":"happiness without \"hap\"","steam_id":76561199072192738,"connected_time":813000000000,"state":"active","ping":80},{"user_id":568,"name":"Doomz","steam_id":76561198029147860,"connected_time":2174000000000,"state":"active","ping":133},{"user_id":598,"name":"{dogs}·Éô·Éù·Éë·Éê77koba77[ASS]","steam_id":76561198154218182,"connected_time":138000000000,"state":"active","ping":45},{"user_id":599,"name":"the consequences","steam_id":76561199130230186,"connected_time":136000000000,"state":"active","ping":61},{"user_id":590,"name":"zx","steam_id":76561198000079413,"connected_time":810000000000,"state":"active","ping":64},{"user_id":577,"name":"Innocent Bystander","steam_id":76561198259885007,"connected_time":1957000000000,"state":"active","ping":48},{"user_id":592,"name":"Breadcrab","steam_id":76561198015924039,"connected_time":764000000000,"state":"active","ping":55},{"user_id":593,"name":"Dr. Cox","steam_id":76561198246629218,"connected_time":757000000000,"state":"active","ping":101},{"user_id":578,"name":"BierBuikBarry","steam_id":76561198345790498,"connected_time":1956000000000,"state":"active","ping":64},{"user_id":580,"name":"Medyk","steam_id":76561198072321620,"connected_time":1887000000000,"state":"active","ping":78},{"user_id":584,"name":"friendly + happy Babs","steam_id":76561198314919758,"connected_time":1630000000000,"state":"active","ping":55},{"user_id":594,"name":"Johnny Cockroach","steam_id":76561198049648277,"connected_time":700000000000,"state":"active","ping":106},{"user_id":601,"name":"divb0","steam_id":76561197996081362,"connected_time":112000000000,"state":"active","ping":60}]},{"server_id":320,"name":"Uncletopia | London | 3 | All Maps","name_short":"lon-3","host":"lon-1.uk.uncletopia.com","port":27035,"enabled":true,"region":"eu","cc":"gb","latitude":51.509865,"longitude":-0.118092,"reserved":0,"last_update":"0001-01-01T00:00:00Z","name_a2s":"Uncletopia | London | 3 | All Maps","protocol":17,"map":"cp_steel","folder":"tf","game":"Team Fortress","app_id":440,"player_count":15,"max_players":24,"Bots":0,"server_type":"Dedicated","server_os":"Linux","password":true,"vac":true,"version":"7757534","steam_id":85568392924510192,"keywords":["cp","nocrits","nodmgspread","uncletopia"],"game_id":440,"stv_port":27036,"stv_name":"Uncletopia | London | 3 | All Maps | STV","players":[{"user_id":505,"name":"Welder","steam_id":76561198355300561,"connected_time":2233000000000,"state":"active","ping":70},{"user_id":520,"name":"steakman10","steam_id":76561198152584691,"connected_time":1249000000000,"state":"active","ping":62},{"user_id":521,"name":"I jazzed myself","steam_id":76561198203016603,"connected_time":1206000000000,"state":"active","ping":56},{"user_id":506,"name":"Palex","steam_id":76561198093219465,"connected_time":2216000000000,"state":"active","ping":42},{"user_id":532,"name":"angry honey badger","steam_id":76561199203783693,"connected_time":192000000000,"state":"active","ping":180},{"user_id":496,"name":"disposablesuperbread","steam_id":76561199074703607,"connected_time":2652000000000,"state":"active","ping":80},{"user_id":501,"name":"nitroglycerin","steam_id":76561199158447878,"connected_time":2345000000000,"state":"active","ping":61},{"user_id":519,"name":"Hu Yuu Hai Ding","steam_id":76561198254210743,"connected_time":1492000000000,"state":"active","ping":41},{"user_id":509,"name":"Hexagon","steam_id":76561198151205758,"connected_time":2164000000000,"state":"active","ping":59},{"user_id":523,"name":"StabbyKnife","steam_id":76561198094010004,"connected_time":1201000000000,"state":"active","ping":95},{"user_id":528,"name":"Bob the builder","steam_id":76561199116413509,"connected_time":741000000000,"state":"active","ping":56},{"user_id":525,"name":"Mr.Man","steam_id":76561199175688390,"connected_time":1090000000000,"state":"active","ping":83},{"user_id":533,"name":"„É†GeRmAn |√óUA√ó„É†","steam_id":76561199044754898,"connected_time":112000000000,"state":"active","ping":82},{"user_id":513,"name":"Mean Green Peen","steam_id":76561198228455736,"connected_time":2044000000000,"state":"active","ping":46},{"user_id":512,"name":"Nick","steam_id":76561198036109469,"connected_time":2133000000000,"state":"active","ping":130}]},{"server_id":321,"name":"Uncletopia | London | 4 | All Maps","name_short":"lon-4","host":"lon-1.uk.uncletopia.com","port":27045,"enabled":true,"region":"eu","cc":"gb","latitude":51.509865,"longitude":-0.118092,"reserved":0,"last_update":"0001-01-01T00:00:00Z","name_a2s":"Uncletopia | London | 4 | All Maps","protocol":17,"map":"pl_upward","folder":"tf","game":"Team Fortress","app_id":440,"player_count":24,"max_players":24,"Bots":0,"server_type":"Dedicated","server_os":"Linux","password":true,"vac":true,"version":"7757534","steam_id":85568392924510193,"keywords":["nocrits","nodmgspread","payload","uncletopia"],"game_id":440,"stv_port":27046,"stv_name":"Uncletopia | London | 4 | All Maps | STV","players":[{"user_id":72,"name":"Dirt Road","steam_id":76561198210372012,"connected_time":201000000000,"state":"active","ping":143},{"user_id":69,"name":"Ged","steam_id":76561198079288943,"connected_time":294000000000,"state":"active","ping":131},{"user_id":44,"name":"GARbageTrash","steam_id":76561199101269633,"connected_time":1741000000000,"state":"active","ping":92},{"user_id":53,"name":"BoltSive","steam_id":76561199084631869,"connected_time":709000000000,"state":"active","ping":57},{"user_id":51,"name":"Like Ahayo LXIX","steam_id":76561198368508349,"connected_time":761000000000,"state":"active","ping":95},{"user_id":74,"name":"Owenter","steam_id":76561198083201886,"connected_time":48000000000,"state":"active","ping":43},{"user_id":45,"name":"LeP0tato","steam_id":76561198077615937,"connected_time":1739000000000,"state":"active","ping":72},{"user_id":46,"name":"taacoman","steam_id":76561199248560530,"connected_time":1702000000000,"state":"active","ping":106},{"user_id":52,"name":"Lord_Azrael","steam_id":76561199123402707,"connected_time":720000000000,"state":"active","ping":53},{"user_id":54,"name":"ztenda.sladky","steam_id":76561198177133599,"connected_time":675000000000,"state":"active","ping":89},{"user_id":55,"name":"isterkvarn","steam_id":76561198080064844,"connected_time":641000000000,"state":"active","ping":80},{"user_id":56,"name":"plepek","steam_id":76561198042959598,"connected_time":635000000000,"state":"active","ping":86},{"user_id":57,"name":"Dethcrvsh","steam_id":76561198078702895,"connected_time":633000000000,"state":"active","ping":78},{"user_id":58,"name":"mejt","steam_id":76561198106666604,"connected_time":627000000000,"state":"active","ping":75},{"user_id":70,"name":"‚òûLaZe‚òú","steam_id":76561198202191400,"connected_time":293000000000,"state":"active","ping":49},{"user_id":60,"name":"KingVoker","steam_id":76561198039602539,"connected_time":565000000000,"state":"active","ping":74},{"user_id":61,"name":"average cpp programmer","steam_id":76561198259249173,"connected_time":545000000000,"state":"active","ping":64},{"user_id":62,"name":"God's Silliest Little Jester","steam_id":76561197987168654,"connected_time":524000000000,"state":"active","ping":58},{"user_id":63,"name":"cookie","steam_id":76561198265147139,"connected_time":513000000000,"state":"active","ping":77},{"user_id":64,"name":"wertiop","steam_id":76561198260627072,"connected_time":480000000000,"state":"active","ping":104},{"user_id":66,"name":"big hoops","steam_id":76561198004703799,"connected_time":379000000000,"state":"active","ping":45},{"user_id":67,"name":"MARKO","steam_id":76561198065127504,"connected_time":362000000000,"state":"active","ping":74},{"user_id":68,"name":"Haggabah,WhoPliesTheUmbralPath","steam_id":76561198846984399,"connected_time":353000000000,"state":"active","ping":89},{"user_id":73,"name":"Avastbro\"PIWO?\"","steam_id":76561198292235505,"connected_time":175000000000,"state":"active","ping":119}]},{"server_id":21,"name":"Uncletopia | London | 5 | All Maps","name_short":"lon-5","host":"lon-1.uk.uncletopia.com","port":27055,"enabled":true,"region":"eu","cc":"gb","latitude":51.509865,"longitude":-0.118092,"reserved":0,"last_update":"0001-01-01T00:00:00Z","name_a2s":"Uncletopia | London | 5 | All Maps","protocol":17,"map":"cp_steel","folder":"tf","game":"Team Fortress","app_id":440,"player_count":19,"max_players":24,"Bots":0,"server_type":"Dedicated","server_os":"Linux","password":true,"vac":true,"version":"7757534","steam_id":85568392924742829,"keywords":["cp","nocrits","nodmgspread","uncletopia"],"game_id":440,"stv_port":27056,"stv_name":"Uncletopia | London | 5 | All Maps | STV","players":[{"user_id":241,"name":"AngryBurrito","steam_id":76561197972778702,"connected_time":119000000000,"state":"active","ping":59},{"user_id":242,"name":"fesquet.thomas","steam_id":76561199056486668,"connected_time":60000000000,"state":"active","ping":71},{"user_id":238,"name":"TerraformerBeing","steam_id":76561198281011934,"connected_time":298000000000,"state":"active","ping":91},{"user_id":201,"name":"Elfie","steam_id":76561198206802255,"connected_time":2640000000000,"state":"active","ping":71},{"user_id":214,"name":"joachym","steam_id":76561198428579761,"connected_time":2109000000000,"state":"active","ping":70},{"user_id":217,"name":"grana padano dop","steam_id":76561198066071855,"connected_time":2087000000000,"state":"active","ping":75},{"user_id":216,"name":"Gardvord","steam_id":76561198120715753,"connected_time":2090000000000,"state":"active","ping":71},{"user_id":211,"name":"Harlequin","steam_id":76561197967569114,"connected_time":2325000000000,"state":"active","ping":82},{"user_id":234,"name":"Silva_mlon","steam_id":76561199310242047,"connected_time":591000000000,"state":"active","ping":68},{"user_id":208,"name":"scoog","steam_id":76561198046249173,"connected_time":2369000000000,"state":"active","ping":55},{"user_id":235,"name":"napole","steam_id":76561198267530436,"connected_time":582000000000,"state":"active","ping":102},{"user_id":237,"name":"‚ò†Holy(cz)‚ò†","steam_id":76561197985535494,"connected_time":469000000000,"state":"active","ping":99},{"user_id":228,"name":"doubletwist","steam_id":76561198062571317,"connected_time":1792000000000,"state":"active","ping":95},{"user_id":209,"name":"Rose","steam_id":76561198016713533,"connected_time":2347000000000,"state":"active","ping":44},{"user_id":226,"name":"foo","steam_id":76561198042000263,"connected_time":1887000000000,"state":"active","ping":102},{"user_id":225,"name":"NABER","steam_id":76561198831465151,"connected_time":1998000000000,"state":"active","ping":90},{"user_id":199,"name":"Space Rimmer","steam_id":76561198069243201,"connected_time":2748000000000,"state":"active","ping":46},{"user_id":227,"name":"pourin a four in a two liter","steam_id":76561198213648845,"connected_time":1845000000000,"state":"active","ping":81},{"user_id":236,"name":"drew","steam_id":76561198012304706,"connected_time":566000000000,"state":"active","ping":101}]},{"server_id":22,"name":"Uncletopia | London | 6 | All Maps","name_short":"lon-6","host":"lon-1.uk.uncletopia.com","port":27065,"enabled":true,"region":"eu","cc":"gb","latitude":51.509865,"longitude":-0.118092,"reserved":0,"last_update":"0001-01-01T00:00:00Z","name_a2s":"Uncletopia | London | 6 | All Maps","protocol":17,"map":"pl_frontier_final","folder":"tf","game":"Team Fortress","app_id":440,"player_count":24,"max_players":24,"Bots":0,"server_type":"Dedicated","server_os":"Linux","password":true,"vac":true,"version":"7757534","steam_id":85568392924742830,"keywords":["nocrits","nodmgspread","payload","uncletopia"],"game_id":440,"stv_port":27066,"stv_name":"Uncletopia | London | 6 | All Maps | STV","players":[{"user_id":82,"name":"Uncle Henk","steam_id":76561198067863614,"connected_time":2061000000000,"state":"active","ping":60},{"user_id":74,"name":"Fancy","steam_id":76561198350658462,"connected_time":3008000000000,"state":"active","ping":82},{"user_id":71,"name":"Ritz","steam_id":76561198222317440,"connected_time":3249000000000,"state":"active","ping":58},{"user_id":86,"name":"Solymr ibn Wali Barad","steam_id":76561198044008976,"connected_time":2040000000000,"state":"active","ping":61},{"user_id":77,"name":"CalicoCat12","steam_id":76561198081933130,"connected_time":2924000000000,"state":"active","ping":58},{"user_id":83,"name":"canoksun","steam_id":76561198165664707,"connected_time":2058000000000,"state":"active","ping":116},{"user_id":65,"name":"Nostradamus","steam_id":76561198349792686,"connected_time":3727000000000,"state":"active","ping":70},{"user_id":81,"name":"After8","steam_id":76561198090750865,"connected_time":2074000000000,"state":"active","ping":75},{"user_id":100,"name":"Chunder Smash","steam_id":76561198108345081,"connected_time":1146000000000,"state":"active","ping":52},{"user_id":70,"name":"Conan the Librarian","steam_id":76561198007224654,"connected_time":3594000000000,"state":"active","ping":71},{"user_id":101,"name":"the narrator","steam_id":76561199013270859,"connected_time":571000000000,"state":"active","ping":63},{"user_id":99,"name":"Luuk","steam_id":76561198105655319,"connected_time":1190000000000,"state":"active","ping":58},{"user_id":102,"name":"Zerfesh","steam_id":76561198117534358,"connected_time":569000000000,"state":"active","ping":93},{"user_id":88,"name":"Jiant","steam_id":76561198374998274,"connected_time":2035000000000,"state":"active","ping":69},{"user_id":103,"name":"Houlles","steam_id":76561198095277383,"connected_time":527000000000,"state":"active","ping":54},{"user_id":66,"name":"robsan","steam_id":76561198137375391,"connected_time":3700000000000,"state":"active","ping":83},{"user_id":67,"name":"powej","steam_id":76561198056381418,"connected_time":3699000000000,"state":"active","ping":30},{"user_id":49,"name":"soopeli","steam_id":76561198003350251,"connected_time":4577000000000,"state":"active","ping":74},{"user_id":51,"name":"Ôº¢ÔΩíÔΩÅÔΩâÔΩéÔΩö","steam_id":76561199061035276,"connected_time":4524000000000,"state":"active","ping":58},{"user_id":72,"name":"Mr Prince","steam_id":76561199006591691,"connected_time":3238000000000,"state":"active","ping":55},{"user_id":89,"name":"Shezza","steam_id":76561198903969123,"connected_time":2022000000000,"state":"active","ping":77},{"user_id":91,"name":"Blacksheep","steam_id":76561198019621063,"connected_time":1809000000000,"state":"active","ping":53},{"user_id":90,"name":"Mr_Pulse_","steam_id":76561198095001602,"connected_time":2021000000000,"state":"active","ping":131},{"user_id":97,"name":"ballin'","steam_id":76561198312037300,"connected_time":1275000000000,"state":"active","ping":69}]},{"server_id":40,"name":"Uncletopia | London | 7 | No Payload","name_short":"lon-7","host":"lon-1.uk.uncletopia.com","port":27075,"enabled":true,"region":"eu","cc":"gb","latitude":51.509865,"longitude":-0.118092,"reserved":0,"last_update":"0001-01-01T00:00:00Z","name_a2s":"Uncletopia | London | 7 | No Payload","protocol":17,"map":"koth_king","folder":"tf","game":"Team Fortress","app_id":440,"player_count":22,"max_players":24,"Bots":0,"server_type":"Dedicated","server_os":"Linux","password":true,"vac":true,"version":"7757534","steam_id":85568392924964314,"keywords":["cp","nocrits","nodmgspread","uncletopia"],"game_id":440,"stv_port":27076,"stv_name":"Uncletopia | London | 7 | No Payload | STV","players":[{"user_id":374,"name":"gojoel","steam_id":76561198251181946,"connected_time":323000000000,"state":"active","ping":39},{"user_id":351,"name":"Kirvis","steam_id":76561198027831643,"connected_time":1309000000000,"state":"active","ping":105},{"user_id":362,"name":"PG","steam_id":76561198183722103,"connected_time":920000000000,"state":"active","ping":83},{"user_id":371,"name":"Le Chevalier Pingouin","steam_id":76561198221355000,"connected_time":414000000000,"state":"active","ping":37},{"user_id":375,"name":"Fat Pigeon","steam_id":76561198817940142,"connected_time":249000000000,"state":"active","ping":45},{"user_id":355,"name":"Wyro","steam_id":76561199176835169,"connected_time":1187000000000,"state":"active","ping":50},{"user_id":376,"name":"pansexual","steam_id":76561198047778351,"connected_time":225000000000,"state":"active","ping":42},{"user_id":331,"name":"Boonir","steam_id":76561198049172108,"connected_time":1815000000000,"state":"active","ping":82},{"user_id":332,"name":"GMsU | AuxiliusM","steam_id":76561198071903356,"connected_time":1787000000000,"state":"active","ping":56},{"user_id":377,"name":"harrison","steam_id":76561198990132243,"connected_time":217000000000,"state":"active","ping":59},{"user_id":378,"name":"tummaluppo taivaltaja","steam_id":76561198093458326,"connected_time":174000000000,"state":"active","ping":61},{"user_id":379,"name":"DarkFady","steam_id":76561198179099523,"connected_time":147000000000,"state":"active","ping":135},{"user_id":380,"name":"proxima","steam_id":76561198000417248,"connected_time":119000000000,"state":"active","ping":86},{"user_id":363,"name":"UnusualBrit","steam_id":76561198255679838,"connected_time":869000000000,"state":"active","ping":54},{"user_id":358,"name":"submackeen","steam_id":76561198799855913,"connected_time":1089000000000,"state":"active","ping":157},{"user_id":368,"name":"Sebtacular","steam_id":76561198334284616,"connected_time":556000000000,"state":"active","ping":55},{"user_id":359,"name":"Swayer","steam_id":76561198056192460,"connected_time":1086000000000,"state":"active","ping":67},{"user_id":369,"name":"Joseph Stalin","steam_id":76561198033199746,"connected_time":504000000000,"state":"active","ping":49},{"user_id":353,"name":"Craig Crusade","steam_id":76561199225918086,"connected_time":1296000000000,"state":"active","ping":55},{"user_id":381,"name":"Poppy Stingray","steam_id":76561198049673783,"connected_time":102000000000,"state":"active","ping":64},{"user_id":320,"name":"Catboy 9S gaming","steam_id":76561197999024118,"connected_time":2923000000000,"state":"active","ping":90},{"user_id":347,"name":"no bitches nigusman","steam_id":76561199466723428,"connected_time":1410000000000,"state":"active","ping":89}]},{"server_id":41,"name":"Uncletopia | London | 8 | Community","name_short":"lon-8","host":"lon-1.uk.uncletopia.com","port":27085,"enabled":true,"region":"eu","cc":"gb","latitude":51.509865,"longitude":-0.118092,"reserved":0,"last_update":"0001-01-01T00:00:00Z","name_a2s":"Uncletopia | London | 8 | Community","protocol":17,"map":"workshop/koth_ashville_final.ugc2130459942","folder":"tf","game":"Team Fortress","app_id":440,"player_count":0,"max_players":24,"Bots":0,"server_type":"Dedicated","server_os":"Linux","password":true,"vac":true,"version":"7757534","steam_id":85568392924964315,"keywords":["cp","nocrits","nodmgspread","uncletopia"],"game_id":440,"stv_port":27086,"stv_name":"Uncletopia | London | 8 | Community | STV","players":null},{"server_id":300,"name":"Uncletopia | Montr√©al | 1 | All Maps","name_short":"mtl-1","host":"mtl-1.ca.uncletopia.com","port":27015,"enabled":true,"region":"us-east","cc":"ca","latitude":45.50889,"longitude":-73.56167,"reserved":0,"last_update":"0001-01-01T00:00:00Z","name_a2s":"Uncletopia | Montr√©al | 1 | All Maps","protocol":17,"map":"koth_cascade","folder":"tf","game":"Team Fortress","app_id":440,"player_count":0,"max_players":24,"Bots":0,"server_type":"Dedicated","server_os":"Linux","password":true,"vac":true,"version":"7757534","steam_id":85568392924500087,"keywords":["cp","nocrits","nodmgspread","uncletopia"],"game_id":440,"stv_port":27016,"stv_name":"Uncletopia | Montr√©al | 1 | All Maps | STV","players":null},{"server_id":301,"name":"Uncletopia | Montr√©al | 2 | All Maps","name_short":"mtl-2","host":"mtl-1.ca.uncletopia.com","port":27025,"enabled":true,"region":"us-east","cc":"ca","latitude":45.50889,"longitude":-73.56167,"reserved":0,"last_update":"0001-01-01T00:00:00Z","name_a2s":"Uncletopia | Montr√©al | 2 | All Maps","protocol":17,"map":"pl_borneo","folder":"tf","game":"Team Fortress","app_id":440,"player_count":0,"max_players":24,"Bots":0,"server_type":"Dedicated","server_os":"Linux","password":true,"vac":true,"version":"7757534","steam_id":85568392924500088,"keywords":["nocrits","nodmgspread","payload","uncletopia"],"game_id":440,"stv_port":27026,"stv_name":"Uncletopia | Montr√©al | 2 | All Maps | STV","players":null},{"server_id":302,"name":"Uncletopia | Montr√©al | 3 | All Maps","name_short":"mtl-3","host":"mtl-1.ca.uncletopia.com","port":27035,"enabled":true,"region":"us-east","cc":"ca","latitude":45.50889,"longitude":-73.56167,"reserved":0,"last_update":"0001-01-01T00:00:00Z","name_a2s":"Uncletopia | Montr√©al | 3 | All Maps","protocol":17,"map":"cp_sunshine","folder":"tf","game":"Team Fortress","app_id":440,"player_count":0,"max_players":24,"Bots":0,"server_type":"Dedicated","server_os":"Linux","password":true,"vac":true,"version":"7757534","steam_id":85568392924500089,"keywords":["cp","nocrits","nodmgspread","uncletopia"],"game_id":440,"stv_port":27036,"stv_name":"Uncletopia | Montr√©al | 3 | All Maps | STV","players":null},{"server_id":303,"name":"Uncletopia | Montr√©al | 4 | No Payload","name_short":"mtl-4","host":"mtl-1.ca.uncletopia.com","port":27045,"enabled":true,"region":"us-east","cc":"ca","latitude":45.50889,"longitude":-73.56167,"reserved":0,"last_update":"0001-01-01T00:00:00Z","name_a2s":"Uncletopia | Montr√©al | 4 | No Payload","protocol":17,"map":"koth_lakeside_final","folder":"tf","game":"Team Fortress","app_id":440,"player_count":0,"max_players":24,"Bots":0,"server_type":"Dedicated","server_os":"Linux","password":true,"vac":true,"version":"7757534","steam_id":85568392924500090,"keywords":["cp","nocrits","nodmgspread","uncletopia"],"game_id":440,"stv_port":27046,"stv_name":"Uncletopia | Montr√©al | 4 | No Payload | STV","players":null},{"server_id":13,"name":"Uncletopia | New York City | 1 | All Maps","name_short":"nyc-1","host":"nyc-1.us.uncletopia.com","port":27015,"enabled":true,"region":"us-east","cc":"us","latitude":40.73061,"longitude":-73.93524,"reserved":0,"last_update":"0001-01-01T00:00:00Z","name_a2s":"Uncletopia | New York City | 1 | All Maps","protocol":17,"map":"cp_powerhouse","folder":"tf","game":"Team Fortress","app_id":440,"player_count":4,"max_players":24,"Bots":0,"server_type":"Dedicated","server_os":"Linux","password":true,"vac":true,"version":"7757534","steam_id":85568392924469993,"keywords":["cp","nocrits","nodmgspread","uncletopia"],"game_id":440,"stv_port":27016,"stv_name":"Uncletopia | New York City | 1 | All Maps | STV","players":[{"user_id":78,"name":"Lucille_Bluth","steam_id":76561198206133916,"connected_time":786000000000,"state":"active","ping":60},{"user_id":82,"name":"Volkrath","steam_id":76561199092346149,"connected_time":571000000000,"state":"active","ping":65},{"user_id":83,"name":"Doggo","steam_id":76561198313355373,"connected_time":292000000000,"state":"active","ping":115},{"user_id":84,"name":"Bashirider","steam_id":76561198260522253,"connected_time":249000000000,"state":"active","ping":51}]},{"server_id":14,"name":"Uncletopia | New York City | 2 | All Maps","name_short":"nyc-2","host":"nyc-1.us.uncletopia.com","port":27025,"enabled":true,"region":"us-east","cc":"us","latitude":40.73061,"longitude":-73.93524,"reserved":0,"last_update":"0001-01-01T00:00:00Z","name_a2s":"Uncletopia | New York City | 2 | All Maps","protocol":17,"map":"cp_altitude","folder":"tf","game":"Team Fortress","app_id":440,"player_count":0,"max_players":24,"Bots":0,"server_type":"Dedicated","server_os":"Linux","password":true,"vac":true,"version":"7757534","steam_id":85568392924469994,"keywords":["cp","nocrits","nodmgspread","uncletopia"],"game_id":440,"stv_port":27026,"stv_name":"Uncletopia | New York City | 2 | All Maps | STV","players":null},{"server_id":15,"name":"Uncletopia | New York City | 3 | Stopwatch Beta","name_short":"nyc-3","host":"nyc-1.us.uncletopia.com","port":27035,"enabled":true,"region":"us-east","cc":"us","latitude":40.73061,"longitude":-73.93524,"reserved":0,"last_update":"0001-01-01T00:00:00Z","name_a2s":"Uncletopia | New York City | 3 | Stopwatch Beta","protocol":17,"map":"koth_lakeside_final","folder":"tf","game":"Team Fortress","app_id":440,"player_count":0,"max_players":24,"Bots":0,"server_type":"Dedicated","server_os":"Linux","password":true,"vac":true,"version":"7757534","steam_id":85568392924742820,"keywords":["cp","nocrits","nodmgspread","uncletopia"],"game_id":440,"stv_port":27036,"stv_name":"Uncletopia | New York City | 3 | Stopwatch Beta | STV","players":null},{"server_id":16,"name":"Uncletopia | New York City | 4 | Community","name_short":"nyc-4","host":"nyc-1.us.uncletopia.com","port":27045,"enabled":true,"region":"us-east","cc":"us","latitude":40.73061,"longitude":-73.93524,"reserved":0,"last_update":"0001-01-01T00:00:00Z","name_a2s":"Uncletopia | New York City | 4 | Community","protocol":17,"map":"workshop/pl_cactuscanyon_redux_rc4b.ugc2579644293","folder":"tf","game":"Team Fortress","app_id":440,"player_count":0,"max_players":24,"Bots":0,"server_type":"Dedicated","server_os":"Linux","password":true,"vac":true,"version":"7757534","steam_id":85568392924742821,"keywords":["nocrits","nodmgspread","payload","uncletopia"],"game_id":440,"stv_port":27046,"stv_name":"Uncletopia | New York City | 4 | Community | STV","players":null},{"server_id":142,"name":"Uncletopia | S√£o Paulo | 1 | All Maps","name_short":"sao-1","host":"sao-1.br.uncletopia.com","port":27015,"enabled":true,"region":"sa","cc":"br","latitude":-23.533773,"longitude":-46.62529,"reserved":0,"last_update":"0001-01-01T00:00:00Z","name_a2s":"Uncletopia | S√£o Paulo | 1 | All Maps","protocol":17,"map":"pl_frontier_final","folder":"tf","game":"Team Fortress","app_id":440,"player_count":0,"max_players":24,"Bots":0,"server_type":"Dedicated","server_os":"Linux","password":true,"vac":true,"version":"7757534","steam_id":85568392924469996,"keywords":["nocrits","nodmgspread","payload","uncletopia"],"game_id":440,"stv_port":27016,"stv_name":"Uncletopia | S√£o Paulo | 1 | All Maps | STV","players":null},{"server_id":143,"name":"Uncletopia | S√£o Paulo | 2 | All Maps","name_short":"sao-2","host":"sao-2.br.uncletopia.com","port":27015,"enabled":true,"region":"sa","cc":"br","latitude":-23.533773,"longitude":-46.62529,"reserved":0,"last_update":"0001-01-01T00:00:00Z","name_a2s":"Uncletopia | S√£o Paulo | 2 | All Maps","protocol":17,"map":"koth_cascade","folder":"tf","game":"Team Fortress","app_id":440,"player_count":0,"max_players":24,"Bots":0,"server_type":"Dedicated","server_os":"Linux","password":true,"vac":true,"version":"7757534","steam_id":85568392924485349,"keywords":["cp","nocrits","nodmgspread","uncletopia"],"game_id":440,"stv_port":27016,"stv_name":"Uncletopia | S√£o Paulo | 2 | All Maps | STV","players":null},{"server_id":7,"name":"Uncletopia | Seattle | 1 | All Maps","name_short":"sea-1","host":"sea-1.us.uncletopia.com","port":27015,"enabled":true,"region":"us-west","cc":"us","latitude":47.608013,"longitude":-122.33517,"reserved":0,"last_update":"0001-01-01T00:00:00Z","name_a2s":"Uncletopia | Seattle | 1 | All Maps","protocol":17,"map":"pl_upward","folder":"tf","game":"Team Fortress","app_id":440,"player_count":24,"max_players":24,"Bots":0,"server_type":"Dedicated","server_os":"Linux","password":true,"vac":true,"version":"7757534","steam_id":85568392924469997,"keywords":["nocrits","nodmgspread","payload","uncletopia"],"game_id":440,"stv_port":27016,"stv_name":"Uncletopia | Seattle | 1 | All Maps | STV","players":[{"user_id":220,"name":"Tom Skirrett","steam_id":76561198014600788,"connected_time":39000000000,"state":"active","ping":60},{"user_id":183,"name":"Void","steam_id":76561198308290211,"connected_time":4852000000000,"state":"active","ping":94},{"user_id":217,"name":"Delicate Steve","steam_id":76561198063582381,"connected_time":1020000000000,"state":"active","ping":63},{"user_id":180,"name":"aon135","steam_id":76561197966931637,"connected_time":4860000000000,"state":"active","ping":56},{"user_id":186,"name":"Sloppy John (Extra Sauce)","steam_id":76561198359703432,"connected_time":4831000000000,"state":"active","ping":75},{"user_id":9,"name":"Ôº≥Ôº¨Ôº∂Ôº¥Ôº£Ôº®Ôº°Ôº≠Ôº∞","steam_id":76561198883157736,"connected_time":18586000000000,"state":"active","ping":60},{"user_id":172,"name":"Mignyanne :3","steam_id":76561198048754056,"connected_time":6047000000000,"state":"active","ping":74},{"user_id":216,"name":"BoX_hEaD101","steam_id":76561198200875467,"connected_time":1532000000000,"state":"active","ping":95},{"user_id":218,"name":"Skabbety","steam_id":76561198168044257,"connected_time":435000000000,"state":"active","ping":42},{"user_id":129,"name":"Lucky Buns","steam_id":76561198359780371,"connected_time":10430000000000,"state":"active","ping":59},{"user_id":200,"name":"AmiableNebula","steam_id":76561198094306627,"connected_time":3970000000000,"state":"active","ping":77},{"user_id":182,"name":"nappyzappy","steam_id":76561198095118953,"connected_time":4855000000000,"state":"active","ping":76},{"user_id":202,"name":"Daz","steam_id":76561198041431938,"connected_time":3695000000000,"state":"active","ping":123},{"user_id":215,"name":"Peppy","steam_id":76561198866629645,"connected_time":1602000000000,"state":"active","ping":59},{"user_id":158,"name":"bhop","steam_id":76561198064885639,"connected_time":7378000000000,"state":"active","ping":141},{"user_id":210,"name":"[SK] Punish ‚ô• ÁâßÊøëÁ∫¢ËéâÊ†ñ","steam_id":76561198207987376,"connected_time":1823000000000,"state":"active","ping":101},{"user_id":161,"name":"Kuma","steam_id":76561199100813140,"connected_time":7119000000000,"state":"active","ping":84},{"user_id":213,"name":"|AG| Level","steam_id":76561198063633592,"connected_time":1745000000000,"state":"active","ping":136},{"user_id":173,"name":"Stranger Danger","steam_id":76561198115242460,"connected_time":5908000000000,"state":"active","ping":56},{"user_id":212,"name":"the 61GB tf2 leak","steam_id":76561198161824724,"connected_time":1772000000000,"state":"active","ping":121},{"user_id":206,"name":"„Ä£dust„Ä£ -she/her-","steam_id":76561198045218909,"connected_time":3304000000000,"state":"active","ping":40},{"user_id":203,"name":"Ulrich Stern","steam_id":76561198101739682,"connected_time":3558000000000,"state":"active","ping":131},{"user_id":219,"name":"o o o o o o o o o","steam_id":76561197993757506,"connected_time":428000000000,"state":"active","ping":76},{"user_id":214,"name":"Lepo","steam_id":76561198383509659,"connected_time":1744000000000,"state":"active","ping":154}]},{"server_id":119,"name":"Uncletopia | Seattle | 2 | All Maps","name_short":"sea-2","host":"sea-1.us.uncletopia.com","port":27025,"enabled":true,"region":"us-west","cc":"us","latitude":47.608013,"longitude":-122.33517,"reserved":0,"last_update":"0001-01-01T00:00:00Z","name_a2s":"Uncletopia | Seattle | 2 | All Maps","protocol":17,"map":"cp_mountainlab","folder":"tf","game":"Team Fortress","app_id":440,"player_count":0,"max_players":24,"Bots":0,"server_type":"Dedicated","server_os":"Linux","password":true,"vac":true,"version":"7757534","steam_id":85568392924469998,"keywords":["cp","nocrits","nodmgspread","uncletopia"],"game_id":440,"stv_port":27026,"stv_name":"Uncletopia | Seattle | 2 | All Maps | STV","players":null},{"server_id":406,"name":"Uncletopia | Seattle | 3 | Stopwatch Beta","name_short":"sea-3","host":"sea-1.us.uncletopia.com","port":27035,"enabled":true,"region":"us-west","cc":"us","latitude":47.608013,"longitude":-122.33517,"reserved":0,"last_update":"0001-01-01T00:00:00Z","name_a2s":"Uncletopia | Seattle | 3 | Stopwatch Beta","protocol":17,"map":"cp_sunshine","folder":"tf","game":"Team Fortress","app_id":440,"player_count":0,"max_players":24,"Bots":0,"server_type":"Dedicated","server_os":"Linux","password":true,"vac":true,"version":"7757534","steam_id":85568392924515217,"keywords":["cp","nocrits","nodmgspread","uncletopia"],"game_id":440,"stv_port":27036,"stv_name":"Uncletopia | Seattle | 3 | Stopwatch Beta | STV","players":null},{"server_id":17,"name":"Uncletopia | San Francisco | 1 | All Maps","name_short":"sfo-1","host":"sfo-1.us.uncletopia.com","port":27015,"enabled":true,"region":"us-west","cc":"us","latitude":37.77397,"longitude":-122.4313,"reserved":0,"last_update":"0001-01-01T00:00:00Z","name_a2s":"Uncletopia | San Francisco | 1 | All Maps","protocol":17,"map":"pl_badwater","folder":"tf","game":"Team Fortress","app_id":440,"player_count":0,"max_players":24,"Bots":0,"server_type":"Dedicated","server_os":"Linux","password":true,"vac":true,"version":"7757534","steam_id":85568392924469999,"keywords":["nocrits","nodmgspread","payload","uncletopia"],"game_id":440,"stv_port":27016,"stv_name":"Uncletopia | San Francisco | 1 | All Maps | STV","players":null},{"server_id":18,"name":"Uncletopia | San Francisco | 2 | All Maps","name_short":"sfo-2","host":"sfo-1.us.uncletopia.com","port":27025,"enabled":true,"region":"us-west","cc":"us","latitude":37.77397,"longitude":-122.4313,"reserved":0,"last_update":"0001-01-01T00:00:00Z","name_a2s":"Uncletopia | San Francisco | 2 | All Maps","protocol":17,"map":"cp_mountainlab","folder":"tf","game":"Team Fortress","app_id":440,"player_count":0,"max_players":24,"Bots":0,"server_type":"Dedicated","server_os":"Linux","password":true,"vac":true,"version":"7757534","steam_id":85568392924470000,"keywords":["cp","nocrits","nodmgspread","uncletopia"],"game_id":440,"stv_port":27026,"stv_name":"Uncletopia | San Francisco | 2 | All Maps | STV","players":null},{"server_id":19,"name":"Uncletopia | San Francisco | 3 | Stopwatch Beta","name_short":"sfo-3","host":"sfo-1.us.uncletopia.com","port":27035,"enabled":true,"region":"us-west","cc":"us","latitude":37.77397,"longitude":-122.4313,"reserved":0,"last_update":"0001-01-01T00:00:00Z","name_a2s":"Uncletopia | San Francisco | 3 | Stopwatch Beta","protocol":17,"map":"koth_viaduct","folder":"tf","game":"Team Fortress","app_id":440,"player_count":0,"max_players":24,"Bots":0,"server_type":"Dedicated","server_os":"Linux","password":true,"vac":true,"version":"7757534","steam_id":85568392924742824,"keywords":["cp","nocrits","nodmgspread","uncletopia"],"game_id":440,"stv_port":27036,"stv_name":"Uncletopia | San Francisco | 3 | Stopwatch Beta | STV","players":null},{"server_id":20,"name":"Uncletopia | San Francisco | 4 | Community","name_short":"sfo-4","host":"sfo-1.us.uncletopia.com","port":27045,"enabled":true,"region":"us-west","cc":"us","latitude":37.77397,"longitude":-122.4313,"reserved":0,"last_update":"0001-01-01T00:00:00Z","name_a2s":"Uncletopia | San Francisco | 4 | Community","protocol":17,"map":"pl_borneo","folder":"tf","game":"Team Fortress","app_id":440,"player_count":0,"max_players":24,"Bots":0,"server_type":"Dedicated","server_os":"Linux","password":true,"vac":true,"version":"7757534","steam_id":85568392924742826,"keywords":["nocrits","nodmgspread","payload","uncletopia"],"game_id":440,"stv_port":27046,"stv_name":"Uncletopia | San Francisco | 4 | Community | STV","players":null},{"server_id":141,"name":"Uncletopia | Sydney | 1 | All Maps","name_short":"syd-1","host":"syd-1.au.uncletopia.com","port":27015,"enabled":true,"region":"au","cc":"au","latitude":-33.865143,"longitude":151.2099,"reserved":0,"last_update":"0001-01-01T00:00:00Z","name_a2s":"Uncletopia | Sydney | 1 | All Maps","protocol":17,"map":"koth_lakeside_final","folder":"tf","game":"Team Fortress","app_id":440,"player_count":0,"max_players":24,"Bots":0,"server_type":"Dedicated","server_os":"Linux","password":true,"vac":true,"version":"7757534","steam_id":85568392924470001,"keywords":["cp","nocrits","nodmgspread","uncletopia"],"game_id":440,"stv_port":27016,"stv_name":"Uncletopia | Sydney | 1 | All Maps | STV","players":null},{"server_id":123,"name":"Uncletopia | Sydney | 2 | All Maps","name_short":"syd-2","host":"syd-1.au.uncletopia.com","port":27025,"enabled":true,"region":"au","cc":"au","latitude":-33.865143,"longitude":151.2099,"reserved":0,"last_update":"0001-01-01T00:00:00Z","name_a2s":"Uncletopia | Sydney | 2 | All Maps","protocol":17,"map":"koth_viaduct","folder":"tf","game":"Team Fortress","app_id":440,"player_count":0,"max_players":24,"Bots":0,"server_type":"Dedicated","server_os":"Linux","password":true,"vac":true,"version":"7757534","steam_id":85568392924470002,"keywords":["cp","nocrits","nodmgspread","uncletopia"],"game_id":440,"stv_port":27026,"stv_name":"Uncletopia | Sydney | 2 | All Maps | STV","players":null},{"server_id":395,"name":"Uncletopia | Sydney | 3 | All Maps","name_short":"syd-3","host":"syd-1.au.uncletopia.com","port":27035,"enabled":true,"region":"au","cc":"au","latitude":-33.865143,"longitude":151.2099,"reserved":0,"last_update":"0001-01-01T00:00:00Z","name_a2s":"Uncletopia | Sydney | 3 | All Maps","protocol":17,"map":"koth_viaduct","folder":"tf","game":"Team Fortress","app_id":440,"player_count":0,"max_players":24,"Bots":0,"server_type":"Dedicated","server_os":"Linux","password":true,"vac":true,"version":"7757534","steam_id":85568392925194467,"keywords":["cp","nocrits","nodmgspread","uncletopia"],"game_id":440,"stv_port":27036,"stv_name":"Uncletopia | Sydney | 3 | All Maps | STV","players":null},{"server_id":396,"name":"Uncletopia | Sydney | 4 | All Maps","name_short":"syd-4","host":"syd-1.au.uncletopia.com","port":27045,"enabled":true,"region":"au","cc":"au","latitude":-33.865143,"longitude":151.2099,"reserved":0,"last_update":"0001-01-01T00:00:00Z","name_a2s":"Uncletopia | Sydney | 4 | All Maps","protocol":17,"map":"cp_snakewater_final1","folder":"tf","game":"Team Fortress","app_id":440,"player_count":0,"max_players":24,"Bots":0,"server_type":"Dedicated","server_os":"Linux","password":true,"vac":true,"version":"7757534","steam_id":85568392925397958,"keywords":["cp","nocrits","nodmgspread","uncletopia"],"game_id":440,"stv_port":27046,"stv_name":"Uncletopia | Sydney | 4 | All Maps | STV","players":null},{"server_id":58,"name":"Uncletopia | Sydney | 5 | Stopwatch Beta","name_short":"syd-5","host":"syd-1.au.uncletopia.com","port":27055,"enabled":true,"region":"au","cc":"au","latitude":-33.865143,"longitude":151.2099,"reserved":0,"last_update":"0001-01-01T00:00:00Z","name_a2s":"Uncletopia | Sydney | 5 | Stopwatch Beta","protocol":17,"map":"pl_barnblitz","folder":"tf","game":"Team Fortress","app_id":440,"player_count":0,"max_players":24,"Bots":0,"server_type":"Dedicated","server_os":"Linux","password":true,"vac":true,"version":"7757534","steam_id":85568392925397959,"keywords":["nocrits","nodmgspread","payload","uncletopia"],"game_id":440,"stv_port":27056,"stv_name":"Uncletopia | Sydney | 5 | Stopwatch Beta | STV","players":null},{"server_id":59,"name":"Uncletopia | Sydney | 6 | Community","name_short":"syd-6","host":"syd-1.au.uncletopia.com","port":27065,"enabled":true,"region":"au","cc":"au","latitude":-33.865143,"longitude":151.2099,"reserved":0,"last_update":"0001-01-01T00:00:00Z","name_a2s":"Uncletopia | Sydney | 6 | Community","protocol":17,"map":"cp_mountainlab","folder":"tf","game":"Team Fortress","app_id":440,"player_count":0,"max_players":24,"Bots":0,"server_type":"Dedicated","server_os":"Linux","password":true,"vac":true,"version":"7757534","steam_id":85568392925397960,"keywords":["cp","nocrits","nodmgspread","uncletopia"],"game_id":440,"stv_port":27066,"stv_name":"Uncletopia | Sydney | 6 | Community | STV","players":null},{"server_id":49,"name":"Uncletopia | Warsaw | 1 | All Maps","name_short":"waw-1","host":"waw-1.pl.uncletopia.com","port":27015,"enabled":true,"region":"eu","cc":"pl","latitude":52.2297,"longitude":21.017532,"reserved":0,"last_update":"0001-01-01T00:00:00Z","name_a2s":"","protocol":0,"map":"","folder":"","game":"","app_id":0,"player_count":0,"max_players":0,"Bots":0,"server_type":"","server_os":"","password":false,"vac":false,"version":"","steam_id":0,"keywords":null,"game_id":0,"stv_port":0,"stv_name":"","players":null},{"server_id":50,"name":"Uncletopia | Warsaw | 2 | All Maps","name_short":"waw-2","host":"waw-1.pl.uncletopia.com","port":27025,"enabled":true,"region":"eu","cc":"pl","latitude":52.2297,"longitude":21.017532,"reserved":0,"last_update":"0001-01-01T00:00:00Z","name_a2s":"Uncletopia | Warsaw | 2 | All Maps","protocol":17,"map":"koth_viaduct","folder":"tf","game":"Team Fortress","app_id":440,"player_count":0,"max_players":24,"Bots":0,"server_type":"Dedicated","server_os":"Linux","password":true,"vac":true,"version":"7757534","steam_id":85568392925397851,"keywords":["cp","nocrits","nodmgspread","uncletopia"],"game_id":440,"stv_port":27026,"stv_name":"Uncletopia | Warsaw | 2 | All Maps | STV","players":null},{"server_id":51,"name":"Uncletopia | Warsaw | 3 | All Maps","name_short":"waw-3","host":"waw-1.pl.uncletopia.com","port":27035,"enabled":true,"region":"eu","cc":"pl","latitude":52.2297,"longitude":21.017532,"reserved":0,"last_update":"0001-01-01T00:00:00Z","name_a2s":"Uncletopia | Warsaw | 3 | All Maps","protocol":17,"map":"pl_badwater","folder":"tf","game":"Team Fortress","app_id":440,"player_count":0,"max_players":24,"Bots":0,"server_type":"Dedicated","server_os":"Linux","password":true,"vac":true,"version":"7757534","steam_id":85568392925397852,"keywords":["nocrits","nodmgspread","payload","uncletopia"],"game_id":440,"stv_port":27036,"stv_name":"Uncletopia | Warsaw | 3 | All Maps | STV","players":null},{"server_id":52,"name":"Uncletopia | Warsaw | 4 | All Maps","name_short":"waw-4","host":"waw-1.pl.uncletopia.com","port":27045,"enabled":true,"region":"eu","cc":"pl","latitude":52.2297,"longitude":21.017532,"reserved":0,"last_update":"0001-01-01T00:00:00Z","name_a2s":"Uncletopia | Warsaw | 4 | All Maps","protocol":17,"map":"koth_highpass","folder":"tf","game":"Team Fortress","app_id":440,"player_count":0,"max_players":24,"Bots":0,"server_type":"Dedicated","server_os":"Linux","password":true,"vac":true,"version":"7757534","steam_id":85568392925397853,"keywords":["cp","nocrits","nodmgspread","uncletopia"],"game_id":440,"stv_port":27046,"stv_name":"Uncletopia | Warsaw | 4 | All Maps | STV","players":null},{"server_id":53,"name":"Uncletopia | Warsaw | 5 | Stopwatch Beta","name_short":"waw-5","host":"waw-1.pl.uncletopia.com","port":27055,"enabled":true,"region":"eu","cc":"pl","latitude":52.2297,"longitude":21.017532,"reserved":0,"last_update":"0001-01-01T00:00:00Z","name_a2s":"Uncletopia | Warsaw | 5 | Stopwatch Beta","protocol":17,"map":"workshop/koth_product_final.ugc454272353","folder":"tf","game":"Team Fortress","app_id":440,"player_count":0,"max_players":24,"Bots":0,"server_type":"Dedicated","server_os":"Linux","password":true,"vac":true,"version":"7757534","steam_id":85568392925397854,"keywords":["cp","nocrits","nodmgspread","uncletopia"],"game_id":440,"stv_port":27056,"stv_name":"Uncletopia | Warsaw | 5 | Stopwatch Beta | STV","players":null},{"server_id":54,"name":"Uncletopia | Warsaw | 6 | Community","name_short":"waw-6","host":"waw-1.pl.uncletopia.com","port":27065,"enabled":true,"region":"eu","cc":"pl","latitude":52.2297,"longitude":21.017532,"reserved":0,"last_update":"0001-01-01T00:00:00Z","name_a2s":"Uncletopia | Warsaw | 6 | Community","protocol":17,"map":"pl_barnblitz","folder":"tf","game":"Team Fortress","app_id":440,"player_count":0,"max_players":24,"Bots":0,"server_type":"Dedicated","server_os":"Linux","password":true,"vac":true,"version":"7757534","steam_id":85568392925397856,"keywords":["nocrits","nodmgspread","payload","uncletopia"],"game_id":440,"stv_port":27066,"stv_name":"Uncletopia | Warsaw | 6 | Community | STV","players":null}]}