{"status":true,"message":"","result":[{"server_id":9,"name":"Uncletopia | Atlanta | 1 | All Maps","name_short":"atl-1","host":"atl-1.us.uncletopia.com","port":27015,"enabled":true,"region":"us-east","cc":"us","latitude":33.753746,"longitude":-84.38633,"reserved":0,"last_update":"0001-01-01T00:00:00Z","name_a2s":"Uncletopia | Atlanta | 1 | All Maps","protocol":17,"map":"pl_upward","folder":"tf","game":"Team Fortress","app_id":440,"player_count":24,"max_players":24,"Bots":0,"server_type":"Dedicated","server_os":"Linux","password":true,"vac":true,"version":"7757534","steam_id":85568392924469982,"keywords":["nocrits","nodmgspread","payload","uncletopia"],"game_id":440,"stv_port":27016,"stv_name":"Uncletopia | Atlanta | 1 | All Maps | STV","players":[{"user_id":3,"name":"cola","steam_id":76561198374390458,"connected_time":4409000000000,"state":"active","ping":60},{"user_id":4,"name":"roman","steam_id":76561198170066797,"connected_time":4406000000000,"state":"active","ping":75},{"user_id":60,"name":"-W3E- grim10465","steam_id":76561198045698581,"connected_time":672000000000,"state":"active","ping":60},{"user_id":7,"name":"ATL 1 | Save your wifi","steam_id":76561198286147372,"connected_time":4404000000000,"state":"active","ping":45},{"user_id":50,"name":"Lord Dragon","steam_id":76561198310300373,"connected_time":1078000000000,"state":"active","ping":80},{"user_id":49,"name":"Brain Rot Zee","steam_id":76561198094070642,"connected_time":1082000000000,"state":"active","ping":104},{"user_id":62,"name":"snoogy woogy buggy","steam_id":76561198894676484,"connected_time":350000000000,"state":"active","ping":92},{"user_id":43,"name":"GeneralTaco","steam_id":76561198026783097,"connected_time":1454000000000,"state":"active","ping":131},{"user_id":61,"name":"Magician Wen-li","steam_id":76561198189688217,"connected_time":609000000000,"state":"active","ping":59},{"user_id":14,"name":"chexo4","steam_id":76561198150532531,"connected_time":4382000000000,"state":"active","ping":49},{"user_id":47,"name":"Bottom Trans Cowgirl","steam_id":76561198304239680,"connected_time":1094000000000,"state":"active","ping":91},{"user_id":16,"name":"FemboyNate","steam_id":76561198146636410,"connected_time":4379000000000,"state":"active","ping":59},{"user_id":53,"name":"Maverick","steam_id":76561198035615249,"connected_time":1019000000000,"state":"active","ping":60},{"user_id":54,"name":"lil hog","steam_id":76561199230929836,"connected_time":983000000000,"state":"active","ping":87},{"user_id":19,"name":"lucil3 on Bandcamp","steam_id":76561198149063013,"connected_time":4367000000000,"state":"active","ping":73},{"user_id":48,"name":"BIG HOG","steam_id":76561198079923652,"connected_time":1090000000000,"state":"active","ping":66},{"user_id":21,"name":"Perfume Department","steam_id":76561198128299594,"connected_time":4366000000000,"state":"active","ping":100},{"user_id":55,"name":"Deep Peepus","steam_id":76561198205395757,"connected_time":971000000000,"state":"active","ping":93},{"user_id":33,"name":"Deltapunk","steam_id":76561199122138062,"connected_time":3598000000000,"state":"active","ping":123},{"user_id":59,"name":"rose","steam_id":76561198048882285,"connected_time":774000000000,"state":"active","ping":60},{"user_id":56,"name":"poopiegamer32 (racist)","steam_id":76561198154746018,"connected_time":965000000000,"state":"active","ping":66},{"user_id":57,"name":"shadow elite","steam_id":76561198165212575,"connected_time":960000000000,"state":"active","ping":78},{"user_id":30,"name":"reis","steam_id":76561199232952016,"connected_time":4248000000000,"state":"active","ping":183}]},{"server_id":104,"name":"Uncletopia | Atlanta | 2 | All Maps","name_short":"atl-2","host":"atl-1.us.uncletopia.com","port":27025,"enabled":true,"region":"us-east","cc":"us","latitude":33.753746,"longitude":-84.38633,"reserved":0,"last_update":"0001-01-01T00:00:00Z","name_a2s":"Uncletopia | Atlanta | 2 | All Maps","protocol":17,"map":"pl_badwater","folder":"tf","game":"Team Fortress","app_id":440,"player_count":24,"max_players":24,"Bots":0,"server_type":"Dedicated","server_os":"Linux","password":true,"vac":true,"version":"7757534","steam_id":85568392924469983,"keywords":["nocrits","nodmgspread","payload","uncletopia"],"game_id":440,"stv_port":27026,"stv_name":"Uncletopia | Atlanta | 2 | All Maps | STV","players":[{"user_id":74,"name":"Antwan","steam_id":76561198246200638,"connected_time":257000000000,"state":"active","ping":60},{"user_id":56,"name":"AoD  Pyro","steam_id":76561198312228050,"connected_time":1627000000000,"state":"active","ping":56},{"user_id":71,"name":"≃","steam_id":76561198157393205,"connected_time":309000000000,"state":"active","ping":137},{"user_id":39,"name":"splatt","steam_id":76561198217172111,"connected_time":2349000000000,"state":"active","ping":77},{"user_id":72,"name":"yesu","steam_id":76561199411502345,"connected_time":301000000000,"state":"active","ping":404},{"user_id":73,"name":"resplendent miniscule","steam_id":76561198091862137,"connected_time":290000000000,"state":"active","ping":61},{"user_id":10,"name":"Val-Simp","steam_id":76561198354437045,"connected_time":4363000000000,"state":"active","ping":121},{"user_id":30,"name":"ƐՌѴƳ","steam_id":76561198099470277,"connected_time":2925000000000,"state":"active","ping":66},{"user_id":27,"name":"Frontier Psychiatrist","steam_id":76561198038689088,"connected_time":3027000000000,"state":"active","ping":95},{"user_id":79,"name":"Kicker Skeleton","steam_id":76561198260328564,"connected_time":60000000000,"state":"active","ping":74},{"user_id":51,"name":"I Play Scout","steam_id":76561199475821142,"connected_time":1976000000000,"state":"active","ping":83},{"user_id":31,"name":"slowdance","steam_id":76561198097427947,"connected_time":2835000000000,"state":"active","ping":143},{"user_id":75,"name":"heimdall","steam_id":76561198069380992,"connected_time":239000000000,"state":"active","ping":87},{"user_id":76,"name":"TTV/ArcticFlesh","steam_id":76561198099678868,"connected_time":145000000000,"state":"active","ping":48},{"user_id":34,"name":"(´-ι_-｀)","steam_id":76561198007464245,"connected_time":2735000000000,"state":"active","ping":60},{"user_id":69,"name":"Random","steam_id":76561198318879454,"connected_time":472000000000,"state":"active","ping":91},{"user_id":65,"name":"BurnN8or101","steam_id":76561198132668224,"connected_time":1163000000000,"state":"active","ping":75},{"user_id":78,"name":"BrokenWing1583","steam_id":76561198443721353,"connected_time":95000000000,"state":"active","ping":122},{"user_id":42,"name":"ray (the based god)","steam_id":76561198311984941,"connected_time":2177000000000,"state":"active","ping":85},{"user_id":80,"name":"mepng","steam_id":76561199018758598,"connected_time":8000000000,"state":"spawning","ping":76},{"user_id":61,"name":"I Lead MLB In \"Bats Eaten\"","steam_id":76561198034079853,"connected_time":1477000000000,"state":"active","ping":68},{"user_id":45,"name":"my tomach hurt 100","steam_id":76561198046111695,"connected_time":2062000000000,"state":"active","ping":67},{"user_id":66,"name":"fortnitejimmy2015","steam_id":76561198381841894,"connected_time":842000000000,"state":"active","ping":79},{"user_id":62,"name":"Jeeper","steam_id":76561198155583692,"connected_time":1472000000000,"state":"active","ping":69}]},{"server_id":400,"name":"Uncletopia | Atlanta | 3 | Community","name_short":"atl-3","host":"atl-1.us.uncletopia.com","port":27035,"enabled":true,"region":"us-east","cc":"us","latitude":33.753746,"longitude":-84.38633,"reserved":0,"last_update":"0001-01-01T00:00:00Z","name_a2s":"Uncletopia | Atlanta | 3 | Community","protocol":17,"map":"cp_snakewater_final1","folder":"tf","game":"Team Fortress","app_id":440,"player_count":0,"max_players":24,"Bots":0,"server_type":"Dedicated","server_os":"Linux","password":true,"vac":true,"version":"7757534","steam_id":85568392924515187,"keywords":["cp","nocrits","nodmgspread","uncletopia"],"game_id":440,"stv_port":27036,"stv_name":"Uncletopia | Atlanta | 3 | Community | STV","players":null},{"server_id":401,"name":"Uncletopia | Atlanta | 4 | No Payload","name_short":"atl-4","host":"atl-1.us.uncletopia.com","port":27045,"enabled":true,"region":"us-east","cc":"us","latitude":33.753746,"longitude":-84.38633,"reserved":0,"last_update":"0001-01-01T00:00:00Z","name_a2s":"","protocol":0,"map":"","folder":"","game":"","app_id":0,"player_count":0,"max_players":0,"Bots":0,"server_type":"","server_os":"","password":false,"vac":false,"version":"","steam_id":0,"keywords":null,"game_id":0,"stv_port":0,"stv_name":"","players":null},{"server_id":2,"name":"Uncletopia | Chicago | 1 | All Maps","name_short":"chi-1","host":"chi-1.us.uncletopia.com","port":27015,"enabled":true,"region":"us-central","cc":"us","latitude":41.881832,"longitude":-87.62318,"reserved":0,"last_update":"0001-01-01T00:00:00Z","name_a2s":"Uncletopia | Chicago | 1 | All Maps","protocol":17,"map":"pl_borneo","folder":"tf","game":"Team Fortress","app_id":440,"player_count":24,"max_players":24,"Bots":0,"server_type":"Dedicated","server_os":"Linux","password":true,"vac":true,"version":"7757534","steam_id":85568392924469984,"keywords":["nocrits","nodmgspread","payload","uncletopia"],"game_id":440,"stv_port":27016,"stv_name":"Uncletopia | Chicago | 1 | All Maps | STV","players":[{"user_id":75,"name":"Salt Syndrome","steam_id":76561198046584592,"connected_time":179000000000,"state":"active","ping":98},{"user_id":42,"name":"PineappleSalesman","steam_id":76561198881039861,"connected_time":2611000000000,"state":"active","ping":44},{"user_id":5,"name":"[يهودي] Bill Clinton [אל","steam_id":76561198163291190,"connected_time":4416000000000,"state":"active","ping":83},{"user_id":40,"name":"Belvidere","steam_id":76561198121336953,"connected_time":2614000000000,"state":"active","ping":71},{"user_id":73,"name":"Vulpes","steam_id":76561198038929334,"connected_time":284000000000,"state":"active","ping":54},{"user_id":71,"name":"Jacket","steam_id":76561198131518482,"connected_time":480000000000,"state":"active","ping":74},{"user_id":76,"name":"Dirtbomb","steam_id":76561198002403301,"connected_time":34000000000,"state":"spawning","ping":82},{"user_id":56,"name":"LunarMallow","steam_id":76561198211930151,"connected_time":996000000000,"state":"active","ping":113},{"user_id":70,"name":"Frimpimy","steam_id":76561198142605675,"connected_time":515000000000,"state":"active","ping":55},{"user_id":68,"name":"alexfuzzy","steam_id":76561199291945851,"connected_time":600000000000,"state":"active","ping":103},{"user_id":13,"name":"chaffy","steam_id":76561198021754567,"connected_time":4404000000000,"state":"active","ping":50},{"user_id":43,"name":"Tobo","steam_id":76561198085846393,"connected_time":2611000000000,"state":"active","ping":88},{"user_id":44,"name":"ROGUE-PLANET","steam_id":76561198116023052,"connected_time":2606000000000,"state":"active","ping":67},{"user_id":53,"name":"Person","steam_id":76561198093244204,"connected_time":1170000000000,"state":"active","ping":75},{"user_id":64,"name":"Crotonga","steam_id":76561198077178900,"connected_time":749000000000,"state":"active","ping":58},{"user_id":65,"name":"Fantastic","steam_id":76561198079088978,"connected_time":680000000000,"state":"active","ping":42},{"user_id":54,"name":"Father Jon","steam_id":76561198324730919,"connected_time":1098000000000,"state":"active","ping":88},{"user_id":69,"name":"Yeshie the Dragon Layer","steam_id":76561198080214214,"connected_time":588000000000,"state":"active","ping":43},{"user_id":58,"name":"ProbiusSC","steam_id":76561198379167322,"connected_time":844000000000,"state":"active","ping":84},{"user_id":55,"name":"alan","steam_id":76561198281442409,"connected_time":1087000000000,"state":"active","ping":48},{"user_id":51,"name":"Shichinitzi","steam_id":76561198003833732,"connected_time":1275000000000,"state":"active","ping":45},{"user_id":52,"name":"twitch.tv/Yoshi21 | TF2Pugs.com","steam_id":76561198002516729,"connected_time":1256000000000,"state":"active","ping":63},{"user_id":57,"name":"noah","steam_id":76561198173310157,"connected_time":854000000000,"state":"active","ping":51},{"user_id":72,"name":"epic5","steam_id":76561198853066534,"connected_time":447000000000,"state":"active","ping":51}]},{"server_id":106,"name":"Uncletopia | Chicago | 2 | All Maps","name_short":"chi-2","host":"chi-1.us.uncletopia.com","port":27025,"enabled":true,"region":"us-central","cc":"us","latitude":41.881832,"longitude":-87.62318,"reserved":0,"last_update":"0001-01-01T00:00:00Z","name_a2s":"Uncletopia | Chicago | 2 | All Maps","protocol":17,"map":"pl_pier","folder":"tf","game":"Team Fortress","app_id":440,"player_count":14,"max_players":24,"Bots":0,"server_type":"Dedicated","server_os":"Linux","password":true,"vac":true,"version":"7757534","steam_id":85568392924469985,"keywords":["nocrits","nodmgspread","payload","uncletopia"],"game_id":440,"stv_port":27026,"stv_name":"Uncletopia | Chicago | 2 | All Maps | STV","players":[{"user_id":82,"name":"RedneckPhoenix","steam_id":76561198172922366,"connected_time":363000000000,"state":"active","ping":46},{"user_id":42,"name":"MEATBALL","steam_id":76561198028499312,"connected_time":2870000000000,"state":"active","ping":60},{"user_id":81,"name":"SEXHATER329","steam_id":76561198101093446,"connected_time":465000000000,"state":"active","ping":57},{"user_id":85,"name":"Oh No! It's Twister!","steam_id":76561198016791916,"connected_time":275000000000,"state":"active","ping":82},{"user_id":83,"name":"he suckin on my rick til i mort","steam_id":76561198310711692,"connected_time":358000000000,"state":"active","ping":157},{"user_id":16,"name":"rudy","steam_id":76561198088712799,"connected_time":3863000000000,"state":"active","ping":87},{"user_id":65,"name":"Randy \"the Man\" Johnson","steam_id":76561198039124445,"connected_time":1365000000000,"state":"active","ping":120},{"user_id":68,"name":"Lil' Foosball Table","steam_id":76561198246990080,"connected_time":1231000000000,"state":"active","ping":59},{"user_id":22,"name":"phone","steam_id":76561198029268743,"connected_time":3635000000000,"state":"active","ping":60},{"user_id":71,"name":"meggie","steam_id":76561198038291026,"connected_time":1145000000000,"state":"active","ping":55},{"user_id":59,"name":"Huey","steam_id":76561198972816386,"connected_time":1694000000000,"state":"active","ping":75},{"user_id":73,"name":"Mush","steam_id":76561198393461065,"connected_time":1111000000000,"state":"active","ping":72},{"user_id":74,"name":"Anderred","steam_id":76561198149983847,"connected_time":1111000000000,"state":"active","ping":76},{"user_id":76,"name":"Soil","steam_id":76561198943879122,"connected_time":1051000000000,"state":"active","ping":78}]},{"server_id":402,"name":"Uncletopia | Chicago | 3 | All Maps","name_short":"chi-3","host":"chi-1.us.uncletopia.com","port":27035,"enabled":true,"region":"us-central","cc":"us","latitude":41.881832,"longitude":-87.62318,"reserved":0,"last_update":"0001-01-01T00:00:00Z","name_a2s":"Uncletopia | Chicago | 3 | All Maps","protocol":17,"map":"pl_badwater","folder":"tf","game":"Team Fortress","app_id":440,"player_count":16,"max_players":24,"Bots":0,"server_type":"Dedicated","server_os":"Linux","password":true,"vac":true,"version":"7757534","steam_id":85568392924515191,"keywords":["nocrits","nodmgspread","payload","uncletopia"],"game_id":440,"stv_port":27036,"stv_name":"Uncletopia | Chicago | 3 | All Maps | STV","players":[{"user_id":42,"name":"pathulhu","steam_id":76561198323941614,"connected_time":2786000000000,"state":"active","ping":68},{"user_id":74,"name":"joe","steam_id":76561198332876604,"connected_time":247000000000,"state":"active","ping":70},{"user_id":46,"name":"bash -lc ./asshat.sh","steam_id":76561198004584315,"connected_time":2495000000000,"state":"active","ping":61},{"user_id":6,"name":"SomeScuffedKid","steam_id":76561198086113234,"connected_time":4388000000000,"state":"active","ping":57},{"user_id":73,"name":"ChocoCrispChunks","steam_id":76561198881926539,"connected_time":267000000000,"state":"active","ping":103},{"user_id":75,"name":"funnyduck1","steam_id":76561198072146886,"connected_time":179000000000,"state":"active","ping":78},{"user_id":76,"name":"El veneno está en la dosis","steam_id":76561198210928285,"connected_time":94000000000,"state":"active","ping":152},{"user_id":60,"name":"[DATS➡] Sugar Meowth","steam_id":76561197995251793,"connected_time":1540000000000,"state":"active","ping":85},{"user_id":63,"name":"be","steam_id":76561198000824533,"connected_time":1256000000000,"state":"active","ping":86},{"user_id":68,"name":"Geight","steam_id":76561197991645292,"connected_time":301000000000,"state":"active","ping":102},{"user_id":21,"name":"BigOrca54","steam_id":76561198181360271,"connected_time":4273000000000,"state":"active","ping":55},{"user_id":71,"name":"Passes the Bungus","steam_id":76561198040647717,"connected_time":292000000000,"state":"active","ping":83},{"user_id":64,"name":"Redd Guy","steam_id":76561198041034155,"connected_time":1243000000000,"state":"active","ping":97},{"user_id":54,"name":"N0Ne","steam_id":76561198376822522,"connected_time":2158000000000,"state":"active","ping":69},{"user_id":65,"name":"AkimboAoki","steam_id":76561198158323058,"connected_time":1165000000000,"state":"active","ping":90},{"user_id":67,"name":"Actually a Shoggoth","steam_id":76561198065857964,"connected_time":672000000000,"state":"active","ping":70}]},{"server_id":403,"name":"Uncletopia | Chicago | 4 | All Maps","name_short":"chi-4","host":"chi-1.us.uncletopia.com","port":27045,"enabled":true,"region":"us-central","cc":"us","latitude":41.881832,"longitude":-87.62318,"reserved":0,"last_update":"0001-01-01T00:00:00Z","name_a2s":"Uncletopia | Chicago | 4 | All Maps","protocol":17,"map":"pl_upward","folder":"tf","game":"Team Fortress","app_id":440,"player_count":17,"max_players":24,"Bots":0,"server_type":"Dedicated","server_os":"Linux","password":true,"vac":true,"version":"7757534","steam_id":85568392924515193,"keywords":["nocrits","nodmgspread","payload","uncletopia"],"game_id":440,"stv_port":27046,"stv_name":"Uncletopia | Chicago | 4 | All Maps | STV","players":[{"user_id":42,"name":"ShadBad","steam_id":76561198248287390,"connected_time":1724000000000,"state":"active","ping":109},{"user_id":57,"name":"LasagnaLary","steam_id":76561198051016438,"connected_time":142000000000,"state":"active","ping":69},{"user_id":33,"name":"[DEEP] Danmar33","steam_id":76561198056453091,"connected_time":2932000000000,"state":"active","ping":57},{"user_id":56,"name":"B)","steam_id":76561198093921290,"connected_time":170000000000,"state":"active","ping":47},{"user_id":55,"name":"Rahk","steam_id":76561198071426265,"connected_time":196000000000,"state":"active","ping":69},{"user_id":47,"name":"hud_saytext_time 0","steam_id":76561198010327228,"connected_time":1347000000000,"state":"active","ping":157},{"user_id":58,"name":"Menlymen","steam_id":76561198046508051,"connected_time":107000000000,"state":"active","ping":66},{"user_id":59,"name":"Azazel","steam_id":76561198370600754,"connected_time":19000000000,"state":"spawning","ping":72},{"user_id":52,"name":"Underachiever Mako","steam_id":76561198207943169,"connected_time":527000000000,"state":"active","ping":68},{"user_id":12,"name":"aqua","steam_id":76561199407709552,"connected_time":4281000000000,"state":"active","ping":42},{"user_id":46,"name":"Dr.KombatPhD.ttv","steam_id":76561198263847667,"connected_time":1405000000000,"state":"active","ping":58},{"user_id":50,"name":"Nerdin4Life","steam_id":76561198138417387,"connected_time":1084000000000,"state":"active","ping":103},{"user_id":29,"name":"Deathninja952","steam_id":76561199066489355,"connected_time":3587000000000,"state":"active","ping":85},{"user_id":49,"name":"Professor Peppermint","steam_id":76561198184017082,"connected_time":1318000000000,"state":"active","ping":45},{"user_id":45,"name":"British Zoner","steam_id":76561198977330214,"connected_time":1675000000000,"state":"active","ping":103},{"user_id":23,"name":"leeeeeeeeeeeeeeeeeeeeeeeeeee","steam_id":76561199083322731,"connected_time":3934000000000,"state":"active","ping":93},{"user_id":26,"name":"TÖZI","steam_id":76561198045268695,"connected_time":3909000000000,"state":"active","ping":57}]},{"server_id":36,"name":"Uncletopia | Chicago | 5 | All Maps","name_short":"chi-5","host":"chi-2.us.uncletopia.com","port":27015,"enabled":true,"region":"us-central","cc":"us","latitude":41.881832,"longitude":-87.62318,"reserved":0,"last_update":"0001-01-01T00:00:00Z","name_a2s":"Uncletopia | Chicago | 5 | All Maps","protocol":17,"map":"koth_cascade","folder":"tf","game":"Team Fortress","app_id":440,"player_count":0,"max_players":24,"Bots":0,"server_type":"Dedicated","server_os":"Linux","password":true,"vac":true,"version":"7757534","steam_id":85568392924866362,"keywords":["cp","nocrits","nodmgspread","uncletopia"],"game_id":440,"stv_port":27016,"stv_name":"Uncletopia | Chicago | 5 | All Maps | STV","players":null},{"server_id":37,"name":"Uncletopia | Chicago | 6 | All Maps","name_short":"chi-6","host":"chi-2.us.uncletopia.com","port":27025,"enabled":true,"region":"us-central","cc":"us","latitude":41.881832,"longitude":-87.62318,"reserved":0,"last_update":"0001-01-01T00:00:00Z","name_a2s":"Uncletopia | Chicago | 6 | All Maps","protocol":17,"map":"koth_lakeside_final","folder":"tf","game":"Team Fortress","app_id":440,"player_count":0,"max_players":24,"Bots":0,"server_type":"Dedicated","server_os":"Linux","password":true,"vac":true,"version":"7757534","steam_id":85568392924866363,"keywords":["cp","nocrits","nodmgspread","uncletopia"],"game_id":440,"stv_port":27026,"stv_name":"Uncletopia | Chicago | 6 | All Maps | STV","players":null},{"server_id":38,"name":"Uncletopia | Chicago | 7 | Stopwatch Beta","name_short":"chi-7","host":"chi-2.us.uncletopia.com","port":27035,"enabled":true,"region":"us-central","cc":"us","latitude":41.881832,"longitude":-87.62318,"reserved":0,"last_update":"0001-01-01T00:00:00Z","name_a2s":"Uncletopia | Chicago | 7 | Stopwatch Beta","protocol":17,"map":"pl_barnblitz","folder":"tf","game":"Team Fortress","app_id":440,"player_count":0,"max_players":24,"Bots":0,"server_type":"Dedicated","server_os":"Linux","password":true,"vac":true,"version":"7757534","steam_id":85568392924866364,"keywords":["nocrits","nodmgspread","payload","uncletopia"],"game_id":440,"stv_port":27036,"stv_name":"Uncletopia | Chicago | 7 | Stopwatch Beta | STV","players":null},{"server_id":39,"name":"Uncletopia | Chicago | 8 | Community","name_short":"chi-8","host":"chi-2.us.uncletopia.com","port":27045,"enabled":true,"region":"us-central","cc":"us","latitude":41.881832,"longitude":-87.62318,"reserved":0,"last_update":"0001-01-01T00:00:00Z","name_a2s":"Uncletopia | Chicago | 8 | Community","protocol":17,"map":"koth_cascade","folder":"tf","game":"Team Fortress","app_id":440,"player_count":0,"max_players":24,"Bots":0,"server_type":"Dedicated","server_os":"Linux","password":true,"vac":true,"version":"7757534","steam_id":85568392924866365,"keywords":["cp","nocrits","nodmgspread","uncletopia"],"game_id":440,"stv_port":27046,"stv_name":"Uncletopia | Chicago | 8 | Community | STV","players":null},{"server_id":8,"name":"Uncletopia | Dallas | 1 | All Maps","name_short":"dal-1","host":"dal-1.us.uncletopia.com","port":27015,"enabled":true,"region":"us-central","cc":"us","latitude":32.779167,"longitude":-96.80889,"reserved":0,"last_update":"0001-01-01T00:00:00Z","name_a2s":"Uncletopia | Dallas | 1 | All Maps","protocol":17,"map":"pl_badwater","folder":"tf","game":"Team Fortress","app_id":440,"player_count":24,"max_players":24,"Bots":0,"server_type":"Dedicated","server_os":"Linux","password":true,"vac":true,"version":"7757534","steam_id":85568392924469986,"keywords":["nocrits","nodmgspread","payload","uncletopia"],"game_id":440,"stv_port":27016,"stv_name":"Uncletopia | Dallas | 1 | All Maps | STV","players":[{"user_id":3,"name":"ribbonborn","steam_id":76561198001195423,"connected_time":4396000000000,"state":"active","ping":62},{"user_id":4,"name":"peppy","steam_id":76561198361818082,"connected_time":4391000000000,"state":"active","ping":68},{"user_id":51,"name":"amphy","steam_id":76561198003344621,"connected_time":1489000000000,"state":"active","ping":104},{"user_id":42,"name":"LuciD","steam_id":76561198242842394,"connected_time":2418000000000,"state":"active","ping":63},{"user_id":65,"name":"Panckakebro","steam_id":76561198106419992,"connected_time":249000000000,"state":"active","ping":86},{"user_id":8,"name":"Mak","steam_id":76561198089197922,"connected_time":4362000000000,"state":"active","ping":103},{"user_id":55,"name":"Dylan","steam_id":76561198265522923,"connected_time":1424000000000,"state":"active","ping":46},{"user_id":47,"name":"lyraaaaaaaaaaa","steam_id":76561198259331758,"connected_time":2288000000000,"state":"active","ping":122},{"user_id":13,"name":"kabooomerang","steam_id":76561198808706122,"connected_time":4334000000000,"state":"active","ping":87},{"user_id":14,"name":"b0urbaki7","steam_id":76561198141342345,"connected_time":4328000000000,"state":"active","ping":91},{"user_id":68,"name":"HomesliceHobbes","steam_id":76561198042770895,"connected_time":148000000000,"state":"active","ping":92},{"user_id":32,"name":"{ST} Oxythemoron","steam_id":76561198060089965,"connected_time":3611000000000,"state":"active","ping":53},{"user_id":67,"name":"crypt","steam_id":76561198280142450,"connected_time":225000000000,"state":"active","ping":45},{"user_id":61,"name":"Little Shuriken","steam_id":76561199020477560,"connected_time":898000000000,"state":"active","ping":69},{"user_id":49,"name":"Ghost Cage","steam_id":76561198101172776,"connected_time":2125000000000,"state":"active","ping":74},{"user_id":69,"name":"LtK","steam_id":76561197993180943,"connected_time":125000000000,"state":"active","ping":34},{"user_id":52,"name":"General Teddie","steam_id":76561198004310204,"connected_time":1486000000000,"state":"active","ping":74},{"user_id":39,"name":"ChottoAMinute","steam_id":76561198873157775,"connected_time":2645000000000,"state":"active","ping":41},{"user_id":70,"name":"trash beast","steam_id":76561198015792736,"connected_time":119000000000,"state":"active","ping":75},{"user_id":60,"name":"Shamrock Shake Oct.10.2020 @8pm","steam_id":76561198833313201,"connected_time":1098000000000,"state":"active","ping":88},{"user_id":62,"name":"Vicstand0891","steam_id":76561198292877147,"connected_time":881000000000,"state":"active","ping":88},{"user_id":57,"name":"I Like crit-a-Cola","steam_id":76561198250540576,"connected_time":1330000000000,"state":"active","ping":86},{"user_id":38,"name":"Luna","steam_id":76561198131342156,"connected_time":2940000000000,"state":"active","ping":74},{"user_id":50,"name":"DargaribdusPersonOfLordlyCalibe","steam_id":76561198020876416,"connected_time":1843000000000,"state":"active","ping":67}]},{"server_id":108,"name":"Uncletopia | Dallas | 2 | All Maps","name_short":"dal-2","host":"dal-1.us.uncletopia.com","port":27025,"enabled":true,"region":"us-central","cc":"us","latitude":32.779167,"longitude":-96.80889,"reserved":0,"last_update":"0001-01-01T00:00:00Z","name_a2s":"Uncletopia | Dallas | 2 | All Maps","protocol":17,"map":"koth_lakeside_final","folder":"tf","game":"Team Fortress","app_id":440,"player_count":23,"max_players":24,"Bots":0,"server_type":"Dedicated","server_os":"Linux","password":true,"vac":true,"version":"7757534","steam_id":85568392924469988,"keywords":["cp","nocrits","nodmgspread","uncletopia"],"game_id":440,"stv_port":27026,"stv_name":"Uncletopia | Dallas | 2 | All Maps | STV","players":[{"user_id":67,"name":"EatSports","steam_id":76561198009384115,"connected_time":1652000000000,"state":"active","ping":55},{"user_id":85,"name":"Speedy","steam_id":76561198080761661,"connected_time":493000000000,"state":"active","ping":97},{"user_id":93,"name":"Galactamarx","steam_id":76561198028065755,"connected_time":368000000000,"state":"active","ping":79},{"user_id":98,"name":"QUEASYWHALE","steam_id":76561199107482851,"connected_time":193000000000,"state":"active","ping":118},{"user_id":54,"name":"Regice","steam_id":76561198049860998,"connected_time":2250000000000,"state":"active","ping":57},{"user_id":94,"name":"O bez","steam_id":76561198841579939,"connected_time":322000000000,"state":"active","ping":88},{"user_id":86,"name":"Metal Boy Brylan #RodrickWave","steam_id":76561198314444920,"connected_time":486000000000,"state":"active","ping":77},{"user_id":63,"name":"terrorism? boy howdy","steam_id":76561198844003641,"connected_time":1756000000000,"state":"active","ping":89},{"user_id":95,"name":"prdxninja","steam_id":76561198170081774,"connected_time":318000000000,"state":"active","ping":54},{"user_id":91,"name":"glue","steam_id":76561198382076026,"connected_time":408000000000,"state":"active","ping":84},{"user_id":81,"name":"YHH face","steam_id":76561198035629877,"connected_time":597000000000,"state":"active","ping":59},{"user_id":82,"name":"krispin wah","steam_id":76561198027052378,"connected_time":594000000000,"state":"active","ping":77},{"user_id":58,"name":"Registeel","steam_id":76561198068516556,"connected_time":2111000000000,"state":"active","ping":89},{"user_id":25,"name":"TastesLikeTriangle","steam_id":76561198109705599,"connected_time":4261000000000,"state":"active","ping":98},{"user_id":51,"name":"Stamin-Pol","steam_id":76561198280081805,"connected_time":2318000000000,"state":"active","ping":70},{"user_id":21,"name":"||:♩♩♩♪:|| Opplydead","steam_id":76561198028630334,"connected_time":4281000000000,"state":"active","ping":76},{"user_id":84,"name":"raphaim #bb","steam_id":76561198089649422,"connected_time":529000000000,"state":"active","ping":71},{"user_id":92,"name":"Batso","steam_id":76561198106589452,"connected_time":393000000000,"state":"active","ping":107},{"user_id":72,"name":"DragonHunter994","steam_id":76561199076203907,"connected_time":787000000000,"state":"active","ping":64},{"user_id":71,"name":"Roxo","steam_id":76561198069591430,"connected_time":1042000000000,"state":"active","ping":176},{"user_id":88,"name":"Etomb","steam_id":76561198210017208,"connected_time":476000000000,"state":"active","ping":120},{"user_id":65,"name":"Tanya Forger","steam_id":76561198889997809,"connected_time":1745000000000,"state":"active","ping":75},{"user_id":96,"name":"Dilbert Garfunkel","steam_id":76561198088318184,"connected_time":302000000000,"state":"active","ping":100}]},{"server_id":5,"name":"Uncletopia | Frankfurt | 1 | All Maps","name_short":"frk-1","host":"frk-1.de.uncletopia.com","port":27015,"enabled":true,"region":"eu","cc":"de","latitude":50.110924,"longitude":8.682127,"reserved":0,"last_update":"0001-01-01T00:00:00Z","name_a2s":"Uncletopia | Frankfurt | 1 | All Maps","protocol":17,"map":"pl_snowycoast","folder":"tf","game":"Team Fortress","app_id":440,"player_count":0,"max_players":24,"Bots":0,"server_type":"Dedicated","server_os":"Linux","password":true,"vac":true,"version":"7757534","steam_id":85568392924469989,"keywords":["nocrits","nodmgspread","payload","uncletopia"],"game_id":440,"stv_port":27016,"stv_name":"Uncletopia | Frankfurt | 1 | All Maps | STV","players":null},{"server_id":110,"name":"Uncletopia | Frankfurt | 2 | All Maps","name_short":"frk-2","host":"frk-1.de.uncletopia.com","port":27025,"enabled":true,"region":"eu","cc":"de","latitude":50.110924,"longitude":8.682127,"reserved":0,"last_update":"0001-01-01T00:00:00Z","name_a2s":"Uncletopia | Frankfurt | 2 | All Maps","protocol":17,"map":"cp_snakewater_final1","folder":"tf","game":"Team Fortress","app_id":440,"player_count":0,"max_players":24,"Bots":0,"server_type":"Dedicated","server_os":"Linux","password":true,"vac":true,"version":"7757534","steam_id":85568392924469990,"keywords":["cp","nocrits","nodmgspread","uncletopia"],"game_id":440,"stv_port":27026,"stv_name":"Uncletopia | Frankfurt | 2 | All Maps | STV","players":null},{"server_id":308,"name":"Uncletopia | Frankfurt | 3 | All Maps","name_short":"frk-3","host":"frk-1.de.uncletopia.com","port":27035,"enabled":true,"region":"eu","cc":"de","latitude":50.110924,"longitude":8.682127,"reserved":0,"last_update":"0001-01-01T00:00:00Z","name_a2s":"Uncletopia | Frankfurt | 3 | All Maps","protocol":17,"map":"pl_swiftwater_final1","folder":"tf","game":"Team Fortress","app_id":440,"player_count":0,"max_players":24,"Bots":0,"server_type":"Dedicated","server_os":"Linux","password":true,"vac":true,"version":"7757534","steam_id":85568392924504274,"keywords":["nocrits","nodmgspread","payload","uncletopia"],"game_id":440,"stv_port":27036,"stv_name":"Uncletopia | Frankfurt | 3 | All Maps | STV","players":null},{"server_id":309,"name":"Uncletopia | Frankfurt | 4 | All Maps","name_short":"frk-4","host":"frk-1.de.uncletopia.com","port":27045,"enabled":true,"region":"eu","cc":"de","latitude":50.110924,"longitude":8.682127,"reserved":0,"last_update":"0001-01-01T00:00:00Z","name_a2s":"Uncletopia | Frankfurt | 4 | All Maps","protocol":17,"map":"koth_viaduct","folder":"tf","game":"Team Fortress","app_id":440,"player_count":0,"max_players":24,"Bots":0,"server_type":"Dedicated","server_os":"Linux","password":true,"vac":true,"version":"7757534","steam_id":85568392924504275,"keywords":["cp","nocrits","nodmgspread","uncletopia"],"game_id":440,"stv_port":27046,"stv_name":"Uncletopia | Frankfurt | 4 | All Maps | STV","players":null},{"server_id":310,"name":"Uncletopia | Frankfurt | 5 | All Maps","name_short":"frk-5","host":"frk-1.de.uncletopia.com","port":27055,"enabled":true,"region":"eu","cc":"de","latitude":50.110924,"longitude":8.682127,"reserved":0,"last_update":"0001-01-01T00:00:00Z","name_a2s":"Uncletopia | Frankfurt | 5 | All Maps","protocol":17,"map":"koth_lakeside_final","folder":"tf","game":"Team Fortress","app_id":440,"player_count":0,"max_players":24,"Bots":0,"server_type":"Dedicated","server_os":"Linux","password":true,"vac":true,"version":"7757534","steam_id":85568392924504277,"keywords":["cp","nocrits","nodmgspread","uncletopia"],"game_id":440,"stv_port":27056,"stv_name":"Uncletopia | Frankfurt | 5 | All Maps | STV","players":null},{"server_id":311,"name":"Uncletopia | Frankfurt | 6 | All Maps","name_short":"frk-6","host":"frk-1.de.uncletopia.com","port":27065,"enabled":true,"region":"eu","cc":"de","latitude":50.110924,"longitude":8.682127,"reserved":0,"last_update":"0001-01-01T00:00:00Z","name_a2s":"Uncletopia | Frankfurt | 6 | All Maps","protocol":17,"map":"pl_frontier_final","folder":"tf","game":"Team Fortress","app_id":440,"player_count":0,"max_players":24,"Bots":0,"server_type":"Dedicated","server_os":"Linux","password":true,"vac":true,"version":"7757534","steam_id":85568392924504278,"keywords":["nocrits","nodmgspread","payload","uncletopia"],"game_id":440,"stv_port":27066,"stv_name":"Uncletopia | Frankfurt | 6 | All Maps | STV","players":null},{"server_id":23,"name":"Uncletopia | Frankfurt | 7 | Stopwatch Beta","name_short":"frk-7","host":"frk-1.de.uncletopia.com","port":27075,"enabled":true,"region":"eu","cc":"de","latitude":50.110924,"longitude":8.682127,"reserved":0,"last_update":"0001-01-01T00:00:00Z","name_a2s":"Uncletopia | Frankfurt | 7 | Stopwatch Beta","protocol":17,"map":"cp_sunshine","folder":"tf","game":"Team Fortress","app_id":440,"player_count":0,"max_players":24,"Bots":0,"server_type":"Dedicated","server_os":"Linux","password":true,"vac":true,"version":"7757534","steam_id":85568392924742827,"keywords":["cp","nocrits","nodmgspread","uncletopia"],"game_id":440,"stv_port":27076,"stv_name":"Uncletopia | Frankfurt | 7 | Stopwatch Beta | STV","players":null},{"server_id":24,"name":"Uncletopia | Frankfurt | 8 | Community","name_short":"frk-8","host":"frk-1.de.uncletopia.com","port":27085,"enabled":true,"region":"eu","cc":"de","latitude":50.110924,"longitude":8.682127,"reserved":0,"last_update":"0001-01-01T00:00:00Z","name_a2s":"Uncletopia | Frankfurt | 8 | Community","protocol":17,"map":"koth_lakeside_final","folder":"tf","game":"Team Fortress","app_id":440,"player_count":0,"max_players":24,"Bots":0,"server_type":"Dedicated","server_os":"Linux","password":true,"vac":true,"version":"7757534","steam_id":85568392924742828,"keywords":["cp","nocrits","nodmgspread","uncletopia"],"game_id":440,"stv_port":27086,"stv_name":"Uncletopia | Frankfurt | 8 | Community | STV","players":null},{"server_id":202,"name":"Uncletopia | Hong Kong | 1 | All Maps","name_short":"hgk-1","host":"hgk-1.hk.uncletopia.com","port":27015,"enabled":true,"region":"asia","cc":"hk","latitude":22.302711,"longitude":114.177216,"reserved":0,"last_update":"0001-01-01T00:00:00Z","name_a2s":"Uncletopia | Hong Kong | 1 | All Maps","protocol":17,"map":"koth_viaduct","folder":"tf","game":"Team Fortress","app_id":440,"player_count":0,"max_players":24,"Bots":0,"server_type":"Dedicated","server_os":"Linux","password":true,"vac":true,"version":"7757534","steam_id":85568392924494504,"keywords":["cp","nocrits","nodmgspread","uncletopia"],"game_id":440,"stv_port":27016,"stv_name":"Uncletopia | Hong Kong | 1 | All Maps | STV","players":null},{"server_id":1,"name":"Uncletopia | Los Angeles | 1 | All Maps","name_short":"lax-1","host":"lax-1.us.uncletopia.com","port":27015,"enabled":true,"region":"us-west","cc":"us","latitude":33.94279,"longitude":-118.41004,"reserved":0,"last_update":"0001-01-01T00:00:00Z","name_a2s":"Uncletopia | Los Angeles | 1 | All Maps","protocol":17,"map":"pl_snowycoast","folder":"tf","game":"Team Fortress","app_id":440,"player_count":24,"max_players":24,"Bots":0,"server_type":"Dedicated","server_os":"Linux","password":true,"vac":true,"version":"7757534","steam_id":85568392924469991,"keywords":["nocrits","nodmgspread","payload","uncletopia"],"game_id":440,"stv_port":27016,"stv_name":"Uncletopia | Los Angeles | 1 | All Maps | STV","players":[{"user_id":6,"name":"LX-24","steam_id":76561198016168993,"connected_time":4367000000000,"state":"active","ping":83},{"user_id":95,"name":"The Caretaker","steam_id":76561198125241411,"connected_time":1006000000000,"state":"active","ping":66},{"user_id":47,"name":"heck","steam_id":76561198315694520,"connected_time":3031000000000,"state":"active","ping":54},{"user_id":96,"name":"Varia","steam_id":76561198047588672,"connected_time":982000000000,"state":"active","ping":75},{"user_id":94,"name":"Soothsayer","steam_id":76561198051750641,"connected_time":1043000000000,"state":"active","ping":59},{"user_id":97,"name":"VerenitEEE","steam_id":76561198064503363,"connected_time":963000000000,"state":"active","ping":93},{"user_id":15,"name":"Krazy","steam_id":76561198835502709,"connected_time":4329000000000,"state":"active","ping":46},{"user_id":67,"name":"Shin Tae Il's Lighter","steam_id":76561198984360849,"connected_time":2383000000000,"state":"active","ping":64},{"user_id":89,"name":"LogicalFurret","steam_id":76561198350604657,"connected_time":1495000000000,"state":"active","ping":53},{"user_id":104,"name":"P.I.Staker","steam_id":76561198087096559,"connected_time":368000000000,"state":"active","ping":83},{"user_id":18,"name":"wAck","steam_id":76561198072385729,"connected_time":4281000000000,"state":"active","ping":47},{"user_id":106,"name":"hakken","steam_id":76561199102391736,"connected_time":189000000000,"state":"active","ping":46},{"user_id":20,"name":"Salamimander","steam_id":76561198036083292,"connected_time":4263000000000,"state":"active","ping":68},{"user_id":21,"name":"bebo","steam_id":76561198385085005,"connected_time":4236000000000,"state":"active","ping":57},{"user_id":36,"name":"Jolly","steam_id":76561198116357972,"connected_time":3935000000000,"state":"active","ping":45},{"user_id":92,"name":"The Regional Manager","steam_id":76561198825154890,"connected_time":1183000000000,"state":"active","ping":64},{"user_id":99,"name":"✿ PoutyBun ✿","steam_id":76561197965762847,"connected_time":949000000000,"state":"active","ping":61},{"user_id":100,"name":"Bavi Ratto","steam_id":76561198333569494,"connected_time":903000000000,"state":"active","ping":87},{"user_id":91,"name":"Reem0h","steam_id":76561198169848690,"connected_time":1254000000000,"state":"active","ping":144},{"user_id":87,"name":"Uluyo","steam_id":76561198065857148,"connected_time":1803000000000,"state":"active","ping":75},{"user_id":31,"name":"Ceatharlach","steam_id":76561198318126190,"connected_time":4036000000000,"state":"active","ping":159},{"user_id":101,"name":"Axelfreeze14","steam_id":76561198436383913,"connected_time":879000000000,"state":"active","ping":49},{"user_id":105,"name":"tighty walter whities","steam_id":76561199122915452,"connected_time":233000000000,"state":"active","ping":90},{"user_id":60,"name":"The Assistant Regional Manager","steam_id":76561199221484936,"connected_time":2718000000000,"state":"active","ping":62}]},{"server_id":112,"name":"Uncletopia | Los Angeles | 2 | All Maps","name_short":"lax-2","host":"lax-1.us.uncletopia.com","port":27025,"enabled":true,"region":"us-west","cc":"us","latitude":33.94279,"longitude":-118.41004,"reserved":0,"last_update":"0001-01-01T00:00:00Z","name_a2s":"Uncletopia | Los Angeles | 2 | All Maps","protocol":17,"map":"koth_cascade","folder":"tf","game":"Team Fortress","app_id":440,"player_count":0,"max_players":24,"Bots":0,"server_type":"Dedicated","server_os":"Linux","password":true,"vac":true,"version":"7757534","steam_id":85568392924469992,"keywords":["cp","nocrits","nodmgspread","uncletopia"],"game_id":440,"stv_port":27026,"stv_name":"Uncletopia | Los Angeles | 2 | All Maps | STV","players":null},{"server_id":324,"name":"Uncletopia | Los Angeles | 3 | All Maps","name_short":"lax-3","host":"lax-1.us.uncletopia.com","port":27035,"enabled":true,"region":"us-west","cc":"us","latitude":33.94279,"longitude":-118.41004,"reserved":0,"last_update":"0001-01-01T00:00:00Z","name_a2s":"Uncletopia | Los Angeles | 3 | All Maps","protocol":17,"map":"pl_swiftwater_final1","folder":"tf","game":"Team Fortress","app_id":440,"player_count":0,"max_players":24,"Bots":0,"server_type":"Dedicated","server_os":"Linux","password":true,"vac":true,"version":"7757534","steam_id":85568392924510198,"keywords":["nocrits","nodmgspread","payload","uncletopia"],"game_id":440,"stv_port":27036,"stv_name":"Uncletopia | Los Angeles | 3 | All Maps | STV","players":null},{"server_id":25,"name":"Uncletopia | Los Angeles | 4 | Stopwatch Beta","name_short":"lax-4","host":"lax-1.us.uncletopia.com","port":27045,"enabled":true,"region":"us-west","cc":"us","latitude":33.94279,"longitude":-118.41004,"reserved":0,"last_update":"0001-01-01T00:00:00Z","name_a2s":"Uncletopia | Los Angeles | 4 | Stopwatch Beta","protocol":17,"map":"pl_swiftwater_final1","folder":"tf","game":"Team Fortress","app_id":440,"player_count":0,"max_players":24,"Bots":0,"server_type":"Dedicated","server_os":"Linux","password":true,"vac":true,"version":"7757534","steam_id":85568392924510199,"keywords":["nocrits","nodmgspread","payload","uncletopia"],"game_id":440,"stv_port":27046,"stv_name":"Uncletopia | Los Angeles | 4 | Stopwatch Beta | STV","players":null},{"server_id":11,"name":"Uncletopia | London | 1 | All Maps","name_short":"lon-1","host":"lon-1.uk.uncletopia.com","port":27015,"enabled":true,"region":"eu","cc":"gb","latitude":51.509865,"longitude":-0.118092,"reserved":0,"last_update":"0001-01-01T00:00:00Z","name_a2s":"Uncletopia | London | 1 | All Maps","protocol":17,"map":"koth_highpass","folder":"tf","game":"Team Fortress","app_id":440,"player_count":0,"max_players":24,"Bots":0,"server_type":"Dedicated","server_os":"Linux","password":true,"vac":true,"version":"7757534","steam_id":85568392924367362,"keywords":["cp","nocrits","nodmgspread","uncletopia"],"game_id":440,"stv_port":27016,"stv_name":"Uncletopia | London | 1 | All Maps | STV","players":null},{"server_id":114,"name":"Uncletopia | London | 2 | All Maps","name_short":"lon-2","host":"lon-1.uk.uncletopia.com","port":27025,"enabled":true,"region":"eu","cc":"gb","latitude":51.509865,"longitude":-0.118092,"reserved":0,"last_update":"0001-01-01T00:00:00Z","name_a2s":"Uncletopia | London | 2 | All Maps","protocol":17,"map":"koth_viaduct","folder":"tf","game":"Team Fortress","app_id":440,"player_count":0,"max_players":24,"Bots":0,"server_type":"Dedicated","server_os":"Linux","password":true,"vac":true,"version":"7757534","steam_id":85568392924470941,"keywords":["cp","nocrits","nodmgspread","uncletopia"],"game_id":440,"stv_port":27026,"stv_name":"Uncletopia | London | 2 | All Maps | STV","players":null},{"server_id":320,"name":"Uncletopia | London | 3 | All Maps","name_short":"lon-3","host":"lon-1.uk.uncletopia.com","port":27035,"enabled":true,"region":"eu","cc":"gb","latitude":51.509865,"longitude":-0.118092,"reserved":0,"last_update":"0001-01-01T00:00:00Z","name_a2s":"Uncletopia | London | 3 | All Maps","protocol":17,"map":"cp_dustbowl","folder":"tf","game":"Team Fortress","app_id":440,"player_count":0,"max_players":24,"Bots":0,"server_type":"Dedicated","server_os":"Linux","password":true,"vac":true,"version":"7757534","steam_id":85568392924510192,"keywords":["cp","nocrits","nodmgspread","uncletopia"],"game_id":440,"stv_port":27036,"stv_name":"Uncletopia | London | 3 | All Maps | STV","players":null},{"server_id":321,"name":"Uncletopia | London | 4 | All Maps","name_short":"lon-4","host":"lon-1.uk.uncletopia.com","port":27045,"enabled":true,"region":"eu","cc":"gb","latitude":51.509865,"longitude":-0.118092,"reserved":0,"last_update":"0001-01-01T00:00:00Z","name_a2s":"Uncletopia | London | 4 | All Maps","protocol":17,"map":"cp_dustbowl","folder":"tf","game":"Team Fortress","app_id":440,"player_count":0,"max_players":24,"Bots":0,"server_type":"Dedicated","server_os":"Linux","password":true,"vac":true,"version":"7757534","steam_id":85568392924510193,"keywords":["cp","nocrits","nodmgspread","uncletopia"],"game_id":440,"stv_port":27046,"stv_name":"Uncletopia | London | 4 | All Maps | STV","players":null},{"server_id":21,"name":"Uncletopia | London | 5 | All Maps","name_short":"lon-5","host":"lon-1.uk.uncletopia.com","port":27055,"enabled":true,"region":"eu","cc":"gb","latitude":51.509865,"longitude":-0.118092,"reserved":0,"last_update":"0001-01-01T00:00:00Z","name_a2s":"Uncletopia | London | 5 | All Maps","protocol":17,"map":"cp_altitude","folder":"tf","game":"Team Fortress","app_id":440,"player_count":0,"max_players":24,"Bots":0,"server_type":"Dedicated","server_os":"Linux","password":true,"vac":true,"version":"7757534","steam_id":85568392924742829,"keywords":["cp","nocrits","nodmgspread","uncletopia"],"game_id":440,"stv_port":27056,"stv_name":"Uncletopia | London | 5 | All Maps | STV","players":null},{"server_id":22,"name":"Uncletopia | London | 6 | All Maps","name_short":"lon-6","host":"lon-1.uk.uncletopia.com","port":27065,"enabled":true,"region":"eu","cc":"gb","latitude":51.509865,"longitude":-0.118092,"reserved":0,"last_update":"0001-01-01T00:00:00Z","name_a2s":"Uncletopia | London | 6 | All Maps","protocol":17,"map":"cp_mountainlab","folder":"tf","game":"Team Fortress","app_id":440,"player_count":0,"max_players":24,"Bots":0,"server_type":"Dedicated","server_os":"Linux","password":true,"vac":true,"version":"7757534","steam_id":85568392924742830,"keywords":["cp","nocrits","nodmgspread","uncletopia"],"game_id":440,"stv_port":27066,"stv_name":"Uncletopia | London | 6 | All Maps | STV","players":null},{"server_id":40,"name":"Uncletopia | London | 7 | No Payload","name_short":"lon-7","host":"lon-1.uk.uncletopia.com","port":27075,"enabled":true,"region":"eu","cc":"gb","latitude":51.509865,"longitude":-0.118092,"reserved":0,"last_update":"0001-01-01T00:00:00Z","name_a2s":"Uncletopia | London | 7 | No Payload","protocol":17,"map":"pl_badwater","folder":"tf","game":"Team Fortress","app_id":440,"player_count":0,"max_players":24,"Bots":0,"server_type":"Dedicated","server_os":"Linux","password":true,"vac":true,"version":"7757534","steam_id":85568392924964314,"keywords":["nocrits","nodmgspread","payload","uncletopia"],"game_id":440,"stv_port":27076,"stv_name":"Uncletopia | London | 7 | No Payload | STV","players":null},{"server_id":41,"name":"Uncletopia | London | 8 | Community","name_short":"lon-8","host":"lon-1.uk.uncletopia.com","port":27085,"enabled":true,"region":"eu","cc":"gb","latitude":51.509865,"longitude":-0.118092,"reserved":0,"last_update":"0001-01-01T00:00:00Z","name_a2s":"Uncletopia | London | 8 | Community","protocol":17,"map":"pl_barnblitz","folder":"tf","game":"Team Fortress","app_id":440,"player_count":0,"max_players":24,"Bots":0,"server_type":"Dedicated","server_os":"Linux","password":true,"vac":true,"version":"7757534","steam_id":85568392924964315,"keywords":["nocrits","nodmgspread","payload","uncletopia"],"game_id":440,"stv_port":27086,"stv_name":"Uncletopia | London | 8 | Community | STV","players":null},{"server_id":300,"name":"Uncletopia | Montréal | 1 | All Maps","name_short":"mtl-1","host":"mtl-1.ca.uncletopia.com","port":27015,"enabled":true,"region":"us-east","cc":"ca","latitude":45.50889,"longitude":-73.56167,"reserved":0,"last_update":"0001-01-01T00:00:00Z","name_a2s":"Uncletopia | Montréal | 1 | All Maps","protocol":17,"map":"pl_upward","folder":"tf","game":"Team Fortress","app_id":440,"player_count":0,"max_players":24,"Bots":0,"server_type":"Dedicated","server_os":"Linux","password":true,"vac":true,"version":"7757534","steam_id":85568392924500087,"keywords":["nocrits","nodmgspread","payload","uncletopia"],"game_id":440,"stv_port":27016,"stv_name":"Uncletopia | Montréal | 1 | All Maps | STV","players":null},{"server_id":301,"name":"Uncletopia | Montréal | 2 | All Maps","name_short":"mtl-2","host":"mtl-1.ca.uncletopia.com","port":27025,"enabled":true,"region":"us-east","cc":"ca","latitude":45.50889,"longitude":-73.56167,"reserved":0,"last_update":"0001-01-01T00:00:00Z","name_a2s":"Uncletopia | Montréal | 2 | All Maps","protocol":17,"map":"pl_snowycoast","folder":"tf","game":"Team Fortress","app_id":440,"player_count":0,"max_players":24,"Bots":0,"server_type":"Dedicated","server_os":"Linux","password":true,"vac":true,"version":"7757534","steam_id":85568392924500088,"keywords":["nocrits","nodmgspread","payload","uncletopia"],"game_id":440,"stv_port":27026,"stv_name":"Uncletopia | Montréal | 2 | All Maps | STV","players":null},{"server_id":302,"name":"Uncletopia | Montréal | 3 | All Maps","name_short":"mtl-3","host":"mtl-1.ca.uncletopia.com","port":27035,"enabled":true,"region":"us-east","cc":"ca","latitude":45.50889,"longitude":-73.56167,"reserved":0,"last_update":"0001-01-01T00:00:00Z","name_a2s":"Uncletopia | Montréal | 3 | All Maps","protocol":17,"map":"pl_swiftwater_final1","folder":"tf","game":"Team Fortress","app_id":440,"player_count":0,"max_players":24,"Bots":0,"server_type":"Dedicated","server_os":"Linux","password":true,"vac":true,"version":"7757534","steam_id":85568392924500089,"keywords":["nocrits","nodmgspread","payload","uncletopia"],"game_id":440,"stv_port":27036,"stv_name":"Uncletopia | Montréal | 3 | All Maps | STV","players":null},{"server_id":303,"name":"Uncletopia | Montréal | 4 | No Payload","name_short":"mtl-4","host":"mtl-1.ca.uncletopia.com","port":27045,"enabled":true,"region":"us-east","cc":"ca","latitude":45.50889,"longitude":-73.56167,"reserved":0,"last_update":"0001-01-01T00:00:00Z","name_a2s":"Uncletopia | Montréal | 4 | No Payload","protocol":17,"map":"pl_pier","folder":"tf","game":"Team Fortress","app_id":440,"player_count":0,"max_players":24,"Bots":0,"server_type":"Dedicated","server_os":"Linux","password":true,"vac":true,"version":"7757534","steam_id":85568392924500090,"keywords":["nocrits","nodmgspread","payload","uncletopia"],"game_id":440,"stv_port":27046,"stv_name":"Uncletopia | Montréal | 4 | No Payload | STV","players":null},{"server_id":13,"name":"Uncletopia | New York City | 1 | All Maps","name_short":"nyc-1","host":"nyc-1.us.uncletopia.com","port":27015,"enabled":true,"region":"us-east","cc":"us","latitude":40.73061,"longitude":-73.93524,"reserved":0,"last_update":"0001-01-01T00:00:00Z","name_a2s":"Uncletopia | New York City | 1 | All Maps","protocol":17,"map":"pl_borneo","folder":"tf","game":"Team Fortress","app_id":440,"player_count":24,"max_players":24,"Bots":0,"server_type":"Dedicated","server_os":"Linux","password":true,"vac":true,"version":"7757534","steam_id":85568392924469993,"keywords":["nocrits","nodmgspread","payload","uncletopia"],"game_id":440,"stv_port":27016,"stv_name":"Uncletopia | New York City | 1 | All Maps | STV","players":[{"user_id":34,"name":"shanghai","steam_id":76561197997961542,"connected_time":3833000000000,"state":"active","ping":66},{"user_id":59,"name":"Vivid Hut 64","steam_id":76561198170050059,"connected_time":1618000000000,"state":"active","ping":58},{"user_id":81,"name":"CamSoup","steam_id":76561198202483168,"connected_time":310000000000,"state":"active","ping":79},{"user_id":85,"name":"A Shiny Meat Bicycle","steam_id":76561198358757709,"connected_time":220000000000,"state":"active","ping":86},{"user_id":73,"name":"JustAWisp","steam_id":76561198311924005,"connected_time":1107000000000,"state":"active","ping":68},{"user_id":46,"name":"washy","steam_id":76561198046622670,"connected_time":2538000000000,"state":"active","ping":85},{"user_id":74,"name":"Bizcocho","steam_id":76561198086236897,"connected_time":1026000000000,"state":"active","ping":40},{"user_id":12,"name":"Horrizan","steam_id":76561197965028480,"connected_time":4350000000000,"state":"active","ping":88},{"user_id":50,"name":"Wique","steam_id":76561198071217597,"connected_time":2308000000000,"state":"active","ping":68},{"user_id":63,"name":"Skrasher","steam_id":76561198281711422,"connected_time":1499000000000,"state":"active","ping":94},{"user_id":55,"name":"Subway Fan","steam_id":76561198336372790,"connected_time":1885000000000,"state":"active","ping":41},{"user_id":75,"name":"CrystalClear","steam_id":76561198344276579,"connected_time":941000000000,"state":"active","ping":135},{"user_id":64,"name":"roadrunner","steam_id":76561198237140468,"connected_time":1488000000000,"state":"active","ping":77},{"user_id":87,"name":"wokky bin laddn","steam_id":76561198265200834,"connected_time":10000000000,"state":"spawning","ping":58},{"user_id":84,"name":"Kidzbopsicle","steam_id":76561198047660691,"connected_time":272000000000,"state":"active","ping":37},{"user_id":66,"name":"Roni1213","steam_id":76561198408533295,"connected_time":1444000000000,"state":"active","ping":118},{"user_id":52,"name":"chroma","steam_id":76561198050188632,"connected_time":2204000000000,"state":"active","ping":45},{"user_id":80,"name":"Master-e","steam_id":76561198173044685,"connected_time":584000000000,"state":"active","ping":61},{"user_id":67,"name":"Kolor","steam_id":76561197988411084,"connected_time":1340000000000,"state":"active","ping":81},{"user_id":79,"name":"HammerHead","steam_id":76561197975668646,"connected_time":867000000000,"state":"active","ping":91},{"user_id":31,"name":"Fiendish Frog","steam_id":76561198029478821,"connected_time":3913000000000,"state":"active","ping":46},{"user_id":77,"name":"Scoober","steam_id":76561198079736959,"connected_time":897000000000,"state":"active","ping":81},{"user_id":78,"name":"Post","steam_id":76561199029567289,"connected_time":881000000000,"state":"active","ping":139},{"user_id":69,"name":"jsutin","steam_id":76561198145338259,"connected_time":1292000000000,"state":"active","ping":98}]},{"server_id":14,"name":"Uncletopia | New York City | 2 | All Maps","name_short":"nyc-2","host":"nyc-1.us.uncletopia.com","port":27025,"enabled":true,"region":"us-east","cc":"us","latitude":40.73061,"longitude":-73.93524,"reserved":0,"last_update":"0001-01-01T00:00:00Z","name_a2s":"Uncletopia | New York City | 2 | All Maps","protocol":17,"map":"pl_borneo","folder":"tf","game":"Team Fortress","app_id":440,"player_count":0,"max_players":24,"Bots":0,"server_type":"Dedicated","server_os":"Linux","password":true,"vac":true,"version":"7757534","steam_id":85568392924469994,"keywords":["nocrits","nodmgspread","payload","uncletopia"],"game_id":440,"stv_port":27026,"stv_name":"Uncletopia | New York City | 2 | All Maps | STV","players":null},{"server_id":15,"name":"Uncletopia | New York City | 3 | Stopwatch Beta","name_short":"nyc-3","host":"nyc-1.us.uncletopia.com","port":27035,"enabled":true,"region":"us-east","cc":"us","latitude":40.73061,"longitude":-73.93524,"reserved":0,"last_update":"0001-01-01T00:00:00Z","name_a2s":"Uncletopia | New York City | 3 | Stopwatch Beta","protocol":17,"map":"pl_upward","folder":"tf","game":"Team Fortress","app_id":440,"player_count":0,"max_players":24,"Bots":0,"server_type":"Dedicated","server_os":"Linux","password":true,"vac":true,"version":"7757534","steam_id":85568392924742820,"keywords":["nocrits","nodmgspread","payload","uncletopia"],"game_id":440,"stv_port":27036,"stv_name":"Uncletopia | New York City | 3 | Stopwatch Beta | STV","players":null},{"server_id":16,"name":"Uncletopia | New York City | 4 | Community","name_short":"nyc-4","host":"nyc-1.us.uncletopia.com","port":27045,"enabled":true,"region":"us-east","cc":"us","latitude":40.73061,"longitude":-73.93524,"reserved":0,"last_update":"0001-01-01T00:00:00Z","name_a2s":"Uncletopia | New York City | 4 | Community","protocol":17,"map":"pl_swiftwater_final1","folder":"tf","game":"Team Fortress","app_id":440,"player_count":0,"max_players":24,"Bots":0,"server_type":"Dedicated","server_os":"Linux","password":true,"vac":true,"version":"7757534","steam_id":85568392924742821,"keywords":["nocrits","nodmgspread","payload","uncletopia"],"game_id":440,"stv_port":27046,"stv_name":"Uncletopia | New York City | 4 | Community | STV","players":null},{"server_id":142,"name":"Uncletopia | São Paulo | 1 | All Maps","name_short":"sao-1","host":"sao-1.br.uncletopia.com","port":27015,"enabled":true,"region":"sa","cc":"br","latitude":-23.533773,"longitude":-46.62529,"reserved":0,"last_update":"0001-01-01T00:00:00Z","name_a2s":"Uncletopia | São Paulo | 1 | All Maps","protocol":17,"map":"koth_lakeside_final","folder":"tf","game":"Team Fortress","app_id":440,"player_count":0,"max_players":24,"Bots":0,"server_type":"Dedicated","server_os":"Linux","password":true,"vac":true,"version":"7757534","steam_id":85568392924469996,"keywords":["cp","nocrits","nodmgspread","uncletopia"],"game_id":440,"stv_port":27016,"stv_name":"Uncletopia | São Paulo | 1 | All Maps | STV","players":null},{"server_id":143,"name":"Uncletopia | São Paulo | 2 | All Maps","name_short":"sao-2","host":"sao-2.br.uncletopia.com","port":27015,"enabled":true,"region":"sa","cc":"br","latitude":-23.533773,"longitude":-46.62529,"reserved":0,"last_update":"0001-01-01T00:00:00Z","name_a2s":"Uncletopia | São Paulo | 2 | All Maps","protocol":17,"map":"pl_borneo","folder":"tf","game":"Team Fortress","app_id":440,"player_count":0,"max_players":24,"Bots":0,"server_type":"Dedicated","server_os":"Linux","password":true,"vac":true,"version":"7757534","steam_id":85568392924485349,"keywords":["nocrits","nodmgspread","payload","uncletopia"],"game_id":440,"stv_port":27016,"stv_name":"Uncletopia | São Paulo | 2 | All Maps | STV","players":null},{"server_id":7,"name":"Uncletopia | Seattle | 1 | All Maps","name_short":"sea-1","host":"sea-1.us.uncletopia.com","port":27015,"enabled":true,"region":"us-west","cc":"us","latitude":47.608013,"longitude":-122.33517,"reserved":0,"last_update":"0001-01-01T00:00:00Z","name_a2s":"Uncletopia | Seattle | 1 | All Maps","protocol":17,"map":"pl_badwater","folder":"tf","game":"Team Fortress","app_id":440,"player_count":21,"max_players":24,"Bots":0,"server_type":"Dedicated","server_os":"Linux","password":true,"vac":true,"version":"7757534","steam_id":85568392924469997,"keywords":["nocrits","nodmgspread","payload","uncletopia"],"game_id":440,"stv_port":27016,"stv_name":"Uncletopia | Seattle | 1 | All Maps | STV","players":[{"user_id":34,"name":"Ducks","steam_id":76561198130038345,"connected_time":3528000000000,"state":"spawning","ping":49},{"user_id":4,"name":"WaffleWithNoToppings","steam_id":76561199088280111,"connected_time":4356000000000,"state":"spawning","ping":76},{"user_id":35,"name":"Foxymittenz","steam_id":76561198189953711,"connected_time":3397000000000,"state":"active","ping":166},{"user_id":40,"name":"A Duck With Socks","steam_id":76561198018844227,"connected_time":2794000000000,"state":"active","ping":84},{"user_id":7,"name":"pyrotechnic","steam_id":76561198043558709,"connected_time":4351000000000,"state":"active","ping":196},{"user_id":47,"name":"fungi","steam_id":76561198169755734,"connected_time":2123000000000,"state":"spawning","ping":50},{"user_id":63,"name":"supcupman","steam_id":76561198051513866,"connected_time":26000000000,"state":"spawning","ping":62},{"user_id":58,"name":"S Q U I S H E  T H A T  C A T","steam_id":76561198293865429,"connected_time":867000000000,"state":"spawning","ping":47},{"user_id":57,"name":"RiverMoot","steam_id":76561198081530179,"connected_time":898000000000,"state":"spawning","ping":194},{"user_id":60,"name":"Minerkid2004","steam_id":76561198044262827,"connected_time":677000000000,"state":"spawning","ping":69},{"user_id":45,"name":"resh","steam_id":76561198239598834,"connected_time":2450000000000,"state":"spawning","ping":145},{"user_id":56,"name":"cracky","steam_id":76561197971365444,"connected_time":1125000000000,"state":"spawning","ping":59},{"user_id":19,"name":"An Old Lady","steam_id":76561198047480318,"connected_time":4328000000000,"state":"spawning","ping":188},{"user_id":20,"name":"Ayayahuasca","steam_id":76561199002906056,"connected_time":4325000000000,"state":"spawning","ping":220},{"user_id":21,"name":"The King of Piss World","steam_id":76561198082806956,"connected_time":4324000000000,"state":"spawning","ping":120},{"user_id":61,"name":"THAT CAT","steam_id":76561198010828625,"connected_time":353000000000,"state":"active","ping":165},{"user_id":36,"name":"i cant aim","steam_id":76561198065873462,"connected_time":3097000000000,"state":"spawning","ping":274},{"user_id":53,"name":"mewtek","steam_id":76561198138599995,"connected_time":1546000000000,"state":"spawning","ping":98},{"user_id":64,"name":"lker","steam_id":76561197976975075,"connected_time":24000000000,"state":"spawning","ping":132},{"user_id":33,"name":"p9 jorts weed syrup","steam_id":76561199041179985,"connected_time":4234000000000,"state":"active","ping":242}]},{"server_id":119,"name":"Uncletopia | Seattle | 2 | All Maps","name_short":"sea-2","host":"sea-1.us.uncletopia.com","port":27025,"enabled":true,"region":"us-west","cc":"us","latitude":47.608013,"longitude":-122.33517,"reserved":0,"last_update":"0001-01-01T00:00:00Z","name_a2s":"Uncletopia | Seattle | 2 | All Maps","protocol":17,"map":"pl_frontier_final","folder":"tf","game":"Team Fortress","app_id":440,"player_count":21,"max_players":24,"Bots":0,"server_type":"Dedicated","server_os":"Linux","password":true,"vac":true,"version":"7757534","steam_id":85568392924469998,"keywords":["nocrits","nodmgspread","payload","uncletopia"],"game_id":440,"stv_port":27026,"stv_name":"Uncletopia | Seattle | 2 | All Maps | STV","players":[{"user_id":64,"name":"Thev23","steam_id":76561198050398028,"connected_time":1500000000000,"state":"active","ping":105},{"user_id":63,"name":"Superbacon24","steam_id":76561198121223443,"connected_time":1508000000000,"state":"active","ping":61},{"user_id":60,"name":"Seriously Bruh","steam_id":76561198070408485,"connected_time":1528000000000,"state":"active","ping":52},{"user_id":48,"name":"Amogous Supreme","steam_id":76561198025476774,"connected_time":2449000000000,"state":"active","ping":71},{"user_id":54,"name":"JON","steam_id":76561198057971005,"connected_time":1767000000000,"state":"active","ping":44},{"user_id":9,"name":"Keamy","steam_id":76561199471434875,"connected_time":4337000000000,"state":"active","ping":30},{"user_id":83,"name":"Fargo","steam_id":76561198044703931,"connected_time":26000000000,"state":"active","ping":62},{"user_id":14,"name":"Grammaring","steam_id":76561198867366139,"connected_time":4320000000000,"state":"active","ping":80},{"user_id":72,"name":"chanoc","steam_id":76561198026734746,"connected_time":1160000000000,"state":"active","ping":60},{"user_id":17,"name":"Gary, 40, soul sucking 9-5","steam_id":76561198073812888,"connected_time":4298000000000,"state":"active","ping":44},{"user_id":53,"name":"Evanb","steam_id":76561198042057792,"connected_time":2260000000000,"state":"active","ping":38},{"user_id":76,"name":"H4V0C | Atomic Heart","steam_id":76561199129350925,"connected_time":821000000000,"state":"active","ping":54},{"user_id":49,"name":"garry","steam_id":76561199091007559,"connected_time":2432000000000,"state":"active","ping":85},{"user_id":62,"name":"Korbi.","steam_id":76561198355711373,"connected_time":1521000000000,"state":"active","ping":70},{"user_id":52,"name":"Oxferd Crow","steam_id":76561198096916018,"connected_time":2307000000000,"state":"active","ping":71},{"user_id":79,"name":"doomshroom","steam_id":76561198092827250,"connected_time":472000000000,"state":"active","ping":57},{"user_id":47,"name":"SvicidalBug","steam_id":76561198221390504,"connected_time":2472000000000,"state":"active","ping":68},{"user_id":67,"name":"oil","steam_id":76561198099980149,"connected_time":1456000000000,"state":"active","ping":75},{"user_id":75,"name":"Mom","steam_id":76561198207936000,"connected_time":1026000000000,"state":"active","ping":59},{"user_id":55,"name":"LordKirby","steam_id":76561198006938286,"connected_time":1764000000000,"state":"active","ping":99},{"user_id":82,"name":"laggy mcstab","steam_id":76561198106379962,"connected_time":351000000000,"state":"active","ping":53}]},{"server_id":406,"name":"Uncletopia | Seattle | 3 | Stopwatch Beta","name_short":"sea-3","host":"sea-1.us.uncletopia.com","port":27035,"enabled":true,"region":"us-west","cc":"us","latitude":47.608013,"longitude":-122.33517,"reserved":0,"last_update":"0001-01-01T00:00:00Z","name_a2s":"Uncletopia | Seattle | 3 | Stopwatch Beta","protocol":17,"map":"workshop/pl_summercoast_rc8e.ugc1761528829","folder":"tf","game":"Team Fortress","app_id":440,"player_count":0,"max_players":24,"Bots":0,"server_type":"Dedicated","server_os":"Linux","password":true,"vac":true,"version":"7757534","steam_id":85568392924515217,"keywords":["nocrits","nodmgspread","payload","uncletopia"],"game_id":440,"stv_port":27036,"stv_name":"Uncletopia | Seattle | 3 | Stopwatch Beta | STV","players":null},{"server_id":17,"name":"Uncletopia | San Francisco | 1 | All Maps","name_short":"sfo-1","host":"sfo-1.us.uncletopia.com","port":27015,"enabled":true,"region":"us-west","cc":"us","latitude":37.77397,"longitude":-122.4313,"reserved":0,"last_update":"0001-01-01T00:00:00Z","name_a2s":"Uncletopia | San Francisco | 1 | All Maps","protocol":17,"map":"pl_borneo","folder":"tf","game":"Team Fortress","app_id":440,"player_count":13,"max_players":24,"Bots":0,"server_type":"Dedicated","server_os":"Linux","password":true,"vac":true,"version":"7757534","steam_id":85568392924469999,"keywords":["nocrits","nodmgspread","payload","uncletopia"],"game_id":440,"stv_port":27016,"stv_name":"Uncletopia | San Francisco | 1 | All Maps | STV","players":[{"user_id":57,"name":"wait no stop dont do that","steam_id":76561199117157198,"connected_time":152000000000,"state":"active","ping":80},{"user_id":58,"name":"I regret nothing","steam_id":76561198399261089,"connected_time":143000000000,"state":"active","ping":34},{"user_id":48,"name":"noblehallett","steam_id":76561197990994280,"connected_time":1127000000000,"state":"active","ping":70},{"user_id":59,"name":"HOG RIDER","steam_id":76561198298589502,"connected_time":66000000000,"state":"active","ping":59},{"user_id":55,"name":"iivy","steam_id":76561198068464819,"connected_time":190000000000,"state":"active","ping":69},{"user_id":54,"name":"Optimore","steam_id":76561198047662990,"connected_time":514000000000,"state":"active","ping":48},{"user_id":49,"name":"bob morely","steam_id":76561198045926594,"connected_time":1119000000000,"state":"active","ping":59},{"user_id":24,"name":"RagingRoosevelt","steam_id":76561197985483153,"connected_time":3239000000000,"state":"active","ping":63},{"user_id":51,"name":"Sunny","steam_id":76561198261667312,"connected_time":1087000000000,"state":"active","ping":67},{"user_id":50,"name":"BrightOrangeMango","steam_id":76561198023144607,"connected_time":1118000000000,"state":"active","ping":67},{"user_id":40,"name":"Major_Pippy","steam_id":76561198004482878,"connected_time":2332000000000,"state":"active","ping":57},{"user_id":39,"name":"gamer_hater","steam_id":76561198973306314,"connected_time":2554000000000,"state":"active","ping":53},{"user_id":47,"name":"FriskyDemon","steam_id":76561198043684646,"connected_time":1423000000000,"state":"active","ping":85}]},{"server_id":18,"name":"Uncletopia | San Francisco | 2 | All Maps","name_short":"sfo-2","host":"sfo-1.us.uncletopia.com","port":27025,"enabled":true,"region":"us-west","cc":"us","latitude":37.77397,"longitude":-122.4313,"reserved":0,"last_update":"0001-01-01T00:00:00Z","name_a2s":"Uncletopia | San Francisco | 2 | All Maps","protocol":17,"map":"pl_upward","folder":"tf","game":"Team Fortress","app_id":440,"player_count":24,"max_players":24,"Bots":0,"server_type":"Dedicated","server_os":"Linux","password":true,"vac":true,"version":"7757534","steam_id":85568392924470000,"keywords":["nocrits","nodmgspread","payload","uncletopia"],"game_id":440,"stv_port":27026,"stv_name":"Uncletopia | San Francisco | 2 | All Maps | STV","players":[{"user_id":80,"name":"Inadequate","steam_id":76561198108263810,"connected_time":166000000000,"state":"active","ping":76},{"user_id":81,"name":"你是塊被人玩的肉吧，\ufffd","steam_id":76561198068672882,"connected_time":149000000000,"state":"active","ping":49},{"user_id":5,"name":"landogg","steam_id":76561198049000586,"connected_time":4356000000000,"state":"active","ping":63},{"user_id":82,"name":"bigman1","steam_id":76561198050225055,"connected_time":143000000000,"state":"active","ping":55},{"user_id":33,"name":"Smiling","steam_id":76561198293407075,"connected_time":3655000000000,"state":"active","ping":112},{"user_id":50,"name":"Jojo","steam_id":76561198166713255,"connected_time":3073000000000,"state":"active","ping":117},{"user_id":45,"name":"Frontier Psychiatrist","steam_id":76561198378587138,"connected_time":3305000000000,"state":"active","ping":46},{"user_id":10,"name":"Penguin","steam_id":76561198987947291,"connected_time":4324000000000,"state":"active","ping":60},{"user_id":21,"name":"Ice cream sandwich","steam_id":76561198172748357,"connected_time":3924000000000,"state":"active","ping":58},{"user_id":27,"name":"Juanelo","steam_id":76561199096390505,"connected_time":3762000000000,"state":"active","ping":90},{"user_id":83,"name":"Wiggler","steam_id":76561198118420406,"connected_time":142000000000,"state":"active","ping":59},{"user_id":14,"name":"Lv. 5 Grunt","steam_id":76561198800334545,"connected_time":4208000000000,"state":"active","ping":53},{"user_id":51,"name":"goblino","steam_id":76561198068260422,"connected_time":2974000000000,"state":"active","ping":111},{"user_id":66,"name":"Enderkill777","steam_id":76561198876915153,"connected_time":2186000000000,"state":"active","ping":57},{"user_id":84,"name":"WizBiz","steam_id":76561198169716861,"connected_time":113000000000,"state":"active","ping":56},{"user_id":26,"name":"Flyingcat9000","steam_id":76561198179561797,"connected_time":3781000000000,"state":"active","ping":34},{"user_id":72,"name":"them","steam_id":76561198348099428,"connected_time":1388000000000,"state":"active","ping":54},{"user_id":85,"name":"Yeet Swan","steam_id":76561198334181186,"connected_time":108000000000,"state":"active","ping":56},{"user_id":68,"name":"Death Bird","steam_id":76561198041329791,"connected_time":1809000000000,"state":"active","ping":53},{"user_id":77,"name":"golia","steam_id":76561198000264266,"connected_time":1290000000000,"state":"active","ping":56},{"user_id":86,"name":"crankshaft","steam_id":76561197992798282,"connected_time":107000000000,"state":"active","ping":50},{"user_id":87,"name":"27 blends","steam_id":76561197997100185,"connected_time":98000000000,"state":"active","ping":60},{"user_id":67,"name":"ur getting frog","steam_id":76561198880773196,"connected_time":2130000000000,"state":"active","ping":82},{"user_id":88,"name":"Speedycat","steam_id":76561198024821259,"connected_time":92000000000,"state":"active","ping":73}]},{"server_id":19,"name":"Uncletopia | San Francisco | 3 | Stopwatch Beta","name_short":"sfo-3","host":"sfo-1.us.uncletopia.com","port":27035,"enabled":true,"region":"us-west","cc":"us","latitude":37.77397,"longitude":-122.4313,"reserved":0,"last_update":"0001-01-01T00:00:00Z","name_a2s":"Uncletopia | San Francisco | 3 | Stopwatch Beta","protocol":17,"map":"koth_lakeside_final","folder":"tf","game":"Team Fortress","app_id":440,"player_count":0,"max_players":24,"Bots":0,"server_type":"Dedicated","server_os":"Linux","password":true,"vac":true,"version":"7757534","steam_id":85568392924742824,"keywords":["cp","nocrits","nodmgspread","uncletopia"],"game_id":440,"stv_port":27036,"stv_name":"Uncletopia | San Francisco | 3 | Stopwatch Beta | STV","players":null},{"server_id":20,"name":"Uncletopia | San Francisco | 4 | Community","name_short":"sfo-4","host":"sfo-1.us.uncletopia.com","port":27045,"enabled":true,"region":"us-west","cc":"us","latitude":37.77397,"longitude":-122.4313,"reserved":0,"last_update":"0001-01-01T00:00:00Z","name_a2s":"Uncletopia | San Francisco | 4 | Community","protocol":17,"map":"workshop/pl_barnblitz_pro7.ugc582280235","folder":"tf","game":"Team Fortress","app_id":440,"player_count":0,"max_players":24,"Bots":0,"server_type":"Dedicated","server_os":"Linux","password":true,"vac":true,"version":"7757534","steam_id":85568392924742826,"keywords":["nocrits","nodmgspread","payload","uncletopia"],"game_id":440,"stv_port":27046,"stv_name":"Uncletopia | San Francisco | 4 | Community | STV","players":null},{"server_id":141,"name":"Uncletopia | Sydney | 1 | All Maps","name_short":"syd-1","host":"syd-1.au.uncletopia.com","port":27015,"enabled":true,"region":"au","cc":"au","latitude":-33.865143,"longitude":151.2099,"reserved":0,"last_update":"0001-01-01T00:00:00Z","name_a2s":"Uncletopia | Sydney | 1 | All Maps","protocol":17,"map":"pl_pier","folder":"tf","game":"Team Fortress","app_id":440,"player_count":24,"max_players":24,"Bots":0,"server_type":"Dedicated","server_os":"Linux","password":true,"vac":true,"version":"7757534","steam_id":85568392924470001,"keywords":["nocrits","nodmgspread","payload","uncletopia"],"game_id":440,"stv_port":27016,"stv_name":"Uncletopia | Sydney | 1 | All Maps | STV","players":[{"user_id":83,"name":"Tsolis","steam_id":76561198013950614,"connected_time":1144000000000,"state":"active","ping":56},{"user_id":9,"name":"Zieria","steam_id":76561199261811388,"connected_time":4421000000000,"state":"active","ping":42},{"user_id":78,"name":"Y0shua3","steam_id":76561199381627916,"connected_time":1793000000000,"state":"active","ping":85},{"user_id":93,"name":"BruceWillis235","steam_id":76561198884324029,"connected_time":791000000000,"state":"active","ping":95},{"user_id":94,"name":"4-Star Yelp Review","steam_id":76561197995258180,"connected_time":784000000000,"state":"active","ping":49},{"user_id":64,"name":"sketch","steam_id":76561198123512440,"connected_time":2429000000000,"state":"active","ping":67},{"user_id":79,"name":"Dung Pie","steam_id":76561198172990938,"connected_time":1763000000000,"state":"active","ping":87},{"user_id":89,"name":"SaltierThanYou","steam_id":76561198444395188,"connected_time":888000000000,"state":"active","ping":83},{"user_id":99,"name":"Abraham Lincoln","steam_id":76561198095292515,"connected_time":427000000000,"state":"active","ping":64},{"user_id":81,"name":"Noble Chernobyl","steam_id":76561198011803825,"connected_time":1405000000000,"state":"active","ping":49},{"user_id":17,"name":"No Scrubs","steam_id":76561197969619053,"connected_time":4407000000000,"state":"active","ping":67},{"user_id":86,"name":"Mohammed Handjop","steam_id":76561198142023589,"connected_time":985000000000,"state":"active","ping":86},{"user_id":87,"name":"Zzep_","steam_id":76561198059402662,"connected_time":955000000000,"state":"active","ping":57},{"user_id":40,"name":"first time dementia haver","steam_id":76561198083700749,"connected_time":3807000000000,"state":"active","ping":43},{"user_id":101,"name":"Pug","steam_id":76561198136794372,"connected_time":297000000000,"state":"active","ping":48},{"user_id":98,"name":"Betty","steam_id":76561197970512181,"connected_time":482000000000,"state":"active","ping":81},{"user_id":82,"name":"TheCardboardKing (real)","steam_id":76561199099769110,"connected_time":1318000000000,"state":"active","ping":52},{"user_id":25,"name":"Gwarp","steam_id":76561198061960926,"connected_time":4384000000000,"state":"active","ping":96},{"user_id":88,"name":"itsjustmarvin77","steam_id":76561199375656301,"connected_time":952000000000,"state":"active","ping":73},{"user_id":73,"name":"Pizza","steam_id":76561199154318083,"connected_time":2119000000000,"state":"active","ping":77},{"user_id":97,"name":"Rat Pope","steam_id":76561199059450243,"connected_time":672000000000,"state":"active","ping":56},{"user_id":92,"name":"zelt","steam_id":76561198157951684,"connected_time":800000000000,"state":"active","ping":39},{"user_id":59,"name":"Vasxus","steam_id":76561198067733319,"connected_time":2655000000000,"state":"active","ping":67},{"user_id":103,"name":"BobTheHuminoid","steam_id":76561199241312725,"connected_time":153000000000,"state":"active","ping":144}]},{"server_id":123,"name":"Uncletopia | Sydney | 2 | All Maps","name_short":"syd-2","host":"syd-1.au.uncletopia.com","port":27025,"enabled":true,"region":"au","cc":"au","latitude":-33.865143,"longitude":151.2099,"reserved":0,"last_update":"0001-01-01T00:00:00Z","name_a2s":"Uncletopia | Sydney | 2 | All Maps","protocol":17,"map":"cp_snakewater_final1","folder":"tf","game":"Team Fortress","app_id":440,"player_count":0,"max_players":24,"Bots":0,"server_type":"Dedicated","server_os":"Linux","password":true,"vac":true,"version":"7757534","steam_id":85568392924470002,"keywords":["cp","nocrits","nodmgspread","uncletopia"],"game_id":440,"stv_port":27026,"stv_name":"Uncletopia | Sydney | 2 | All Maps | STV","players":null},{"server_id":395,"name":"Uncletopia | Sydney | 3 | All Maps","name_short":"syd-3","host":"syd-1.au.uncletopia.com","port":27035,"enabled":true,"region":"au","cc":"au","latitude":-33.865143,"longitude":151.2099,"reserved":0,"last_update":"0001-01-01T00:00:00Z","name_a2s":"Uncletopia | Sydney | 3 | All Maps","protocol":17,"map":"pl_swiftwater_final1","folder":"tf","game":"Team Fortress","app_id":440,"player_count":0,"max_players":24,"Bots":0,"server_type":"Dedicated","server_os":"Linux","password":true,"vac":true,"version":"7757534","steam_id":85568392925194467,"keywords":["nocrits","nodmgspread","payload","uncletopia"],"game_id":440,"stv_port":27036,"stv_name":"Uncletopia | Sydney | 3 | All Maps | STV","players":null},{"server_id":396,"name":"Uncletopia | Sydney | 4 | All Maps","name_short":"syd-4","host":"syd-1.au.uncletopia.com","port":27045,"enabled":true,"region":"au","cc":"au","latitude":-33.865143,"longitude":151.2099,"reserved":0,"last_update":"0001-01-01T00:00:00Z","name_a2s":"Uncletopia | Sydney | 4 | All Maps","protocol":17,"map":"koth_highpass","folder":"tf","game":"Team Fortress","app_id":440,"player_count":0,"max_players":24,"Bots":0,"server_type":"Dedicated","server_os":"Linux","password":true,"vac":true,"version":"7757534","steam_id":85568392925397958,"keywords":["cp","nocrits","nodmgspread","uncletopia"],"game_id":440,"stv_port":27046,"stv_name":"Uncletopia | Sydney | 4 | All Maps | STV","players":null},{"server_id":58,"name":"Uncletopia | Sydney | 5 | Stopwatch Beta","name_short":"syd-5","host":"syd-1.au.uncletopia.com","port":27055,"enabled":true,"region":"au","cc":"au","latitude":-33.865143,"longitude":151.2099,"reserved":0,"last_update":"0001-01-01T00:00:00Z","name_a2s":"Uncletopia | Sydney | 5 | Stopwatch Beta","protocol":17,"map":"koth_cascade","folder":"tf","game":"Team Fortress","app_id":440,"player_count":0,"max_players":24,"Bots":0,"server_type":"Dedicated","server_os":"Linux","password":true,"vac":true,"version":"7757534","steam_id":85568392925397959,"keywords":["cp","nocrits","nodmgspread","uncletopia"],"game_id":440,"stv_port":27056,"stv_name":"Uncletopia | Sydney | 5 | Stopwatch Beta | STV","players":null},{"server_id":59,"name":"Uncletopia | Sydney | 6 | Community","name_short":"syd-6","host":"syd-1.au.uncletopia.com","port":27065,"enabled":true,"region":"au","cc":"au","latitude":-33.865143,"longitude":151.2099,"reserved":0,"last_update":"0001-01-01T00:00:00Z","name_a2s":"Uncletopia | Sydney | 6 | Community","protocol":17,"map":"cp_snakewater_final1","folder":"tf","game":"Team Fortress","app_id":440,"player_count":0,"max_players":24,"Bots":0,"server_type":"Dedicated","server_os":"Linux","password":true,"vac":true,"version":"7757534","steam_id":85568392925397960,"keywords":["cp","nocrits","nodmgspread","uncletopia"],"game_id":440,"stv_port":27066,"stv_name":"Uncletopia | Sydney | 6 | Community | STV","players":null},{"server_id":49,"name":"Uncletopia | Warsaw | 1 | All Maps","name_short":"waw-1","host":"waw-1.pl.uncletopia.com","port":27015,"enabled":true,"region":"eu","cc":"pl","latitude":52.2297,"longitude":21.017532,"reserved":0,"last_update":"0001-01-01T00:00:00Z","name_a2s":"","protocol":0,"map":"","folder":"","game":"","app_id":0,"player_count":0,"max_players":0,"Bots":0,"server_type":"","server_os":"","password":false,"vac":false,"version":"","steam_id":0,"keywords":null,"game_id":0,"stv_port":0,"stv_name":"","players":null},{"server_id":50,"name":"Uncletopia | Warsaw | 2 | All Maps","name_short":"waw-2","host":"waw-1.pl.uncletopia.com","port":27025,"enabled":true,"region":"eu","cc":"pl","latitude":52.2297,"longitude":21.017532,"reserved":0,"last_update":"0001-01-01T00:00:00Z","name_a2s":"Uncletopia | Warsaw | 2 | All Maps","protocol":17,"map":"koth_viaduct","folder":"tf","game":"Team Fortress","app_id":440,"player_count":0,"max_players":24,"Bots":0,"server_type":"Dedicated","server_os":"Linux","password":true,"vac":true,"version":"7757534","steam_id":85568392925397851,"keywords":["cp","nocrits","nodmgspread","uncletopia"],"game_id":440,"stv_port":27026,"stv_name":"Uncletopia | Warsaw | 2 | All Maps | STV","players":null},{"server_id":51,"name":"Uncletopia | Warsaw | 3 | All Maps","name_short":"waw-3","host":"waw-1.pl.uncletopia.com","port":27035,"enabled":true,"region":"eu","cc":"pl","latitude":52.2297,"longitude":21.017532,"reserved":0,"last_update":"0001-01-01T00:00:00Z","name_a2s":"Uncletopia | Warsaw | 3 | All Maps","protocol":17,"map":"pl_badwater","folder":"tf","game":"Team Fortress","app_id":440,"player_count":0,"max_players":24,"Bots":0,"server_type":"Dedicated","server_os":"Linux","password":true,"vac":true,"version":"7757534","steam_id":85568392925397852,"keywords":["nocrits","nodmgspread","payload","uncletopia"],"game_id":440,"stv_port":27036,"stv_name":"Uncletopia | Warsaw | 3 | All Maps | STV","players":null},{"server_id":52,"name":"Uncletopia | Warsaw | 4 | All Maps","name_short":"waw-4","host":"waw-1.pl.uncletopia.com","port":27045,"enabled":true,"region":"eu","cc":"pl","latitude":52.2297,"longitude":21.017532,"reserved":0,"last_update":"0001-01-01T00:00:00Z","name_a2s":"Uncletopia | Warsaw | 4 | All Maps","protocol":17,"map":"koth_lakeside_final","folder":"tf","game":"Team Fortress","app_id":440,"player_count":0,"max_players":24,"Bots":0,"server_type":"Dedicated","server_os":"Linux","password":true,"vac":true,"version":"7757534","steam_id":85568392925397853,"keywords":["cp","nocrits","nodmgspread","uncletopia"],"game_id":440,"stv_port":27046,"stv_name":"Uncletopia | Warsaw | 4 | All Maps | STV","players":null},{"server_id":53,"name":"Uncletopia | Warsaw | 5 | Stopwatch Beta","name_short":"waw-5","host":"waw-1.pl.uncletopia.com","port":27055,"enabled":true,"region":"eu","cc":"pl","latitude":52.2297,"longitude":21.017532,"reserved":0,"last_update":"0001-01-01T00:00:00Z","name_a2s":"Uncletopia | Warsaw | 5 | Stopwatch Beta","protocol":17,"map":"pl_borneo","folder":"tf","game":"Team Fortress","app_id":440,"player_count":0,"max_players":24,"Bots":0,"server_type":"Dedicated","server_os":"Linux","password":true,"vac":true,"version":"7757534","steam_id":85568392925397854,"keywords":["nocrits","nodmgspread","payload","uncletopia"],"game_id":440,"stv_port":27056,"stv_name":"Uncletopia | Warsaw | 5 | Stopwatch Beta | STV","players":null},{"server_id":54,"name":"Uncletopia | Warsaw | 6 | Community","name_short":"waw-6","host":"waw-1.pl.uncletopia.com","port":27065,"enabled":true,"region":"eu","cc":"pl","latitude":52.2297,"longitude":21.017532,"reserved":0,"last_update":"0001-01-01T00:00:00Z","name_a2s":"Uncletopia | Warsaw | 6 | Community","protocol":17,"map":"koth_lakeside_final","folder":"tf","game":"Team Fortress","app_id":440,"player_count":0,"max_players":24,"Bots":0,"server_type":"Dedicated","server_os":"Linux","password":true,"vac":true,"version":"7757534","steam_id":85568392925397856,"keywords":["cp","nocrits","nodmgspread","uncletopia"],"game_id":440,"stv_port":27066,"stv_name":"Uncletopia | Warsaw | 6 | Community | STV","players":null}]}