{"status":true,"message":"","result":[{"server_id":9,"name":"Uncletopia | Atlanta | 1 | All Maps","name_short":"atl-1","host":"atl-1.us.uncletopia.com","port":27015,"enabled":true,"region":"us-east","cc":"us","latitude":33.753746,"longitude":-84.38633,"reserved":0,"last_update":"0001-01-01T00:00:00Z","name_a2s":"Uncletopia | Atlanta | 1 | All Maps","protocol":17,"map":"pl_upward","folder":"tf","game":"Team Fortress","app_id":440,"player_count":24,"max_players":24,"Bots":0,"server_type":"Dedicated","server_os":"Linux","password":true,"vac":true,"version":"7757534","steam_id":85568392924469982,"keywords":["nocrits","nodmgspread","payload","uncletopia"],"game_id":440,"stv_port":27016,"stv_name":"Uncletopia | Atlanta | 1 | All Maps | STV","players":[{"user_id":7,"name":"Genetic Komodo","steam_id":76561198174806758,"connected_time":4026000000000,"state":"active","ping":61},{"user_id":58,"name":"Revv","steam_id":76561198360485606,"connected_time":277000000000,"state":"active","ping":76},{"user_id":9,"name":"FreonAddict9x19","steam_id":76561198060010824,"connected_time":3617000000000,"state":"active","ping":69},{"user_id":36,"name":"watchfull","steam_id":76561198433266742,"connected_time":1859000000000,"state":"active","ping":112},{"user_id":62,"name":"gas station car wash","steam_id":76561198845931713,"connected_time":101000000000,"state":"active","ping":88},{"user_id":38,"name":"indi","steam_id":76561198045917538,"connected_time":1823000000000,"state":"active","ping":63},{"user_id":13,"name":"username","steam_id":76561198130826890,"connected_time":3276000000000,"state":"active","ping":59},{"user_id":61,"name":"HE‚ÄôS IN THE GODDAMN WALLS","steam_id":76561198363267009,"connected_time":148000000000,"state":"active","ping":64},{"user_id":49,"name":"WaterWorks","steam_id":76561198801899310,"connected_time":969000000000,"state":"active","ping":94},{"user_id":39,"name":"Not Uncle Dane","steam_id":76561198343675338,"connected_time":1767000000000,"state":"active","ping":91},{"user_id":63,"name":"D_10.Shin","steam_id":76561198209278033,"connected_time":51000000000,"state":"active","ping":132},{"user_id":53,"name":"BLU1 l Epifiny","steam_id":76561198027958086,"connected_time":370000000000,"state":"active","ping":89},{"user_id":28,"name":"matto","steam_id":76561198139655115,"connected_time":2171000000000,"state":"active","ping":108},{"user_id":22,"name":"BLUE1 | Lav4ie they/them","steam_id":76561198825997674,"connected_time":2658000000000,"state":"active","ping":47},{"user_id":60,"name":"PrimGoose","steam_id":76561198041112269,"connected_time":190000000000,"state":"active","ping":61},{"user_id":54,"name":"Alt","steam_id":76561197992591984,"connected_time":367000000000,"state":"active","ping":83},{"user_id":48,"name":"Scalie with Soup","steam_id":76561198126745958,"connected_time":1019000000000,"state":"active","ping":90},{"user_id":55,"name":"Chambersite","steam_id":76561198197022399,"connected_time":338000000000,"state":"active","ping":168},{"user_id":29,"name":"Thistle","steam_id":76561198354967570,"connected_time":2154000000000,"state":"active","ping":85},{"user_id":30,"name":"Zzhihan3","steam_id":76561198355306320,"connected_time":2151000000000,"state":"active","ping":86},{"user_id":56,"name":"clonetrooplife","steam_id":76561198279222536,"connected_time":298000000000,"state":"active","ping":112},{"user_id":33,"name":"Romo","steam_id":76561198243101572,"connected_time":2096000000000,"state":"active","ping":76},{"user_id":57,"name":"pipe","steam_id":76561198115269587,"connected_time":295000000000,"state":"active","ping":54},{"user_id":44,"name":"rumidog","steam_id":76561198046896005,"connected_time":1698000000000,"state":"active","ping":85}]},{"server_id":400,"name":"Uncletopia | Atlanta | 3 | Stopwatch Beta","name_short":"atl-3","host":"atl-1.us.uncletopia.com","port":27035,"enabled":true,"region":"us-east","cc":"us","latitude":33.753746,"longitude":-84.38633,"reserved":0,"last_update":"0001-01-01T00:00:00Z","name_a2s":"Uncletopia | Atlanta | 3 | Stopwatch Beta","protocol":17,"map":"pl_upward","folder":"tf","game":"Team Fortress","app_id":440,"player_count":0,"max_players":24,"Bots":0,"server_type":"Dedicated","server_os":"Linux","password":true,"vac":true,"version":"7757534","steam_id":85568392924515187,"keywords":["nocrits","nodmgspread","payload","uncletopia"],"game_id":440,"stv_port":27036,"stv_name":"Uncletopia | Atlanta | 3 | Stopwatch Beta | STV","players":null},{"server_id":401,"name":"Uncletopia | Atlanta | 4 | No Payload","name_short":"atl-4","host":"atl-1.us.uncletopia.com","port":27045,"enabled":true,"region":"us-east","cc":"us","latitude":33.753746,"longitude":-84.38633,"reserved":0,"last_update":"0001-01-01T00:00:00Z","name_a2s":"Uncletopia | Atlanta | 4 | No Payload","protocol":17,"map":"pl_pier","folder":"tf","game":"Team Fortress","app_id":440,"player_count":0,"max_players":24,"Bots":0,"server_type":"Dedicated","server_os":"Linux","password":true,"vac":true,"version":"7723704","steam_id":85568392924515188,"keywords":["nocrits","nodmgspread","payload","uncletopia"],"game_id":440,"stv_port":27046,"stv_name":"Uncletopia | Atlanta | 4 | No Payload | STV","players":null},{"server_id":2,"name":"Uncletopia | Chicago | 1 | All Maps","name_short":"chi-1","host":"chi-1.us.uncletopia.com","port":27015,"enabled":true,"region":"us-central","cc":"us","latitude":41.881832,"longitude":-87.62318,"reserved":0,"last_update":"0001-01-01T00:00:00Z","name_a2s":"Uncletopia | Chicago | 1 | All Maps","protocol":17,"map":"cp_steel","folder":"tf","game":"Team Fortress","app_id":440,"player_count":24,"max_players":24,"Bots":0,"server_type":"Dedicated","server_os":"Linux","password":true,"vac":true,"version":"7757534","steam_id":85568392924469984,"keywords":["cp","nocrits","nodmgspread","uncletopia"],"game_id":440,"stv_port":27016,"stv_name":"Uncletopia | Chicago | 1 | All Maps | STV","players":[{"user_id":273,"name":"lil bro","steam_id":76561198031675881,"connected_time":2844000000000,"state":"active","ping":73},{"user_id":193,"name":"kibble","steam_id":76561198077083011,"connected_time":10345000000000,"state":"active","ping":84},{"user_id":277,"name":"elyk37","steam_id":76561198124135253,"connected_time":2797000000000,"state":"active","ping":76},{"user_id":191,"name":"177013","steam_id":76561198072303290,"connected_time":10873000000000,"state":"active","ping":67},{"user_id":290,"name":"Choco","steam_id":76561198051146422,"connected_time":506000000000,"state":"active","ping":74},{"user_id":258,"name":"SCATTER [CTF2 DEV]","steam_id":76561198405168492,"connected_time":4749000000000,"state":"active","ping":90},{"user_id":241,"name":"Bond","steam_id":76561198089262776,"connected_time":6366000000000,"state":"active","ping":70},{"user_id":276,"name":"Magic Jack","steam_id":76561198227459488,"connected_time":2831000000000,"state":"active","ping":69},{"user_id":278,"name":"Johns","steam_id":76561197998760371,"connected_time":2789000000000,"state":"active","ping":57},{"user_id":261,"name":"Mixomin","steam_id":76561198295061570,"connected_time":4686000000000,"state":"active","ping":62},{"user_id":267,"name":"capybara","steam_id":76561198798828328,"connected_time":3820000000000,"state":"active","ping":56},{"user_id":268,"name":"Iggy Dogg","steam_id":76561198059602545,"connected_time":3815000000000,"state":"active","ping":57},{"user_id":226,"name":"hyuck","steam_id":76561198319990195,"connected_time":8612000000000,"state":"active","ping":88},{"user_id":55,"name":"THE NUT","steam_id":76561198067813626,"connected_time":22695000000000,"state":"active","ping":117},{"user_id":200,"name":"I'm Cloaked","steam_id":76561198039763676,"connected_time":10030000000000,"state":"active","ping":70},{"user_id":174,"name":"[√òWQJ√ò]chubacaalatake","steam_id":76561198136201697,"connected_time":12633000000000,"state":"active","ping":157},{"user_id":245,"name":"AdorableMew","steam_id":76561198186706405,"connected_time":5808000000000,"state":"active","ping":72},{"user_id":285,"name":"JAKandBEL","steam_id":76561198213060931,"connected_time":1307000000000,"state":"active","ping":61},{"user_id":295,"name":"Poodwaddle","steam_id":76561198060384838,"connected_time":13000000000,"state":"spawning","ping":60},{"user_id":272,"name":"„Ä£dust„Ä£ -she/her-","steam_id":76561198045218909,"connected_time":2987000000000,"state":"active","ping":95},{"user_id":111,"name":"MEDIC!","steam_id":76561198149344029,"connected_time":17843000000000,"state":"active","ping":86},{"user_id":286,"name":"Aster","steam_id":76561198037920420,"connected_time":1254000000000,"state":"active","ping":119},{"user_id":288,"name":"Marshal Zuijj","steam_id":76561198032194050,"connected_time":947000000000,"state":"active","ping":80},{"user_id":275,"name":"Mug Moment Gaming","steam_id":76561198233098136,"connected_time":2841000000000,"state":"active","ping":72}]},{"server_id":106,"name":"Uncletopia | Chicago | 2 | All Maps","name_short":"chi-2","host":"chi-1.us.uncletopia.com","port":27025,"enabled":true,"region":"us-central","cc":"us","latitude":41.881832,"longitude":-87.62318,"reserved":0,"last_update":"0001-01-01T00:00:00Z","name_a2s":"Uncletopia | Chicago | 2 | All Maps","protocol":17,"map":"koth_lakeside_final","folder":"tf","game":"Team Fortress","app_id":440,"player_count":0,"max_players":24,"Bots":0,"server_type":"Dedicated","server_os":"Linux","password":true,"vac":true,"version":"7757534","steam_id":85568392924469985,"keywords":["cp","nocrits","nodmgspread","uncletopia"],"game_id":440,"stv_port":27026,"stv_name":"Uncletopia | Chicago | 2 | All Maps | STV","players":null},{"server_id":402,"name":"Uncletopia | Chicago | 3 | All Maps","name_short":"chi-3","host":"chi-1.us.uncletopia.com","port":27035,"enabled":true,"region":"us-central","cc":"us","latitude":41.881832,"longitude":-87.62318,"reserved":0,"last_update":"0001-01-01T00:00:00Z","name_a2s":"Uncletopia | Chicago | 3 | All Maps","protocol":17,"map":"koth_cascade","folder":"tf","game":"Team Fortress","app_id":440,"player_count":0,"max_players":24,"Bots":0,"server_type":"Dedicated","server_os":"Linux","password":true,"vac":true,"version":"7757534","steam_id":85568392924515191,"keywords":["cp","nocrits","nodmgspread","uncletopia"],"game_id":440,"stv_port":27036,"stv_name":"Uncletopia | Chicago | 3 | All Maps | STV","players":null},{"server_id":403,"name":"Uncletopia | Chicago | 4 | All Maps","name_short":"chi-4","host":"chi-1.us.uncletopia.com","port":27045,"enabled":true,"region":"us-central","cc":"us","latitude":41.881832,"longitude":-87.62318,"reserved":0,"last_update":"0001-01-01T00:00:00Z","name_a2s":"Uncletopia | Chicago | 4 | All Maps","protocol":17,"map":"pl_pier","folder":"tf","game":"Team Fortress","app_id":440,"player_count":23,"max_players":24,"Bots":0,"server_type":"Dedicated","server_os":"Linux","password":true,"vac":true,"version":"7757534","steam_id":85568392924515193,"keywords":["nocrits","nodmgspread","payload","uncletopia"],"game_id":440,"stv_port":27046,"stv_name":"Uncletopia | Chicago | 4 | All Maps | STV","players":[{"user_id":264,"name":"Passes the Bungus","steam_id":76561198040647717,"connected_time":1862000000000,"state":"active","ping":88},{"user_id":272,"name":"Sexyrevolver","steam_id":76561199058132505,"connected_time":1044000000000,"state":"active","ping":58},{"user_id":275,"name":"Qball","steam_id":76561198179016466,"connected_time":401000000000,"state":"active","ping":53},{"user_id":215,"name":"Styil","steam_id":76561198075555802,"connected_time":5959000000000,"state":"active","ping":91},{"user_id":269,"name":"volta","steam_id":76561199214283884,"connected_time":1282000000000,"state":"active","ping":99},{"user_id":214,"name":"Whoa","steam_id":76561197970353496,"connected_time":6014000000000,"state":"active","ping":74},{"user_id":281,"name":"Jazz2T","steam_id":76561198154418867,"connected_time":24000000000,"state":"active","ping":101},{"user_id":274,"name":"Animal Slices","steam_id":76561198137545511,"connected_time":431000000000,"state":"active","ping":63},{"user_id":262,"name":"Banana Lord","steam_id":76561198169966346,"connected_time":2097000000000,"state":"active","ping":79},{"user_id":276,"name":"Love Being an Owl","steam_id":76561198293422282,"connected_time":392000000000,"state":"active","ping":84},{"user_id":273,"name":"chanoc","steam_id":76561198026734746,"connected_time":841000000000,"state":"active","ping":102},{"user_id":249,"name":"Very Small Giant","steam_id":76561199187337967,"connected_time":2752000000000,"state":"active","ping":61},{"user_id":277,"name":"fridolin","steam_id":76561198005806915,"connected_time":383000000000,"state":"active","ping":59},{"user_id":263,"name":"Monsterjessy","steam_id":76561198035630985,"connected_time":2056000000000,"state":"active","ping":60},{"user_id":221,"name":"Pennis the Menace","steam_id":76561198254878037,"connected_time":5311000000000,"state":"active","ping":83},{"user_id":256,"name":"Furry Saul Goodman","steam_id":76561198069580305,"connected_time":2480000000000,"state":"active","ping":48},{"user_id":278,"name":"Drone","steam_id":76561198022920857,"connected_time":358000000000,"state":"active","ping":82},{"user_id":268,"name":"gyroFSnoob","steam_id":76561198158404683,"connected_time":1477000000000,"state":"active","ping":85},{"user_id":259,"name":"Lightatex","steam_id":76561199068097196,"connected_time":2413000000000,"state":"active","ping":61},{"user_id":279,"name":"I Punch Babies","steam_id":76561199224644358,"connected_time":351000000000,"state":"active","ping":64},{"user_id":280,"name":"gamer girl looking for a bf","steam_id":76561198279901162,"connected_time":319000000000,"state":"active","ping":73},{"user_id":261,"name":"majorbobfunction","steam_id":76561198042464632,"connected_time":2382000000000,"state":"active","ping":55},{"user_id":246,"name":"Nnyllazxz","steam_id":76561198247797436,"connected_time":2990000000000,"state":"active","ping":80}]},{"server_id":36,"name":"Uncletopia | Chicago | 5 | All Maps","name_short":"chi-5","host":"chi-2.us.uncletopia.com","port":27015,"enabled":true,"region":"us-central","cc":"us","latitude":41.881832,"longitude":-87.62318,"reserved":0,"last_update":"0001-01-01T00:00:00Z","name_a2s":"Uncletopia | Chicago | 5 | All Maps","protocol":17,"map":"koth_cascade","folder":"tf","game":"Team Fortress","app_id":440,"player_count":0,"max_players":24,"Bots":0,"server_type":"Dedicated","server_os":"Linux","password":true,"vac":true,"version":"7757534","steam_id":85568392924866362,"keywords":["cp","nocrits","nodmgspread","uncletopia"],"game_id":440,"stv_port":27016,"stv_name":"Uncletopia | Chicago | 5 | All Maps | STV","players":null},{"server_id":37,"name":"Uncletopia | Chicago | 6 | All Maps","name_short":"chi-6","host":"chi-2.us.uncletopia.com","port":27025,"enabled":true,"region":"us-central","cc":"us","latitude":41.881832,"longitude":-87.62318,"reserved":0,"last_update":"0001-01-01T00:00:00Z","name_a2s":"Uncletopia | Chicago | 6 | All Maps","protocol":17,"map":"cp_mountainlab","folder":"tf","game":"Team Fortress","app_id":440,"player_count":0,"max_players":24,"Bots":0,"server_type":"Dedicated","server_os":"Linux","password":true,"vac":true,"version":"7757534","steam_id":85568392924866363,"keywords":["cp","nocrits","nodmgspread","uncletopia"],"game_id":440,"stv_port":27026,"stv_name":"Uncletopia | Chicago | 6 | All Maps | STV","players":null},{"server_id":38,"name":"Uncletopia | Chicago | 7 | Stopwatch Beta","name_short":"chi-7","host":"chi-2.us.uncletopia.com","port":27035,"enabled":true,"region":"us-central","cc":"us","latitude":41.881832,"longitude":-87.62318,"reserved":0,"last_update":"0001-01-01T00:00:00Z","name_a2s":"Uncletopia | Chicago | 7 | Stopwatch Beta","protocol":17,"map":"cp_granary","folder":"tf","game":"Team Fortress","app_id":440,"player_count":0,"max_players":24,"Bots":0,"server_type":"Dedicated","server_os":"Linux","password":true,"vac":true,"version":"7757534","steam_id":85568392924866364,"keywords":["cp","nocrits","nodmgspread","uncletopia"],"game_id":440,"stv_port":27036,"stv_name":"Uncletopia | Chicago | 7 | Stopwatch Beta | STV","players":null},{"server_id":39,"name":"Uncletopia | Chicago | 8 | Community","name_short":"chi-8","host":"chi-2.us.uncletopia.com","port":27045,"enabled":true,"region":"us-central","cc":"us","latitude":41.881832,"longitude":-87.62318,"reserved":0,"last_update":"0001-01-01T00:00:00Z","name_a2s":"Uncletopia | Chicago | 8 | Community","protocol":17,"map":"pl_pier","folder":"tf","game":"Team Fortress","app_id":440,"player_count":0,"max_players":24,"Bots":0,"server_type":"Dedicated","server_os":"Linux","password":true,"vac":true,"version":"7757534","steam_id":85568392924866365,"keywords":["nocrits","nodmgspread","payload","uncletopia"],"game_id":440,"stv_port":27046,"stv_name":"Uncletopia | Chicago | 8 | Community | STV","players":null},{"server_id":8,"name":"Uncletopia | Dallas | 1 | All Maps","name_short":"dal-1","host":"dal-1.us.uncletopia.com","port":27015,"enabled":true,"region":"us-central","cc":"us","latitude":32.779167,"longitude":-96.80889,"reserved":0,"last_update":"0001-01-01T00:00:00Z","name_a2s":"Uncletopia | Dallas | 1 | All Maps","protocol":17,"map":"pl_badwater","folder":"tf","game":"Team Fortress","app_id":440,"player_count":20,"max_players":24,"Bots":0,"server_type":"Dedicated","server_os":"Linux","password":true,"vac":true,"version":"7757534","steam_id":85568392924469986,"keywords":["nocrits","nodmgspread","payload","uncletopia"],"game_id":440,"stv_port":27016,"stv_name":"Uncletopia | Dallas | 1 | All Maps | STV","players":[{"user_id":157,"name":"Plo","steam_id":76561198080689959,"connected_time":569000000000,"state":"active","ping":75},{"user_id":165,"name":"the12xu","steam_id":76561198197086561,"connected_time":243000000000,"state":"active","ping":98},{"user_id":79,"name":"A Gamer [F2P]","steam_id":76561198138712892,"connected_time":5781000000000,"state":"active","ping":34},{"user_id":152,"name":"Robomandude","steam_id":76561198043909566,"connected_time":608000000000,"state":"active","ping":58},{"user_id":134,"name":"karbomb","steam_id":76561198120744480,"connected_time":2466000000000,"state":"active","ping":45},{"user_id":124,"name":"Ivy","steam_id":76561198047758442,"connected_time":3294000000000,"state":"active","ping":96},{"user_id":57,"name":"minimalpair","steam_id":76561198071788709,"connected_time":7702000000000,"state":"active","ping":89},{"user_id":156,"name":"Kzjytsugn","steam_id":76561198130241974,"connected_time":574000000000,"state":"active","ping":90},{"user_id":81,"name":"Drive-By-Fish-Guy","steam_id":76561198105513652,"connected_time":5738000000000,"state":"active","ping":85},{"user_id":163,"name":"Bagged Milk","steam_id":76561198814181124,"connected_time":375000000000,"state":"active","ping":79},{"user_id":129,"name":"Titus Tyrwitt","steam_id":76561197990779673,"connected_time":2939000000000,"state":"active","ping":72},{"user_id":141,"name":"pim","steam_id":76561198095163441,"connected_time":1994000000000,"state":"active","ping":48},{"user_id":159,"name":"Tyler\u0026Fingers","steam_id":76561198085154485,"connected_time":524000000000,"state":"active","ping":91},{"user_id":167,"name":"My Pet Polar Bear","steam_id":76561198052902058,"connected_time":200000000000,"state":"active","ping":73},{"user_id":168,"name":"5yt","steam_id":76561198041643833,"connected_time":54000000000,"state":"active","ping":55},{"user_id":161,"name":"sentry turret","steam_id":76561198327057433,"connected_time":464000000000,"state":"active","ping":91},{"user_id":150,"name":"merge without looking","steam_id":76561198056702628,"connected_time":726000000000,"state":"active","ping":35},{"user_id":164,"name":"cologne","steam_id":76561198069600113,"connected_time":345000000000,"state":"active","ping":81},{"user_id":130,"name":"mr detective","steam_id":76561198079892116,"connected_time":2817000000000,"state":"active","ping":72},{"user_id":73,"name":"Cookie","steam_id":76561198047736899,"connected_time":6558000000000,"state":"active","ping":74}]},{"server_id":108,"name":"Uncletopia | Dallas | 2 | All Maps","name_short":"dal-2","host":"dal-1.us.uncletopia.com","port":27025,"enabled":true,"region":"us-central","cc":"us","latitude":32.779167,"longitude":-96.80889,"reserved":0,"last_update":"0001-01-01T00:00:00Z","name_a2s":"Uncletopia | Dallas | 2 | All Maps","protocol":17,"map":"koth_highpass","folder":"tf","game":"Team Fortress","app_id":440,"player_count":0,"max_players":24,"Bots":0,"server_type":"Dedicated","server_os":"Linux","password":true,"vac":true,"version":"7757534","steam_id":85568392924469988,"keywords":["cp","nocrits","nodmgspread","uncletopia"],"game_id":440,"stv_port":27026,"stv_name":"Uncletopia | Dallas | 2 | All Maps | STV","players":null},{"server_id":5,"name":"Uncletopia | Frankfurt | 1 | All Maps","name_short":"frk-1","host":"frk-1.de.uncletopia.com","port":27015,"enabled":true,"region":"eu","cc":"de","latitude":50.110924,"longitude":8.682127,"reserved":0,"last_update":"0001-01-01T00:00:00Z","name_a2s":"Uncletopia | Frankfurt | 1 | All Maps","protocol":17,"map":"plr_bananabay","folder":"tf","game":"Team Fortress","app_id":440,"player_count":24,"max_players":24,"Bots":0,"server_type":"Dedicated","server_os":"Linux","password":true,"vac":true,"version":"7757534","steam_id":85568392924469989,"keywords":["nocrits","nodmgspread","payload","uncletopia"],"game_id":440,"stv_port":27016,"stv_name":"Uncletopia | Frankfurt | 1 | All Maps | STV","players":[{"user_id":414,"name":"MarioThePlumber","steam_id":76561198314229530,"connected_time":696000000000,"state":"active","ping":71},{"user_id":400,"name":"Fuf!k ·É¶","steam_id":76561198082899416,"connected_time":1851000000000,"state":"active","ping":72},{"user_id":417,"name":"Duda","steam_id":76561198306177608,"connected_time":536000000000,"state":"active","ping":76},{"user_id":415,"name":"Fran","steam_id":76561199070516960,"connected_time":560000000000,"state":"active","ping":59},{"user_id":413,"name":"SirBacon","steam_id":76561198152177773,"connected_time":1028000000000,"state":"active","ping":77},{"user_id":390,"name":"Phiphler","steam_id":76561197994055715,"connected_time":2267000000000,"state":"active","ping":68},{"user_id":429,"name":"MatesThePlayer","steam_id":76561198066156449,"connected_time":183000000000,"state":"active","ping":56},{"user_id":409,"name":"The great wall","steam_id":76561198243125192,"connected_time":1556000000000,"state":"active","ping":66},{"user_id":422,"name":"Old Beavis","steam_id":76561198065951617,"connected_time":401000000000,"state":"active","ping":72},{"user_id":430,"name":"lieutenant babylon","steam_id":76561198314919758,"connected_time":134000000000,"state":"active","ping":66},{"user_id":431,"name":"Syll","steam_id":76561198040736202,"connected_time":108000000000,"state":"active","ping":93},{"user_id":426,"name":"Ali G","steam_id":76561198969442480,"connected_time":352000000000,"state":"active","ping":70},{"user_id":393,"name":"Raph","steam_id":76561198154800858,"connected_time":2246000000000,"state":"active","ping":77},{"user_id":381,"name":"amir-alaki","steam_id":76561198447025734,"connected_time":2549000000000,"state":"active","ping":166},{"user_id":432,"name":"Pls.do.it!","steam_id":76561198211638119,"connected_time":91000000000,"state":"active","ping":60},{"user_id":387,"name":"PLUTO","steam_id":76561198312436128,"connected_time":2427000000000,"state":"active","ping":124},{"user_id":423,"name":"unkle","steam_id":76561198093794423,"connected_time":395000000000,"state":"active","ping":90},{"user_id":379,"name":"Reizei","steam_id":76561198148504042,"connected_time":2622000000000,"state":"active","ping":74},{"user_id":425,"name":"Videogamer","steam_id":76561198106012909,"connected_time":354000000000,"state":"active","ping":74},{"user_id":373,"name":"Vitamin Weee","steam_id":76561199183937747,"connected_time":3249000000000,"state":"active","ping":94},{"user_id":380,"name":"DeadlyFish","steam_id":76561198144617521,"connected_time":2579000000000,"state":"active","ping":89},{"user_id":398,"name":"kilikia","steam_id":76561198350261670,"connected_time":2125000000000,"state":"active","ping":92},{"user_id":427,"name":"TK","steam_id":76561199384193338,"connected_time":327000000000,"state":"active","ping":58},{"user_id":428,"name":"W*","steam_id":76561197972244657,"connected_time":326000000000,"state":"active","ping":55}]},{"server_id":110,"name":"Uncletopia | Frankfurt | 2 | All Maps","name_short":"frk-2","host":"frk-1.de.uncletopia.com","port":27025,"enabled":true,"region":"eu","cc":"de","latitude":50.110924,"longitude":8.682127,"reserved":0,"last_update":"0001-01-01T00:00:00Z","name_a2s":"Uncletopia | Frankfurt | 2 | All Maps","protocol":17,"map":"koth_highpass","folder":"tf","game":"Team Fortress","app_id":440,"player_count":24,"max_players":24,"Bots":0,"server_type":"Dedicated","server_os":"Linux","password":true,"vac":true,"version":"7757534","steam_id":85568392924469990,"keywords":["cp","nocrits","nodmgspread","uncletopia"],"game_id":440,"stv_port":27026,"stv_name":"Uncletopia | Frankfurt | 2 | All Maps | STV","players":[{"user_id":424,"name":"Mr. Mundy","steam_id":76561198132008918,"connected_time":1539000000000,"state":"active","ping":67},{"user_id":455,"name":"Sputnik1","steam_id":76561199059003709,"connected_time":375000000000,"state":"active","ping":139},{"user_id":421,"name":"emko√ß","steam_id":76561198846782346,"connected_time":1586000000000,"state":"active","ping":110},{"user_id":440,"name":"Joe","steam_id":76561198061717026,"connected_time":990000000000,"state":"active","ping":49},{"user_id":451,"name":"The Wheel (Live on KEXP)","steam_id":76561199064350902,"connected_time":528000000000,"state":"active","ping":99},{"user_id":457,"name":"Fizzy","steam_id":76561198929807785,"connected_time":195000000000,"state":"active","ping":53},{"user_id":394,"name":"G/3","steam_id":76561198234844188,"connected_time":2641000000000,"state":"active","ping":57},{"user_id":428,"name":"cute girl (not true)","steam_id":76561198140754824,"connected_time":1349000000000,"state":"active","ping":68},{"user_id":456,"name":"Valoxi","steam_id":76561197995042938,"connected_time":307000000000,"state":"active","ping":62},{"user_id":454,"name":"zxer","steam_id":76561198045183058,"connected_time":407000000000,"state":"active","ping":71},{"user_id":443,"name":"T1 (ted1)","steam_id":76561199229022826,"connected_time":849000000000,"state":"active","ping":99},{"user_id":441,"name":"Lei Ying Lo","steam_id":76561198254210743,"connected_time":968000000000,"state":"active","ping":67},{"user_id":458,"name":"PASTAMANIA!","steam_id":76561197967858558,"connected_time":105000000000,"state":"active","ping":61},{"user_id":459,"name":"OutOfRage","steam_id":76561198211205791,"connected_time":105000000000,"state":"active","ping":56},{"user_id":430,"name":"PH4NTOMtry","steam_id":76561198979390263,"connected_time":1265000000000,"state":"active","ping":74},{"user_id":460,"name":"medick","steam_id":76561199380849468,"connected_time":93000000000,"state":"active","ping":60},{"user_id":450,"name":"grana padano dop","steam_id":76561198066071855,"connected_time":604000000000,"state":"active","ping":54},{"user_id":438,"name":"üúè Drepp","steam_id":76561197998867164,"connected_time":1061000000000,"state":"active","ping":58},{"user_id":432,"name":"The Mask","steam_id":76561198040009439,"connected_time":1225000000000,"state":"active","ping":73},{"user_id":461,"name":"kiewass","steam_id":76561198870729709,"connected_time":89000000000,"state":"active","ping":61},{"user_id":449,"name":"soopeli","steam_id":76561198003350251,"connected_time":647000000000,"state":"active","ping":66},{"user_id":462,"name":"Craig","steam_id":76561198059158095,"connected_time":75000000000,"state":"active","ping":84},{"user_id":447,"name":"ArikMor","steam_id":76561199124472513,"connected_time":739000000000,"state":"active","ping":142},{"user_id":463,"name":"d00bie","steam_id":76561198025295218,"connected_time":58000000000,"state":"active","ping":55}]},{"server_id":308,"name":"Uncletopia | Frankfurt | 3 | All Maps","name_short":"frk-3","host":"frk-1.de.uncletopia.com","port":27035,"enabled":true,"region":"eu","cc":"de","latitude":50.110924,"longitude":8.682127,"reserved":0,"last_update":"0001-01-01T00:00:00Z","name_a2s":"Uncletopia | Frankfurt | 3 | All Maps","protocol":17,"map":"cp_snakewater_final1","folder":"tf","game":"Team Fortress","app_id":440,"player_count":23,"max_players":24,"Bots":0,"server_type":"Dedicated","server_os":"Linux","password":true,"vac":true,"version":"7757534","steam_id":85568392924504274,"keywords":["cp","nocrits","nodmgspread","uncletopia"],"game_id":440,"stv_port":27036,"stv_name":"Uncletopia | Frankfurt | 3 | All Maps | STV","players":[{"user_id":277,"name":"Windows Vista Cruiser","steam_id":76561198064102233,"connected_time":1064000000000,"state":"active","ping":71},{"user_id":290,"name":"Hello","steam_id":76561198874775177,"connected_time":318000000000,"state":"active","ping":79},{"user_id":285,"name":"Pete","steam_id":76561198010047841,"connected_time":557000000000,"state":"active","ping":53},{"user_id":281,"name":"Dont like the color black","steam_id":76561198418538887,"connected_time":941000000000,"state":"active","ping":96},{"user_id":282,"name":"MISTER SUIIII","steam_id":76561198018330092,"connected_time":920000000000,"state":"active","ping":78},{"user_id":291,"name":"Old man Fridge","steam_id":76561198326277470,"connected_time":302000000000,"state":"active","ping":63},{"user_id":245,"name":"whosjoe","steam_id":76561199005683734,"connected_time":1777000000000,"state":"active","ping":86},{"user_id":274,"name":"revolver CHEH","steam_id":76561198851411530,"connected_time":1245000000000,"state":"active","ping":48},{"user_id":283,"name":"Mr.Man","steam_id":76561199175688390,"connected_time":868000000000,"state":"active","ping":86},{"user_id":247,"name":"DyingMeme","steam_id":76561198118510685,"connected_time":1760000000000,"state":"active","ping":62},{"user_id":292,"name":"mrms","steam_id":76561198289331719,"connected_time":296000000000,"state":"active","ping":59},{"user_id":293,"name":"TheOneAndOnlyDinkleberg","steam_id":76561198144862452,"connected_time":294000000000,"state":"active","ping":68},{"user_id":174,"name":".quickfast.","steam_id":76561199438900919,"connected_time":5521000000000,"state":"active","ping":59},{"user_id":193,"name":"Gnarville","steam_id":76561198006373329,"connected_time":3865000000000,"state":"active","ping":63},{"user_id":196,"name":"Gradus8","steam_id":76561198046043841,"connected_time":3159000000000,"state":"active","ping":55},{"user_id":280,"name":"Octoblue64","steam_id":76561198388997283,"connected_time":991000000000,"state":"active","ping":68},{"user_id":289,"name":"Dr. Cox","steam_id":76561198246629218,"connected_time":353000000000,"state":"active","ping":95},{"user_id":249,"name":"rajAs","steam_id":76561198035928111,"connected_time":1720000000000,"state":"active","ping":80},{"user_id":287,"name":"Hetmanych","steam_id":76561198870926865,"connected_time":439000000000,"state":"active","ping":51},{"user_id":294,"name":"TJ1212","steam_id":76561199013575313,"connected_time":285000000000,"state":"active","ping":71},{"user_id":295,"name":"L3men","steam_id":76561198315192969,"connected_time":183000000000,"state":"active","ping":69},{"user_id":296,"name":"MyFirstTimeeeeelel","steam_id":76561199235376543,"connected_time":147000000000,"state":"active","ping":67},{"user_id":255,"name":"vroom doom","steam_id":76561198192671475,"connected_time":1589000000000,"state":"active","ping":59}]},{"server_id":309,"name":"Uncletopia | Frankfurt | 4 | All Maps","name_short":"frk-4","host":"frk-1.de.uncletopia.com","port":27045,"enabled":true,"region":"eu","cc":"de","latitude":50.110924,"longitude":8.682127,"reserved":0,"last_update":"0001-01-01T00:00:00Z","name_a2s":"Uncletopia | Frankfurt | 4 | All Maps","protocol":17,"map":"pl_snowycoast","folder":"tf","game":"Team Fortress","app_id":440,"player_count":24,"max_players":24,"Bots":0,"server_type":"Dedicated","server_os":"Linux","password":true,"vac":true,"version":"7757534","steam_id":85568392924504275,"keywords":["nocrits","nodmgspread","payload","uncletopia"],"game_id":440,"stv_port":27046,"stv_name":"Uncletopia | Frankfurt | 4 | All Maps | STV","players":[{"user_id":542,"name":"AYE","steam_id":76561198181368101,"connected_time":2163000000000,"state":"active","ping":47},{"user_id":560,"name":"KajaStorm","steam_id":76561199215842872,"connected_time":905000000000,"state":"active","ping":140},{"user_id":557,"name":"Hooggers","steam_id":76561198120447741,"connected_time":993000000000,"state":"active","ping":79},{"user_id":558,"name":"LordTrap.exe","steam_id":76561198318089716,"connected_time":975000000000,"state":"active","ping":55},{"user_id":550,"name":"Monsteh","steam_id":76561198325898181,"connected_time":1190000000000,"state":"active","ping":71},{"user_id":568,"name":"Egap","steam_id":76561199070653454,"connected_time":733000000000,"state":"active","ping":81},{"user_id":585,"name":"where is my egg?","steam_id":76561198172542535,"connected_time":485000000000,"state":"active","ping":66},{"user_id":586,"name":"w4gthp0h","steam_id":76561198133193445,"connected_time":421000000000,"state":"active","ping":80},{"user_id":570,"name":"Almond devourer","steam_id":76561198194866089,"connected_time":711000000000,"state":"active","ping":82},{"user_id":590,"name":"yuh","steam_id":76561199005555839,"connected_time":339000000000,"state":"active","ping":75},{"user_id":596,"name":"cegar","steam_id":76561198158340747,"connected_time":12000000000,"state":"spawning","ping":77},{"user_id":555,"name":"the real lancer from deltarune","steam_id":76561199078505144,"connected_time":1053000000000,"state":"active","ping":75},{"user_id":592,"name":"Sekiyaki Sukita","steam_id":76561198070681122,"connected_time":285000000000,"state":"active","ping":139},{"user_id":597,"name":".asami","steam_id":76561197995593787,"connected_time":0,"state":"spawning","ping":18},{"user_id":594,"name":"Flint","steam_id":76561198046885838,"connected_time":144000000000,"state":"active","ping":85},{"user_id":565,"name":"Tre3","steam_id":76561198054795379,"connected_time":833000000000,"state":"active","ping":48},{"user_id":578,"name":"Acxsa","steam_id":76561198098979449,"connected_time":578000000000,"state":"active","ping":78},{"user_id":595,"name":"101 000 tuns of democracy","steam_id":76561198218257120,"connected_time":134000000000,"state":"active","ping":73},{"user_id":589,"name":"Welder","steam_id":76561198355300561,"connected_time":383000000000,"state":"active","ping":69},{"user_id":580,"name":"VanillaWoof","steam_id":76561198158343951,"connected_time":567000000000,"state":"active","ping":53},{"user_id":581,"name":"Unexpected","steam_id":76561198944781914,"connected_time":562000000000,"state":"active","ping":130},{"user_id":591,"name":"jaroslav.kotoun","steam_id":76561198966830242,"connected_time":335000000000,"state":"active","ping":55},{"user_id":582,"name":"Chris","steam_id":76561198018626828,"connected_time":547000000000,"state":"active","ping":62},{"user_id":593,"name":"Doctor__Mobius","steam_id":76561197971281806,"connected_time":177000000000,"state":"active","ping":70}]},{"server_id":310,"name":"Uncletopia | Frankfurt | 5 | All Maps","name_short":"frk-5","host":"frk-1.de.uncletopia.com","port":27055,"enabled":true,"region":"eu","cc":"de","latitude":50.110924,"longitude":8.682127,"reserved":0,"last_update":"0001-01-01T00:00:00Z","name_a2s":"Uncletopia | Frankfurt | 5 | All Maps","protocol":17,"map":"pl_pier","folder":"tf","game":"Team Fortress","app_id":440,"player_count":24,"max_players":24,"Bots":0,"server_type":"Dedicated","server_os":"Linux","password":true,"vac":true,"version":"7757534","steam_id":85568392924504277,"keywords":["nocrits","nodmgspread","payload","uncletopia"],"game_id":440,"stv_port":27056,"stv_name":"Uncletopia | Frankfurt | 5 | All Maps | STV","players":[{"user_id":132,"name":"Dom.","steam_id":76561199065917088,"connected_time":544000000000,"state":"active","ping":87},{"user_id":133,"name":"Node #H0-L1C","steam_id":76561199468764173,"connected_time":519000000000,"state":"active","ping":59},{"user_id":122,"name":"Durham.","steam_id":76561199013125141,"connected_time":1805000000000,"state":"active","ping":72},{"user_id":84,"name":"Seven","steam_id":76561197979013064,"connected_time":4792000000000,"state":"active","ping":55},{"user_id":134,"name":"xenia","steam_id":76561198062107879,"connected_time":288000000000,"state":"active","ping":85},{"user_id":126,"name":"mohemmedmokhter2005","steam_id":76561199197650506,"connected_time":1259000000000,"state":"active","ping":106},{"user_id":85,"name":"Faust","steam_id":76561198035793065,"connected_time":4788000000000,"state":"active","ping":135},{"user_id":26,"name":"Loop_Cat","steam_id":76561199045902145,"connected_time":7064000000000,"state":"active","ping":119},{"user_id":135,"name":"man juice","steam_id":76561198126524735,"connected_time":277000000000,"state":"active","ping":81},{"user_id":81,"name":"CyberBuddha [RU/EN]","steam_id":76561198075853329,"connected_time":4969000000000,"state":"active","ping":145},{"user_id":125,"name":"Priceybay","steam_id":76561198055389492,"connected_time":1272000000000,"state":"active","ping":55},{"user_id":105,"name":"Bengee","steam_id":76561198383901472,"connected_time":3093000000000,"state":"active","ping":96},{"user_id":116,"name":"bkashooter","steam_id":76561198116877713,"connected_time":1849000000000,"state":"active","ping":48},{"user_id":115,"name":"Director","steam_id":76561198343273231,"connected_time":1857000000000,"state":"active","ping":77},{"user_id":109,"name":"walluu","steam_id":76561198121830870,"connected_time":2655000000000,"state":"active","ping":74},{"user_id":127,"name":"Theo","steam_id":76561198144205951,"connected_time":1244000000000,"state":"active","ping":111},{"user_id":117,"name":"FoOzTV","steam_id":76561197998636728,"connected_time":1848000000000,"state":"active","ping":73},{"user_id":128,"name":"DaVitsChi","steam_id":76561199035895096,"connected_time":1142000000000,"state":"active","ping":64},{"user_id":124,"name":"degrade me goth mommy","steam_id":76561198075539799,"connected_time":1586000000000,"state":"active","ping":58},{"user_id":97,"name":"XPullaHiiri","steam_id":76561198031652375,"connected_time":3814000000000,"state":"active","ping":90},{"user_id":136,"name":"Fit Crow mark","steam_id":76561198309246388,"connected_time":270000000000,"state":"active","ping":45},{"user_id":137,"name":"moser23","steam_id":76561197960543171,"connected_time":258000000000,"state":"active","ping":55},{"user_id":129,"name":"beepper","steam_id":76561198925734405,"connected_time":1020000000000,"state":"active","ping":71},{"user_id":131,"name":"‡πñ€£€úSir Robbiewolf","steam_id":76561198001357988,"connected_time":605000000000,"state":"active","ping":71}]},{"server_id":311,"name":"Uncletopia | Frankfurt | 6 | All Maps","name_short":"frk-6","host":"frk-1.de.uncletopia.com","port":27065,"enabled":true,"region":"eu","cc":"de","latitude":50.110924,"longitude":8.682127,"reserved":0,"last_update":"0001-01-01T00:00:00Z","name_a2s":"Uncletopia | Frankfurt | 6 | All Maps","protocol":17,"map":"pl_borneo","folder":"tf","game":"Team Fortress","app_id":440,"player_count":25,"max_players":24,"Bots":0,"server_type":"Dedicated","server_os":"Linux","password":true,"vac":true,"version":"7757534","steam_id":85568392924504278,"keywords":["nocrits","nodmgspread","payload","uncletopia"],"game_id":440,"stv_port":27066,"stv_name":"Uncletopia | Frankfurt | 6 | All Maps | STV","players":[{"user_id":177,"name":"After8","steam_id":76561198090750865,"connected_time":8334000000000,"state":"active","ping":68},{"user_id":270,"name":"Thomas_Is_Ready","steam_id":76561199072059059,"connected_time":1510000000000,"state":"active","ping":57},{"user_id":272,"name":"666sammy","steam_id":76561198016607625,"connected_time":1338000000000,"state":"active","ping":92},{"user_id":248,"name":"Memesus","steam_id":76561199362236174,"connected_time":3667000000000,"state":"active","ping":84},{"user_id":250,"name":"angel","steam_id":76561198121408313,"connected_time":2747000000000,"state":"active","ping":68},{"user_id":271,"name":"pyomac [no sound]","steam_id":76561198046808907,"connected_time":1348000000000,"state":"active","ping":83},{"user_id":285,"name":"ambatukam","steam_id":76561198175433731,"connected_time":623000000000,"state":"active","ping":71},{"user_id":286,"name":"robitamoft","steam_id":76561198315903156,"connected_time":620000000000,"state":"active","ping":93},{"user_id":198,"name":"Virgil","steam_id":76561198248786778,"connected_time":7079000000000,"state":"active","ping":117},{"user_id":291,"name":"Walsingham","steam_id":76561198022244457,"connected_time":29000000000,"state":"active","ping":75},{"user_id":284,"name":"Average Omori Enjoyer","steam_id":76561199163263543,"connected_time":689000000000,"state":"active","ping":167},{"user_id":273,"name":"qooba","steam_id":76561198258010551,"connected_time":1296000000000,"state":"active","ping":75},{"user_id":275,"name":"SZNYCEL","steam_id":76561199081286780,"connected_time":1285000000000,"state":"active","ping":70},{"user_id":276,"name":"Okonell[HUN]","steam_id":76561198032216617,"connected_time":1283000000000,"state":"active","ping":74},{"user_id":243,"name":"Florua","steam_id":76561198182297846,"connected_time":4005000000000,"state":"active","ping":60},{"user_id":278,"name":"Miton","steam_id":76561197970323209,"connected_time":1115000000000,"state":"active","ping":83},{"user_id":269,"name":"kul","steam_id":76561198065179630,"connected_time":1621000000000,"state":"active","ping":56},{"user_id":288,"name":"marci","steam_id":76561198046777197,"connected_time":515000000000,"state":"active","ping":78},{"user_id":229,"name":"[cgt]engineergaming","steam_id":76561199423207269,"connected_time":4979000000000,"state":"active","ping":71},{"user_id":264,"name":"Pabs :D","steam_id":76561198000016962,"connected_time":2263000000000,"state":"active","ping":60},{"user_id":282,"name":"Bia≈Çy","steam_id":76561197996016988,"connected_time":916000000000,"state":"active","ping":73},{"user_id":283,"name":"Carrot","steam_id":76561198119340863,"connected_time":848000000000,"state":"active","ping":56},{"user_id":287,"name":"makarov","steam_id":76561198363892870,"connected_time":603000000000,"state":"active","ping":69},{"user_id":289,"name":"kreeekz","steam_id":76561198014431602,"connected_time":412000000000,"state":"active","ping":79},{"user_id":292,"name":"Gabys","steam_id":76561198282892553,"connected_time":4000000000,"state":"spawning","ping":75}]},{"server_id":23,"name":"Uncletopia | Frankfurt | 7 | Stopwatch Beta","name_short":"frk-7","host":"frk-1.de.uncletopia.com","port":27075,"enabled":true,"region":"eu","cc":"de","latitude":50.110924,"longitude":8.682127,"reserved":0,"last_update":"0001-01-01T00:00:00Z","name_a2s":"Uncletopia | Frankfurt | 7 | Stopwatch Beta","protocol":17,"map":"workshop/koth_bagel_rc5.ugc2514036946","folder":"tf","game":"Team Fortress","app_id":440,"player_count":0,"max_players":24,"Bots":0,"server_type":"Dedicated","server_os":"Linux","password":true,"vac":true,"version":"7757534","steam_id":85568392924742827,"keywords":["cp","nocrits","nodmgspread","uncletopia"],"game_id":440,"stv_port":27076,"stv_name":"Uncletopia | Frankfurt | 7 | Stopwatch Beta | STV","players":null},{"server_id":24,"name":"Uncletopia | Frankfurt | 8 | Community","name_short":"frk-8","host":"frk-1.de.uncletopia.com","port":27085,"enabled":true,"region":"eu","cc":"de","latitude":50.110924,"longitude":8.682127,"reserved":0,"last_update":"0001-01-01T00:00:00Z","name_a2s":"Uncletopia | Frankfurt | 8 | Community","protocol":17,"map":"koth_cascade","folder":"tf","game":"Team Fortress","app_id":440,"player_count":0,"max_players":24,"Bots":0,"server_type":"Dedicated","server_os":"Linux","password":true,"vac":true,"version":"7757534","steam_id":85568392924742828,"keywords":["cp","nocrits","nodmgspread","uncletopia"],"game_id":440,"stv_port":27086,"stv_name":"Uncletopia | Frankfurt | 8 | Community | STV","players":null},{"server_id":202,"name":"Uncletopia | Hong Kong | 1 | All Maps","name_short":"hgk-1","host":"hgk-1.hk.uncletopia.com","port":27015,"enabled":true,"region":"asia","cc":"hk","latitude":22.302711,"longitude":114.177216,"reserved":0,"last_update":"0001-01-01T00:00:00Z","name_a2s":"Uncletopia | Hong Kong | 1 | All Maps","protocol":17,"map":"koth_viaduct","folder":"tf","game":"Team Fortress","app_id":440,"player_count":0,"max_players":24,"Bots":0,"server_type":"Dedicated","server_os":"Linux","password":true,"vac":true,"version":"7757534","steam_id":85568392924494504,"keywords":["cp","nocrits","nodmgspread","uncletopia"],"game_id":440,"stv_port":27016,"stv_name":"Uncletopia | Hong Kong | 1 | All Maps | STV","players":null},{"server_id":1,"name":"Uncletopia | Los Angeles | 1 | All Maps","name_short":"lax-1","host":"lax-1.us.uncletopia.com","port":27015,"enabled":true,"region":"us-west","cc":"us","latitude":33.94279,"longitude":-118.41004,"reserved":0,"last_update":"0001-01-01T00:00:00Z","name_a2s":"Uncletopia | Los Angeles | 1 | All Maps","protocol":17,"map":"cp_mountainlab","folder":"tf","game":"Team Fortress","app_id":440,"player_count":0,"max_players":24,"Bots":0,"server_type":"Dedicated","server_os":"Linux","password":true,"vac":true,"version":"7757534","steam_id":85568392924469991,"keywords":["cp","nocrits","nodmgspread","uncletopia"],"game_id":440,"stv_port":27016,"stv_name":"Uncletopia | Los Angeles | 1 | All Maps | STV","players":null},{"server_id":112,"name":"Uncletopia | Los Angeles | 2 | All Maps","name_short":"lax-2","host":"lax-1.us.uncletopia.com","port":27025,"enabled":true,"region":"us-west","cc":"us","latitude":33.94279,"longitude":-118.41004,"reserved":0,"last_update":"0001-01-01T00:00:00Z","name_a2s":"Uncletopia | Los Angeles | 2 | All Maps","protocol":17,"map":"cp_mountainlab","folder":"tf","game":"Team Fortress","app_id":440,"player_count":0,"max_players":24,"Bots":0,"server_type":"Dedicated","server_os":"Linux","password":true,"vac":true,"version":"7757534","steam_id":85568392924469992,"keywords":["cp","nocrits","nodmgspread","uncletopia"],"game_id":440,"stv_port":27026,"stv_name":"Uncletopia | Los Angeles | 2 | All Maps | STV","players":null},{"server_id":324,"name":"Uncletopia | Los Angeles | 3 | All Maps","name_short":"lax-3","host":"lax-1.us.uncletopia.com","port":27035,"enabled":true,"region":"us-west","cc":"us","latitude":33.94279,"longitude":-118.41004,"reserved":0,"last_update":"0001-01-01T00:00:00Z","name_a2s":"Uncletopia | Los Angeles | 3 | All Maps","protocol":17,"map":"cp_mountainlab","folder":"tf","game":"Team Fortress","app_id":440,"player_count":3,"max_players":24,"Bots":0,"server_type":"Dedicated","server_os":"Linux","password":true,"vac":true,"version":"7757534","steam_id":85568392924510198,"keywords":["cp","nocrits","nodmgspread","uncletopia"],"game_id":440,"stv_port":27036,"stv_name":"Uncletopia | Los Angeles | 3 | All Maps | STV","players":[{"user_id":3,"name":"WHAALLEE","steam_id":76561199452819866,"connected_time":1212000000000,"state":"active","ping":211},{"user_id":4,"name":"chimpbrain1269","steam_id":76561199455515783,"connected_time":1159000000000,"state":"active","ping":114},{"user_id":6,"name":"memory leak gravy","steam_id":76561198089644778,"connected_time":176000000000,"state":"active","ping":46}]},{"server_id":25,"name":"Uncletopia | Los Angeles | 4 | Stopwatch Beta","name_short":"lax-4","host":"lax-1.us.uncletopia.com","port":27045,"enabled":true,"region":"us-west","cc":"us","latitude":33.94279,"longitude":-118.41004,"reserved":0,"last_update":"0001-01-01T00:00:00Z","name_a2s":"Uncletopia | Los Angeles | 4 | Stopwatch Beta","protocol":17,"map":"koth_viaduct","folder":"tf","game":"Team Fortress","app_id":440,"player_count":0,"max_players":24,"Bots":0,"server_type":"Dedicated","server_os":"Linux","password":true,"vac":true,"version":"7757534","steam_id":85568392924510199,"keywords":["cp","nocrits","nodmgspread","uncletopia"],"game_id":440,"stv_port":27046,"stv_name":"Uncletopia | Los Angeles | 4 | Stopwatch Beta | STV","players":null},{"server_id":11,"name":"Uncletopia | London | 1 | All Maps","name_short":"lon-1","host":"lon-1.uk.uncletopia.com","port":27015,"enabled":true,"region":"eu","cc":"gb","latitude":51.509865,"longitude":-0.118092,"reserved":0,"last_update":"0001-01-01T00:00:00Z","name_a2s":"Uncletopia | London | 1 | All Maps","protocol":17,"map":"pl_swiftwater_final1","folder":"tf","game":"Team Fortress","app_id":440,"player_count":23,"max_players":24,"Bots":0,"server_type":"Dedicated","server_os":"Linux","password":true,"vac":true,"version":"7757534","steam_id":85568392924367362,"keywords":["nocrits","nodmgspread","payload","uncletopia"],"game_id":440,"stv_port":27016,"stv_name":"Uncletopia | London | 1 | All Maps | STV","players":[{"user_id":573,"name":"ciliorkun18","steam_id":76561198228942500,"connected_time":4174000000000,"state":"active","ping":91},{"user_id":621,"name":"Trailing","steam_id":76561198220365329,"connected_time":245000000000,"state":"active","ping":52},{"user_id":623,"name":"gremlin GOD","steam_id":76561198169972571,"connected_time":198000000000,"state":"active","ping":53},{"user_id":610,"name":"„ÉÜ„Ç§„É´„Çπ","steam_id":76561198022403271,"connected_time":1331000000000,"state":"active","ping":51},{"user_id":618,"name":"Dolcelatte","steam_id":76561198038501770,"connected_time":402000000000,"state":"active","ping":60},{"user_id":624,"name":"Uncle Terry","steam_id":76561198396415736,"connected_time":134000000000,"state":"active","ping":53},{"user_id":563,"name":"Sandshee","steam_id":76561198088574666,"connected_time":4447000000000,"state":"active","ping":32},{"user_id":615,"name":"Bamboleo","steam_id":76561198079029995,"connected_time":996000000000,"state":"active","ping":94},{"user_id":582,"name":"Nostradamus","steam_id":76561198349792686,"connected_time":3528000000000,"state":"active","ping":73},{"user_id":598,"name":"M1rkus","steam_id":76561198171215447,"connected_time":2242000000000,"state":"active","ping":76},{"user_id":613,"name":"pol is egg","steam_id":76561198171749265,"connected_time":1285000000000,"state":"active","ping":77},{"user_id":611,"name":"KyraMelody","steam_id":76561198030308767,"connected_time":1311000000000,"state":"active","ping":67},{"user_id":584,"name":"Tryrn","steam_id":76561198075487436,"connected_time":3521000000000,"state":"active","ping":69},{"user_id":622,"name":"Dr.Disrespect","steam_id":76561198043820228,"connected_time":239000000000,"state":"active","ping":60},{"user_id":617,"name":"static","steam_id":76561198836825741,"connected_time":688000000000,"state":"active","ping":44},{"user_id":600,"name":"The Masterplan","steam_id":76561198158631465,"connected_time":2043000000000,"state":"active","ping":73},{"user_id":626,"name":"GARbageTrash","steam_id":76561199101269633,"connected_time":128000000000,"state":"active","ping":104},{"user_id":604,"name":"Kris","steam_id":76561198240638652,"connected_time":1550000000000,"state":"active","ping":44},{"user_id":606,"name":"avon.wav","steam_id":76561198063093802,"connected_time":1388000000000,"state":"active","ping":52},{"user_id":614,"name":"Wuffington","steam_id":76561198033762881,"connected_time":1010000000000,"state":"active","ping":47},{"user_id":627,"name":"woo woo yeah (yeah)","steam_id":76561198440443334,"connected_time":114000000000,"state":"active","ping":65},{"user_id":619,"name":"drew","steam_id":76561198012304706,"connected_time":347000000000,"state":"active","ping":102},{"user_id":628,"name":"Bonca","steam_id":76561198137503531,"connected_time":110000000000,"state":"active","ping":75}]},{"server_id":114,"name":"Uncletopia | London | 2 | All Maps","name_short":"lon-2","host":"lon-1.uk.uncletopia.com","port":27025,"enabled":true,"region":"eu","cc":"gb","latitude":51.509865,"longitude":-0.118092,"reserved":0,"last_update":"0001-01-01T00:00:00Z","name_a2s":"Uncletopia | London | 2 | All Maps","protocol":17,"map":"pl_badwater","folder":"tf","game":"Team Fortress","app_id":440,"player_count":24,"max_players":24,"Bots":0,"server_type":"Dedicated","server_os":"Linux","password":true,"vac":true,"version":"7757534","steam_id":85568392924470941,"keywords":["nocrits","nodmgspread","payload","uncletopia"],"game_id":440,"stv_port":27026,"stv_name":"Uncletopia | London | 2 | All Maps | STV","players":[{"user_id":154,"name":"Thesis","steam_id":76561199308784371,"connected_time":3793000000000,"state":"active","ping":60},{"user_id":184,"name":"IKARUS","steam_id":76561198850898422,"connected_time":1116000000000,"state":"active","ping":75},{"user_id":99,"name":"Hilldog","steam_id":76561198082209322,"connected_time":6480000000000,"state":"active","ping":94},{"user_id":187,"name":"AwterSix","steam_id":76561198042561678,"connected_time":1050000000000,"state":"active","ping":63},{"user_id":198,"name":"Muffin","steam_id":76561198134575280,"connected_time":169000000000,"state":"active","ping":61},{"user_id":189,"name":"‚Ä∞Kacu","steam_id":76561198026228672,"connected_time":1029000000000,"state":"active","ping":76},{"user_id":178,"name":"Duke Fishlord","steam_id":76561198079928327,"connected_time":2395000000000,"state":"active","ping":75},{"user_id":181,"name":"Carreidas","steam_id":76561198056957730,"connected_time":1747000000000,"state":"active","ping":57},{"user_id":117,"name":"- 84n4n3n8r07 -","steam_id":76561198047887705,"connected_time":5756000000000,"state":"active","ping":59},{"user_id":174,"name":"63756d","steam_id":76561198808699024,"connected_time":2486000000000,"state":"active","ping":81},{"user_id":199,"name":"Accident","steam_id":76561198115160396,"connected_time":144000000000,"state":"active","ping":78},{"user_id":153,"name":"Johnny Cockroach","steam_id":76561198049648277,"connected_time":4076000000000,"state":"active","ping":101},{"user_id":180,"name":"GMsU | Smiley","steam_id":76561198121494414,"connected_time":1937000000000,"state":"active","ping":91},{"user_id":190,"name":"Combat Wombat","steam_id":76561197994720068,"connected_time":995000000000,"state":"active","ping":65},{"user_id":197,"name":"Hm","steam_id":76561199228241781,"connected_time":616000000000,"state":"active","ping":50},{"user_id":175,"name":"GMsU | Acoul","steam_id":76561198229222992,"connected_time":2482000000000,"state":"active","ping":54},{"user_id":127,"name":"AleXandriX","steam_id":76561198035203950,"connected_time":5215000000000,"state":"active","ping":63},{"user_id":192,"name":"the joy of recycling","steam_id":76561198415564349,"connected_time":986000000000,"state":"active","ping":61},{"user_id":176,"name":"FairlyFatFungus","steam_id":76561199152828854,"connected_time":2466000000000,"state":"active","ping":52},{"user_id":186,"name":"DelT","steam_id":76561198204007537,"connected_time":1095000000000,"state":"active","ping":60},{"user_id":179,"name":"docta febby","steam_id":76561198133532980,"connected_time":2061000000000,"state":"active","ping":46},{"user_id":158,"name":"_zipfile","steam_id":76561198066133808,"connected_time":3426000000000,"state":"active","ping":74},{"user_id":173,"name":"cloud","steam_id":76561198179768931,"connected_time":2641000000000,"state":"active","ping":60},{"user_id":193,"name":"Koda","steam_id":76561198142696299,"connected_time":984000000000,"state":"active","ping":45}]},{"server_id":320,"name":"Uncletopia | London | 3 | All Maps","name_short":"lon-3","host":"lon-1.uk.uncletopia.com","port":27035,"enabled":true,"region":"eu","cc":"gb","latitude":51.509865,"longitude":-0.118092,"reserved":0,"last_update":"0001-01-01T00:00:00Z","name_a2s":"Uncletopia | London | 3 | All Maps","protocol":17,"map":"pl_thundermountain","folder":"tf","game":"Team Fortress","app_id":440,"player_count":24,"max_players":24,"Bots":0,"server_type":"Dedicated","server_os":"Linux","password":true,"vac":true,"version":"7757534","steam_id":85568392924510192,"keywords":["nocrits","nodmgspread","payload","uncletopia"],"game_id":440,"stv_port":27036,"stv_name":"Uncletopia | London | 3 | All Maps | STV","players":[{"user_id":63,"name":"·¥ã·¥è·¥¢·¥ç·¥è „É°","steam_id":76561199140197015,"connected_time":126000000000,"state":"active","ping":104},{"user_id":65,"name":"JohkupohkuXD","steam_id":76561198391108762,"connected_time":26000000000,"state":"spawning","ping":89},{"user_id":60,"name":"Alegz","steam_id":76561198287810139,"connected_time":446000000000,"state":"active","ping":86},{"user_id":15,"name":"Homicidal Tendencies","steam_id":76561198828681043,"connected_time":2098000000000,"state":"active","ping":34},{"user_id":37,"name":"Kotlet schabowy","steam_id":76561198048983509,"connected_time":1064000000000,"state":"active","ping":85},{"user_id":50,"name":"tactical783","steam_id":76561199051688560,"connected_time":754000000000,"state":"active","ping":62},{"user_id":45,"name":"r06u3","steam_id":76561198254099253,"connected_time":868000000000,"state":"active","ping":180},{"user_id":41,"name":"ran is running","steam_id":76561199443185667,"connected_time":922000000000,"state":"active","ping":131},{"user_id":43,"name":"TMC","steam_id":76561198077956157,"connected_time":912000000000,"state":"active","ping":35},{"user_id":25,"name":"gordonpootman297","steam_id":76561199075532033,"connected_time":1611000000000,"state":"active","ping":86},{"user_id":22,"name":"Kahvi","steam_id":76561198723244199,"connected_time":1737000000000,"state":"active","ping":74},{"user_id":23,"name":"Blade the vampire (bisexual)","steam_id":76561198074097655,"connected_time":1732000000000,"state":"active","ping":30},{"user_id":62,"name":"300h scout chad","steam_id":76561198095179553,"connected_time":226000000000,"state":"active","ping":79},{"user_id":44,"name":"justin_ (f2p and real)","steam_id":76561198839843428,"connected_time":909000000000,"state":"active","ping":118},{"user_id":32,"name":"Pan Pan","steam_id":76561199074670515,"connected_time":1292000000000,"state":"active","ping":86},{"user_id":33,"name":"Flint","steam_id":76561197995920776,"connected_time":1289000000000,"state":"active","ping":50},{"user_id":47,"name":"Adopted?","steam_id":76561198118667043,"connected_time":819000000000,"state":"active","ping":50},{"user_id":56,"name":"Drywest","steam_id":76561198016808857,"connected_time":637000000000,"state":"active","ping":85},{"user_id":49,"name":"saiboT","steam_id":76561198300404049,"connected_time":780000000000,"state":"active","ping":60},{"user_id":66,"name":"The End","steam_id":76561199042470246,"connected_time":24000000000,"state":"active","ping":60},{"user_id":52,"name":"joolatkinson","steam_id":76561198298926480,"connected_time":681000000000,"state":"active","ping":46},{"user_id":54,"name":"Athomix","steam_id":76561198170108402,"connected_time":666000000000,"state":"active","ping":49},{"user_id":55,"name":"The Command Prompt","steam_id":76561198154677956,"connected_time":643000000000,"state":"active","ping":72},{"user_id":57,"name":"mordecai.nmc","steam_id":76561197997223851,"connected_time":631000000000,"state":"active","ping":46}]},{"server_id":321,"name":"Uncletopia | London | 4 | All Maps","name_short":"lon-4","host":"lon-1.uk.uncletopia.com","port":27045,"enabled":true,"region":"eu","cc":"gb","latitude":51.509865,"longitude":-0.118092,"reserved":0,"last_update":"0001-01-01T00:00:00Z","name_a2s":"Uncletopia | London | 4 | All Maps","protocol":17,"map":"pl_wutville_event","folder":"tf","game":"Team Fortress","app_id":440,"player_count":24,"max_players":24,"Bots":0,"server_type":"Dedicated","server_os":"Linux","password":true,"vac":true,"version":"7757534","steam_id":85568392924510193,"keywords":["nocrits","nodmgspread","payload","uncletopia"],"game_id":440,"stv_port":27046,"stv_name":"Uncletopia | London | 4 | All Maps | STV","players":[{"user_id":354,"name":"N√©odamode","steam_id":76561197968575924,"connected_time":14000000000,"state":"spawning","ping":71},{"user_id":316,"name":"WMW","steam_id":76561198837706438,"connected_time":1909000000000,"state":"active","ping":53},{"user_id":342,"name":"Anus Stretcher","steam_id":76561198028304695,"connected_time":585000000000,"state":"active","ping":65},{"user_id":343,"name":"TxTDiamond","steam_id":76561198358029722,"connected_time":394000000000,"state":"active","ping":59},{"user_id":326,"name":"r0la","steam_id":76561198128315340,"connected_time":1529000000000,"state":"active","ping":78},{"user_id":265,"name":"TSx* Osa__PL","steam_id":76561198027016799,"connected_time":4714000000000,"state":"active","ping":75},{"user_id":266,"name":"TSx* Dante","steam_id":76561198139309331,"connected_time":4711000000000,"state":"active","ping":67},{"user_id":267,"name":"TSx* Naxer","steam_id":76561198011986779,"connected_time":4710000000000,"state":"active","ping":74},{"user_id":345,"name":"Cunk","steam_id":76561198996618201,"connected_time":341000000000,"state":"active","ping":58},{"user_id":348,"name":"ZaiKowy","steam_id":76561198837246687,"connected_time":152000000000,"state":"active","ping":97},{"user_id":349,"name":"neo","steam_id":76561198136265838,"connected_time":151000000000,"state":"active","ping":69},{"user_id":305,"name":"Ritz","steam_id":76561198222317440,"connected_time":2987000000000,"state":"active","ping":64},{"user_id":335,"name":"jerf","steam_id":76561199213901239,"connected_time":879000000000,"state":"active","ping":45},{"user_id":338,"name":"Insanitybomb","steam_id":76561198048707708,"connected_time":837000000000,"state":"active","ping":81},{"user_id":344,"name":"Caerot","steam_id":76561198839000676,"connected_time":378000000000,"state":"spawning","ping":79},{"user_id":350,"name":"PjoterTF2 #SaveTF2 (ILOVEtf2)","steam_id":76561199079174002,"connected_time":145000000000,"state":"active","ping":93},{"user_id":327,"name":"Cabbe","steam_id":76561198019915094,"connected_time":1487000000000,"state":"active","ping":84},{"user_id":347,"name":"GuSkand","steam_id":76561198043775605,"connected_time":175000000000,"state":"active","ping":90},{"user_id":355,"name":"mishka.*","steam_id":76561198040003628,"connected_time":14000000000,"state":"spawning","ping":74},{"user_id":306,"name":"TheWizard","steam_id":76561199190282641,"connected_time":2987000000000,"state":"active","ping":133},{"user_id":339,"name":"BazzarBaz","steam_id":76561198823420149,"connected_time":780000000000,"state":"active","ping":82},{"user_id":353,"name":"Arky ü¶ë","steam_id":76561198027448234,"connected_time":62000000000,"state":"active","ping":72},{"user_id":302,"name":"Cossack","steam_id":76561198076661772,"connected_time":3614000000000,"state":"active","ping":91},{"user_id":297,"name":"My balls itch","steam_id":76561199121794613,"connected_time":4025000000000,"state":"active","ping":81}]},{"server_id":21,"name":"Uncletopia | London | 5 | All Maps","name_short":"lon-5","host":"lon-1.uk.uncletopia.com","port":27055,"enabled":true,"region":"eu","cc":"gb","latitude":51.509865,"longitude":-0.118092,"reserved":0,"last_update":"0001-01-01T00:00:00Z","name_a2s":"Uncletopia | London | 5 | All Maps","protocol":17,"map":"cp_process_final","folder":"tf","game":"Team Fortress","app_id":440,"player_count":23,"max_players":24,"Bots":0,"server_type":"Dedicated","server_os":"Linux","password":true,"vac":true,"version":"7757534","steam_id":85568392924742829,"keywords":["cp","nocrits","nodmgspread","uncletopia"],"game_id":440,"stv_port":27056,"stv_name":"Uncletopia | London | 5 | All Maps | STV","players":[{"user_id":314,"name":"not drunk","steam_id":76561199184873889,"connected_time":779000000000,"state":"active","ping":60},{"user_id":315,"name":"sugar.muffin22","steam_id":76561198147277460,"connected_time":777000000000,"state":"active","ping":60},{"user_id":155,"name":"Zerfesh","steam_id":76561198117534358,"connected_time":12569000000000,"state":"active","ping":98},{"user_id":258,"name":"·óúÀ∞·óú","steam_id":76561198148074472,"connected_time":5313000000000,"state":"active","ping":59},{"user_id":334,"name":"Dr.Sees [F2P]","steam_id":76561199219233587,"connected_time":62000000000,"state":"active","ping":73},{"user_id":292,"name":"Yassine","steam_id":76561198140565712,"connected_time":2587000000000,"state":"active","ping":47},{"user_id":316,"name":"Nakano","steam_id":76561198866569125,"connected_time":706000000000,"state":"active","ping":76},{"user_id":313,"name":"Jar","steam_id":76561198156384007,"connected_time":957000000000,"state":"active","ping":49},{"user_id":310,"name":"Owlet","steam_id":76561198065613974,"connected_time":1212000000000,"state":"active","ping":69},{"user_id":331,"name":"Shimass","steam_id":76561198867546842,"connected_time":179000000000,"state":"active","ping":57},{"user_id":330,"name":"Lessoz","steam_id":76561199211572036,"connected_time":334000000000,"state":"active","ping":84},{"user_id":271,"name":"C√©l√©rio","steam_id":76561198088253576,"connected_time":4398000000000,"state":"active","ping":45},{"user_id":317,"name":"lucaschewaka","steam_id":76561198975883783,"connected_time":698000000000,"state":"active","ping":70},{"user_id":294,"name":"‚ô† Kschnell ‚ô†","steam_id":76561198125567320,"connected_time":2193000000000,"state":"active","ping":86},{"user_id":318,"name":"Bostrash641","steam_id":76561199447225685,"connected_time":676000000000,"state":"active","ping":71},{"user_id":279,"name":"Madetter_","steam_id":76561198067838929,"connected_time":4093000000000,"state":"active","ping":121},{"user_id":323,"name":"2Fort Samurai","steam_id":76561198064490192,"connected_time":505000000000,"state":"active","ping":52},{"user_id":320,"name":"Dark Souls Reference","steam_id":76561198094102747,"connected_time":605000000000,"state":"active","ping":58},{"user_id":332,"name":"Sipsu","steam_id":76561198059424107,"connected_time":137000000000,"state":"active","ping":82},{"user_id":333,"name":"Pain in a Box","steam_id":76561197990777173,"connected_time":83000000000,"state":"active","ping":72},{"user_id":335,"name":"Grizz","steam_id":76561198171010107,"connected_time":2000000000,"state":"spawning","ping":50},{"user_id":326,"name":"megahello","steam_id":76561198254604438,"connected_time":448000000000,"state":"active","ping":75},{"user_id":327,"name":"FilipeLuk","steam_id":76561198150675438,"connected_time":429000000000,"state":"active","ping":60}]},{"server_id":22,"name":"Uncletopia | London | 6 | All Maps","name_short":"lon-6","host":"lon-1.uk.uncletopia.com","port":27065,"enabled":true,"region":"eu","cc":"gb","latitude":51.509865,"longitude":-0.118092,"reserved":0,"last_update":"0001-01-01T00:00:00Z","name_a2s":"Uncletopia | London | 6 | All Maps","protocol":17,"map":"pl_badwater","folder":"tf","game":"Team Fortress","app_id":440,"player_count":0,"max_players":24,"Bots":0,"server_type":"Dedicated","server_os":"Linux","password":true,"vac":true,"version":"7757534","steam_id":85568392924742830,"keywords":["nocrits","nodmgspread","payload","uncletopia"],"game_id":440,"stv_port":27066,"stv_name":"Uncletopia | London | 6 | All Maps | STV","players":null},{"server_id":40,"name":"Uncletopia | London | 7 | No Payload","name_short":"lon-7","host":"lon-1.uk.uncletopia.com","port":27075,"enabled":true,"region":"eu","cc":"gb","latitude":51.509865,"longitude":-0.118092,"reserved":0,"last_update":"0001-01-01T00:00:00Z","name_a2s":"Uncletopia | London | 7 | No Payload","protocol":17,"map":"ctf_2fort","folder":"tf","game":"Team Fortress","app_id":440,"player_count":12,"max_players":24,"Bots":0,"server_type":"Dedicated","server_os":"Linux","password":true,"vac":true,"version":"7757534","steam_id":85568392924964314,"keywords":["ctf","nocrits","nodmgspread","uncletopia"],"game_id":440,"stv_port":27076,"stv_name":"Uncletopia | London | 7 | No Payload | STV","players":[{"user_id":73,"name":"Blackout195","steam_id":76561198069410775,"connected_time":528000000000,"state":"active","ping":39},{"user_id":17,"name":"shinji crank that soulja boy","steam_id":76561198099696876,"connected_time":3955000000000,"state":"active","ping":69},{"user_id":41,"name":"fucking awesome gangster minion","steam_id":76561198796600155,"connected_time":2786000000000,"state":"active","ping":100},{"user_id":74,"name":"Azi ‚ò¢","steam_id":76561198124563460,"connected_time":435000000000,"state":"active","ping":54},{"user_id":75,"name":"I Find A Computer Indispensible","steam_id":76561198046152236,"connected_time":310000000000,"state":"active","ping":127},{"user_id":20,"name":"TV12Lime","steam_id":76561199036195384,"connected_time":3780000000000,"state":"active","ping":156},{"user_id":21,"name":"Popoy101","steam_id":76561199068763122,"connected_time":3764000000000,"state":"active","ping":62},{"user_id":42,"name":"Badass gangnam style minion","steam_id":76561198297602677,"connected_time":2778000000000,"state":"active","ping":94},{"user_id":31,"name":"4's up Rigby","steam_id":76561199122067976,"connected_time":3141000000000,"state":"active","ping":56},{"user_id":70,"name":"harrison","steam_id":76561198990132243,"connected_time":973000000000,"state":"active","ping":61},{"user_id":57,"name":"Bennifer.Gonzales2007","steam_id":76561198085070478,"connected_time":2166000000000,"state":"active","ping":62},{"user_id":69,"name":"Nyham","steam_id":76561198087435433,"connected_time":1181000000000,"state":"active","ping":49}]},{"server_id":41,"name":"Uncletopia | London | 8 | Community","name_short":"lon-8","host":"lon-1.uk.uncletopia.com","port":27085,"enabled":true,"region":"eu","cc":"gb","latitude":51.509865,"longitude":-0.118092,"reserved":0,"last_update":"0001-01-01T00:00:00Z","name_a2s":"Uncletopia | London | 8 | Community","protocol":17,"map":"workshop/koth_product_final.ugc454272353","folder":"tf","game":"Team Fortress","app_id":440,"player_count":0,"max_players":24,"Bots":0,"server_type":"Dedicated","server_os":"Linux","password":true,"vac":true,"version":"7757534","steam_id":85568392924964315,"keywords":["cp","nocrits","nodmgspread","uncletopia"],"game_id":440,"stv_port":27086,"stv_name":"Uncletopia | London | 8 | Community | STV","players":null},{"server_id":300,"name":"Uncletopia | Montr√©al | 1 | All Maps","name_short":"mtl-1","host":"mtl-1.ca.uncletopia.com","port":27015,"enabled":true,"region":"us-east","cc":"ca","latitude":45.50889,"longitude":-73.56167,"reserved":0,"last_update":"0001-01-01T00:00:00Z","name_a2s":"Uncletopia | Montr√©al | 1 | All Maps","protocol":17,"map":"koth_cascade","folder":"tf","game":"Team Fortress","app_id":440,"player_count":0,"max_players":24,"Bots":0,"server_type":"Dedicated","server_os":"Linux","password":true,"vac":true,"version":"7757534","steam_id":85568392924500087,"keywords":["cp","nocrits","nodmgspread","uncletopia"],"game_id":440,"stv_port":27016,"stv_name":"Uncletopia | Montr√©al | 1 | All Maps | STV","players":null},{"server_id":301,"name":"Uncletopia | Montr√©al | 2 | All Maps","name_short":"mtl-2","host":"mtl-1.ca.uncletopia.com","port":27025,"enabled":true,"region":"us-east","cc":"ca","latitude":45.50889,"longitude":-73.56167,"reserved":0,"last_update":"0001-01-01T00:00:00Z","name_a2s":"Uncletopia | Montr√©al | 2 | All Maps","protocol":17,"map":"pl_borneo","folder":"tf","game":"Team Fortress","app_id":440,"player_count":0,"max_players":24,"Bots":0,"server_type":"Dedicated","server_os":"Linux","password":true,"vac":true,"version":"7757534","steam_id":85568392924500088,"keywords":["nocrits","nodmgspread","payload","uncletopia"],"game_id":440,"stv_port":27026,"stv_name":"Uncletopia | Montr√©al | 2 | All Maps | STV","players":null},{"server_id":302,"name":"Uncletopia | Montr√©al | 3 | All Maps","name_short":"mtl-3","host":"mtl-1.ca.uncletopia.com","port":27035,"enabled":true,"region":"us-east","cc":"ca","latitude":45.50889,"longitude":-73.56167,"reserved":0,"last_update":"0001-01-01T00:00:00Z","name_a2s":"Uncletopia | Montr√©al | 3 | All Maps","protocol":17,"map":"cp_sunshine","folder":"tf","game":"Team Fortress","app_id":440,"player_count":0,"max_players":24,"Bots":0,"server_type":"Dedicated","server_os":"Linux","password":true,"vac":true,"version":"7757534","steam_id":85568392924500089,"keywords":["cp","nocrits","nodmgspread","uncletopia"],"game_id":440,"stv_port":27036,"stv_name":"Uncletopia | Montr√©al | 3 | All Maps | STV","players":null},{"server_id":303,"name":"Uncletopia | Montr√©al | 4 | No Payload","name_short":"mtl-4","host":"mtl-1.ca.uncletopia.com","port":27045,"enabled":true,"region":"us-east","cc":"ca","latitude":45.50889,"longitude":-73.56167,"reserved":0,"last_update":"0001-01-01T00:00:00Z","name_a2s":"Uncletopia | Montr√©al | 4 | No Payload","protocol":17,"map":"koth_lakeside_final","folder":"tf","game":"Team Fortress","app_id":440,"player_count":0,"max_players":24,"Bots":0,"server_type":"Dedicated","server_os":"Linux","password":true,"vac":true,"version":"7757534","steam_id":85568392924500090,"keywords":["cp","nocrits","nodmgspread","uncletopia"],"game_id":440,"stv_port":27046,"stv_name":"Uncletopia | Montr√©al | 4 | No Payload | STV","players":null},{"server_id":13,"name":"Uncletopia | New York City | 1 | All Maps","name_short":"nyc-1","host":"nyc-1.us.uncletopia.com","port":27015,"enabled":true,"region":"us-east","cc":"us","latitude":40.73061,"longitude":-73.93524,"reserved":0,"last_update":"0001-01-01T00:00:00Z","name_a2s":"Uncletopia | New York City | 1 | All Maps","protocol":17,"map":"pl_upward","folder":"tf","game":"Team Fortress","app_id":440,"player_count":21,"max_players":24,"Bots":0,"server_type":"Dedicated","server_os":"Linux","password":true,"vac":true,"version":"7757534","steam_id":85568392924469993,"keywords":["nocrits","nodmgspread","payload","uncletopia"],"game_id":440,"stv_port":27016,"stv_name":"Uncletopia | New York City | 1 | All Maps | STV","players":[{"user_id":222,"name":"aon135","steam_id":76561197966931637,"connected_time":243000000000,"state":"active","ping":118},{"user_id":226,"name":"Bee","steam_id":76561198074681324,"connected_time":75000000000,"state":"active","ping":42},{"user_id":223,"name":"sackbuttclaptrap","steam_id":76561198129874242,"connected_time":158000000000,"state":"active","ping":127},{"user_id":182,"name":"SuperFresh","steam_id":76561198200723198,"connected_time":3046000000000,"state":"active","ping":168},{"user_id":225,"name":"Fr–∞nk","steam_id":76561198150754556,"connected_time":91000000000,"state":"active","ping":93},{"user_id":215,"name":"Blitzy","steam_id":76561198149472890,"connected_time":775000000000,"state":"active","ping":128},{"user_id":177,"name":"JelloMotion","steam_id":76561198045892038,"connected_time":3187000000000,"state":"active","ping":105},{"user_id":214,"name":"Errrmmett","steam_id":76561198041314051,"connected_time":979000000000,"state":"active","ping":60},{"user_id":228,"name":"tailorturtle","steam_id":76561198107481127,"connected_time":38000000000,"state":"active","ping":63},{"user_id":224,"name":"wack","steam_id":76561198095697330,"connected_time":103000000000,"state":"active","ping":59},{"user_id":213,"name":"Massa Gaming","steam_id":76561198881383557,"connected_time":1010000000000,"state":"active","ping":81},{"user_id":197,"name":"pine","steam_id":76561198156891654,"connected_time":1583000000000,"state":"active","ping":57},{"user_id":227,"name":"i still like villa","steam_id":76561198413930183,"connected_time":68000000000,"state":"active","ping":41},{"user_id":198,"name":"harry","steam_id":76561198365118514,"connected_time":1577000000000,"state":"active","ping":59},{"user_id":229,"name":"raisedbybirds","steam_id":76561198131531646,"connected_time":13000000000,"state":"active","ping":58},{"user_id":230,"name":"Tgirl Swag Squad","steam_id":76561198039436449,"connected_time":4000000000,"state":"spawning","ping":52},{"user_id":202,"name":"Cooldog","steam_id":76561198080548713,"connected_time":1459000000000,"state":"active","ping":60},{"user_id":216,"name":"DOB","steam_id":76561198004385130,"connected_time":745000000000,"state":"active","ping":111},{"user_id":163,"name":"Metna ‚òÅ","steam_id":76561198092381079,"connected_time":4157000000000,"state":"active","ping":108},{"user_id":191,"name":"shaderoses","steam_id":76561198070800500,"connected_time":1838000000000,"state":"active","ping":56},{"user_id":220,"name":"Baron von Whoopsie","steam_id":76561197996691013,"connected_time":397000000000,"state":"active","ping":64}]},{"server_id":14,"name":"Uncletopia | New York City | 2 | All Maps","name_short":"nyc-2","host":"nyc-1.us.uncletopia.com","port":27025,"enabled":true,"region":"us-east","cc":"us","latitude":40.73061,"longitude":-73.93524,"reserved":0,"last_update":"0001-01-01T00:00:00Z","name_a2s":"Uncletopia | New York City | 2 | All Maps","protocol":17,"map":"koth_viaduct","folder":"tf","game":"Team Fortress","app_id":440,"player_count":0,"max_players":24,"Bots":0,"server_type":"Dedicated","server_os":"Linux","password":true,"vac":true,"version":"7757534","steam_id":85568392924469994,"keywords":["cp","nocrits","nodmgspread","uncletopia"],"game_id":440,"stv_port":27026,"stv_name":"Uncletopia | New York City | 2 | All Maps | STV","players":null},{"server_id":15,"name":"Uncletopia | New York City | 3 | Stopwatch Beta","name_short":"nyc-3","host":"nyc-1.us.uncletopia.com","port":27035,"enabled":true,"region":"us-east","cc":"us","latitude":40.73061,"longitude":-73.93524,"reserved":0,"last_update":"0001-01-01T00:00:00Z","name_a2s":"Uncletopia | New York City | 3 | Stopwatch Beta","protocol":17,"map":"workshop/koth_clearcut_b15.ugc2107050255","folder":"tf","game":"Team Fortress","app_id":440,"player_count":0,"max_players":24,"Bots":0,"server_type":"Dedicated","server_os":"Linux","password":true,"vac":true,"version":"7757534","steam_id":85568392924742820,"keywords":["cp","nocrits","nodmgspread","uncletopia"],"game_id":440,"stv_port":27036,"stv_name":"Uncletopia | New York City | 3 | Stopwatch Beta | STV","players":null},{"server_id":16,"name":"Uncletopia | New York City | 4 | Community","name_short":"nyc-4","host":"nyc-1.us.uncletopia.com","port":27045,"enabled":true,"region":"us-east","cc":"us","latitude":40.73061,"longitude":-73.93524,"reserved":0,"last_update":"0001-01-01T00:00:00Z","name_a2s":"Uncletopia | New York City | 4 | Community","protocol":17,"map":"pl_borneo","folder":"tf","game":"Team Fortress","app_id":440,"player_count":0,"max_players":24,"Bots":0,"server_type":"Dedicated","server_os":"Linux","password":true,"vac":true,"version":"7757534","steam_id":85568392924742821,"keywords":["nocrits","nodmgspread","payload","uncletopia"],"game_id":440,"stv_port":27046,"stv_name":"Uncletopia | New York City | 4 | Community | STV","players":null},{"server_id":142,"name":"Uncletopia | S√£o Paulo | 1 | All Maps","name_short":"sao-1","host":"sao-1.br.uncletopia.com","port":27015,"enabled":true,"region":"sa","cc":"br","latitude":-23.533773,"longitude":-46.62529,"reserved":0,"last_update":"0001-01-01T00:00:00Z","name_a2s":"Uncletopia | S√£o Paulo | 1 | All Maps","protocol":17,"map":"pl_pier","folder":"tf","game":"Team Fortress","app_id":440,"player_count":3,"max_players":24,"Bots":0,"server_type":"Dedicated","server_os":"Linux","password":true,"vac":true,"version":"7757534","steam_id":85568392924469996,"keywords":["nocrits","nodmgspread","payload","uncletopia"],"game_id":440,"stv_port":27016,"stv_name":"Uncletopia | S√£o Paulo | 1 | All Maps | STV","players":[{"user_id":9,"name":"https://youtu.be/RvVdFXOFcjw","steam_id":76561198844048672,"connected_time":691000000000,"state":"active","ping":44},{"user_id":10,"name":"seu cu 2000","steam_id":76561199212649021,"connected_time":602000000000,"state":"active","ping":49},{"user_id":11,"name":"yuyeet6276","steam_id":76561199451748849,"connected_time":137000000000,"state":"active","ping":191}]},{"server_id":143,"name":"Uncletopia | S√£o Paulo | 2 | All Maps","name_short":"sao-2","host":"sao-2.br.uncletopia.com","port":27015,"enabled":true,"region":"sa","cc":"br","latitude":-23.533773,"longitude":-46.62529,"reserved":0,"last_update":"0001-01-01T00:00:00Z","name_a2s":"Uncletopia | S√£o Paulo | 2 | All Maps","protocol":17,"map":"pl_frontier_final","folder":"tf","game":"Team Fortress","app_id":440,"player_count":13,"max_players":24,"Bots":0,"server_type":"Dedicated","server_os":"Linux","password":true,"vac":true,"version":"7757534","steam_id":85568392924485349,"keywords":["nocrits","nodmgspread","payload","uncletopia"],"game_id":440,"stv_port":27016,"stv_name":"Uncletopia | S√£o Paulo | 2 | All Maps | STV","players":[{"user_id":157,"name":"Guilmon","steam_id":76561198353758781,"connected_time":1906000000000,"state":"active","ping":72},{"user_id":164,"name":"TE AMO ARGENTINA","steam_id":76561198267234526,"connected_time":334000000000,"state":"active","ping":71},{"user_id":126,"name":"sleepy","steam_id":76561198032697387,"connected_time":4044000000000,"state":"active","ping":31},{"user_id":159,"name":"Seby","steam_id":76561198141369181,"connected_time":1413000000000,"state":"active","ping":45},{"user_id":96,"name":"jr_rusty","steam_id":76561198313937899,"connected_time":6359000000000,"state":"active","ping":45},{"user_id":165,"name":"Emposive","steam_id":76561198363249325,"connected_time":231000000000,"state":"active","ping":48},{"user_id":127,"name":"'moNo","steam_id":76561198839260614,"connected_time":4021000000000,"state":"active","ping":69},{"user_id":161,"name":"Cloreto de s√≥dio","steam_id":76561198199455773,"connected_time":1277000000000,"state":"active","ping":97},{"user_id":166,"name":"Felina‚ô•","steam_id":76561198811097127,"connected_time":138000000000,"state":"active","ping":66},{"user_id":98,"name":"Egoistic Spy","steam_id":76561199294025748,"connected_time":5928000000000,"state":"active","ping":61},{"user_id":163,"name":"celso","steam_id":76561198072331775,"connected_time":1102000000000,"state":"active","ping":91},{"user_id":150,"name":"4:3 + \"very low\"","steam_id":76561198846361407,"connected_time":2209000000000,"state":"active","ping":34},{"user_id":120,"name":"ùêÄùê´ùêúùê°ùê¢_","steam_id":76561198895061602,"connected_time":4780000000000,"state":"active","ping":105}]},{"server_id":7,"name":"Uncletopia | Seattle | 1 | All Maps","name_short":"sea-1","host":"sea-1.us.uncletopia.com","port":27015,"enabled":true,"region":"us-west","cc":"us","latitude":47.608013,"longitude":-122.33517,"reserved":0,"last_update":"0001-01-01T00:00:00Z","name_a2s":"Uncletopia | Seattle | 1 | All Maps","protocol":17,"map":"koth_lakeside_final","folder":"tf","game":"Team Fortress","app_id":440,"player_count":1,"max_players":24,"Bots":0,"server_type":"Dedicated","server_os":"Linux","password":true,"vac":true,"version":"7757534","steam_id":85568392924469997,"keywords":["cp","nocrits","nodmgspread","uncletopia"],"game_id":440,"stv_port":27016,"stv_name":"Uncletopia | Seattle | 1 | All Maps | STV","players":[{"user_id":7,"name":"Username","steam_id":76561198855586261,"connected_time":179000000000,"state":"active","ping":60}]},{"server_id":119,"name":"Uncletopia | Seattle | 2 | All Maps","name_short":"sea-2","host":"sea-1.us.uncletopia.com","port":27025,"enabled":true,"region":"us-west","cc":"us","latitude":47.608013,"longitude":-122.33517,"reserved":0,"last_update":"0001-01-01T00:00:00Z","name_a2s":"Uncletopia | Seattle | 2 | All Maps","protocol":17,"map":"koth_viaduct","folder":"tf","game":"Team Fortress","app_id":440,"player_count":0,"max_players":24,"Bots":0,"server_type":"Dedicated","server_os":"Linux","password":true,"vac":true,"version":"7757534","steam_id":85568392924469998,"keywords":["cp","nocrits","nodmgspread","uncletopia"],"game_id":440,"stv_port":27026,"stv_name":"Uncletopia | Seattle | 2 | All Maps | STV","players":null},{"server_id":406,"name":"Uncletopia | Seattle | 3 | Stopwatch Beta","name_short":"sea-3","host":"sea-1.us.uncletopia.com","port":27035,"enabled":true,"region":"us-west","cc":"us","latitude":47.608013,"longitude":-122.33517,"reserved":0,"last_update":"0001-01-01T00:00:00Z","name_a2s":"Uncletopia | Seattle | 3 | Stopwatch Beta","protocol":17,"map":"cp_sunshine","folder":"tf","game":"Team Fortress","app_id":440,"player_count":0,"max_players":24,"Bots":0,"server_type":"Dedicated","server_os":"Linux","password":true,"vac":true,"version":"7757534","steam_id":85568392924515217,"keywords":["cp","nocrits","nodmgspread","uncletopia"],"game_id":440,"stv_port":27036,"stv_name":"Uncletopia | Seattle | 3 | Stopwatch Beta | STV","players":null},{"server_id":17,"name":"Uncletopia | San Francisco | 1 | All Maps","name_short":"sfo-1","host":"sfo-1.us.uncletopia.com","port":27015,"enabled":true,"region":"us-west","cc":"us","latitude":37.77397,"longitude":-122.4313,"reserved":0,"last_update":"0001-01-01T00:00:00Z","name_a2s":"Uncletopia | San Francisco | 1 | All Maps","protocol":17,"map":"pl_frontier_final","folder":"tf","game":"Team Fortress","app_id":440,"player_count":2,"max_players":24,"Bots":0,"server_type":"Dedicated","server_os":"Linux","password":true,"vac":true,"version":"7757534","steam_id":85568392924469999,"keywords":["nocrits","nodmgspread","payload","uncletopia"],"game_id":440,"stv_port":27016,"stv_name":"Uncletopia | San Francisco | 1 | All Maps | STV","players":[{"user_id":4,"name":"Dragonsalt","steam_id":76561198141927559,"connected_time":567000000000,"state":"active","ping":62},{"user_id":5,"name":"‚ùñMinty_n1mix‚ùñ","steam_id":76561198840705512,"connected_time":384000000000,"state":"active","ping":210}]},{"server_id":18,"name":"Uncletopia | San Francisco | 2 | All Maps","name_short":"sfo-2","host":"sfo-1.us.uncletopia.com","port":27025,"enabled":true,"region":"us-west","cc":"us","latitude":37.77397,"longitude":-122.4313,"reserved":0,"last_update":"0001-01-01T00:00:00Z","name_a2s":"Uncletopia | San Francisco | 2 | All Maps","protocol":17,"map":"cp_mountainlab","folder":"tf","game":"Team Fortress","app_id":440,"player_count":0,"max_players":24,"Bots":0,"server_type":"Dedicated","server_os":"Linux","password":true,"vac":true,"version":"7757534","steam_id":85568392924470000,"keywords":["cp","nocrits","nodmgspread","uncletopia"],"game_id":440,"stv_port":27026,"stv_name":"Uncletopia | San Francisco | 2 | All Maps | STV","players":null},{"server_id":19,"name":"Uncletopia | San Francisco | 3 | Stopwatch Beta","name_short":"sfo-3","host":"sfo-1.us.uncletopia.com","port":27035,"enabled":true,"region":"us-west","cc":"us","latitude":37.77397,"longitude":-122.4313,"reserved":0,"last_update":"0001-01-01T00:00:00Z","name_a2s":"Uncletopia | San Francisco | 3 | Stopwatch Beta","protocol":17,"map":"koth_viaduct","folder":"tf","game":"Team Fortress","app_id":440,"player_count":0,"max_players":24,"Bots":0,"server_type":"Dedicated","server_os":"Linux","password":true,"vac":true,"version":"7757534","steam_id":85568392924742824,"keywords":["cp","nocrits","nodmgspread","uncletopia"],"game_id":440,"stv_port":27036,"stv_name":"Uncletopia | San Francisco | 3 | Stopwatch Beta | STV","players":null},{"server_id":20,"name":"Uncletopia | San Francisco | 4 | Community","name_short":"sfo-4","host":"sfo-1.us.uncletopia.com","port":27045,"enabled":true,"region":"us-west","cc":"us","latitude":37.77397,"longitude":-122.4313,"reserved":0,"last_update":"0001-01-01T00:00:00Z","name_a2s":"Uncletopia | San Francisco | 4 | Community","protocol":17,"map":"pl_borneo","folder":"tf","game":"Team Fortress","app_id":440,"player_count":0,"max_players":24,"Bots":0,"server_type":"Dedicated","server_os":"Linux","password":true,"vac":true,"version":"7757534","steam_id":85568392924742826,"keywords":["nocrits","nodmgspread","payload","uncletopia"],"game_id":440,"stv_port":27046,"stv_name":"Uncletopia | San Francisco | 4 | Community | STV","players":null},{"server_id":141,"name":"Uncletopia | Sydney | 1 | All Maps","name_short":"syd-1","host":"syd-1.au.uncletopia.com","port":27015,"enabled":true,"region":"au","cc":"au","latitude":-33.865143,"longitude":151.2099,"reserved":0,"last_update":"0001-01-01T00:00:00Z","name_a2s":"Uncletopia | Sydney | 1 | All Maps","protocol":17,"map":"koth_cascade","folder":"tf","game":"Team Fortress","app_id":440,"player_count":0,"max_players":24,"Bots":0,"server_type":"Dedicated","server_os":"Linux","password":true,"vac":true,"version":"7757534","steam_id":85568392924470001,"keywords":["cp","nocrits","nodmgspread","uncletopia"],"game_id":440,"stv_port":27016,"stv_name":"Uncletopia | Sydney | 1 | All Maps | STV","players":null},{"server_id":123,"name":"Uncletopia | Sydney | 2 | All Maps","name_short":"syd-2","host":"syd-1.au.uncletopia.com","port":27025,"enabled":true,"region":"au","cc":"au","latitude":-33.865143,"longitude":151.2099,"reserved":0,"last_update":"0001-01-01T00:00:00Z","name_a2s":"Uncletopia | Sydney | 2 | All Maps","protocol":17,"map":"koth_lakeside_final","folder":"tf","game":"Team Fortress","app_id":440,"player_count":0,"max_players":24,"Bots":0,"server_type":"Dedicated","server_os":"Linux","password":true,"vac":true,"version":"7757534","steam_id":85568392924470002,"keywords":["cp","nocrits","nodmgspread","uncletopia"],"game_id":440,"stv_port":27026,"stv_name":"Uncletopia | Sydney | 2 | All Maps | STV","players":null},{"server_id":395,"name":"Uncletopia | Sydney | 3 | All Maps","name_short":"syd-3","host":"syd-1.au.uncletopia.com","port":27035,"enabled":true,"region":"au","cc":"au","latitude":-33.865143,"longitude":151.2099,"reserved":0,"last_update":"0001-01-01T00:00:00Z","name_a2s":"Uncletopia | Sydney | 3 | All Maps","protocol":17,"map":"cp_dustbowl","folder":"tf","game":"Team Fortress","app_id":440,"player_count":0,"max_players":24,"Bots":0,"server_type":"Dedicated","server_os":"Linux","password":true,"vac":true,"version":"7757534","steam_id":85568392925194467,"keywords":["cp","nocrits","nodmgspread","uncletopia"],"game_id":440,"stv_port":27036,"stv_name":"Uncletopia | Sydney | 3 | All Maps | STV","players":null},{"server_id":396,"name":"Uncletopia | Sydney | 4 | All Maps","name_short":"syd-4","host":"syd-1.au.uncletopia.com","port":27045,"enabled":true,"region":"au","cc":"au","latitude":-33.865143,"longitude":151.2099,"reserved":0,"last_update":"0001-01-01T00:00:00Z","name_a2s":"Uncletopia | Sydney | 4 | All Maps","protocol":17,"map":"koth_highpass","folder":"tf","game":"Team Fortress","app_id":440,"player_count":0,"max_players":24,"Bots":0,"server_type":"Dedicated","server_os":"Linux","password":true,"vac":true,"version":"7757534","steam_id":85568392925397958,"keywords":["cp","nocrits","nodmgspread","uncletopia"],"game_id":440,"stv_port":27046,"stv_name":"Uncletopia | Sydney | 4 | All Maps | STV","players":null},{"server_id":58,"name":"Uncletopia | Sydney | 5 | Stopwatch Beta","name_short":"syd-5","host":"syd-1.au.uncletopia.com","port":27055,"enabled":true,"region":"au","cc":"au","latitude":-33.865143,"longitude":151.2099,"reserved":0,"last_update":"0001-01-01T00:00:00Z","name_a2s":"Uncletopia | Sydney | 5 | Stopwatch Beta","protocol":17,"map":"pl_barnblitz","folder":"tf","game":"Team Fortress","app_id":440,"player_count":0,"max_players":24,"Bots":0,"server_type":"Dedicated","server_os":"Linux","password":true,"vac":true,"version":"7757534","steam_id":85568392925397959,"keywords":["nocrits","nodmgspread","payload","uncletopia"],"game_id":440,"stv_port":27056,"stv_name":"Uncletopia | Sydney | 5 | Stopwatch Beta | STV","players":null},{"server_id":59,"name":"Uncletopia | Sydney | 6 | Community","name_short":"syd-6","host":"syd-1.au.uncletopia.com","port":27065,"enabled":true,"region":"au","cc":"au","latitude":-33.865143,"longitude":151.2099,"reserved":0,"last_update":"0001-01-01T00:00:00Z","name_a2s":"Uncletopia | Sydney | 6 | Community","protocol":17,"map":"workshop/cp_overgrown_rc7b.ugc503939302","folder":"tf","game":"Team Fortress","app_id":440,"player_count":0,"max_players":24,"Bots":0,"server_type":"Dedicated","server_os":"Linux","password":true,"vac":true,"version":"7757534","steam_id":85568392925397960,"keywords":["cp","nocrits","nodmgspread","uncletopia"],"game_id":440,"stv_port":27066,"stv_name":"Uncletopia | Sydney | 6 | Community | STV","players":null},{"server_id":49,"name":"Uncletopia | Warsaw | 1 | All Maps","name_short":"waw-1","host":"waw-1.pl.uncletopia.com","port":27015,"enabled":true,"region":"eu","cc":"pl","latitude":52.2297,"longitude":21.017532,"reserved":0,"last_update":"0001-01-01T00:00:00Z","name_a2s":"","protocol":0,"map":"","folder":"","game":"","app_id":0,"player_count":0,"max_players":0,"Bots":0,"server_type":"","server_os":"","password":false,"vac":false,"version":"","steam_id":0,"keywords":null,"game_id":0,"stv_port":0,"stv_name":"","players":null},{"server_id":50,"name":"Uncletopia | Warsaw | 2 | All Maps","name_short":"waw-2","host":"waw-1.pl.uncletopia.com","port":27025,"enabled":true,"region":"eu","cc":"pl","latitude":52.2297,"longitude":21.017532,"reserved":0,"last_update":"0001-01-01T00:00:00Z","name_a2s":"Uncletopia | Warsaw | 2 | All Maps","protocol":17,"map":"pl_borneo","folder":"tf","game":"Team Fortress","app_id":440,"player_count":0,"max_players":24,"Bots":0,"server_type":"Dedicated","server_os":"Linux","password":true,"vac":true,"version":"7757534","steam_id":85568392925397851,"keywords":["nocrits","nodmgspread","payload","uncletopia"],"game_id":440,"stv_port":27026,"stv_name":"Uncletopia | Warsaw | 2 | All Maps | STV","players":null},{"server_id":51,"name":"Uncletopia | Warsaw | 3 | All Maps","name_short":"waw-3","host":"waw-1.pl.uncletopia.com","port":27035,"enabled":true,"region":"eu","cc":"pl","latitude":52.2297,"longitude":21.017532,"reserved":0,"last_update":"0001-01-01T00:00:00Z","name_a2s":"Uncletopia | Warsaw | 3 | All Maps","protocol":17,"map":"koth_viaduct","folder":"tf","game":"Team Fortress","app_id":440,"player_count":0,"max_players":24,"Bots":0,"server_type":"Dedicated","server_os":"Linux","password":true,"vac":true,"version":"7757534","steam_id":85568392925397852,"keywords":["cp","nocrits","nodmgspread","uncletopia"],"game_id":440,"stv_port":27036,"stv_name":"Uncletopia | Warsaw | 3 | All Maps | STV","players":null},{"server_id":52,"name":"Uncletopia | Warsaw | 4 | All Maps","name_short":"waw-4","host":"waw-1.pl.uncletopia.com","port":27045,"enabled":true,"region":"eu","cc":"pl","latitude":52.2297,"longitude":21.017532,"reserved":0,"last_update":"0001-01-01T00:00:00Z","name_a2s":"Uncletopia | Warsaw | 4 | All Maps","protocol":17,"map":"koth_highpass","folder":"tf","game":"Team Fortress","app_id":440,"player_count":0,"max_players":24,"Bots":0,"server_type":"Dedicated","server_os":"Linux","password":true,"vac":true,"version":"7757534","steam_id":85568392925397853,"keywords":["cp","nocrits","nodmgspread","uncletopia"],"game_id":440,"stv_port":27046,"stv_name":"Uncletopia | Warsaw | 4 | All Maps | STV","players":null},{"server_id":53,"name":"Uncletopia | Warsaw | 5 | Stopwatch Beta","name_short":"waw-5","host":"waw-1.pl.uncletopia.com","port":27055,"enabled":true,"region":"eu","cc":"pl","latitude":52.2297,"longitude":21.017532,"reserved":0,"last_update":"0001-01-01T00:00:00Z","name_a2s":"Uncletopia | Warsaw | 5 | Stopwatch Beta","protocol":17,"map":"pl_upward","folder":"tf","game":"Team Fortress","app_id":440,"player_count":0,"max_players":24,"Bots":0,"server_type":"Dedicated","server_os":"Linux","password":true,"vac":true,"version":"7757534","steam_id":85568392925397854,"keywords":["nocrits","nodmgspread","payload","uncletopia"],"game_id":440,"stv_port":27056,"stv_name":"Uncletopia | Warsaw | 5 | Stopwatch Beta | STV","players":null},{"server_id":54,"name":"Uncletopia | Warsaw | 6 | Community","name_short":"waw-6","host":"waw-1.pl.uncletopia.com","port":27065,"enabled":true,"region":"eu","cc":"pl","latitude":52.2297,"longitude":21.017532,"reserved":0,"last_update":"0001-01-01T00:00:00Z","name_a2s":"Uncletopia | Warsaw | 6 | Community","protocol":17,"map":"workshop/cp_reckoner_rc6.ugc674719999","folder":"tf","game":"Team Fortress","app_id":440,"player_count":0,"max_players":24,"Bots":0,"server_type":"Dedicated","server_os":"Linux","password":true,"vac":true,"version":"7757534","steam_id":85568392925397856,"keywords":["cp","nocrits","nodmgspread","uncletopia"],"game_id":440,"stv_port":27066,"stv_name":"Uncletopia | Warsaw | 6 | Community | STV","players":null}]}