{"status":true,"message":"","result":[{"server_id":9,"name":"Uncletopia | Atlanta | 1 | All Maps","name_short":"atl-1","host":"atl-1.us.uncletopia.com","port":27015,"enabled":true,"region":"us-east","cc":"us","latitude":33.753746,"longitude":-84.38633,"reserved":0,"last_update":"0001-01-01T00:00:00Z","name_a2s":"Uncletopia | Atlanta | 1 | All Maps","protocol":17,"map":"pl_frontier_final","folder":"tf","game":"Team Fortress","app_id":440,"player_count":24,"max_players":24,"Bots":0,"server_type":"Dedicated","server_os":"Linux","password":true,"vac":true,"version":"7757534","steam_id":85568392924469982,"keywords":["nocrits","nodmgspread","payload","uncletopia"],"game_id":440,"stv_port":27016,"stv_name":"Uncletopia | Atlanta | 1 | All Maps | STV","players":[{"user_id":255,"name":"BackwardsEagle","steam_id":76561199013712612,"connected_time":836000000000,"state":"active","ping":74},{"user_id":241,"name":"AmC","steam_id":76561198109731140,"connected_time":2468000000000,"state":"active","ping":158},{"user_id":228,"name":"Higgle Poggers","steam_id":76561198043960257,"connected_time":4219000000000,"state":"active","ping":73},{"user_id":123,"name":"5'2 in real life","steam_id":76561198103496593,"connected_time":15116000000000,"state":"active","ping":45},{"user_id":251,"name":"puppy boy","steam_id":76561198255639473,"connected_time":1602000000000,"state":"active","ping":74},{"user_id":237,"name":"PinkLemonade","steam_id":76561198799286228,"connected_time":2716000000000,"state":"active","ping":199},{"user_id":245,"name":"Nemcat.Jr","steam_id":76561198079821706,"connected_time":2205000000000,"state":"active","ping":55},{"user_id":157,"name":"Ashes!","steam_id":76561197998475441,"connected_time":11959000000000,"state":"active","ping":64},{"user_id":231,"name":"the taxi driver","steam_id":76561198830243167,"connected_time":3528000000000,"state":"active","ping":75},{"user_id":252,"name":"Lilith","steam_id":76561198125102885,"connected_time":1595000000000,"state":"active","ping":65},{"user_id":246,"name":"Gocel","steam_id":76561198071467515,"connected_time":2179000000000,"state":"active","ping":70},{"user_id":247,"name":"the man of coom bob","steam_id":76561199082474364,"connected_time":2177000000000,"state":"active","ping":86},{"user_id":256,"name":"ash","steam_id":76561198127890645,"connected_time":444000000000,"state":"active","ping":74},{"user_id":248,"name":"hippo mode","steam_id":76561198073455521,"connected_time":1887000000000,"state":"active","ping":48},{"user_id":244,"name":"wire-guided","steam_id":76561198055407168,"connected_time":2332000000000,"state":"active","ping":60},{"user_id":234,"name":"dogboys x3c","steam_id":76561198079603532,"connected_time":3141000000000,"state":"active","ping":83},{"user_id":227,"name":"The Pope","steam_id":76561198313560302,"connected_time":4282000000000,"state":"active","ping":42},{"user_id":233,"name":"Tyler\u0026Fingers","steam_id":76561198085154485,"connected_time":3331000000000,"state":"active","ping":86},{"user_id":257,"name":"ƒ†1 ‚ô¶ Synth","steam_id":76561198058660228,"connected_time":426000000000,"state":"active","ping":45},{"user_id":225,"name":"Viokik","steam_id":76561198408846602,"connected_time":4413000000000,"state":"active","ping":89},{"user_id":239,"name":"HarryjusttHarry","steam_id":76561198982810452,"connected_time":2681000000000,"state":"active","ping":74},{"user_id":207,"name":"cass","steam_id":76561198074502046,"connected_time":7159000000000,"state":"active","ping":60},{"user_id":230,"name":"ya!!!","steam_id":76561198243965308,"connected_time":4081000000000,"state":"active","ping":61},{"user_id":254,"name":"Jeffu","steam_id":76561198866893933,"connected_time":936000000000,"state":"active","ping":119}]},{"server_id":104,"name":"Uncletopia | Atlanta | 2 | All Maps","name_short":"atl-2","host":"atl-1.us.uncletopia.com","port":27025,"enabled":true,"region":"us-east","cc":"us","latitude":33.753746,"longitude":-84.38633,"reserved":0,"last_update":"0001-01-01T00:00:00Z","name_a2s":"Uncletopia | Atlanta | 2 | All Maps","protocol":17,"map":"pl_barnblitz","folder":"tf","game":"Team Fortress","app_id":440,"player_count":24,"max_players":24,"Bots":0,"server_type":"Dedicated","server_os":"Linux","password":true,"vac":true,"version":"7757534","steam_id":85568392924469983,"keywords":["nocrits","nodmgspread","payload","uncletopia"],"game_id":440,"stv_port":27026,"stv_name":"Uncletopia | Atlanta | 2 | All Maps | STV","players":[{"user_id":116,"name":"–ØawrFatcat","steam_id":76561198017698926,"connected_time":806000000000,"state":"active","ping":86},{"user_id":117,"name":"pertygerd","steam_id":76561198074102768,"connected_time":691000000000,"state":"active","ping":65},{"user_id":94,"name":"Biosock Infiknit","steam_id":76561198072693794,"connected_time":1907000000000,"state":"active","ping":86},{"user_id":129,"name":"ElMaN \\ (‡∂û) /","steam_id":76561198801769113,"connected_time":66000000000,"state":"active","ping":276},{"user_id":95,"name":"hack fraud","steam_id":76561198015036066,"connected_time":1901000000000,"state":"active","ping":90},{"user_id":118,"name":"JerlBays","steam_id":76561198096773292,"connected_time":675000000000,"state":"active","ping":46},{"user_id":106,"name":"Btesa2","steam_id":76561198051628283,"connected_time":1409000000000,"state":"active","ping":64},{"user_id":70,"name":"FancyBones","steam_id":76561198180198885,"connected_time":4156000000000,"state":"active","ping":66},{"user_id":110,"name":"MARIOPARTYDSFAN","steam_id":76561198872122117,"connected_time":1198000000000,"state":"active","ping":47},{"user_id":119,"name":"KurkanzeL","steam_id":76561198061731425,"connected_time":670000000000,"state":"active","ping":194},{"user_id":42,"name":"Sprinklze","steam_id":76561198163562681,"connected_time":6207000000000,"state":"active","ping":49},{"user_id":114,"name":"ketamine ape","steam_id":76561198448119144,"connected_time":913000000000,"state":"active","ping":59},{"user_id":75,"name":"schnedwob","steam_id":76561197999146588,"connected_time":3376000000000,"state":"active","ping":71},{"user_id":93,"name":"FemboyNate","steam_id":76561198146636410,"connected_time":1944000000000,"state":"active","ping":59},{"user_id":96,"name":"rumes","steam_id":76561198349219467,"connected_time":1898000000000,"state":"active","ping":80},{"user_id":107,"name":"Zack","steam_id":76561198308083836,"connected_time":1398000000000,"state":"active","ping":64},{"user_id":126,"name":"Violet42","steam_id":76561198072927887,"connected_time":555000000000,"state":"active","ping":65},{"user_id":124,"name":"Mystery","steam_id":76561199385233153,"connected_time":588000000000,"state":"active","ping":60},{"user_id":122,"name":"aw yep","steam_id":76561199010216034,"connected_time":628000000000,"state":"active","ping":105},{"user_id":128,"name":"sumo dumplings","steam_id":76561198115553314,"connected_time":479000000000,"state":"active","ping":87},{"user_id":125,"name":"oddlyobtuselemon1654","steam_id":76561198877069773,"connected_time":582000000000,"state":"active","ping":70},{"user_id":109,"name":"UnKnowpersons","steam_id":76561198295283911,"connected_time":1260000000000,"state":"active","ping":76},{"user_id":127,"name":"„Äê‚äö ”© ‚äö„Äë","steam_id":76561198263895597,"connected_time":523000000000,"state":"active","ping":83},{"user_id":56,"name":"NerfPlayeR135","steam_id":76561198012588199,"connected_time":5864000000000,"state":"active","ping":65}]},{"server_id":400,"name":"Uncletopia | Atlanta | 3 | Community","name_short":"atl-3","host":"atl-1.us.uncletopia.com","port":27035,"enabled":true,"region":"us-east","cc":"us","latitude":33.753746,"longitude":-84.38633,"reserved":0,"last_update":"0001-01-01T00:00:00Z","name_a2s":"Uncletopia | Atlanta | 3 | Community","protocol":17,"map":"workshop/koth_ashville_final.ugc2130459942","folder":"tf","game":"Team Fortress","app_id":440,"player_count":1,"max_players":24,"Bots":0,"server_type":"Dedicated","server_os":"Linux","password":true,"vac":true,"version":"7757534","steam_id":85568392924515187,"keywords":["cp","nocrits","nodmgspread","uncletopia"],"game_id":440,"stv_port":27036,"stv_name":"Uncletopia | Atlanta | 3 | Community | STV","players":[{"user_id":11,"name":"King_Kip6971","steam_id":76561199269099402,"connected_time":74000000000,"state":"active","ping":59}]},{"server_id":401,"name":"Uncletopia | Atlanta | 4 | No Payload","name_short":"atl-4","host":"atl-1.us.uncletopia.com","port":27045,"enabled":true,"region":"us-east","cc":"us","latitude":33.753746,"longitude":-84.38633,"reserved":0,"last_update":"0001-01-01T00:00:00Z","name_a2s":"","protocol":0,"map":"","folder":"","game":"","app_id":0,"player_count":0,"max_players":0,"Bots":0,"server_type":"","server_os":"","password":false,"vac":false,"version":"","steam_id":0,"keywords":null,"game_id":0,"stv_port":0,"stv_name":"","players":null},{"server_id":2,"name":"Uncletopia | Chicago | 1 | All Maps","name_short":"chi-1","host":"chi-1.us.uncletopia.com","port":27015,"enabled":true,"region":"us-central","cc":"us","latitude":41.881832,"longitude":-87.62318,"reserved":0,"last_update":"0001-01-01T00:00:00Z","name_a2s":"Uncletopia | Chicago | 1 | All Maps","protocol":17,"map":"pl_goldrush","folder":"tf","game":"Team Fortress","app_id":440,"player_count":24,"max_players":24,"Bots":0,"server_type":"Dedicated","server_os":"Linux","password":true,"vac":true,"version":"7757534","steam_id":85568392924469984,"keywords":["nocrits","nodmgspread","payload","uncletopia"],"game_id":440,"stv_port":27016,"stv_name":"Uncletopia | Chicago | 1 | All Maps | STV","players":[{"user_id":424,"name":"loudpisser","steam_id":76561198078802110,"connected_time":1869000000000,"state":"active","ping":66},{"user_id":410,"name":"CeigeBirb","steam_id":76561198068538473,"connected_time":2714000000000,"state":"active","ping":69},{"user_id":393,"name":"Howard Hamlin","steam_id":76561198881039861,"connected_time":4526000000000,"state":"active","ping":50},{"user_id":422,"name":"Fluffeline","steam_id":76561198352909489,"connected_time":1913000000000,"state":"active","ping":135},{"user_id":435,"name":"birdrose44","steam_id":76561199278203971,"connected_time":270000000000,"state":"active","ping":70},{"user_id":436,"name":"Picard","steam_id":76561197993530161,"connected_time":64000000000,"state":"active","ping":84},{"user_id":419,"name":"Morshu","steam_id":76561198081617990,"connected_time":2131000000000,"state":"active","ping":98},{"user_id":428,"name":"AGagagaga","steam_id":76561199008585183,"connected_time":1289000000000,"state":"active","ping":78},{"user_id":437,"name":"Nebula","steam_id":76561198795878862,"connected_time":63000000000,"state":"active","ping":66},{"user_id":425,"name":"your local forecast","steam_id":76561198042243083,"connected_time":1500000000000,"state":"active","ping":60},{"user_id":414,"name":"Glory","steam_id":76561198013975080,"connected_time":2676000000000,"state":"active","ping":73},{"user_id":298,"name":"Salad","steam_id":76561198842089895,"connected_time":13904000000000,"state":"active","ping":58},{"user_id":404,"name":"DarthEthanBoy","steam_id":76561198441643581,"connected_time":3140000000000,"state":"active","ping":84},{"user_id":389,"name":"Doublebagel47","steam_id":76561198832021744,"connected_time":4679000000000,"state":"active","ping":68},{"user_id":237,"name":"JestinJester","steam_id":76561198411846094,"connected_time":17120000000000,"state":"active","ping":70},{"user_id":403,"name":"alv√∂ru","steam_id":76561198273488925,"connected_time":3243000000000,"state":"active","ping":82},{"user_id":358,"name":"SpazHero","steam_id":76561198021130008,"connected_time":6790000000000,"state":"active","ping":88},{"user_id":348,"name":"Yukon Cornelius","steam_id":76561198261512781,"connected_time":7642000000000,"state":"active","ping":69},{"user_id":423,"name":"HavocGDI","steam_id":76561199388371914,"connected_time":1910000000000,"state":"active","ping":128},{"user_id":429,"name":"Thunder Cat7","steam_id":76561198105762912,"connected_time":1284000000000,"state":"active","ping":93},{"user_id":433,"name":"Ed gaming 114","steam_id":76561199401784260,"connected_time":679000000000,"state":"active","ping":74},{"user_id":430,"name":"FooFLit","steam_id":76561198236967080,"connected_time":1277000000000,"state":"active","ping":89},{"user_id":434,"name":"Lia_Rein","steam_id":76561198151569597,"connected_time":446000000000,"state":"active","ping":143},{"user_id":415,"name":"Aerobro","steam_id":76561198033530996,"connected_time":2657000000000,"state":"active","ping":96}]},{"server_id":106,"name":"Uncletopia | Chicago | 2 | All Maps","name_short":"chi-2","host":"chi-1.us.uncletopia.com","port":27025,"enabled":true,"region":"us-central","cc":"us","latitude":41.881832,"longitude":-87.62318,"reserved":0,"last_update":"0001-01-01T00:00:00Z","name_a2s":"Uncletopia | Chicago | 2 | All Maps","protocol":17,"map":"pl_swiftwater_final1","folder":"tf","game":"Team Fortress","app_id":440,"player_count":21,"max_players":24,"Bots":0,"server_type":"Dedicated","server_os":"Linux","password":true,"vac":true,"version":"7757534","steam_id":85568392924469985,"keywords":["nocrits","nodmgspread","payload","uncletopia"],"game_id":440,"stv_port":27026,"stv_name":"Uncletopia | Chicago | 2 | All Maps | STV","players":[{"user_id":427,"name":"Pink","steam_id":76561198042140694,"connected_time":52000000000,"state":"active","ping":63},{"user_id":354,"name":"old birb man","steam_id":76561199410269097,"connected_time":5912000000000,"state":"active","ping":178},{"user_id":402,"name":"blobb","steam_id":76561198950448488,"connected_time":1268000000000,"state":"active","ping":49},{"user_id":400,"name":"Rat_king","steam_id":76561199465689129,"connected_time":1499000000000,"state":"active","ping":79},{"user_id":423,"name":"Gaming in the Clinton Years","steam_id":76561198111259720,"connected_time":321000000000,"state":"active","ping":60},{"user_id":387,"name":"Enron Hubbard","steam_id":76561198012951411,"connected_time":3178000000000,"state":"active","ping":57},{"user_id":426,"name":"Vibey","steam_id":76561198342873474,"connected_time":186000000000,"state":"active","ping":80},{"user_id":373,"name":"KBoneski ‚ô°","steam_id":76561198307409065,"connected_time":4698000000000,"state":"active","ping":111},{"user_id":416,"name":"doctor large","steam_id":76561199195836752,"connected_time":837000000000,"state":"active","ping":77},{"user_id":404,"name":"Zelumie","steam_id":76561198147335801,"connected_time":1202000000000,"state":"active","ping":57},{"user_id":372,"name":"Ajax","steam_id":76561197962240140,"connected_time":4705000000000,"state":"active","ping":68},{"user_id":421,"name":"kite","steam_id":76561198346516392,"connected_time":578000000000,"state":"active","ping":67},{"user_id":370,"name":"test","steam_id":76561198197388678,"connected_time":4878000000000,"state":"active","ping":78},{"user_id":418,"name":"Fresh Lychee","steam_id":76561198045399559,"connected_time":826000000000,"state":"active","ping":54},{"user_id":362,"name":"I'm Only 4 Inches","steam_id":76561198055542546,"connected_time":5686000000000,"state":"active","ping":54},{"user_id":407,"name":"Toast","steam_id":76561198234616616,"connected_time":1150000000000,"state":"active","ping":57},{"user_id":408,"name":"I LOVE KETCHUP","steam_id":76561199147389435,"connected_time":1148000000000,"state":"active","ping":69},{"user_id":424,"name":"-œÄ- BakaD","steam_id":76561197960559169,"connected_time":251000000000,"state":"active","ping":48},{"user_id":383,"name":"ExtremeDucks","steam_id":76561198351756464,"connected_time":3503000000000,"state":"active","ping":72},{"user_id":419,"name":"jzplr üé∑üêõ","steam_id":76561198091901520,"connected_time":822000000000,"state":"active","ping":66},{"user_id":398,"name":"Argee","steam_id":76561198124335953,"connected_time":1574000000000,"state":"active","ping":84}]},{"server_id":402,"name":"Uncletopia | Chicago | 3 | All Maps","name_short":"chi-3","host":"chi-1.us.uncletopia.com","port":27035,"enabled":true,"region":"us-central","cc":"us","latitude":41.881832,"longitude":-87.62318,"reserved":0,"last_update":"0001-01-01T00:00:00Z","name_a2s":"Uncletopia | Chicago | 3 | All Maps","protocol":17,"map":"pl_swiftwater_final1","folder":"tf","game":"Team Fortress","app_id":440,"player_count":24,"max_players":24,"Bots":0,"server_type":"Dedicated","server_os":"Linux","password":true,"vac":true,"version":"7757534","steam_id":85568392924515191,"keywords":["nocrits","nodmgspread","payload","uncletopia"],"game_id":440,"stv_port":27036,"stv_name":"Uncletopia | Chicago | 3 | All Maps | STV","players":[{"user_id":122,"name":"lwyr","steam_id":76561198007982579,"connected_time":5254000000000,"state":"active","ping":58},{"user_id":140,"name":"starry","steam_id":76561198339334250,"connected_time":2412000000000,"state":"active","ping":133},{"user_id":146,"name":"Sloome Lover","steam_id":76561198299879257,"connected_time":2144000000000,"state":"active","ping":74},{"user_id":128,"name":"mio","steam_id":76561198239286750,"connected_time":3615000000000,"state":"active","ping":70},{"user_id":152,"name":"Jarlpy","steam_id":76561198193905778,"connected_time":1977000000000,"state":"active","ping":70},{"user_id":162,"name":"Queen Xeena","steam_id":76561198325213436,"connected_time":538000000000,"state":"active","ping":72},{"user_id":125,"name":"Duke","steam_id":76561197998669973,"connected_time":5012000000000,"state":"active","ping":48},{"user_id":113,"name":"El Bondin","steam_id":76561198820792434,"connected_time":5676000000000,"state":"active","ping":91},{"user_id":96,"name":"creeeeeee","steam_id":76561198392539722,"connected_time":7170000000000,"state":"active","ping":77},{"user_id":161,"name":"Disco Fever","steam_id":76561198069532215,"connected_time":588000000000,"state":"active","ping":72},{"user_id":163,"name":"Floofyneeko OwO","steam_id":76561198415835936,"connected_time":513000000000,"state":"active","ping":113},{"user_id":144,"name":"shadow elite","steam_id":76561198165212575,"connected_time":2372000000000,"state":"active","ping":74},{"user_id":166,"name":"Deltaco","steam_id":76561198094572694,"connected_time":350000000000,"state":"active","ping":113},{"user_id":159,"name":"mechiimi ‚òÖ","steam_id":76561198321627268,"connected_time":1065000000000,"state":"active","ping":118},{"user_id":156,"name":"charlesCartoonfan118","steam_id":76561198116821551,"connected_time":1308000000000,"state":"active","ping":60},{"user_id":151,"name":"Filthy Acts at Reasonable Price","steam_id":76561198354615890,"connected_time":2010000000000,"state":"active","ping":56},{"user_id":157,"name":"DatBlodGud","steam_id":76561198867897841,"connected_time":1297000000000,"state":"active","ping":84},{"user_id":119,"name":"The Announcer's Feet","steam_id":76561199443456893,"connected_time":5558000000000,"state":"active","ping":76},{"user_id":134,"name":"Icaras","steam_id":76561198416724843,"connected_time":3357000000000,"state":"active","ping":134},{"user_id":100,"name":"b3afy","steam_id":76561198084208649,"connected_time":7126000000000,"state":"active","ping":91},{"user_id":136,"name":"CGamer6155","steam_id":76561199440141596,"connected_time":2832000000000,"state":"active","ping":58},{"user_id":165,"name":"Blob900","steam_id":76561198255413767,"connected_time":483000000000,"state":"active","ping":55},{"user_id":108,"name":"Project_Counter","steam_id":76561198152786076,"connected_time":6346000000000,"state":"active","ping":75},{"user_id":160,"name":"Seven76","steam_id":76561198075334888,"connected_time":604000000000,"state":"active","ping":73}]},{"server_id":403,"name":"Uncletopia | Chicago | 4 | All Maps","name_short":"chi-4","host":"chi-1.us.uncletopia.com","port":27045,"enabled":true,"region":"us-central","cc":"us","latitude":41.881832,"longitude":-87.62318,"reserved":0,"last_update":"0001-01-01T00:00:00Z","name_a2s":"Uncletopia | Chicago | 4 | All Maps","protocol":17,"map":"pl_pier","folder":"tf","game":"Team Fortress","app_id":440,"player_count":23,"max_players":24,"Bots":0,"server_type":"Dedicated","server_os":"Linux","password":true,"vac":true,"version":"7757534","steam_id":85568392924515193,"keywords":["nocrits","nodmgspread","payload","uncletopia"],"game_id":440,"stv_port":27046,"stv_name":"Uncletopia | Chicago | 4 | All Maps | STV","players":[{"user_id":363,"name":"DannyM","steam_id":76561198351165570,"connected_time":674000000000,"state":"active","ping":61},{"user_id":348,"name":"Corn","steam_id":76561198177186718,"connected_time":1490000000000,"state":"active","ping":48},{"user_id":336,"name":"grimp gromp","steam_id":76561199267535506,"connected_time":1882000000000,"state":"active","ping":66},{"user_id":362,"name":"sansa musa","steam_id":76561198163723555,"connected_time":713000000000,"state":"active","ping":72},{"user_id":333,"name":"Macko","steam_id":76561198452005461,"connected_time":2038000000000,"state":"active","ping":88},{"user_id":291,"name":"minnesota beach mouse","steam_id":76561198133234284,"connected_time":6031000000000,"state":"active","ping":60},{"user_id":327,"name":"Gliglamesh","steam_id":76561198058221449,"connected_time":2606000000000,"state":"active","ping":52},{"user_id":309,"name":"toes","steam_id":76561198221151676,"connected_time":4845000000000,"state":"active","ping":86},{"user_id":342,"name":"Tallyden","steam_id":76561197998572962,"connected_time":1648000000000,"state":"active","ping":63},{"user_id":349,"name":"judesro","steam_id":76561198352244888,"connected_time":1433000000000,"state":"active","ping":72},{"user_id":358,"name":"Artefaks","steam_id":76561198812132715,"connected_time":1073000000000,"state":"active","ping":113},{"user_id":364,"name":"‚òºBarracuda‚òº","steam_id":76561198013022083,"connected_time":532000000000,"state":"active","ping":59},{"user_id":232,"name":"moe5x","steam_id":76561198316877833,"connected_time":9857000000000,"state":"active","ping":110},{"user_id":359,"name":"Ashton","steam_id":76561198174753503,"connected_time":1023000000000,"state":"active","ping":118},{"user_id":354,"name":"lcy13vv","steam_id":76561197995997446,"connected_time":1122000000000,"state":"active","ping":50},{"user_id":361,"name":"gabagool","steam_id":76561198882758067,"connected_time":805000000000,"state":"active","ping":45},{"user_id":353,"name":"Rakk","steam_id":76561198855176174,"connected_time":1139000000000,"state":"active","ping":95},{"user_id":252,"name":"SexySpectacles","steam_id":76561198211449103,"connected_time":8899000000000,"state":"active","ping":64},{"user_id":345,"name":"BasicPeaches","steam_id":76561198190890150,"connected_time":1591000000000,"state":"active","ping":77},{"user_id":365,"name":"smittann","steam_id":76561198299570650,"connected_time":525000000000,"state":"active","ping":87},{"user_id":323,"name":"bandit !!","steam_id":76561198126546221,"connected_time":3130000000000,"state":"active","ping":90},{"user_id":321,"name":"shrub","steam_id":76561198108020681,"connected_time":3642000000000,"state":"active","ping":58},{"user_id":318,"name":"nuclear levels of sour","steam_id":76561198185980055,"connected_time":3661000000000,"state":"active","ping":65}]},{"server_id":36,"name":"Uncletopia | Chicago | 5 | All Maps","name_short":"chi-5","host":"chi-2.us.uncletopia.com","port":27015,"enabled":true,"region":"us-central","cc":"us","latitude":41.881832,"longitude":-87.62318,"reserved":0,"last_update":"0001-01-01T00:00:00Z","name_a2s":"Uncletopia | Chicago | 5 | All Maps","protocol":17,"map":"pl_upward","folder":"tf","game":"Team Fortress","app_id":440,"player_count":4,"max_players":24,"Bots":0,"server_type":"Dedicated","server_os":"Linux","password":true,"vac":true,"version":"7757534","steam_id":85568392924866362,"keywords":["nocrits","nodmgspread","payload","uncletopia"],"game_id":440,"stv_port":27016,"stv_name":"Uncletopia | Chicago | 5 | All Maps | STV","players":[{"user_id":22,"name":"ccox42132","steam_id":76561199333482908,"connected_time":469000000000,"state":"active","ping":108},{"user_id":23,"name":"Ask Nicely For Heals","steam_id":76561198138478907,"connected_time":225000000000,"state":"active","ping":42},{"user_id":20,"name":"MagicNumber9960","steam_id":76561198886603359,"connected_time":589000000000,"state":"active","ping":55},{"user_id":14,"name":"Lil Achnid","steam_id":76561199189075618,"connected_time":1536000000000,"state":"active","ping":70}]},{"server_id":37,"name":"Uncletopia | Chicago | 6 | All Maps","name_short":"chi-6","host":"chi-2.us.uncletopia.com","port":27025,"enabled":true,"region":"us-central","cc":"us","latitude":41.881832,"longitude":-87.62318,"reserved":0,"last_update":"0001-01-01T00:00:00Z","name_a2s":"Uncletopia | Chicago | 6 | All Maps","protocol":17,"map":"ctf_2fort","folder":"tf","game":"Team Fortress","app_id":440,"player_count":22,"max_players":24,"Bots":0,"server_type":"Dedicated","server_os":"Linux","password":true,"vac":true,"version":"7757534","steam_id":85568392924866363,"keywords":["ctf","nocrits","nodmgspread","uncletopia"],"game_id":440,"stv_port":27026,"stv_name":"Uncletopia | Chicago | 6 | All Maps | STV","players":[{"user_id":111,"name":"bean3d","steam_id":76561198285786989,"connected_time":375000000000,"state":"active","ping":109},{"user_id":93,"name":"Nidus | IFN.GG","steam_id":76561198886277516,"connected_time":1197000000000,"state":"active","ping":76},{"user_id":35,"name":"TheRussianator","steam_id":76561198283923511,"connected_time":5209000000000,"state":"active","ping":61},{"user_id":84,"name":"carrion goat she/it","steam_id":76561198262064871,"connected_time":1788000000000,"state":"active","ping":45},{"user_id":112,"name":"ruria","steam_id":76561198080652905,"connected_time":344000000000,"state":"active","ping":60},{"user_id":51,"name":"Resident Thrussy Lender","steam_id":76561198071790583,"connected_time":3555000000000,"state":"active","ping":57},{"user_id":75,"name":"i steal my grandmas money ;)","steam_id":76561198353456379,"connected_time":2470000000000,"state":"active","ping":72},{"user_id":102,"name":"Based","steam_id":76561199089316436,"connected_time":756000000000,"state":"active","ping":90},{"user_id":72,"name":"bojack from the show bojack hor","steam_id":76561198053006712,"connected_time":2950000000000,"state":"active","ping":53},{"user_id":61,"name":"Skullypoo","steam_id":76561198067912022,"connected_time":3321000000000,"state":"active","ping":62},{"user_id":119,"name":"seems_fishy","steam_id":76561199028846656,"connected_time":104000000000,"state":"active","ping":61},{"user_id":96,"name":"WokToYou","steam_id":76561198049693624,"connected_time":873000000000,"state":"active","ping":56},{"user_id":103,"name":"Mug Moment Gaming","steam_id":76561198233098136,"connected_time":738000000000,"state":"active","ping":54},{"user_id":54,"name":"Nodin","steam_id":76561198135757376,"connected_time":3443000000000,"state":"active","ping":55},{"user_id":117,"name":"WD40","steam_id":76561198170069109,"connected_time":130000000000,"state":"active","ping":105},{"user_id":115,"name":"DreamlessKnight","steam_id":76561198414469325,"connected_time":230000000000,"state":"active","ping":97},{"user_id":120,"name":"Redesign Your Logo","steam_id":76561198090289497,"connected_time":88000000000,"state":"active","ping":84},{"user_id":59,"name":"BoX_hEaD101","steam_id":76561198200875467,"connected_time":3374000000000,"state":"active","ping":117},{"user_id":62,"name":"Whys there a level 3 there?","steam_id":76561198309696109,"connected_time":3302000000000,"state":"active","ping":77},{"user_id":107,"name":"Bluedot","steam_id":76561198019909639,"connected_time":551000000000,"state":"active","ping":60},{"user_id":122,"name":"hud_saytext_time 0","steam_id":76561198010327228,"connected_time":68000000000,"state":"active","ping":153},{"user_id":121,"name":"CloudVic","steam_id":76561198118868716,"connected_time":84000000000,"state":"active","ping":77}]},{"server_id":38,"name":"Uncletopia | Chicago | 7 | Stopwatch Beta","name_short":"chi-7","host":"chi-2.us.uncletopia.com","port":27035,"enabled":true,"region":"us-central","cc":"us","latitude":41.881832,"longitude":-87.62318,"reserved":0,"last_update":"0001-01-01T00:00:00Z","name_a2s":"Uncletopia | Chicago | 7 | Stopwatch Beta","protocol":17,"map":"workshop/koth_ashville_final.ugc2130459942","folder":"tf","game":"Team Fortress","app_id":440,"player_count":0,"max_players":24,"Bots":0,"server_type":"Dedicated","server_os":"Linux","password":true,"vac":true,"version":"7757534","steam_id":85568392924866364,"keywords":["cp","nocrits","nodmgspread","uncletopia"],"game_id":440,"stv_port":27036,"stv_name":"Uncletopia | Chicago | 7 | Stopwatch Beta | STV","players":null},{"server_id":39,"name":"Uncletopia | Chicago | 8 | Community","name_short":"chi-8","host":"chi-2.us.uncletopia.com","port":27045,"enabled":true,"region":"us-central","cc":"us","latitude":41.881832,"longitude":-87.62318,"reserved":0,"last_update":"0001-01-01T00:00:00Z","name_a2s":"Uncletopia | Chicago | 8 | Community","protocol":17,"map":"koth_cascade","folder":"tf","game":"Team Fortress","app_id":440,"player_count":0,"max_players":24,"Bots":0,"server_type":"Dedicated","server_os":"Linux","password":true,"vac":true,"version":"7757534","steam_id":85568392924866365,"keywords":["cp","nocrits","nodmgspread","uncletopia"],"game_id":440,"stv_port":27046,"stv_name":"Uncletopia | Chicago | 8 | Community | STV","players":null},{"server_id":8,"name":"Uncletopia | Dallas | 1 | All Maps","name_short":"dal-1","host":"dal-1.us.uncletopia.com","port":27015,"enabled":true,"region":"us-central","cc":"us","latitude":32.779167,"longitude":-96.80889,"reserved":0,"last_update":"0001-01-01T00:00:00Z","name_a2s":"Uncletopia | Dallas | 1 | All Maps","protocol":17,"map":"pl_barnblitz","folder":"tf","game":"Team Fortress","app_id":440,"player_count":23,"max_players":24,"Bots":0,"server_type":"Dedicated","server_os":"Linux","password":true,"vac":true,"version":"7757534","steam_id":85568392924469986,"keywords":["nocrits","nodmgspread","payload","uncletopia"],"game_id":440,"stv_port":27016,"stv_name":"Uncletopia | Dallas | 1 | All Maps | STV","players":[{"user_id":356,"name":"‚ô©‚ò¢sœü","steam_id":76561198032942894,"connected_time":2097000000000,"state":"active","ping":181},{"user_id":265,"name":"-+","steam_id":76561198125261443,"connected_time":6828000000000,"state":"active","ping":109},{"user_id":375,"name":"horologium","steam_id":76561198174005075,"connected_time":567000000000,"state":"active","ping":46},{"user_id":378,"name":"mkl","steam_id":76561197986401685,"connected_time":219000000000,"state":"active","ping":57},{"user_id":357,"name":"shantal.n","steam_id":76561199385252794,"connected_time":2097000000000,"state":"active","ping":134},{"user_id":363,"name":"TOOL fan","steam_id":76561198272021214,"connected_time":1672000000000,"state":"active","ping":77},{"user_id":355,"name":"Shamrock Shake Oct.10.2020 @8pm","steam_id":76561198833313201,"connected_time":2153000000000,"state":"active","ping":83},{"user_id":307,"name":"StunningGaming","steam_id":76561198091855849,"connected_time":4488000000000,"state":"active","ping":89},{"user_id":371,"name":"Cresant Ape","steam_id":76561198127425559,"connected_time":676000000000,"state":"active","ping":44},{"user_id":372,"name":"Freeza","steam_id":76561198050341005,"connected_time":674000000000,"state":"active","ping":67},{"user_id":373,"name":"Ozyruz","steam_id":76561197998785161,"connected_time":637000000000,"state":"active","ping":76},{"user_id":361,"name":"a Salty Individual","steam_id":76561197979951077,"connected_time":1862000000000,"state":"active","ping":142},{"user_id":245,"name":"Eden","steam_id":76561198081284664,"connected_time":9129000000000,"state":"active","ping":76},{"user_id":382,"name":"Genius Meme","steam_id":76561198162911254,"connected_time":18000000000,"state":"spawning","ping":74},{"user_id":380,"name":"Ellis","steam_id":76561198993634489,"connected_time":137000000000,"state":"active","ping":84},{"user_id":374,"name":"pelt","steam_id":76561197993593754,"connected_time":618000000000,"state":"active","ping":75},{"user_id":364,"name":"the meat man","steam_id":76561198037921140,"connected_time":1208000000000,"state":"active","ping":63},{"user_id":362,"name":"ELAMAT","steam_id":76561199102883421,"connected_time":1817000000000,"state":"active","ping":90},{"user_id":381,"name":"StevieNicholai","steam_id":76561198327310266,"connected_time":83000000000,"state":"active","ping":59},{"user_id":358,"name":"GLXy","steam_id":76561198207551544,"connected_time":2085000000000,"state":"active","ping":111},{"user_id":323,"name":"Sableye","steam_id":76561198061247147,"connected_time":3910000000000,"state":"active","ping":72},{"user_id":379,"name":"DonPalanqueto","steam_id":76561198807008180,"connected_time":140000000000,"state":"active","ping":87},{"user_id":376,"name":"Huntpk","steam_id":76561198340591674,"connected_time":555000000000,"state":"active","ping":62}]},{"server_id":108,"name":"Uncletopia | Dallas | 2 | All Maps","name_short":"dal-2","host":"dal-1.us.uncletopia.com","port":27025,"enabled":true,"region":"us-central","cc":"us","latitude":32.779167,"longitude":-96.80889,"reserved":0,"last_update":"0001-01-01T00:00:00Z","name_a2s":"Uncletopia | Dallas | 2 | All Maps","protocol":17,"map":"cp_dustbowl","folder":"tf","game":"Team Fortress","app_id":440,"player_count":24,"max_players":24,"Bots":0,"server_type":"Dedicated","server_os":"Linux","password":true,"vac":true,"version":"7757534","steam_id":85568392924469988,"keywords":["cp","nocrits","nodmgspread","uncletopia"],"game_id":440,"stv_port":27026,"stv_name":"Uncletopia | Dallas | 2 | All Maps | STV","players":[{"user_id":98,"name":"Hsepirn","steam_id":76561198152395431,"connected_time":1110000000000,"state":"active","ping":87},{"user_id":105,"name":"crypt","steam_id":76561198280142450,"connected_time":143000000000,"state":"active","ping":49},{"user_id":44,"name":"BANGARANG","steam_id":76561198816597453,"connected_time":4488000000000,"state":"active","ping":79},{"user_id":106,"name":"LerN","steam_id":76561198083463877,"connected_time":141000000000,"state":"active","ping":71},{"user_id":102,"name":"Voon","steam_id":76561198166843533,"connected_time":495000000000,"state":"active","ping":96},{"user_id":96,"name":"Gummie","steam_id":76561198807069433,"connected_time":1242000000000,"state":"active","ping":104},{"user_id":100,"name":"Jester","steam_id":76561198153102922,"connected_time":888000000000,"state":"active","ping":58},{"user_id":75,"name":"Piccadilly Willy","steam_id":76561198000312126,"connected_time":3620000000000,"state":"active","ping":78},{"user_id":88,"name":"SmokeyGalaxy","steam_id":76561198118780516,"connected_time":1867000000000,"state":"active","ping":58},{"user_id":107,"name":"cloaker","steam_id":76561199453618642,"connected_time":133000000000,"state":"active","ping":119},{"user_id":48,"name":"fox news goblin","steam_id":76561198167648580,"connected_time":4322000000000,"state":"active","ping":61},{"user_id":95,"name":"not.abbie.mp4","steam_id":76561199144787598,"connected_time":1276000000000,"state":"active","ping":101},{"user_id":50,"name":"Bill","steam_id":76561198151834921,"connected_time":4305000000000,"state":"active","ping":95},{"user_id":32,"name":"ribbonborn","steam_id":76561198001195423,"connected_time":5004000000000,"state":"active","ping":65},{"user_id":92,"name":"TransWomanGaming","steam_id":76561198809645656,"connected_time":1528000000000,"state":"active","ping":70},{"user_id":108,"name":"kitsu ‚ô•","steam_id":76561198091741658,"connected_time":121000000000,"state":"active","ping":60},{"user_id":83,"name":"Ryan Lewis truther","steam_id":76561198050505826,"connected_time":2362000000000,"state":"active","ping":66},{"user_id":91,"name":"tonyforshyr","steam_id":76561198846474978,"connected_time":1663000000000,"state":"active","ping":68},{"user_id":109,"name":"Jeeper","steam_id":76561198155583692,"connected_time":97000000000,"state":"active","ping":83},{"user_id":103,"name":"Nani?","steam_id":76561198130982692,"connected_time":209000000000,"state":"active","ping":70},{"user_id":54,"name":"beyonder","steam_id":76561198045844070,"connected_time":4260000000000,"state":"active","ping":56},{"user_id":56,"name":"BreakfastTacos","steam_id":76561198847620442,"connected_time":4244000000000,"state":"active","ping":115},{"user_id":58,"name":"Archie","steam_id":76561198137112917,"connected_time":4226000000000,"state":"active","ping":90},{"user_id":94,"name":"Transfem Furry \u003c3","steam_id":76561198288036403,"connected_time":1498000000000,"state":"active","ping":119}]},{"server_id":5,"name":"Uncletopia | Frankfurt | 1 | All Maps","name_short":"frk-1","host":"frk-1.de.uncletopia.com","port":27015,"enabled":true,"region":"eu","cc":"de","latitude":50.110924,"longitude":8.682127,"reserved":0,"last_update":"0001-01-01T00:00:00Z","name_a2s":"Uncletopia | Frankfurt | 1 | All Maps","protocol":17,"map":"pl_swiftwater_final1","folder":"tf","game":"Team Fortress","app_id":440,"player_count":23,"max_players":24,"Bots":0,"server_type":"Dedicated","server_os":"Linux","password":true,"vac":true,"version":"7757534","steam_id":85568392924469989,"keywords":["nocrits","nodmgspread","payload","uncletopia"],"game_id":440,"stv_port":27016,"stv_name":"Uncletopia | Frankfurt | 1 | All Maps | STV","players":[{"user_id":161,"name":"funkliner","steam_id":76561198436902492,"connected_time":1523000000000,"state":"active","ping":126},{"user_id":137,"name":"Skuld","steam_id":76561198064734905,"connected_time":3810000000000,"state":"active","ping":92},{"user_id":156,"name":"_Corvo_","steam_id":76561198129339188,"connected_time":1725000000000,"state":"active","ping":85},{"user_id":126,"name":"XPullaHiiri","steam_id":76561198031652375,"connected_time":4752000000000,"state":"active","ping":88},{"user_id":184,"name":"B@yka","steam_id":76561198986736592,"connected_time":258000000000,"state":"active","ping":66},{"user_id":183,"name":"Tea guy","steam_id":76561198797847641,"connected_time":451000000000,"state":"active","ping":78},{"user_id":157,"name":"Daikon","steam_id":76561198044017083,"connected_time":1660000000000,"state":"active","ping":61},{"user_id":117,"name":"moser23","steam_id":76561197960543171,"connected_time":5871000000000,"state":"active","ping":51},{"user_id":166,"name":"Bobby Brickolini","steam_id":76561198037468491,"connected_time":1406000000000,"state":"active","ping":58},{"user_id":113,"name":"G6 sherlock","steam_id":76561198802967796,"connected_time":6224000000000,"state":"active","ping":115},{"user_id":178,"name":"ZePequenio","steam_id":76561197968506094,"connected_time":828000000000,"state":"active","ping":80},{"user_id":40,"name":"walluu","steam_id":76561198121830870,"connected_time":12316000000000,"state":"active","ping":73},{"user_id":175,"name":"Luke","steam_id":76561197993517025,"connected_time":946000000000,"state":"active","ping":60},{"user_id":162,"name":"Uno","steam_id":76561198023465646,"connected_time":1512000000000,"state":"active","ping":73},{"user_id":152,"name":"MoeruKurowassan","steam_id":76561198319349647,"connected_time":2476000000000,"state":"active","ping":89},{"user_id":176,"name":"CumbustiblePunda","steam_id":76561197974274677,"connected_time":892000000000,"state":"active","ping":55},{"user_id":185,"name":"Ecton","steam_id":76561198025103720,"connected_time":108000000000,"state":"active","ping":62},{"user_id":165,"name":"sebciosz","steam_id":76561198275906734,"connected_time":1423000000000,"state":"active","ping":70},{"user_id":145,"name":"zvekan","steam_id":76561198381101196,"connected_time":3607000000000,"state":"active","ping":61},{"user_id":186,"name":"Sagger","steam_id":76561198065915748,"connected_time":20000000000,"state":"active","ping":84},{"user_id":168,"name":"myrlejon","steam_id":76561198092480015,"connected_time":1391000000000,"state":"active","ping":60},{"user_id":171,"name":"Len Goodman","steam_id":76561198006824952,"connected_time":1313000000000,"state":"active","ping":67},{"user_id":182,"name":"isterkvarn","steam_id":76561198080064844,"connected_time":715000000000,"state":"active","ping":66}]},{"server_id":110,"name":"Uncletopia | Frankfurt | 2 | All Maps","name_short":"frk-2","host":"frk-1.de.uncletopia.com","port":27025,"enabled":true,"region":"eu","cc":"de","latitude":50.110924,"longitude":8.682127,"reserved":0,"last_update":"0001-01-01T00:00:00Z","name_a2s":"Uncletopia | Frankfurt | 2 | All Maps","protocol":17,"map":"pl_upward","folder":"tf","game":"Team Fortress","app_id":440,"player_count":24,"max_players":24,"Bots":0,"server_type":"Dedicated","server_os":"Linux","password":true,"vac":true,"version":"7757534","steam_id":85568392924469990,"keywords":["nocrits","nodmgspread","payload","uncletopia"],"game_id":440,"stv_port":27026,"stv_name":"Uncletopia | Frankfurt | 2 | All Maps | STV","players":[{"user_id":458,"name":"Juiceydough","steam_id":76561197997323419,"connected_time":1576000000000,"state":"active","ping":90},{"user_id":481,"name":"ldshwt","steam_id":76561198090364357,"connected_time":395000000000,"state":"active","ping":47},{"user_id":479,"name":"skai the fucking portugal mane","steam_id":76561198184881255,"connected_time":422000000000,"state":"active","ping":71},{"user_id":451,"name":"General Petrov","steam_id":76561198027204104,"connected_time":2175000000000,"state":"active","ping":88},{"user_id":477,"name":"Pipper","steam_id":76561197970326616,"connected_time":443000000000,"state":"active","ping":50},{"user_id":439,"name":"cloud","steam_id":76561198179768931,"connected_time":2494000000000,"state":"active","ping":65},{"user_id":459,"name":"Into Boobin' Butt","steam_id":76561198067204908,"connected_time":1545000000000,"state":"active","ping":60},{"user_id":432,"name":"Lux","steam_id":76561198060417740,"connected_time":3213000000000,"state":"active","ping":46},{"user_id":480,"name":":)","steam_id":76561198103988618,"connected_time":415000000000,"state":"active","ping":75},{"user_id":483,"name":"The one who knocks","steam_id":76561198089341471,"connected_time":379000000000,"state":"active","ping":81},{"user_id":489,"name":"‚òÅ Lou1smeister ‚òÅ","steam_id":76561198004032968,"connected_time":145000000000,"state":"active","ping":74},{"user_id":494,"name":"sloppy transgirl toppy","steam_id":76561198057092208,"connected_time":30000000000,"state":"spawning","ping":60},{"user_id":461,"name":"KnorbertD","steam_id":76561198175745541,"connected_time":1541000000000,"state":"active","ping":72},{"user_id":485,"name":"roblan11","steam_id":76561198066839258,"connected_time":333000000000,"state":"active","ping":46},{"user_id":486,"name":"www.twitch.tv/kirkan","steam_id":76561198029873185,"connected_time":311000000000,"state":"active","ping":58},{"user_id":490,"name":"(wm) Das Fleisch","steam_id":76561198001250715,"connected_time":111000000000,"state":"active","ping":56},{"user_id":491,"name":"xepnfogon","steam_id":76561198107127340,"connected_time":98000000000,"state":"active","ping":60},{"user_id":492,"name":"Bocchi the Cock o_0","steam_id":76561198051862530,"connected_time":92000000000,"state":"active","ping":71},{"user_id":493,"name":"Chuffo","steam_id":76561198220192517,"connected_time":90000000000,"state":"active","ping":48},{"user_id":495,"name":"Gibus Hat","steam_id":76561198868565358,"connected_time":13000000000,"state":"active","ping":88},{"user_id":447,"name":"dn4k","steam_id":76561199221755690,"connected_time":2373000000000,"state":"active","ping":77},{"user_id":465,"name":"Benzo Fury","steam_id":76561198025259336,"connected_time":1298000000000,"state":"active","ping":51},{"user_id":463,"name":"Hugh J. Nus","steam_id":76561198170609049,"connected_time":1447000000000,"state":"active","ping":76},{"user_id":474,"name":"its me hi im the problem","steam_id":76561198097507847,"connected_time":1127000000000,"state":"active","ping":76}]},{"server_id":308,"name":"Uncletopia | Frankfurt | 3 | All Maps","name_short":"frk-3","host":"frk-1.de.uncletopia.com","port":27035,"enabled":true,"region":"eu","cc":"de","latitude":50.110924,"longitude":8.682127,"reserved":0,"last_update":"0001-01-01T00:00:00Z","name_a2s":"Uncletopia | Frankfurt | 3 | All Maps","protocol":17,"map":"pl_borneo","folder":"tf","game":"Team Fortress","app_id":440,"player_count":21,"max_players":24,"Bots":0,"server_type":"Dedicated","server_os":"Linux","password":true,"vac":true,"version":"7757534","steam_id":85568392924504274,"keywords":["nocrits","nodmgspread","payload","uncletopia"],"game_id":440,"stv_port":27036,"stv_name":"Uncletopia | Frankfurt | 3 | All Maps | STV","players":[{"user_id":252,"name":"Bond","steam_id":76561198070654906,"connected_time":2828000000000,"state":"active","ping":55},{"user_id":262,"name":"NOM","steam_id":76561198062033234,"connected_time":2310000000000,"state":"active","ping":60},{"user_id":271,"name":"Portal2Player","steam_id":76561198062870114,"connected_time":1329000000000,"state":"active","ping":139},{"user_id":253,"name":"subway vergil","steam_id":76561199110064166,"connected_time":2820000000000,"state":"active","ping":79},{"user_id":197,"name":"After8","steam_id":76561198090750865,"connected_time":7815000000000,"state":"active","ping":64},{"user_id":286,"name":"feed and seed","steam_id":76561199088046420,"connected_time":89000000000,"state":"active","ping":60},{"user_id":249,"name":"‚ôâ LEIGULAS ‚ôâ","steam_id":76561198006815007,"connected_time":3332000000000,"state":"active","ping":71},{"user_id":248,"name":"RadialMount","steam_id":76561198063002562,"connected_time":3353000000000,"state":"active","ping":59},{"user_id":244,"name":"Matt","steam_id":76561199242133658,"connected_time":3827000000000,"state":"active","ping":71},{"user_id":255,"name":"Clitorina","steam_id":76561198077570815,"connected_time":2812000000000,"state":"active","ping":55},{"user_id":277,"name":"J√•nuary","steam_id":76561198272259060,"connected_time":1154000000000,"state":"active","ping":56},{"user_id":281,"name":"DJay","steam_id":76561198940787931,"connected_time":886000000000,"state":"active","ping":60},{"user_id":266,"name":"Dzan50","steam_id":76561198059758591,"connected_time":1728000000000,"state":"spawning","ping":60},{"user_id":273,"name":"JujuBalu","steam_id":76561198207253071,"connected_time":1294000000000,"state":"active","ping":45},{"user_id":251,"name":"fgustav","steam_id":76561197996939661,"connected_time":3089000000000,"state":"active","ping":72},{"user_id":283,"name":"Hann√º","steam_id":76561197969886128,"connected_time":585000000000,"state":"active","ping":66},{"user_id":265,"name":"Flash","steam_id":76561198067379855,"connected_time":1735000000000,"state":"active","ping":90},{"user_id":258,"name":"Mass","steam_id":76561198432195204,"connected_time":2726000000000,"state":"active","ping":54},{"user_id":285,"name":"TK","steam_id":76561199384193338,"connected_time":285000000000,"state":"active","ping":56},{"user_id":207,"name":"FoOzTV","steam_id":76561197998636728,"connected_time":6910000000000,"state":"active","ping":72},{"user_id":276,"name":"V l e d u t z","steam_id":76561198836251435,"connected_time":1240000000000,"state":"active","ping":72}]},{"server_id":309,"name":"Uncletopia | Frankfurt | 4 | All Maps","name_short":"frk-4","host":"frk-1.de.uncletopia.com","port":27045,"enabled":true,"region":"eu","cc":"de","latitude":50.110924,"longitude":8.682127,"reserved":0,"last_update":"0001-01-01T00:00:00Z","name_a2s":"Uncletopia | Frankfurt | 4 | All Maps","protocol":17,"map":"koth_lakeside_final","folder":"tf","game":"Team Fortress","app_id":440,"player_count":0,"max_players":24,"Bots":0,"server_type":"Dedicated","server_os":"Linux","password":true,"vac":true,"version":"7757534","steam_id":85568392924504275,"keywords":["cp","nocrits","nodmgspread","uncletopia"],"game_id":440,"stv_port":27046,"stv_name":"Uncletopia | Frankfurt | 4 | All Maps | STV","players":null},{"server_id":310,"name":"Uncletopia | Frankfurt | 5 | All Maps","name_short":"frk-5","host":"frk-1.de.uncletopia.com","port":27055,"enabled":true,"region":"eu","cc":"de","latitude":50.110924,"longitude":8.682127,"reserved":0,"last_update":"0001-01-01T00:00:00Z","name_a2s":"Uncletopia | Frankfurt | 5 | All Maps","protocol":17,"map":"pl_borneo","folder":"tf","game":"Team Fortress","app_id":440,"player_count":24,"max_players":24,"Bots":0,"server_type":"Dedicated","server_os":"Linux","password":true,"vac":true,"version":"7757534","steam_id":85568392924504277,"keywords":["nocrits","nodmgspread","payload","uncletopia"],"game_id":440,"stv_port":27056,"stv_name":"Uncletopia | Frankfurt | 5 | All Maps | STV","players":[{"user_id":573,"name":"natas","steam_id":76561198363768978,"connected_time":367000000000,"state":"active","ping":59},{"user_id":555,"name":"Lm","steam_id":76561198836754631,"connected_time":2899000000000,"state":"active","ping":51},{"user_id":559,"name":"ArmedWithWings","steam_id":76561198154615474,"connected_time":2473000000000,"state":"active","ping":85},{"user_id":581,"name":"David \"Crash\" Murphy","steam_id":76561198292845505,"connected_time":187000000000,"state":"active","ping":93},{"user_id":574,"name":"an3x.org","steam_id":76561198042602892,"connected_time":333000000000,"state":"active","ping":67},{"user_id":519,"name":"big hoops","steam_id":76561198004703799,"connected_time":5439000000000,"state":"active","ping":45},{"user_id":575,"name":"Chambersite","steam_id":76561198197022399,"connected_time":306000000000,"state":"active","ping":60},{"user_id":576,"name":"Digital Love","steam_id":76561198048250715,"connected_time":306000000000,"state":"active","ping":46},{"user_id":558,"name":"yoursbzt","steam_id":76561198201866574,"connected_time":2629000000000,"state":"active","ping":67},{"user_id":523,"name":"pitbull gaming","steam_id":76561198052412362,"connected_time":5368000000000,"state":"active","ping":65},{"user_id":563,"name":"Deckard","steam_id":76561198004704647,"connected_time":1842000000000,"state":"active","ping":76},{"user_id":579,"name":"Adrenaline","steam_id":76561197970852048,"connected_time":237000000000,"state":"active","ping":65},{"user_id":568,"name":"static","steam_id":76561198836825741,"connected_time":1231000000000,"state":"active","ping":57},{"user_id":531,"name":"TJ1212","steam_id":76561199013575313,"connected_time":5266000000000,"state":"active","ping":62},{"user_id":533,"name":"poopcorn","steam_id":76561198435246575,"connected_time":5225000000000,"state":"active","ping":60},{"user_id":536,"name":"H-say","steam_id":76561198177400362,"connected_time":5084000000000,"state":"active","ping":100},{"user_id":537,"name":"syms","steam_id":76561198066679812,"connected_time":5068000000000,"state":"active","ping":75},{"user_id":538,"name":"Endi","steam_id":76561198914938199,"connected_time":5060000000000,"state":"active","ping":90},{"user_id":572,"name":"Doctor Mobius","steam_id":76561197971281806,"connected_time":371000000000,"state":"active","ping":66},{"user_id":580,"name":"cinny","steam_id":76561198832112629,"connected_time":233000000000,"state":"active","ping":74},{"user_id":570,"name":"Magic","steam_id":76561198401602586,"connected_time":1181000000000,"state":"active","ping":86},{"user_id":566,"name":"Nameless","steam_id":76561198274105878,"connected_time":1784000000000,"state":"active","ping":86},{"user_id":571,"name":"doritos cubun","steam_id":76561198116530769,"connected_time":762000000000,"state":"active","ping":92},{"user_id":554,"name":"doubletwist","steam_id":76561198062571317,"connected_time":2916000000000,"state":"active","ping":85}]},{"server_id":311,"name":"Uncletopia | Frankfurt | 6 | All Maps","name_short":"frk-6","host":"frk-1.de.uncletopia.com","port":27065,"enabled":true,"region":"eu","cc":"de","latitude":50.110924,"longitude":8.682127,"reserved":0,"last_update":"0001-01-01T00:00:00Z","name_a2s":"Uncletopia | Frankfurt | 6 | All Maps","protocol":17,"map":"cp_powerhouse","folder":"tf","game":"Team Fortress","app_id":440,"player_count":24,"max_players":24,"Bots":0,"server_type":"Dedicated","server_os":"Linux","password":true,"vac":true,"version":"7757534","steam_id":85568392924504278,"keywords":["cp","nocrits","nodmgspread","uncletopia"],"game_id":440,"stv_port":27066,"stv_name":"Uncletopia | Frankfurt | 6 | All Maps | STV","players":[{"user_id":100,"name":"Foxtrot Uniform","steam_id":76561199236576844,"connected_time":3159000000000,"state":"active","ping":164},{"user_id":96,"name":"hide on bush","steam_id":76561198149967445,"connected_time":3361000000000,"state":"active","ping":45},{"user_id":117,"name":"plepek","steam_id":76561198042959598,"connected_time":1736000000000,"state":"active","ping":80},{"user_id":115,"name":"Artur ‚òª","steam_id":76561198264297604,"connected_time":1843000000000,"state":"active","ping":84},{"user_id":105,"name":"chris","steam_id":76561198069723264,"connected_time":2692000000000,"state":"active","ping":68},{"user_id":78,"name":"Charrky","steam_id":76561198054398642,"connected_time":4273000000000,"state":"active","ping":48},{"user_id":19,"name":"Balls","steam_id":76561198086400484,"connected_time":7399000000000,"state":"active","ping":85},{"user_id":112,"name":"Erior","steam_id":76561198039462080,"connected_time":2266000000000,"state":"active","ping":91},{"user_id":118,"name":"‚ô• Aura ‚ô•","steam_id":76561198066258544,"connected_time":1639000000000,"state":"active","ping":53},{"user_id":119,"name":"Spieller","steam_id":76561198057197847,"connected_time":1616000000000,"state":"active","ping":78},{"user_id":116,"name":"gamer","steam_id":76561198209101861,"connected_time":1765000000000,"state":"active","ping":72},{"user_id":82,"name":"xavier","steam_id":76561198076494034,"connected_time":3839000000000,"state":"active","ping":56},{"user_id":107,"name":"Vershal Smershal","steam_id":76561198116223995,"connected_time":2665000000000,"state":"active","ping":60},{"user_id":120,"name":"ChPerette","steam_id":76561198060004887,"connected_time":1610000000000,"state":"active","ping":47},{"user_id":89,"name":"Bromoneto","steam_id":76561198876695014,"connected_time":3699000000000,"state":"active","ping":62},{"user_id":121,"name":"Ansari","steam_id":76561198074982971,"connected_time":1609000000000,"state":"active","ping":51},{"user_id":122,"name":"I Don't Know","steam_id":76561198841011430,"connected_time":1604000000000,"state":"active","ping":68},{"user_id":93,"name":"Mi Manchi","steam_id":76561198171573129,"connected_time":3501000000000,"state":"active","ping":59},{"user_id":102,"name":"player","steam_id":76561198054474684,"connected_time":3045000000000,"state":"active","ping":77},{"user_id":86,"name":"Asbestos Enjoyer","steam_id":76561198001346236,"connected_time":3807000000000,"state":"active","ping":70},{"user_id":109,"name":"Wiki","steam_id":76561198106666604,"connected_time":2587000000000,"state":"active","ping":61},{"user_id":123,"name":"Taogrin","steam_id":76561198069857826,"connected_time":1566000000000,"state":"active","ping":87},{"user_id":94,"name":"Catsanddogs123","steam_id":76561198030868386,"connected_time":3492000000000,"state":"active","ping":106},{"user_id":87,"name":"Rumia","steam_id":76561198103021258,"connected_time":3803000000000,"state":"active","ping":120}]},{"server_id":23,"name":"Uncletopia | Frankfurt | 7 | Stopwatch Beta","name_short":"frk-7","host":"frk-1.de.uncletopia.com","port":27075,"enabled":true,"region":"eu","cc":"de","latitude":50.110924,"longitude":8.682127,"reserved":0,"last_update":"0001-01-01T00:00:00Z","name_a2s":"Uncletopia | Frankfurt | 7 | Stopwatch Beta","protocol":17,"map":"cp_granary","folder":"tf","game":"Team Fortress","app_id":440,"player_count":0,"max_players":24,"Bots":0,"server_type":"Dedicated","server_os":"Linux","password":true,"vac":true,"version":"7757534","steam_id":85568392924742827,"keywords":["cp","nocrits","nodmgspread","uncletopia"],"game_id":440,"stv_port":27076,"stv_name":"Uncletopia | Frankfurt | 7 | Stopwatch Beta | STV","players":null},{"server_id":24,"name":"Uncletopia | Frankfurt | 8 | Community","name_short":"frk-8","host":"frk-1.de.uncletopia.com","port":27085,"enabled":true,"region":"eu","cc":"de","latitude":50.110924,"longitude":8.682127,"reserved":0,"last_update":"0001-01-01T00:00:00Z","name_a2s":"Uncletopia | Frankfurt | 8 | Community","protocol":17,"map":"koth_lakeside_final","folder":"tf","game":"Team Fortress","app_id":440,"player_count":0,"max_players":24,"Bots":0,"server_type":"Dedicated","server_os":"Linux","password":true,"vac":true,"version":"7757534","steam_id":85568392924742828,"keywords":["cp","nocrits","nodmgspread","uncletopia"],"game_id":440,"stv_port":27086,"stv_name":"Uncletopia | Frankfurt | 8 | Community | STV","players":null},{"server_id":202,"name":"Uncletopia | Hong Kong | 1 | All Maps","name_short":"hgk-1","host":"hgk-1.hk.uncletopia.com","port":27015,"enabled":true,"region":"asia","cc":"hk","latitude":22.302711,"longitude":114.177216,"reserved":0,"last_update":"0001-01-01T00:00:00Z","name_a2s":"Uncletopia | Hong Kong | 1 | All Maps","protocol":17,"map":"plr_hightower","folder":"tf","game":"Team Fortress","app_id":440,"player_count":0,"max_players":24,"Bots":0,"server_type":"Dedicated","server_os":"Linux","password":true,"vac":true,"version":"7757534","steam_id":85568392924494504,"keywords":["nocrits","nodmgspread","payload","uncletopia"],"game_id":440,"stv_port":27016,"stv_name":"Uncletopia | Hong Kong | 1 | All Maps | STV","players":null},{"server_id":1,"name":"Uncletopia | Los Angeles | 1 | All Maps","name_short":"lax-1","host":"lax-1.us.uncletopia.com","port":27015,"enabled":true,"region":"us-west","cc":"us","latitude":33.94279,"longitude":-118.41004,"reserved":0,"last_update":"0001-01-01T00:00:00Z","name_a2s":"Uncletopia | Los Angeles | 1 | All Maps","protocol":17,"map":"koth_lakeside_final","folder":"tf","game":"Team Fortress","app_id":440,"player_count":0,"max_players":24,"Bots":0,"server_type":"Dedicated","server_os":"Linux","password":true,"vac":true,"version":"7757534","steam_id":85568392924469991,"keywords":["cp","nocrits","nodmgspread","uncletopia"],"game_id":440,"stv_port":27016,"stv_name":"Uncletopia | Los Angeles | 1 | All Maps | STV","players":null},{"server_id":112,"name":"Uncletopia | Los Angeles | 2 | All Maps","name_short":"lax-2","host":"lax-1.us.uncletopia.com","port":27025,"enabled":true,"region":"us-west","cc":"us","latitude":33.94279,"longitude":-118.41004,"reserved":0,"last_update":"0001-01-01T00:00:00Z","name_a2s":"Uncletopia | Los Angeles | 2 | All Maps","protocol":17,"map":"plr_bananabay","folder":"tf","game":"Team Fortress","app_id":440,"player_count":23,"max_players":24,"Bots":0,"server_type":"Dedicated","server_os":"Linux","password":true,"vac":true,"version":"7757534","steam_id":85568392924469992,"keywords":["nocrits","nodmgspread","payload","uncletopia"],"game_id":440,"stv_port":27026,"stv_name":"Uncletopia | Los Angeles | 2 | All Maps | STV","players":[{"user_id":438,"name":"southern hospitality","steam_id":76561198862785401,"connected_time":1368000000000,"state":"active","ping":46},{"user_id":442,"name":"dr.pugzs","steam_id":76561199338313228,"connected_time":498000000000,"state":"active","ping":115},{"user_id":439,"name":"Newport1","steam_id":76561198074614044,"connected_time":1323000000000,"state":"active","ping":45},{"user_id":444,"name":"Eremital","steam_id":76561198069557669,"connected_time":457000000000,"state":"active","ping":61},{"user_id":445,"name":"apes on wheels","steam_id":76561198101324429,"connected_time":445000000000,"state":"active","ping":94},{"user_id":414,"name":".Feira.","steam_id":76561198865015150,"connected_time":3465000000000,"state":"active","ping":79},{"user_id":446,"name":"james may","steam_id":76561198043857339,"connected_time":424000000000,"state":"active","ping":53},{"user_id":434,"name":"Zorxhero","steam_id":76561198285507723,"connected_time":1942000000000,"state":"active","ping":58},{"user_id":447,"name":"Bub","steam_id":76561198059791574,"connected_time":401000000000,"state":"active","ping":81},{"user_id":448,"name":"costa","steam_id":76561198881144114,"connected_time":290000000000,"state":"active","ping":75},{"user_id":436,"name":"A potato on your roof","steam_id":76561198427502200,"connected_time":1901000000000,"state":"active","ping":60},{"user_id":421,"name":"Joe Biden","steam_id":76561198238699798,"connected_time":3205000000000,"state":"active","ping":98},{"user_id":427,"name":"Kopenich","steam_id":76561198066205245,"connected_time":2733000000000,"state":"active","ping":55},{"user_id":452,"name":"Bleedin' Action Man","steam_id":76561198045722214,"connected_time":222000000000,"state":"active","ping":53},{"user_id":430,"name":"en.wikipedia.org/wiki/Nae_Nae","steam_id":76561198418288939,"connected_time":2163000000000,"state":"active","ping":54},{"user_id":428,"name":"Snugglepuss","steam_id":76561198986510143,"connected_time":2192000000000,"state":"active","ping":47},{"user_id":451,"name":"Sivinus","steam_id":76561198025589541,"connected_time":243000000000,"state":"active","ping":60},{"user_id":440,"name":"RipHunter77","steam_id":76561198272973014,"connected_time":1296000000000,"state":"active","ping":103},{"user_id":423,"name":"An Unhappy Clown","steam_id":76561198175516514,"connected_time":3144000000000,"state":"active","ping":76},{"user_id":424,"name":"Goodra Is The Best Dragon Type","steam_id":76561199194702127,"connected_time":3124000000000,"state":"active","ping":117},{"user_id":453,"name":"Deep Peepus","steam_id":76561198205395757,"connected_time":215000000000,"state":"active","ping":126},{"user_id":426,"name":"primordialheath","steam_id":76561199386942638,"connected_time":3046000000000,"state":"active","ping":105},{"user_id":454,"name":"crunchy obama","steam_id":76561198044485217,"connected_time":146000000000,"state":"active","ping":69}]},{"server_id":324,"name":"Uncletopia | Los Angeles | 3 | All Maps","name_short":"lax-3","host":"lax-1.us.uncletopia.com","port":27035,"enabled":true,"region":"us-west","cc":"us","latitude":33.94279,"longitude":-118.41004,"reserved":0,"last_update":"0001-01-01T00:00:00Z","name_a2s":"Uncletopia | Los Angeles | 3 | All Maps","protocol":17,"map":"pl_barnblitz","folder":"tf","game":"Team Fortress","app_id":440,"player_count":0,"max_players":24,"Bots":0,"server_type":"Dedicated","server_os":"Linux","password":true,"vac":true,"version":"7757534","steam_id":85568392924510198,"keywords":["nocrits","nodmgspread","payload","uncletopia"],"game_id":440,"stv_port":27036,"stv_name":"Uncletopia | Los Angeles | 3 | All Maps | STV","players":null},{"server_id":25,"name":"Uncletopia | Los Angeles | 4 | Stopwatch Beta","name_short":"lax-4","host":"lax-1.us.uncletopia.com","port":27045,"enabled":true,"region":"us-west","cc":"us","latitude":33.94279,"longitude":-118.41004,"reserved":0,"last_update":"0001-01-01T00:00:00Z","name_a2s":"Uncletopia | Los Angeles | 4 | Stopwatch Beta","protocol":17,"map":"pl_upward","folder":"tf","game":"Team Fortress","app_id":440,"player_count":0,"max_players":24,"Bots":0,"server_type":"Dedicated","server_os":"Linux","password":true,"vac":true,"version":"7757534","steam_id":85568392924510199,"keywords":["nocrits","nodmgspread","payload","uncletopia"],"game_id":440,"stv_port":27046,"stv_name":"Uncletopia | Los Angeles | 4 | Stopwatch Beta | STV","players":null},{"server_id":11,"name":"Uncletopia | London | 1 | All Maps","name_short":"lon-1","host":"lon-1.uk.uncletopia.com","port":27015,"enabled":true,"region":"eu","cc":"gb","latitude":51.509865,"longitude":-0.118092,"reserved":0,"last_update":"0001-01-01T00:00:00Z","name_a2s":"Uncletopia | London | 1 | All Maps","protocol":17,"map":"pl_frontier_final","folder":"tf","game":"Team Fortress","app_id":440,"player_count":24,"max_players":24,"Bots":0,"server_type":"Dedicated","server_os":"Linux","password":true,"vac":true,"version":"7757534","steam_id":85568392924367362,"keywords":["nocrits","nodmgspread","payload","uncletopia"],"game_id":440,"stv_port":27016,"stv_name":"Uncletopia | London | 1 | All Maps | STV","players":[{"user_id":620,"name":"dec","steam_id":76561198009660168,"connected_time":5305000000000,"state":"active","ping":57},{"user_id":646,"name":"SOPHIIEE","steam_id":76561198443798981,"connected_time":3914000000000,"state":"active","ping":55},{"user_id":578,"name":"Bonca","steam_id":76561198137503531,"connected_time":7748000000000,"state":"active","ping":74},{"user_id":656,"name":"‚ú™ Danny","steam_id":76561198104483241,"connected_time":3460000000000,"state":"active","ping":48},{"user_id":684,"name":"BreadBubbles","steam_id":76561198174332826,"connected_time":506000000000,"state":"active","ping":57},{"user_id":638,"name":"ike","steam_id":76561198039845647,"connected_time":4075000000000,"state":"active","ping":59},{"user_id":666,"name":"john stick","steam_id":76561198165998678,"connected_time":2174000000000,"state":"active","ping":73},{"user_id":681,"name":"deepsheet","steam_id":76561198245761116,"connected_time":776000000000,"state":"active","ping":82},{"user_id":685,"name":"bayley","steam_id":76561198117472639,"connected_time":479000000000,"state":"active","ping":39},{"user_id":599,"name":"Myrmodion","steam_id":76561198054746247,"connected_time":6272000000000,"state":"active","ping":73},{"user_id":624,"name":"Sneikijs","steam_id":76561198052549308,"connected_time":4946000000000,"state":"active","ping":48},{"user_id":667,"name":"aGryphoN","steam_id":76561198245175308,"connected_time":2063000000000,"state":"active","ping":47},{"user_id":687,"name":"laser","steam_id":76561198036030697,"connected_time":452000000000,"state":"active","ping":79},{"user_id":688,"name":"flan","steam_id":76561198271900816,"connected_time":441000000000,"state":"active","ping":45},{"user_id":672,"name":"Red Dynamite","steam_id":76561199073167935,"connected_time":1609000000000,"state":"active","ping":156},{"user_id":674,"name":"hananamanna","steam_id":76561198006570285,"connected_time":1405000000000,"state":"active","ping":111},{"user_id":676,"name":"KPhii","steam_id":76561198970587061,"connected_time":1381000000000,"state":"active","ping":75},{"user_id":630,"name":"TF2 UPDATE IS REAL","steam_id":76561198048453764,"connected_time":4404000000000,"state":"active","ping":53},{"user_id":680,"name":"Rustyy","steam_id":76561198973687664,"connected_time":836000000000,"state":"active","ping":62},{"user_id":682,"name":"Slash #SaveTF2","steam_id":76561199047081427,"connected_time":765000000000,"state":"active","ping":59},{"user_id":683,"name":"When Life gives you Lemons","steam_id":76561198318290663,"connected_time":649000000000,"state":"active","ping":59},{"user_id":689,"name":"Drekad√≥ttir","steam_id":76561198119979169,"connected_time":439000000000,"state":"active","ping":78},{"user_id":692,"name":"crafteen","steam_id":76561198362185755,"connected_time":152000000000,"state":"active","ping":47},{"user_id":610,"name":"random_player691","steam_id":76561199209946306,"connected_time":5799000000000,"state":"active","ping":49}]},{"server_id":114,"name":"Uncletopia | London | 2 | All Maps","name_short":"lon-2","host":"lon-1.uk.uncletopia.com","port":27025,"enabled":true,"region":"eu","cc":"gb","latitude":51.509865,"longitude":-0.118092,"reserved":0,"last_update":"0001-01-01T00:00:00Z","name_a2s":"Uncletopia | London | 2 | All Maps","protocol":17,"map":"pl_upward","folder":"tf","game":"Team Fortress","app_id":440,"player_count":24,"max_players":24,"Bots":0,"server_type":"Dedicated","server_os":"Linux","password":true,"vac":true,"version":"7757534","steam_id":85568392924470941,"keywords":["nocrits","nodmgspread","payload","uncletopia"],"game_id":440,"stv_port":27026,"stv_name":"Uncletopia | London | 2 | All Maps | STV","players":[{"user_id":706,"name":"Baki ‡∂û","steam_id":76561198193615529,"connected_time":2572000000000,"state":"active","ping":66},{"user_id":713,"name":"DrExplosive","steam_id":76561198063678579,"connected_time":2153000000000,"state":"active","ping":48},{"user_id":742,"name":"Introvertskater","steam_id":76561199330937686,"connected_time":523000000000,"state":"active","ping":66},{"user_id":741,"name":"breedable","steam_id":76561198010300032,"connected_time":525000000000,"state":"active","ping":73},{"user_id":747,"name":"KLAMA  ‚ù§","steam_id":76561198351549661,"connected_time":331000000000,"state":"active","ping":82},{"user_id":745,"name":"supersabir","steam_id":76561198303055397,"connected_time":450000000000,"state":"active","ping":42},{"user_id":738,"name":"Thors","steam_id":76561197968739075,"connected_time":607000000000,"state":"active","ping":43},{"user_id":692,"name":"Kleiner Engel","steam_id":76561198009922500,"connected_time":3443000000000,"state":"active","ping":69},{"user_id":669,"name":"Roe Jogan","steam_id":76561198871991529,"connected_time":4452000000000,"state":"active","ping":66},{"user_id":735,"name":"big al","steam_id":76561198800662675,"connected_time":772000000000,"state":"active","ping":77},{"user_id":737,"name":"Alienketchup","steam_id":76561197970585162,"connected_time":641000000000,"state":"active","ping":82},{"user_id":743,"name":".::[SerafeTTiN]::.","steam_id":76561198009471724,"connected_time":498000000000,"state":"active","ping":101},{"user_id":728,"name":"üòà COCKDESTROYER üòà","steam_id":76561198042846999,"connected_time":1657000000000,"state":"active","ping":80},{"user_id":731,"name":"James","steam_id":76561198138558005,"connected_time":1398000000000,"state":"active","ping":58},{"user_id":721,"name":"Lyell","steam_id":76561198350329389,"connected_time":1864000000000,"state":"active","ping":71},{"user_id":744,"name":"ProfessorCandyMan","steam_id":76561199121792459,"connected_time":489000000000,"state":"active","ping":72},{"user_id":584,"name":"Wardruna96","steam_id":76561199057083828,"connected_time":11597000000000,"state":"active","ping":86},{"user_id":727,"name":"nay ners","steam_id":76561199238480644,"connected_time":1677000000000,"state":"active","ping":135},{"user_id":729,"name":"P Diddy","steam_id":76561198829344838,"connected_time":1633000000000,"state":"active","ping":43},{"user_id":702,"name":"Camo Leaf","steam_id":76561197999456575,"connected_time":3003000000000,"state":"active","ping":52},{"user_id":732,"name":"MAKENTAKEN","steam_id":76561199127359587,"connected_time":1195000000000,"state":"active","ping":101},{"user_id":746,"name":"kotamine","steam_id":76561198068907991,"connected_time":433000000000,"state":"active","ping":73},{"user_id":733,"name":"üå≠ Arentrir KING.LBJ.6","steam_id":76561198334126785,"connected_time":1075000000000,"state":"active","ping":74},{"user_id":740,"name":"lofimonkeyjazz","steam_id":76561198117059662,"connected_time":560000000000,"state":"active","ping":78}]},{"server_id":320,"name":"Uncletopia | London | 3 | All Maps","name_short":"lon-3","host":"lon-1.uk.uncletopia.com","port":27035,"enabled":true,"region":"eu","cc":"gb","latitude":51.509865,"longitude":-0.118092,"reserved":0,"last_update":"0001-01-01T00:00:00Z","name_a2s":"Uncletopia | London | 3 | All Maps","protocol":17,"map":"koth_highpass","folder":"tf","game":"Team Fortress","app_id":440,"player_count":24,"max_players":24,"Bots":0,"server_type":"Dedicated","server_os":"Linux","password":true,"vac":true,"version":"7757534","steam_id":85568392924510192,"keywords":["cp","nocrits","nodmgspread","uncletopia"],"game_id":440,"stv_port":27036,"stv_name":"Uncletopia | London | 3 | All Maps | STV","players":[{"user_id":432,"name":"marf","steam_id":76561198014828037,"connected_time":3516000000000,"state":"active","ping":53},{"user_id":433,"name":"eeeeee","steam_id":76561198017786875,"connected_time":3507000000000,"state":"active","ping":69},{"user_id":461,"name":"Valoxi","steam_id":76561197995042938,"connected_time":1780000000000,"state":"active","ping":70},{"user_id":479,"name":"Archos","steam_id":76561198181820631,"connected_time":378000000000,"state":"active","ping":49},{"user_id":472,"name":"Laurie","steam_id":76561198082951750,"connected_time":1127000000000,"state":"active","ping":48},{"user_id":447,"name":"fume.","steam_id":76561197960476801,"connected_time":2881000000000,"state":"active","ping":56},{"user_id":478,"name":"BIGGERDANGO","steam_id":76561198247876394,"connected_time":418000000000,"state":"active","ping":49},{"user_id":435,"name":"Renard pos4","steam_id":76561197998908594,"connected_time":3435000000000,"state":"active","ping":59},{"user_id":410,"name":"gGABEsz","steam_id":76561198117199068,"connected_time":5391000000000,"state":"active","ping":69},{"user_id":480,"name":"bert","steam_id":76561198156318293,"connected_time":375000000000,"state":"active","ping":45},{"user_id":481,"name":"Bookus","steam_id":76561198108620516,"connected_time":286000000000,"state":"active","ping":39},{"user_id":474,"name":"Davey","steam_id":76561198256879107,"connected_time":726000000000,"state":"active","ping":76},{"user_id":436,"name":"Getrkod","steam_id":76561198986560793,"connected_time":3423000000000,"state":"active","ping":58},{"user_id":437,"name":"Carrotcracker","steam_id":76561198034862396,"connected_time":3421000000000,"state":"active","ping":84},{"user_id":482,"name":"Lil StinGa","steam_id":76561198069444222,"connected_time":260000000000,"state":"active","ping":52},{"user_id":483,"name":"arcSolver","steam_id":76561198212013944,"connected_time":251000000000,"state":"active","ping":47},{"user_id":462,"name":"NightyKnight","steam_id":76561198146549416,"connected_time":1778000000000,"state":"active","ping":63},{"user_id":463,"name":"Cuthbert","steam_id":76561198204649481,"connected_time":1776000000000,"state":"active","ping":109},{"user_id":486,"name":"tanyathsus","steam_id":76561198089522447,"connected_time":69000000000,"state":"active","ping":60},{"user_id":484,"name":"Robbee","steam_id":76561198208221697,"connected_time":175000000000,"state":"active","ping":94},{"user_id":485,"name":"Tobleroney","steam_id":76561198154402655,"connected_time":171000000000,"state":"active","ping":40},{"user_id":465,"name":"finbar","steam_id":76561198056812396,"connected_time":1745000000000,"state":"active","ping":76},{"user_id":476,"name":"Dr. Mile Panika","steam_id":76561198044891088,"connected_time":452000000000,"state":"active","ping":81},{"user_id":487,"name":"Shawty","steam_id":76561198158631465,"connected_time":47000000000,"state":"active","ping":73}]},{"server_id":321,"name":"Uncletopia | London | 4 | All Maps","name_short":"lon-4","host":"lon-1.uk.uncletopia.com","port":27045,"enabled":true,"region":"eu","cc":"gb","latitude":51.509865,"longitude":-0.118092,"reserved":0,"last_update":"0001-01-01T00:00:00Z","name_a2s":"Uncletopia | London | 4 | All Maps","protocol":17,"map":"pl_upward","folder":"tf","game":"Team Fortress","app_id":440,"player_count":24,"max_players":24,"Bots":0,"server_type":"Dedicated","server_os":"Linux","password":true,"vac":true,"version":"7757534","steam_id":85568392924510193,"keywords":["nocrits","nodmgspread","payload","uncletopia"],"game_id":440,"stv_port":27046,"stv_name":"Uncletopia | London | 4 | All Maps | STV","players":[{"user_id":276,"name":"LordTrap.exe","steam_id":76561198318089716,"connected_time":6272000000000,"state":"active","ping":54},{"user_id":346,"name":"bricked","steam_id":76561198123562445,"connected_time":373000000000,"state":"active","ping":45},{"user_id":300,"name":"Hoks","steam_id":76561198126442242,"connected_time":4176000000000,"state":"active","ping":115},{"user_id":342,"name":"bANji","steam_id":76561198108898161,"connected_time":1099000000000,"state":"active","ping":54},{"user_id":349,"name":"Greasy","steam_id":76561198868180366,"connected_time":130000000000,"state":"active","ping":61},{"user_id":331,"name":"lain wa lain","steam_id":76561198273358760,"connected_time":1453000000000,"state":"active","ping":65},{"user_id":339,"name":"Flying skyhigh","steam_id":76561198372971096,"connected_time":1167000000000,"state":"active","ping":71},{"user_id":311,"name":"Garoiop","steam_id":76561198082326459,"connected_time":3031000000000,"state":"active","ping":39},{"user_id":338,"name":"Dimitri_612","steam_id":76561199223984137,"connected_time":1215000000000,"state":"active","ping":53},{"user_id":347,"name":"2023","steam_id":76561198857712172,"connected_time":319000000000,"state":"active","ping":48},{"user_id":334,"name":"The Manmelter Man","steam_id":76561198995673730,"connected_time":1367000000000,"state":"active","ping":101},{"user_id":332,"name":"iattwink","steam_id":76561198963378933,"connected_time":1438000000000,"state":"active","ping":46},{"user_id":320,"name":"Glitchpower64","steam_id":76561198994710718,"connected_time":2031000000000,"state":"active","ping":59},{"user_id":350,"name":"citizen","steam_id":76561198094813693,"connected_time":92000000000,"state":"active","ping":75},{"user_id":319,"name":"NitPig","steam_id":76561198212991935,"connected_time":2213000000000,"state":"active","ping":107},{"user_id":287,"name":"Ran33","steam_id":76561197991474499,"connected_time":5569000000000,"state":"active","ping":79},{"user_id":310,"name":"giclure :;","steam_id":76561197986362828,"connected_time":3213000000000,"state":"active","ping":111},{"user_id":340,"name":"Tusho","steam_id":76561198115447383,"connected_time":1164000000000,"state":"active","ping":112},{"user_id":309,"name":"gibb (official)","steam_id":76561198074097655,"connected_time":3227000000000,"state":"active","ping":41},{"user_id":328,"name":"WiiSportKing","steam_id":76561198114139081,"connected_time":1566000000000,"state":"active","ping":56},{"user_id":324,"name":"glyph","steam_id":76561197980736364,"connected_time":1917000000000,"state":"active","ping":88},{"user_id":335,"name":"JohnMat2","steam_id":76561199007662486,"connected_time":1329000000000,"state":"active","ping":70},{"user_id":348,"name":"puck","steam_id":76561198121260981,"connected_time":317000000000,"state":"active","ping":45},{"user_id":341,"name":"‚ô¨ ·¥õ·¥á·¥ã…™·¥õ ‚ô¨","steam_id":76561198111704722,"connected_time":1141000000000,"state":"active","ping":105}]},{"server_id":21,"name":"Uncletopia | London | 5 | All Maps","name_short":"lon-5","host":"lon-1.uk.uncletopia.com","port":27055,"enabled":true,"region":"eu","cc":"gb","latitude":51.509865,"longitude":-0.118092,"reserved":0,"last_update":"0001-01-01T00:00:00Z","name_a2s":"Uncletopia | London | 5 | All Maps","protocol":17,"map":"cp_gullywash_final1","folder":"tf","game":"Team Fortress","app_id":440,"player_count":24,"max_players":24,"Bots":0,"server_type":"Dedicated","server_os":"Linux","password":true,"vac":true,"version":"7757534","steam_id":85568392924742829,"keywords":["cp","nocrits","nodmgspread","uncletopia"],"game_id":440,"stv_port":27056,"stv_name":"Uncletopia | London | 5 | All Maps | STV","players":[{"user_id":444,"name":"Sushii","steam_id":76561198297987372,"connected_time":1510000000000,"state":"active","ping":52},{"user_id":467,"name":"smk","steam_id":76561198068027379,"connected_time":343000000000,"state":"active","ping":75},{"user_id":445,"name":"mt","steam_id":76561197961319303,"connected_time":1429000000000,"state":"active","ping":58},{"user_id":446,"name":"kaa","steam_id":76561198044061430,"connected_time":1411000000000,"state":"active","ping":58},{"user_id":447,"name":"Penis Contortionist","steam_id":76561198073663784,"connected_time":1407000000000,"state":"active","ping":34},{"user_id":417,"name":"Spoofr","steam_id":76561199267825043,"connected_time":3858000000000,"state":"active","ping":74},{"user_id":363,"name":"akakez","steam_id":76561198095432821,"connected_time":7998000000000,"state":"active","ping":117},{"user_id":448,"name":"Minion from 1943","steam_id":76561198012351470,"connected_time":1343000000000,"state":"active","ping":43},{"user_id":452,"name":"Dewotter","steam_id":76561198007653168,"connected_time":1113000000000,"state":"active","ping":51},{"user_id":473,"name":"The Bread Bringer","steam_id":76561198264079743,"connected_time":36000000000,"state":"active","ping":71},{"user_id":465,"name":"true","steam_id":76561198031145243,"connected_time":483000000000,"state":"active","ping":75},{"user_id":458,"name":"Mr.Cobretti","steam_id":76561198089905715,"connected_time":921000000000,"state":"active","ping":76},{"user_id":402,"name":"PizzaPete123","steam_id":76561198089478290,"connected_time":6233000000000,"state":"active","ping":35},{"user_id":420,"name":"Pita Bread","steam_id":76561198095600582,"connected_time":3834000000000,"state":"active","ping":78},{"user_id":392,"name":"Fat Pigeon","steam_id":76561198817940142,"connected_time":6744000000000,"state":"active","ping":47},{"user_id":471,"name":"Stabbyratbag","steam_id":76561198119531916,"connected_time":197000000000,"state":"active","ping":31},{"user_id":464,"name":"Udinese Dion","steam_id":76561198067931573,"connected_time":520000000000,"state":"active","ping":55},{"user_id":474,"name":"Ghostler","steam_id":76561198008734235,"connected_time":10000000000,"state":"spawning","ping":33},{"user_id":463,"name":"Sky Tree","steam_id":76561198027103242,"connected_time":727000000000,"state":"active","ping":104},{"user_id":404,"name":"Topme","steam_id":76561198091734693,"connected_time":5673000000000,"state":"active","ping":59},{"user_id":454,"name":"Arcader","steam_id":76561198109860110,"connected_time":1041000000000,"state":"active","ping":136},{"user_id":468,"name":"tm`","steam_id":76561197993580412,"connected_time":293000000000,"state":"active","ping":73},{"user_id":470,"name":"Tomau5","steam_id":76561198027409468,"connected_time":201000000000,"state":"active","ping":54},{"user_id":436,"name":"Cillian","steam_id":76561199471571148,"connected_time":3074000000000,"state":"active","ping":62}]},{"server_id":22,"name":"Uncletopia | London | 6 | All Maps","name_short":"lon-6","host":"lon-1.uk.uncletopia.com","port":27065,"enabled":true,"region":"eu","cc":"gb","latitude":51.509865,"longitude":-0.118092,"reserved":0,"last_update":"0001-01-01T00:00:00Z","name_a2s":"Uncletopia | London | 6 | All Maps","protocol":17,"map":"pl_borneo","folder":"tf","game":"Team Fortress","app_id":440,"player_count":0,"max_players":24,"Bots":0,"server_type":"Dedicated","server_os":"Linux","password":true,"vac":true,"version":"7757534","steam_id":85568392924742830,"keywords":["nocrits","nodmgspread","payload","uncletopia"],"game_id":440,"stv_port":27066,"stv_name":"Uncletopia | London | 6 | All Maps | STV","players":null},{"server_id":40,"name":"Uncletopia | London | 7 | No Payload","name_short":"lon-7","host":"lon-1.uk.uncletopia.com","port":27075,"enabled":true,"region":"eu","cc":"gb","latitude":51.509865,"longitude":-0.118092,"reserved":0,"last_update":"0001-01-01T00:00:00Z","name_a2s":"Uncletopia | London | 7 | No Payload","protocol":17,"map":"cp_standin_final","folder":"tf","game":"Team Fortress","app_id":440,"player_count":4,"max_players":24,"Bots":0,"server_type":"Dedicated","server_os":"Linux","password":true,"vac":true,"version":"7757534","steam_id":85568392924964314,"keywords":["cp","nocrits","nodmgspread","uncletopia"],"game_id":440,"stv_port":27076,"stv_name":"Uncletopia | London | 7 | No Payload | STV","players":[{"user_id":36,"name":"`√ù√• √ñ»ö·∏øœÉ·πò·πè·∫ê·πè·∏≤","steam_id":76561198824973098,"connected_time":1419000000000,"state":"active","ping":123},{"user_id":37,"name":"Muffin","steam_id":76561199006904922,"connected_time":1416000000000,"state":"active","ping":99},{"user_id":26,"name":"Toast Nook","steam_id":76561199093949301,"connected_time":2519000000000,"state":"active","ping":79},{"user_id":19,"name":"not drunk","steam_id":76561199184873889,"connected_time":2940000000000,"state":"active","ping":58}]},{"server_id":41,"name":"Uncletopia | London | 8 | Community","name_short":"lon-8","host":"lon-1.uk.uncletopia.com","port":27085,"enabled":true,"region":"eu","cc":"gb","latitude":51.509865,"longitude":-0.118092,"reserved":0,"last_update":"0001-01-01T00:00:00Z","name_a2s":"Uncletopia | London | 8 | Community","protocol":17,"map":"workshop/koth_product_final.ugc454272353","folder":"tf","game":"Team Fortress","app_id":440,"player_count":8,"max_players":24,"Bots":0,"server_type":"Dedicated","server_os":"Linux","password":true,"vac":true,"version":"7757534","steam_id":85568392924964315,"keywords":["cp","nocrits","nodmgspread","uncletopia"],"game_id":440,"stv_port":27086,"stv_name":"Uncletopia | London | 8 | Community | STV","players":[{"user_id":109,"name":"Johan","steam_id":76561199380849468,"connected_time":224000000000,"state":"active","ping":60},{"user_id":105,"name":"Majus","steam_id":76561198303243032,"connected_time":566000000000,"state":"active","ping":77},{"user_id":110,"name":"the feesh lord","steam_id":76561199135673902,"connected_time":38000000000,"state":"active","ping":104},{"user_id":16,"name":"Aregularhuman","steam_id":76561198343319848,"connected_time":7348000000000,"state":"active","ping":45},{"user_id":97,"name":"Femboy","steam_id":76561198277712521,"connected_time":1916000000000,"state":"active","ping":70},{"user_id":98,"name":"KSelkie","steam_id":76561198167276239,"connected_time":1900000000000,"state":"active","ping":158},{"user_id":106,"name":"Spatula lemmy","steam_id":76561199067354269,"connected_time":524000000000,"state":"active","ping":125},{"user_id":107,"name":"frosty","steam_id":76561198094560834,"connected_time":423000000000,"state":"active","ping":45}]},{"server_id":300,"name":"Uncletopia | Montr√©al | 1 | All Maps","name_short":"mtl-1","host":"mtl-1.ca.uncletopia.com","port":27015,"enabled":true,"region":"us-east","cc":"ca","latitude":45.50889,"longitude":-73.56167,"reserved":0,"last_update":"0001-01-01T00:00:00Z","name_a2s":"Uncletopia | Montr√©al | 1 | All Maps","protocol":17,"map":"koth_cascade","folder":"tf","game":"Team Fortress","app_id":440,"player_count":0,"max_players":24,"Bots":0,"server_type":"Dedicated","server_os":"Linux","password":true,"vac":true,"version":"7757534","steam_id":85568392924500087,"keywords":["cp","nocrits","nodmgspread","uncletopia"],"game_id":440,"stv_port":27016,"stv_name":"Uncletopia | Montr√©al | 1 | All Maps | STV","players":null},{"server_id":301,"name":"Uncletopia | Montr√©al | 2 | All Maps","name_short":"mtl-2","host":"mtl-1.ca.uncletopia.com","port":27025,"enabled":true,"region":"us-east","cc":"ca","latitude":45.50889,"longitude":-73.56167,"reserved":0,"last_update":"0001-01-01T00:00:00Z","name_a2s":"Uncletopia | Montr√©al | 2 | All Maps","protocol":17,"map":"pl_upward","folder":"tf","game":"Team Fortress","app_id":440,"player_count":23,"max_players":24,"Bots":0,"server_type":"Dedicated","server_os":"Linux","password":true,"vac":true,"version":"7757534","steam_id":85568392924500088,"keywords":["nocrits","nodmgspread","payload","uncletopia"],"game_id":440,"stv_port":27026,"stv_name":"Uncletopia | Montr√©al | 2 | All Maps | STV","players":[{"user_id":113,"name":"∆ê’å—¥∆≥","steam_id":76561198099470277,"connected_time":1216000000000,"state":"active","ping":87},{"user_id":115,"name":"Vapor","steam_id":76561198850475407,"connected_time":899000000000,"state":"active","ping":55},{"user_id":116,"name":"Blessed_Hero","steam_id":76561198048218995,"connected_time":878000000000,"state":"active","ping":53},{"user_id":117,"name":"‚úßSex_Goblin‚úß(she/her)","steam_id":76561199057752358,"connected_time":638000000000,"state":"active","ping":65},{"user_id":87,"name":"liamdunn2008","steam_id":76561199017906046,"connected_time":2896000000000,"state":"active","ping":53},{"user_id":92,"name":"BalfaZard","steam_id":76561199128174604,"connected_time":2446000000000,"state":"active","ping":58},{"user_id":55,"name":"steelzepplin","steam_id":76561197993182335,"connected_time":5040000000000,"state":"active","ping":105},{"user_id":118,"name":"Bandit","steam_id":76561198328421159,"connected_time":592000000000,"state":"active","ping":62},{"user_id":130,"name":"EmptyB33R","steam_id":76561198993166528,"connected_time":117000000000,"state":"active","ping":119},{"user_id":109,"name":"Billosky Time Lord","steam_id":76561199159626560,"connected_time":1931000000000,"state":"active","ping":150},{"user_id":56,"name":"m3lody","steam_id":76561199474189433,"connected_time":4987000000000,"state":"active","ping":120},{"user_id":120,"name":"ÔºîÔºê Ôº¶Ôº∞Ôº≥","steam_id":76561198272394965,"connected_time":525000000000,"state":"active","ping":156},{"user_id":121,"name":"Dumbledumb","steam_id":76561198237002844,"connected_time":468000000000,"state":"active","ping":58},{"user_id":132,"name":"orange porridge","steam_id":76561198044102244,"connected_time":99000000000,"state":"active","ping":62},{"user_id":104,"name":"Luigi","steam_id":76561198929125193,"connected_time":2140000000000,"state":"active","ping":93},{"user_id":123,"name":"emseaeye","steam_id":76561198161499803,"connected_time":442000000000,"state":"active","ping":51},{"user_id":129,"name":"mcjuice","steam_id":76561198087730829,"connected_time":150000000000,"state":"active","ping":84},{"user_id":106,"name":"Bad Rollout","steam_id":76561197971948876,"connected_time":2084000000000,"state":"active","ping":86},{"user_id":125,"name":"Sloppy cod","steam_id":76561198845038786,"connected_time":398000000000,"state":"active","ping":88},{"user_id":133,"name":"MrPomegranX","steam_id":76561198805191796,"connected_time":64000000000,"state":"active","ping":78},{"user_id":127,"name":"Wayne Noodleman","steam_id":76561198046347398,"connected_time":237000000000,"state":"active","ping":60},{"user_id":128,"name":"I eat raw bugs","steam_id":76561199216682306,"connected_time":213000000000,"state":"active","ping":100},{"user_id":131,"name":"Cat in Your Backyard","steam_id":76561197979078330,"connected_time":109000000000,"state":"active","ping":57}]},{"server_id":302,"name":"Uncletopia | Montr√©al | 3 | All Maps","name_short":"mtl-3","host":"mtl-1.ca.uncletopia.com","port":27035,"enabled":true,"region":"us-east","cc":"ca","latitude":45.50889,"longitude":-73.56167,"reserved":0,"last_update":"0001-01-01T00:00:00Z","name_a2s":"Uncletopia | Montr√©al | 3 | All Maps","protocol":17,"map":"cp_dustbowl","folder":"tf","game":"Team Fortress","app_id":440,"player_count":3,"max_players":24,"Bots":0,"server_type":"Dedicated","server_os":"Linux","password":true,"vac":true,"version":"7757534","steam_id":85568392924500089,"keywords":["cp","nocrits","nodmgspread","uncletopia"],"game_id":440,"stv_port":27036,"stv_name":"Uncletopia | Montr√©al | 3 | All Maps | STV","players":[{"user_id":6,"name":"TypicalGiftig","steam_id":76561198170372495,"connected_time":607000000000,"state":"active","ping":95},{"user_id":7,"name":"HappyHitchhiker","steam_id":76561198080228697,"connected_time":585000000000,"state":"active","ping":109},{"user_id":8,"name":"WhyAmIHere","steam_id":76561198271076276,"connected_time":362000000000,"state":"active","ping":53}]},{"server_id":303,"name":"Uncletopia | Montr√©al | 4 | No Payload","name_short":"mtl-4","host":"mtl-1.ca.uncletopia.com","port":27045,"enabled":true,"region":"us-east","cc":"ca","latitude":45.50889,"longitude":-73.56167,"reserved":0,"last_update":"0001-01-01T00:00:00Z","name_a2s":"Uncletopia | Montr√©al | 4 | No Payload","protocol":17,"map":"cp_vanguard","folder":"tf","game":"Team Fortress","app_id":440,"player_count":0,"max_players":24,"Bots":0,"server_type":"Dedicated","server_os":"Linux","password":true,"vac":true,"version":"7757534","steam_id":85568392924500090,"keywords":["cp","nocrits","nodmgspread","uncletopia"],"game_id":440,"stv_port":27046,"stv_name":"Uncletopia | Montr√©al | 4 | No Payload | STV","players":null},{"server_id":13,"name":"Uncletopia | New York City | 1 | All Maps","name_short":"nyc-1","host":"nyc-1.us.uncletopia.com","port":27015,"enabled":true,"region":"us-east","cc":"us","latitude":40.73061,"longitude":-73.93524,"reserved":0,"last_update":"0001-01-01T00:00:00Z","name_a2s":"Uncletopia | New York City | 1 | All Maps","protocol":17,"map":"pl_barnblitz","folder":"tf","game":"Team Fortress","app_id":440,"player_count":24,"max_players":24,"Bots":0,"server_type":"Dedicated","server_os":"Linux","password":true,"vac":true,"version":"7757534","steam_id":85568392924469993,"keywords":["nocrits","nodmgspread","payload","uncletopia"],"game_id":440,"stv_port":27016,"stv_name":"Uncletopia | New York City | 1 | All Maps | STV","players":[{"user_id":108,"name":"raccoonclint","steam_id":76561199073295092,"connected_time":8437000000000,"state":"active","ping":111},{"user_id":173,"name":"FrostedBlakes","steam_id":76561199091619928,"connected_time":2119000000000,"state":"active","ping":69},{"user_id":189,"name":"Shiroompa","steam_id":76561198010705959,"connected_time":1597000000000,"state":"active","ping":100},{"user_id":215,"name":"BerthaEartha","steam_id":76561198799428743,"connected_time":185000000000,"state":"active","ping":54},{"user_id":186,"name":"man behind the slaughter (F2P)","steam_id":76561198854070384,"connected_time":1723000000000,"state":"active","ping":114},{"user_id":211,"name":"Chicken #420DONGSQUAD","steam_id":76561198047863656,"connected_time":296000000000,"state":"active","ping":44},{"user_id":204,"name":"willow","steam_id":76561198276866938,"connected_time":674000000000,"state":"active","ping":58},{"user_id":209,"name":"Ignalis","steam_id":76561198025662927,"connected_time":464000000000,"state":"active","ping":61},{"user_id":167,"name":"bungo","steam_id":76561198065145850,"connected_time":2528000000000,"state":"active","ping":62},{"user_id":187,"name":"[F8P] ‚ô†Robs-Insanity‚ô¶‚Ñ¢","steam_id":76561198055521233,"connected_time":1691000000000,"state":"active","ping":57},{"user_id":213,"name":"[chef] iron","steam_id":76561197970888616,"connected_time":202000000000,"state":"active","ping":62},{"user_id":155,"name":"A√º","steam_id":76561199031241776,"connected_time":3873000000000,"state":"active","ping":84},{"user_id":214,"name":"CrunchCisco","steam_id":76561199162724832,"connected_time":200000000000,"state":"active","ping":77},{"user_id":216,"name":"Weerk","steam_id":76561199209543551,"connected_time":183000000000,"state":"active","ping":75},{"user_id":217,"name":"Piriz","steam_id":76561198359267500,"connected_time":155000000000,"state":"active","ping":50},{"user_id":208,"name":"stock revolver enjoyer","steam_id":76561198936412406,"connected_time":515000000000,"state":"active","ping":92},{"user_id":179,"name":"Laax","steam_id":76561198938409558,"connected_time":1931000000000,"state":"active","ping":159},{"user_id":196,"name":"hsoj318","steam_id":76561198062564543,"connected_time":1299000000000,"state":"active","ping":100},{"user_id":184,"name":"DiscoTraveler","steam_id":76561199240168088,"connected_time":1889000000000,"state":"active","ping":60},{"user_id":218,"name":"Vegerot","steam_id":76561197997843710,"connected_time":153000000000,"state":"active","ping":45},{"user_id":219,"name":"Strange Festive Femboy","steam_id":76561198050385093,"connected_time":152000000000,"state":"active","ping":60},{"user_id":198,"name":"Lost CS player","steam_id":76561198892387723,"connected_time":1091000000000,"state":"active","ping":69},{"user_id":220,"name":"Team Fortress 2","steam_id":76561198045746493,"connected_time":132000000000,"state":"active","ping":65},{"user_id":221,"name":"SAUL GOODMAN","steam_id":76561198328356716,"connected_time":76000000000,"state":"active","ping":62}]},{"server_id":14,"name":"Uncletopia | New York City | 2 | All Maps","name_short":"nyc-2","host":"nyc-1.us.uncletopia.com","port":27025,"enabled":true,"region":"us-east","cc":"us","latitude":40.73061,"longitude":-73.93524,"reserved":0,"last_update":"0001-01-01T00:00:00Z","name_a2s":"Uncletopia | New York City | 2 | All Maps","protocol":17,"map":"pl_swiftwater_final1","folder":"tf","game":"Team Fortress","app_id":440,"player_count":23,"max_players":24,"Bots":0,"server_type":"Dedicated","server_os":"Linux","password":true,"vac":true,"version":"7757534","steam_id":85568392924469994,"keywords":["nocrits","nodmgspread","payload","uncletopia"],"game_id":440,"stv_port":27026,"stv_name":"Uncletopia | New York City | 2 | All Maps | STV","players":[{"user_id":376,"name":"yum.","steam_id":76561198343145607,"connected_time":4520000000000,"state":"active","ping":56},{"user_id":413,"name":"Nice21","steam_id":76561199427548141,"connected_time":1005000000000,"state":"active","ping":73},{"user_id":436,"name":"enotown","steam_id":76561198109901138,"connected_time":7000000000,"state":"spawning","ping":52},{"user_id":412,"name":"Shipmunk","steam_id":76561198063062670,"connected_time":1054000000000,"state":"active","ping":52},{"user_id":419,"name":"Bull-Frog","steam_id":76561198260868601,"connected_time":925000000000,"state":"active","ping":89},{"user_id":356,"name":"DO NOT call me BART SIMPSON!!","steam_id":76561198069113375,"connected_time":5470000000000,"state":"active","ping":56},{"user_id":433,"name":"milk rat","steam_id":76561198058008452,"connected_time":214000000000,"state":"active","ping":69},{"user_id":306,"name":"feminized shotgun","steam_id":76561198036965113,"connected_time":8940000000000,"state":"active","ping":40},{"user_id":434,"name":"VerdantSunset","steam_id":76561198062313478,"connected_time":213000000000,"state":"active","ping":102},{"user_id":423,"name":"Green/Black Weezer CD#36","steam_id":76561198851520459,"connected_time":835000000000,"state":"active","ping":66},{"user_id":345,"name":"XeN0","steam_id":76561198147259903,"connected_time":6336000000000,"state":"active","ping":40},{"user_id":429,"name":"Baja","steam_id":76561198096109921,"connected_time":490000000000,"state":"active","ping":61},{"user_id":437,"name":"rkp!","steam_id":76561199053070819,"connected_time":4000000000,"state":"spawning","ping":74},{"user_id":401,"name":"BoredReaper2","steam_id":76561199009671010,"connected_time":2050000000000,"state":"active","ping":70},{"user_id":361,"name":"Justin","steam_id":76561198063394882,"connected_time":5200000000000,"state":"active","ping":58},{"user_id":408,"name":"yer_nerd","steam_id":76561199435454093,"connected_time":1677000000000,"state":"active","ping":56},{"user_id":430,"name":"Egpta","steam_id":76561198237840238,"connected_time":329000000000,"state":"active","ping":57},{"user_id":435,"name":"Dood32","steam_id":76561198029198690,"connected_time":201000000000,"state":"active","ping":138},{"user_id":409,"name":"PrinceGeser","steam_id":76561197973759697,"connected_time":1544000000000,"state":"active","ping":70},{"user_id":350,"name":"‚öß Ayla ‚öß","steam_id":76561198119211246,"connected_time":5935000000000,"state":"active","ping":63},{"user_id":426,"name":"iamoctopii","steam_id":76561198876901076,"connected_time":784000000000,"state":"active","ping":129},{"user_id":399,"name":"NeoN","steam_id":76561198117608366,"connected_time":2137000000000,"state":"active","ping":31},{"user_id":432,"name":"SCATTER","steam_id":76561198405168492,"connected_time":235000000000,"state":"active","ping":83}]},{"server_id":15,"name":"Uncletopia | New York City | 3 | Stopwatch Beta","name_short":"nyc-3","host":"nyc-1.us.uncletopia.com","port":27035,"enabled":true,"region":"us-east","cc":"us","latitude":40.73061,"longitude":-73.93524,"reserved":0,"last_update":"0001-01-01T00:00:00Z","name_a2s":"Uncletopia | New York City | 3 | Stopwatch Beta","protocol":17,"map":"workshop/pl_barnblitz_pro7.ugc582280235","folder":"tf","game":"Team Fortress","app_id":440,"player_count":0,"max_players":24,"Bots":0,"server_type":"Dedicated","server_os":"Linux","password":true,"vac":true,"version":"7757534","steam_id":85568392924742820,"keywords":["nocrits","nodmgspread","payload","uncletopia"],"game_id":440,"stv_port":27036,"stv_name":"Uncletopia | New York City | 3 | Stopwatch Beta | STV","players":null},{"server_id":16,"name":"Uncletopia | New York City | 4 | Community","name_short":"nyc-4","host":"nyc-1.us.uncletopia.com","port":27045,"enabled":true,"region":"us-east","cc":"us","latitude":40.73061,"longitude":-73.93524,"reserved":0,"last_update":"0001-01-01T00:00:00Z","name_a2s":"Uncletopia | New York City | 4 | Community","protocol":17,"map":"workshop/koth_trenchfoot_b1a.ugc731436616","folder":"tf","game":"Team Fortress","app_id":440,"player_count":0,"max_players":24,"Bots":0,"server_type":"Dedicated","server_os":"Linux","password":true,"vac":true,"version":"7757534","steam_id":85568392924742821,"keywords":["cp","nocrits","nodmgspread","uncletopia"],"game_id":440,"stv_port":27046,"stv_name":"Uncletopia | New York City | 4 | Community | STV","players":null},{"server_id":142,"name":"Uncletopia | S√£o Paulo | 1 | All Maps","name_short":"sao-1","host":"sao-1.br.uncletopia.com","port":27015,"enabled":true,"region":"sa","cc":"br","latitude":-23.533773,"longitude":-46.62529,"reserved":0,"last_update":"0001-01-01T00:00:00Z","name_a2s":"Uncletopia | S√£o Paulo | 1 | All Maps","protocol":17,"map":"cp_sunshine","folder":"tf","game":"Team Fortress","app_id":440,"player_count":9,"max_players":24,"Bots":0,"server_type":"Dedicated","server_os":"Linux","password":true,"vac":true,"version":"7757534","steam_id":85568392924469996,"keywords":["cp","nocrits","nodmgspread","uncletopia"],"game_id":440,"stv_port":27016,"stv_name":"Uncletopia | S√£o Paulo | 1 | All Maps | STV","players":[{"user_id":17,"name":"Death_Pow","steam_id":76561198312958718,"connected_time":1417000000000,"state":"active","ping":51},{"user_id":18,"name":"Gordo Hombre Libre","steam_id":76561198848553661,"connected_time":1388000000000,"state":"active","ping":84},{"user_id":19,"name":"O incrivel Mauro","steam_id":76561198970997510,"connected_time":1350000000000,"state":"active","ping":38},{"user_id":20,"name":"luistek #COMPLETETF2","steam_id":76561199168556553,"connected_time":1155000000000,"state":"active","ping":111},{"user_id":22,"name":"xX_Rarity_Xx","steam_id":76561198396599905,"connected_time":921000000000,"state":"active","ping":59},{"user_id":24,"name":"churupinha","steam_id":76561198850465476,"connected_time":734000000000,"state":"active","ping":85},{"user_id":25,"name":"mush","steam_id":76561198310089797,"connected_time":680000000000,"state":"active","ping":179},{"user_id":26,"name":"Donald Frank \"Don\" Cheadle","steam_id":76561198370062987,"connected_time":642000000000,"state":"active","ping":42},{"user_id":27,"name":"Ethansoup","steam_id":76561198188034929,"connected_time":612000000000,"state":"active","ping":183}]},{"server_id":143,"name":"Uncletopia | S√£o Paulo | 2 | All Maps","name_short":"sao-2","host":"sao-2.br.uncletopia.com","port":27015,"enabled":true,"region":"sa","cc":"br","latitude":-23.533773,"longitude":-46.62529,"reserved":0,"last_update":"0001-01-01T00:00:00Z","name_a2s":"Uncletopia | S√£o Paulo | 2 | All Maps","protocol":17,"map":"pl_badwater","folder":"tf","game":"Team Fortress","app_id":440,"player_count":0,"max_players":24,"Bots":0,"server_type":"Dedicated","server_os":"Linux","password":true,"vac":true,"version":"7757534","steam_id":85568392924485349,"keywords":["nocrits","nodmgspread","payload","uncletopia"],"game_id":440,"stv_port":27016,"stv_name":"Uncletopia | S√£o Paulo | 2 | All Maps | STV","players":null},{"server_id":7,"name":"Uncletopia | Seattle | 1 | All Maps","name_short":"sea-1","host":"sea-1.us.uncletopia.com","port":27015,"enabled":true,"region":"us-west","cc":"us","latitude":47.608013,"longitude":-122.33517,"reserved":0,"last_update":"0001-01-01T00:00:00Z","name_a2s":"Uncletopia | Seattle | 1 | All Maps","protocol":17,"map":"pl_upward","folder":"tf","game":"Team Fortress","app_id":440,"player_count":24,"max_players":24,"Bots":0,"server_type":"Dedicated","server_os":"Linux","password":true,"vac":true,"version":"7757534","steam_id":85568392924469997,"keywords":["nocrits","nodmgspread","payload","uncletopia"],"game_id":440,"stv_port":27016,"stv_name":"Uncletopia | Seattle | 1 | All Maps | STV","players":[{"user_id":348,"name":"This game sucks","steam_id":76561198042007578,"connected_time":4649000000000,"state":"active","ping":84},{"user_id":400,"name":"Phyyrin","steam_id":76561198154532657,"connected_time":724000000000,"state":"active","ping":57},{"user_id":405,"name":"LO","steam_id":76561198068672882,"connected_time":274000000000,"state":"active","ping":68},{"user_id":388,"name":"keithykeithers","steam_id":76561197995552615,"connected_time":990000000000,"state":"active","ping":45},{"user_id":399,"name":"Skabbety","steam_id":76561198168044257,"connected_time":845000000000,"state":"active","ping":44},{"user_id":390,"name":"TothBrush","steam_id":76561198028254471,"connected_time":961000000000,"state":"active","ping":91},{"user_id":391,"name":"Shark Sandwich","steam_id":76561198025007938,"connected_time":949000000000,"state":"active","ping":90},{"user_id":402,"name":"brambles","steam_id":76561197990525201,"connected_time":552000000000,"state":"active","ping":40},{"user_id":367,"name":"‚ñ≥","steam_id":76561198060642242,"connected_time":2936000000000,"state":"active","ping":132},{"user_id":371,"name":"Chimpanzee","steam_id":76561198850387282,"connected_time":2883000000000,"state":"active","ping":116},{"user_id":363,"name":"jayeskae","steam_id":76561198144220801,"connected_time":3223000000000,"state":"active","ping":45},{"user_id":372,"name":"AmiableNebula","steam_id":76561198094306627,"connected_time":2359000000000,"state":"active","ping":76},{"user_id":338,"name":"jello","steam_id":76561198149683030,"connected_time":5273000000000,"state":"active","ping":68},{"user_id":392,"name":"TwoBit","steam_id":76561198062437559,"connected_time":945000000000,"state":"active","ping":132},{"user_id":345,"name":"Daz","steam_id":76561198041431938,"connected_time":5036000000000,"state":"active","ping":121},{"user_id":385,"name":"Dunkle","steam_id":76561198041903573,"connected_time":1628000000000,"state":"active","ping":44},{"user_id":393,"name":"StarGuyVI","steam_id":76561199366304746,"connected_time":943000000000,"state":"active","ping":139},{"user_id":394,"name":"Interrobang","steam_id":76561198385044529,"connected_time":942000000000,"state":"active","ping":139},{"user_id":355,"name":"Fh","steam_id":76561198000903511,"connected_time":4367000000000,"state":"active","ping":63},{"user_id":373,"name":"Drew","steam_id":76561198058893405,"connected_time":2137000000000,"state":"active","ping":91},{"user_id":397,"name":"Worst Scenario","steam_id":76561199052130229,"connected_time":906000000000,"state":"active","ping":113},{"user_id":322,"name":"rat gets the cheese","steam_id":76561198031234032,"connected_time":7424000000000,"state":"active","ping":101},{"user_id":386,"name":"reiidaya","steam_id":76561198325306660,"connected_time":1254000000000,"state":"active","ping":56},{"user_id":404,"name":"D34dR4bbit","steam_id":76561198167411455,"connected_time":291000000000,"state":"active","ping":60}]},{"server_id":119,"name":"Uncletopia | Seattle | 2 | All Maps","name_short":"sea-2","host":"sea-1.us.uncletopia.com","port":27025,"enabled":true,"region":"us-west","cc":"us","latitude":47.608013,"longitude":-122.33517,"reserved":0,"last_update":"0001-01-01T00:00:00Z","name_a2s":"Uncletopia | Seattle | 2 | All Maps","protocol":17,"map":"koth_harvest_final","folder":"tf","game":"Team Fortress","app_id":440,"player_count":24,"max_players":24,"Bots":0,"server_type":"Dedicated","server_os":"Linux","password":true,"vac":true,"version":"7757534","steam_id":85568392924469998,"keywords":["cp","nocrits","nodmgspread","uncletopia"],"game_id":440,"stv_port":27026,"stv_name":"Uncletopia | Seattle | 2 | All Maps | STV","players":[{"user_id":82,"name":"Acehay14","steam_id":76561198052373291,"connected_time":3149000000000,"state":"active","ping":115},{"user_id":121,"name":"mub","steam_id":76561197961943948,"connected_time":989000000000,"state":"active","ping":45},{"user_id":74,"name":"the derpy gamer","steam_id":76561198049258493,"connected_time":3654000000000,"state":"active","ping":49},{"user_id":98,"name":"rustyorion","steam_id":76561198439186347,"connected_time":2274000000000,"state":"active","ping":49},{"user_id":111,"name":"catparty","steam_id":76561198209197824,"connected_time":1176000000000,"state":"active","ping":58},{"user_id":126,"name":"laggy mcstab","steam_id":76561198106379962,"connected_time":517000000000,"state":"active","ping":61},{"user_id":99,"name":"VerseG","steam_id":76561198059246919,"connected_time":2259000000000,"state":"active","ping":47},{"user_id":89,"name":"ChebJeb","steam_id":76561198981377081,"connected_time":2909000000000,"state":"active","ping":135},{"user_id":70,"name":"Wizowd","steam_id":76561198167702261,"connected_time":4049000000000,"state":"active","ping":78},{"user_id":100,"name":"Nexo Fighter","steam_id":76561199187418090,"connected_time":2257000000000,"state":"active","ping":163},{"user_id":128,"name":"2 Point Tom","steam_id":76561198087617008,"connected_time":277000000000,"state":"active","ping":45},{"user_id":47,"name":"trackpad gaming | f2p","steam_id":76561198840414371,"connected_time":5934000000000,"state":"active","ping":48},{"user_id":115,"name":"GayMonkeyLover","steam_id":76561198065475955,"connected_time":1123000000000,"state":"active","ping":61},{"user_id":123,"name":"cheeeezball","steam_id":76561198086461519,"connected_time":759000000000,"state":"active","ping":69},{"user_id":86,"name":"2Fort Cactus","steam_id":76561199273395913,"connected_time":3083000000000,"state":"active","ping":57},{"user_id":109,"name":"Dr Drugs","steam_id":76561198281359582,"connected_time":1362000000000,"state":"active","ping":122},{"user_id":129,"name":"Big Jon","steam_id":76561198402285099,"connected_time":233000000000,"state":"active","ping":82},{"user_id":125,"name":"Whos Mans Is Dis","steam_id":76561198370978056,"connected_time":715000000000,"state":"active","ping":108},{"user_id":66,"name":"The Woman Disrespecter","steam_id":76561198964373968,"connected_time":4354000000000,"state":"active","ping":100},{"user_id":102,"name":"Hepi","steam_id":76561199171919713,"connected_time":2216000000000,"state":"active","ping":118},{"user_id":36,"name":"Lesbian Futa Mommy","steam_id":76561198130479030,"connected_time":6257000000000,"state":"active","ping":59},{"user_id":87,"name":"tf2 update is fake news","steam_id":76561198206922028,"connected_time":2953000000000,"state":"active","ping":83},{"user_id":117,"name":"Euugh","steam_id":76561198077458473,"connected_time":1089000000000,"state":"active","ping":151},{"user_id":106,"name":"weegeebad","steam_id":76561198280841437,"connected_time":1582000000000,"state":"active","ping":110}]},{"server_id":406,"name":"Uncletopia | Seattle | 3 | Stopwatch Beta","name_short":"sea-3","host":"sea-1.us.uncletopia.com","port":27035,"enabled":true,"region":"us-west","cc":"us","latitude":47.608013,"longitude":-122.33517,"reserved":0,"last_update":"0001-01-01T00:00:00Z","name_a2s":"Uncletopia | Seattle | 3 | Stopwatch Beta","protocol":17,"map":"cp_dustbowl","folder":"tf","game":"Team Fortress","app_id":440,"player_count":0,"max_players":24,"Bots":0,"server_type":"Dedicated","server_os":"Linux","password":true,"vac":true,"version":"7757534","steam_id":85568392924515217,"keywords":["cp","nocrits","nodmgspread","uncletopia"],"game_id":440,"stv_port":27036,"stv_name":"Uncletopia | Seattle | 3 | Stopwatch Beta | STV","players":null},{"server_id":17,"name":"Uncletopia | San Francisco | 1 | All Maps","name_short":"sfo-1","host":"sfo-1.us.uncletopia.com","port":27015,"enabled":true,"region":"us-west","cc":"us","latitude":37.77397,"longitude":-122.4313,"reserved":0,"last_update":"0001-01-01T00:00:00Z","name_a2s":"Uncletopia | San Francisco | 1 | All Maps","protocol":17,"map":"cp_mountainlab","folder":"tf","game":"Team Fortress","app_id":440,"player_count":0,"max_players":24,"Bots":0,"server_type":"Dedicated","server_os":"Linux","password":true,"vac":true,"version":"7757534","steam_id":85568392924469999,"keywords":["cp","nocrits","nodmgspread","uncletopia"],"game_id":440,"stv_port":27016,"stv_name":"Uncletopia | San Francisco | 1 | All Maps | STV","players":null},{"server_id":18,"name":"Uncletopia | San Francisco | 2 | All Maps","name_short":"sfo-2","host":"sfo-1.us.uncletopia.com","port":27025,"enabled":true,"region":"us-west","cc":"us","latitude":37.77397,"longitude":-122.4313,"reserved":0,"last_update":"0001-01-01T00:00:00Z","name_a2s":"Uncletopia | San Francisco | 2 | All Maps","protocol":17,"map":"cp_dustbowl","folder":"tf","game":"Team Fortress","app_id":440,"player_count":0,"max_players":24,"Bots":0,"server_type":"Dedicated","server_os":"Linux","password":true,"vac":true,"version":"7757534","steam_id":85568392924470000,"keywords":["cp","nocrits","nodmgspread","uncletopia"],"game_id":440,"stv_port":27026,"stv_name":"Uncletopia | San Francisco | 2 | All Maps | STV","players":null},{"server_id":19,"name":"Uncletopia | San Francisco | 3 | Stopwatch Beta","name_short":"sfo-3","host":"sfo-1.us.uncletopia.com","port":27035,"enabled":true,"region":"us-west","cc":"us","latitude":37.77397,"longitude":-122.4313,"reserved":0,"last_update":"0001-01-01T00:00:00Z","name_a2s":"Uncletopia | San Francisco | 3 | Stopwatch Beta","protocol":17,"map":"koth_lakeside_final","folder":"tf","game":"Team Fortress","app_id":440,"player_count":0,"max_players":24,"Bots":0,"server_type":"Dedicated","server_os":"Linux","password":true,"vac":true,"version":"7757534","steam_id":85568392924742824,"keywords":["cp","nocrits","nodmgspread","uncletopia"],"game_id":440,"stv_port":27036,"stv_name":"Uncletopia | San Francisco | 3 | Stopwatch Beta | STV","players":null},{"server_id":20,"name":"Uncletopia | San Francisco | 4 | Community","name_short":"sfo-4","host":"sfo-1.us.uncletopia.com","port":27045,"enabled":true,"region":"us-west","cc":"us","latitude":37.77397,"longitude":-122.4313,"reserved":0,"last_update":"0001-01-01T00:00:00Z","name_a2s":"Uncletopia | San Francisco | 4 | Community","protocol":17,"map":"workshop/cp_fulgur_rc2a.ugc2068252300","folder":"tf","game":"Team Fortress","app_id":440,"player_count":0,"max_players":24,"Bots":0,"server_type":"Dedicated","server_os":"Linux","password":true,"vac":true,"version":"7757534","steam_id":85568392924742826,"keywords":["cp","nocrits","nodmgspread","uncletopia"],"game_id":440,"stv_port":27046,"stv_name":"Uncletopia | San Francisco | 4 | Community | STV","players":null},{"server_id":141,"name":"Uncletopia | Sydney | 1 | All Maps","name_short":"syd-1","host":"syd-1.au.uncletopia.com","port":27015,"enabled":true,"region":"au","cc":"au","latitude":-33.865143,"longitude":151.2099,"reserved":0,"last_update":"0001-01-01T00:00:00Z","name_a2s":"Uncletopia | Sydney | 1 | All Maps","protocol":17,"map":"koth_viaduct","folder":"tf","game":"Team Fortress","app_id":440,"player_count":0,"max_players":24,"Bots":0,"server_type":"Dedicated","server_os":"Linux","password":true,"vac":true,"version":"7757534","steam_id":85568392924470001,"keywords":["cp","nocrits","nodmgspread","uncletopia"],"game_id":440,"stv_port":27016,"stv_name":"Uncletopia | Sydney | 1 | All Maps | STV","players":null},{"server_id":123,"name":"Uncletopia | Sydney | 2 | All Maps","name_short":"syd-2","host":"syd-1.au.uncletopia.com","port":27025,"enabled":true,"region":"au","cc":"au","latitude":-33.865143,"longitude":151.2099,"reserved":0,"last_update":"0001-01-01T00:00:00Z","name_a2s":"Uncletopia | Sydney | 2 | All Maps","protocol":17,"map":"koth_viaduct","folder":"tf","game":"Team Fortress","app_id":440,"player_count":0,"max_players":24,"Bots":0,"server_type":"Dedicated","server_os":"Linux","password":true,"vac":true,"version":"7757534","steam_id":85568392924470002,"keywords":["cp","nocrits","nodmgspread","uncletopia"],"game_id":440,"stv_port":27026,"stv_name":"Uncletopia | Sydney | 2 | All Maps | STV","players":null},{"server_id":395,"name":"Uncletopia | Sydney | 3 | All Maps","name_short":"syd-3","host":"syd-1.au.uncletopia.com","port":27035,"enabled":true,"region":"au","cc":"au","latitude":-33.865143,"longitude":151.2099,"reserved":0,"last_update":"0001-01-01T00:00:00Z","name_a2s":"Uncletopia | Sydney | 3 | All Maps","protocol":17,"map":"pl_swiftwater_final1","folder":"tf","game":"Team Fortress","app_id":440,"player_count":0,"max_players":24,"Bots":0,"server_type":"Dedicated","server_os":"Linux","password":true,"vac":true,"version":"7757534","steam_id":85568392925194467,"keywords":["nocrits","nodmgspread","payload","uncletopia"],"game_id":440,"stv_port":27036,"stv_name":"Uncletopia | Sydney | 3 | All Maps | STV","players":null},{"server_id":396,"name":"Uncletopia | Sydney | 4 | All Maps","name_short":"syd-4","host":"syd-1.au.uncletopia.com","port":27045,"enabled":true,"region":"au","cc":"au","latitude":-33.865143,"longitude":151.2099,"reserved":0,"last_update":"0001-01-01T00:00:00Z","name_a2s":"Uncletopia | Sydney | 4 | All Maps","protocol":17,"map":"koth_highpass","folder":"tf","game":"Team Fortress","app_id":440,"player_count":0,"max_players":24,"Bots":0,"server_type":"Dedicated","server_os":"Linux","password":true,"vac":true,"version":"7757534","steam_id":85568392925397958,"keywords":["cp","nocrits","nodmgspread","uncletopia"],"game_id":440,"stv_port":27046,"stv_name":"Uncletopia | Sydney | 4 | All Maps | STV","players":null},{"server_id":58,"name":"Uncletopia | Sydney | 5 | Stopwatch Beta","name_short":"syd-5","host":"syd-1.au.uncletopia.com","port":27055,"enabled":true,"region":"au","cc":"au","latitude":-33.865143,"longitude":151.2099,"reserved":0,"last_update":"0001-01-01T00:00:00Z","name_a2s":"Uncletopia | Sydney | 5 | Stopwatch Beta","protocol":17,"map":"koth_cascade","folder":"tf","game":"Team Fortress","app_id":440,"player_count":0,"max_players":24,"Bots":0,"server_type":"Dedicated","server_os":"Linux","password":true,"vac":true,"version":"7757534","steam_id":85568392925397959,"keywords":["cp","nocrits","nodmgspread","uncletopia"],"game_id":440,"stv_port":27056,"stv_name":"Uncletopia | Sydney | 5 | Stopwatch Beta | STV","players":null},{"server_id":59,"name":"Uncletopia | Sydney | 6 | Community","name_short":"syd-6","host":"syd-1.au.uncletopia.com","port":27065,"enabled":true,"region":"au","cc":"au","latitude":-33.865143,"longitude":151.2099,"reserved":0,"last_update":"0001-01-01T00:00:00Z","name_a2s":"Uncletopia | Sydney | 6 | Community","protocol":17,"map":"cp_snakewater_final1","folder":"tf","game":"Team Fortress","app_id":440,"player_count":0,"max_players":24,"Bots":0,"server_type":"Dedicated","server_os":"Linux","password":true,"vac":true,"version":"7757534","steam_id":85568392925397960,"keywords":["cp","nocrits","nodmgspread","uncletopia"],"game_id":440,"stv_port":27066,"stv_name":"Uncletopia | Sydney | 6 | Community | STV","players":null},{"server_id":49,"name":"Uncletopia | Warsaw | 1 | All Maps","name_short":"waw-1","host":"waw-1.pl.uncletopia.com","port":27015,"enabled":true,"region":"eu","cc":"pl","latitude":52.2297,"longitude":21.017532,"reserved":0,"last_update":"0001-01-01T00:00:00Z","name_a2s":"","protocol":0,"map":"","folder":"","game":"","app_id":0,"player_count":0,"max_players":0,"Bots":0,"server_type":"","server_os":"","password":false,"vac":false,"version":"","steam_id":0,"keywords":null,"game_id":0,"stv_port":0,"stv_name":"","players":null},{"server_id":50,"name":"Uncletopia | Warsaw | 2 | All Maps","name_short":"waw-2","host":"waw-1.pl.uncletopia.com","port":27025,"enabled":true,"region":"eu","cc":"pl","latitude":52.2297,"longitude":21.017532,"reserved":0,"last_update":"0001-01-01T00:00:00Z","name_a2s":"Uncletopia | Warsaw | 2 | All Maps","protocol":17,"map":"koth_viaduct","folder":"tf","game":"Team Fortress","app_id":440,"player_count":0,"max_players":24,"Bots":0,"server_type":"Dedicated","server_os":"Linux","password":true,"vac":true,"version":"7757534","steam_id":85568392925397851,"keywords":["cp","nocrits","nodmgspread","uncletopia"],"game_id":440,"stv_port":27026,"stv_name":"Uncletopia | Warsaw | 2 | All Maps | STV","players":null},{"server_id":51,"name":"Uncletopia | Warsaw | 3 | All Maps","name_short":"waw-3","host":"waw-1.pl.uncletopia.com","port":27035,"enabled":true,"region":"eu","cc":"pl","latitude":52.2297,"longitude":21.017532,"reserved":0,"last_update":"0001-01-01T00:00:00Z","name_a2s":"Uncletopia | Warsaw | 3 | All Maps","protocol":17,"map":"pl_pier","folder":"tf","game":"Team Fortress","app_id":440,"player_count":0,"max_players":24,"Bots":0,"server_type":"Dedicated","server_os":"Linux","password":true,"vac":true,"version":"7757534","steam_id":85568392925397852,"keywords":["nocrits","nodmgspread","payload","uncletopia"],"game_id":440,"stv_port":27036,"stv_name":"Uncletopia | Warsaw | 3 | All Maps | STV","players":null},{"server_id":52,"name":"Uncletopia | Warsaw | 4 | All Maps","name_short":"waw-4","host":"waw-1.pl.uncletopia.com","port":27045,"enabled":true,"region":"eu","cc":"pl","latitude":52.2297,"longitude":21.017532,"reserved":0,"last_update":"0001-01-01T00:00:00Z","name_a2s":"Uncletopia | Warsaw | 4 | All Maps","protocol":17,"map":"koth_cascade","folder":"tf","game":"Team Fortress","app_id":440,"player_count":6,"max_players":24,"Bots":0,"server_type":"Dedicated","server_os":"Linux","password":true,"vac":true,"version":"7757534","steam_id":85568392925397853,"keywords":["cp","nocrits","nodmgspread","uncletopia"],"game_id":440,"stv_port":27046,"stv_name":"Uncletopia | Warsaw | 4 | All Maps | STV","players":[{"user_id":26,"name":"ESKELETO CULIAO","steam_id":76561198102892198,"connected_time":32000000000,"state":"spawning","ping":80},{"user_id":16,"name":"TheFox.tf","steam_id":76561197996851702,"connected_time":1502000000000,"state":"active","ping":75},{"user_id":20,"name":"Utkunator","steam_id":76561198967463151,"connected_time":955000000000,"state":"active","ping":90},{"user_id":25,"name":"New","steam_id":76561198402195911,"connected_time":74000000000,"state":"active","ping":123},{"user_id":23,"name":"MizManFryinPüç≥","steam_id":76561198047978336,"connected_time":640000000000,"state":"active","ping":115},{"user_id":24,"name":"forv","steam_id":76561198326667006,"connected_time":536000000000,"state":"active","ping":43}]},{"server_id":53,"name":"Uncletopia | Warsaw | 5 | Stopwatch Beta","name_short":"waw-5","host":"waw-1.pl.uncletopia.com","port":27055,"enabled":true,"region":"eu","cc":"pl","latitude":52.2297,"longitude":21.017532,"reserved":0,"last_update":"0001-01-01T00:00:00Z","name_a2s":"Uncletopia | Warsaw | 5 | Stopwatch Beta","protocol":17,"map":"pl_borneo","folder":"tf","game":"Team Fortress","app_id":440,"player_count":0,"max_players":24,"Bots":0,"server_type":"Dedicated","server_os":"Linux","password":true,"vac":true,"version":"7757534","steam_id":85568392925397854,"keywords":["nocrits","nodmgspread","payload","uncletopia"],"game_id":440,"stv_port":27056,"stv_name":"Uncletopia | Warsaw | 5 | Stopwatch Beta | STV","players":null},{"server_id":54,"name":"Uncletopia | Warsaw | 6 | Community","name_short":"waw-6","host":"waw-1.pl.uncletopia.com","port":27065,"enabled":true,"region":"eu","cc":"pl","latitude":52.2297,"longitude":21.017532,"reserved":0,"last_update":"0001-01-01T00:00:00Z","name_a2s":"Uncletopia | Warsaw | 6 | Community","protocol":17,"map":"koth_lakeside_final","folder":"tf","game":"Team Fortress","app_id":440,"player_count":0,"max_players":24,"Bots":0,"server_type":"Dedicated","server_os":"Linux","password":true,"vac":true,"version":"7757534","steam_id":85568392925397856,"keywords":["cp","nocrits","nodmgspread","uncletopia"],"game_id":440,"stv_port":27066,"stv_name":"Uncletopia | Warsaw | 6 | Community | STV","players":null}]}