{"status":true,"message":"","result":[{"server_id":9,"name":"Uncletopia | Atlanta | 1 | All Maps","name_short":"atl-1","host":"atl-1.us.uncletopia.com","port":27015,"enabled":true,"region":"us-east","cc":"us","latitude":33.753746,"longitude":-84.38633,"reserved":0,"last_update":"0001-01-01T00:00:00Z","name_a2s":"Uncletopia | Atlanta | 1 | All Maps","protocol":17,"map":"koth_king","folder":"tf","game":"Team Fortress","app_id":440,"player_count":24,"max_players":24,"Bots":0,"server_type":"Dedicated","server_os":"Linux","password":true,"vac":true,"version":"7961495","steam_id":85568392924469982,"keywords":["cp","nocrits","nodmgspread","uncletopia"],"game_id":440,"stv_port":27016,"stv_name":"Uncletopia | Atlanta | 1 | All Maps | STV","players":null},{"server_id":104,"name":"Uncletopia | Atlanta | 2 | All Maps","name_short":"atl-2","host":"atl-1.us.uncletopia.com","port":27025,"enabled":true,"region":"us-east","cc":"us","latitude":33.753746,"longitude":-84.38633,"reserved":0,"last_update":"0001-01-01T00:00:00Z","name_a2s":"Uncletopia | Atlanta | 2 | All Maps","protocol":17,"map":"pl_borneo","folder":"tf","game":"Team Fortress","app_id":440,"player_count":24,"max_players":24,"Bots":0,"server_type":"Dedicated","server_os":"Linux","password":true,"vac":true,"version":"7961495","steam_id":85568392924469983,"keywords":["nocrits","nodmgspread","payload","uncletopia"],"game_id":440,"stv_port":27026,"stv_name":"Uncletopia | Atlanta | 2 | All Maps | STV","players":null},{"server_id":400,"name":"Uncletopia | Atlanta | 3 | All Maps","name_short":"atl-3","host":"atl-1.us.uncletopia.com","port":27035,"enabled":true,"region":"us-east","cc":"us","latitude":33.753746,"longitude":-84.38633,"reserved":0,"last_update":"0001-01-01T00:00:00Z","name_a2s":"Uncletopia | Atlanta | 3 | All Maps","protocol":17,"map":"koth_lakeside_final","folder":"tf","game":"Team Fortress","app_id":440,"player_count":0,"max_players":24,"Bots":0,"server_type":"Dedicated","server_os":"Linux","password":true,"vac":true,"version":"7961495","steam_id":85568392924515187,"keywords":["cp","nocrits","nodmgspread","uncletopia"],"game_id":440,"stv_port":27036,"stv_name":"Uncletopia | Atlanta | 3 | All Maps | STV","players":null},{"server_id":401,"name":"Uncletopia | Atlanta | 4 | Community","name_short":"atl-4","host":"atl-1.us.uncletopia.com","port":27045,"enabled":true,"region":"us-east","cc":"us","latitude":33.753746,"longitude":-84.38633,"reserved":0,"last_update":"0001-01-01T00:00:00Z","name_a2s":"Uncletopia | Atlanta | 4 | Community","protocol":17,"map":"cp_croissant_final","folder":"tf","game":"Team Fortress","app_id":440,"player_count":1,"max_players":24,"Bots":0,"server_type":"Dedicated","server_os":"Linux","password":true,"vac":true,"version":"7961495","steam_id":85568392924515188,"keywords":["cp","nocrits","nodmgspread","uncletopia"],"game_id":440,"stv_port":27046,"stv_name":"Uncletopia | Atlanta | 4 | Community | STV","players":null},{"server_id":2,"name":"Uncletopia | Chicago | 1 | All Maps","name_short":"chi-1","host":"chi-1.us.uncletopia.com","port":27015,"enabled":true,"region":"us-central","cc":"us","latitude":41.881832,"longitude":-87.62318,"reserved":0,"last_update":"0001-01-01T00:00:00Z","name_a2s":"Uncletopia | Chicago | 1 | All Maps","protocol":17,"map":"pl_upward","folder":"tf","game":"Team Fortress","app_id":440,"player_count":24,"max_players":24,"Bots":0,"server_type":"Dedicated","server_os":"Linux","password":true,"vac":true,"version":"7961495","steam_id":85568392924469984,"keywords":["nocrits","nodmgspread","payload","uncletopia"],"game_id":440,"stv_port":27016,"stv_name":"Uncletopia | Chicago | 1 | All Maps | STV","players":[{"user_id":98,"name":"Thundermonkey (SMOKE)","steam_id":76561198017631728,"connected_time":2931000000000,"state":"active","ping":56},{"user_id":101,"name":"GamingTNT","steam_id":76561198164384967,"connected_time":2563000000000,"state":"active","ping":66},{"user_id":70,"name":"I haven't even begun to peak","steam_id":76561198022302843,"connected_time":4713000000000,"state":"active","ping":81},{"user_id":96,"name":"Goober","steam_id":76561198135995135,"connected_time":2980000000000,"state":"active","ping":65},{"user_id":43,"name":"PyroEagle","steam_id":76561198296434231,"connected_time":6341000000000,"state":"active","ping":71},{"user_id":110,"name":"Crab Rangoon","steam_id":76561198059310510,"connected_time":1410000000000,"state":"active","ping":58},{"user_id":90,"name":"coco","steam_id":76561199112844022,"connected_time":3697000000000,"state":"active","ping":135},{"user_id":128,"name":"god's drunkest driver","steam_id":76561198069407799,"connected_time":133000000000,"state":"active","ping":76},{"user_id":83,"name":"Petrichor","steam_id":76561198323397375,"connected_time":4192000000000,"state":"active","ping":86},{"user_id":106,"name":"aphexjh","steam_id":76561197985854658,"connected_time":1915000000000,"state":"active","ping":61},{"user_id":115,"name":"GalacticHero2068","steam_id":76561199063612661,"connected_time":1389000000000,"state":"active","ping":101},{"user_id":111,"name":"Blake...","steam_id":76561198064090974,"connected_time":1406000000000,"state":"active","ping":94},{"user_id":55,"name":"Joe ELO From Progressive","steam_id":76561198336597038,"connected_time":5883000000000,"state":"active","ping":85},{"user_id":104,"name":"Soda","steam_id":76561198219209367,"connected_time":2270000000000,"state":"active","ping":62},{"user_id":123,"name":"Tokyo_Timeshift_","steam_id":76561198048677523,"connected_time":687000000000,"state":"active","ping":70},{"user_id":125,"name":"AttackCommander","steam_id":76561198111522679,"connected_time":431000000000,"state":"active","ping":85},{"user_id":113,"name":"Tired Bed","steam_id":76561198052648734,"connected_time":1404000000000,"state":"active","ping":97},{"user_id":117,"name":"meowfang","steam_id":76561198123056791,"connected_time":1374000000000,"state":"active","ping":65},{"user_id":127,"name":"Divine Kitty","steam_id":76561198293490689,"connected_time":395000000000,"state":"active","ping":159},{"user_id":87,"name":"Kindagoodplayer","steam_id":76561198814625843,"connected_time":4162000000000,"state":"active","ping":88},{"user_id":124,"name":"Mank","steam_id":76561198189421005,"connected_time":652000000000,"state":"active","ping":48},{"user_id":121,"name":"Astro Knight","steam_id":76561198062767484,"connected_time":776000000000,"state":"active","ping":81},{"user_id":126,"name":"DrD","steam_id":76561198067266383,"connected_time":430000000000,"state":"active","ping":90},{"user_id":44,"name":"Spy Gaming","steam_id":76561198453295613,"connected_time":6340000000000,"state":"active","ping":117}]},{"server_id":106,"name":"Uncletopia | Chicago | 2 | All Maps","name_short":"chi-2","host":"chi-1.us.uncletopia.com","port":27025,"enabled":true,"region":"us-central","cc":"us","latitude":41.881832,"longitude":-87.62318,"reserved":0,"last_update":"0001-01-01T00:00:00Z","name_a2s":"Uncletopia | Chicago | 2 | All Maps","protocol":17,"map":"pl_barnblitz","folder":"tf","game":"Team Fortress","app_id":440,"player_count":24,"max_players":24,"Bots":0,"server_type":"Dedicated","server_os":"Linux","password":true,"vac":true,"version":"7961495","steam_id":85568392924469985,"keywords":["nocrits","nodmgspread","payload","uncletopia"],"game_id":440,"stv_port":27026,"stv_name":"Uncletopia | Chicago | 2 | All Maps | STV","players":[{"user_id":92,"name":"i suffer from ligma","steam_id":76561199158496518,"connected_time":3120000000000,"state":"spawning","ping":222},{"user_id":102,"name":"jolo","steam_id":76561198042831480,"connected_time":1006000000000,"state":"spawning","ping":209},{"user_id":83,"name":"chunguspilled","steam_id":76561198263122601,"connected_time":3630000000000,"state":"spawning","ping":101},{"user_id":100,"name":"Boter","steam_id":76561198066994093,"connected_time":1048000000000,"state":"spawning","ping":108},{"user_id":108,"name":"Littlebee","steam_id":76561198097698947,"connected_time":7000000000,"state":"spawning","ping":400},{"user_id":106,"name":"nucket","steam_id":76561198028658527,"connected_time":118000000000,"state":"spawning","ping":267},{"user_id":107,"name":"Uwu Micster","steam_id":76561198843890616,"connected_time":25000000000,"state":"spawning","ping":127},{"user_id":41,"name":"MedRed™ #IATAH","steam_id":76561198002962970,"connected_time":7105000000000,"state":"spawning","ping":240},{"user_id":97,"name":"blazzeh","steam_id":76561198053407069,"connected_time":2199000000000,"state":"spawning","ping":206},{"user_id":68,"name":"Propaniac Gaming ☑","steam_id":76561198133963270,"connected_time":5656000000000,"state":"spawning","ping":168},{"user_id":105,"name":"Smooky","steam_id":76561198191435451,"connected_time":751000000000,"state":"spawning","ping":167},{"user_id":91,"name":"Fozzy","steam_id":76561198258458765,"connected_time":3149000000000,"state":"spawning","ping":278},{"user_id":55,"name":"wheresgeorge","steam_id":76561198986281248,"connected_time":6469000000000,"state":"spawning","ping":166},{"user_id":95,"name":"Plasmie{ylo}","steam_id":76561198083513154,"connected_time":2573000000000,"state":"spawning","ping":112},{"user_id":90,"name":"Mr. Tickle","steam_id":76561198126684647,"connected_time":3202000000000,"state":"spawning","ping":148},{"user_id":99,"name":"Gaming-Sentinel","steam_id":76561198115896873,"connected_time":1835000000000,"state":"spawning","ping":195},{"user_id":89,"name":"boo_thefeared","steam_id":76561198127967685,"connected_time":3296000000000,"state":"spawning","ping":213},{"user_id":60,"name":"Zombie hunter","steam_id":76561198328423470,"connected_time":6284000000000,"state":"spawning","ping":146},{"user_id":77,"name":"A Puppy","steam_id":76561198828184456,"connected_time":3682000000000,"state":"spawning","ping":164},{"user_id":24,"name":"hej","steam_id":76561197996366940,"connected_time":7642000000000,"state":"spawning","ping":166},{"user_id":26,"name":"Truck-kun2107","steam_id":76561199161417910,"connected_time":7628000000000,"state":"spawning","ping":132},{"user_id":103,"name":"Malaflub_55","steam_id":76561199112453790,"connected_time":970000000000,"state":"spawning","ping":338},{"user_id":28,"name":"hearttron","steam_id":76561198994842331,"connected_time":7616000000000,"state":"spawning","ping":208},{"user_id":96,"name":"Let ε \u003e 0","steam_id":76561198111790388,"connected_time":2343000000000,"state":"spawning","ping":324}]},{"server_id":402,"name":"Uncletopia | Chicago | 3 | All Maps","name_short":"chi-3","host":"chi-1.us.uncletopia.com","port":27035,"enabled":true,"region":"us-central","cc":"us","latitude":41.881832,"longitude":-87.62318,"reserved":0,"last_update":"0001-01-01T00:00:00Z","name_a2s":"Uncletopia | Chicago | 3 | All Maps","protocol":17,"map":"pl_borneo","folder":"tf","game":"Team Fortress","app_id":440,"player_count":24,"max_players":24,"Bots":0,"server_type":"Dedicated","server_os":"Linux","password":true,"vac":true,"version":"7961495","steam_id":85568392924515191,"keywords":["nocrits","nodmgspread","payload","uncletopia"],"game_id":440,"stv_port":27036,"stv_name":"Uncletopia | Chicago | 3 | All Maps | STV","players":[{"user_id":127,"name":"Zane","steam_id":76561199096461906,"connected_time":851000000000,"state":"active","ping":86},{"user_id":105,"name":"Donnie Blasto","steam_id":76561198043432005,"connected_time":1995000000000,"state":"active","ping":54},{"user_id":129,"name":"SirHipster0p","steam_id":76561198340315145,"connected_time":764000000000,"state":"active","ping":68},{"user_id":120,"name":"TerrorOfTheSeas","steam_id":76561198388385659,"connected_time":1311000000000,"state":"active","ping":74},{"user_id":106,"name":"Tripll-L","steam_id":76561197998077437,"connected_time":1989000000000,"state":"active","ping":77},{"user_id":96,"name":"MellowBoy-2354","steam_id":76561199080630632,"connected_time":3276000000000,"state":"active","ping":100},{"user_id":107,"name":"Verse","steam_id":76561198996078605,"connected_time":1988000000000,"state":"active","ping":63},{"user_id":128,"name":"ThatOneKnight","steam_id":76561198388583650,"connected_time":799000000000,"state":"active","ping":54},{"user_id":110,"name":"mrappledumb","steam_id":76561199133590774,"connected_time":1933000000000,"state":"active","ping":85},{"user_id":130,"name":"Poacher","steam_id":76561198867626964,"connected_time":751000000000,"state":"active","ping":106},{"user_id":108,"name":"coms","steam_id":76561198359456881,"connected_time":1983000000000,"state":"active","ping":43},{"user_id":131,"name":"banana97286","steam_id":76561199367847817,"connected_time":592000000000,"state":"active","ping":63},{"user_id":121,"name":"Bon Gripper","steam_id":76561198090074621,"connected_time":1310000000000,"state":"active","ping":54},{"user_id":123,"name":"Grundle Thunder","steam_id":76561197960790338,"connected_time":1072000000000,"state":"active","ping":85},{"user_id":111,"name":"kibsta","steam_id":76561198991982630,"connected_time":1753000000000,"state":"active","ping":55},{"user_id":119,"name":"acxeu","steam_id":76561198394435000,"connected_time":1375000000000,"state":"active","ping":66},{"user_id":62,"name":"menace","steam_id":76561198319142233,"connected_time":5617000000000,"state":"active","ping":45},{"user_id":112,"name":"Mr. DeLarge","steam_id":76561198336820066,"connected_time":1749000000000,"state":"active","ping":113},{"user_id":103,"name":"DinkleBerg","steam_id":76561198891626233,"connected_time":2008000000000,"state":"active","ping":65},{"user_id":122,"name":"Rudy","steam_id":76561198013456828,"connected_time":1310000000000,"state":"active","ping":63},{"user_id":93,"name":"sam","steam_id":76561198088504281,"connected_time":3364000000000,"state":"active","ping":52},{"user_id":102,"name":"Bee","steam_id":76561198074681324,"connected_time":2334000000000,"state":"active","ping":63},{"user_id":97,"name":"manbearswineflu","steam_id":76561198083945137,"connected_time":3197000000000,"state":"active","ping":65},{"user_id":104,"name":"Seven","steam_id":76561198259947055,"connected_time":2008000000000,"state":"active","ping":41}]},{"server_id":403,"name":"Uncletopia | Chicago | 4 | All Maps","name_short":"chi-4","host":"chi-1.us.uncletopia.com","port":27045,"enabled":true,"region":"us-central","cc":"us","latitude":41.881832,"longitude":-87.62318,"reserved":0,"last_update":"0001-01-01T00:00:00Z","name_a2s":"Uncletopia | Chicago | 4 | All Maps","protocol":17,"map":"cp_junction_final","folder":"tf","game":"Team Fortress","app_id":440,"player_count":24,"max_players":24,"Bots":0,"server_type":"Dedicated","server_os":"Linux","password":true,"vac":true,"version":"7961495","steam_id":85568392924515193,"keywords":["cp","nocrits","nodmgspread","uncletopia"],"game_id":440,"stv_port":27046,"stv_name":"Uncletopia | Chicago | 4 | All Maps | STV","players":[{"user_id":64,"name":"88","steam_id":76561198165212575,"connected_time":5370000000000,"state":"active","ping":61},{"user_id":125,"name":"daeboss03","steam_id":76561199074488696,"connected_time":59000000000,"state":"active","ping":82},{"user_id":114,"name":"Winter the Witchie","steam_id":76561198151971178,"connected_time":1339000000000,"state":"active","ping":54},{"user_id":45,"name":"PackingPeanutt :]","steam_id":76561199053229413,"connected_time":7029000000000,"state":"active","ping":86},{"user_id":75,"name":"Durt","steam_id":76561198073569962,"connected_time":4633000000000,"state":"active","ping":47},{"user_id":117,"name":"m yfrogs","steam_id":76561198371149432,"connected_time":484000000000,"state":"active","ping":45},{"user_id":121,"name":"winrarFanatic","steam_id":76561198026538317,"connected_time":87000000000,"state":"active","ping":58},{"user_id":115,"name":"Melons","steam_id":76561198062349555,"connected_time":922000000000,"state":"active","ping":70},{"user_id":106,"name":"Lore","steam_id":76561198098407538,"connected_time":1658000000000,"state":"active","ping":48},{"user_id":116,"name":"zzz","steam_id":76561198143727547,"connected_time":917000000000,"state":"active","ping":91},{"user_id":119,"name":"cass","steam_id":76561198074502046,"connected_time":97000000000,"state":"active","ping":92},{"user_id":97,"name":"rare dino chomby","steam_id":76561198045599872,"connected_time":2524000000000,"state":"active","ping":75},{"user_id":120,"name":"Aqudarius","steam_id":76561198091584204,"connected_time":97000000000,"state":"active","ping":68},{"user_id":118,"name":"Puke Skyfucker","steam_id":76561198012846213,"connected_time":119000000000,"state":"active","ping":66},{"user_id":122,"name":"civilian","steam_id":76561198289811981,"connected_time":85000000000,"state":"active","ping":78},{"user_id":126,"name":"frim le yousse","steam_id":76561198107765260,"connected_time":53000000000,"state":"active","ping":83},{"user_id":98,"name":"J3X","steam_id":76561198184753858,"connected_time":2179000000000,"state":"active","ping":87},{"user_id":128,"name":"pHsHy","steam_id":76561198013195018,"connected_time":13000000000,"state":"spawning","ping":69},{"user_id":124,"name":"Acro","steam_id":76561198092451804,"connected_time":76000000000,"state":"active","ping":81},{"user_id":96,"name":"Sage","steam_id":76561198143101697,"connected_time":2795000000000,"state":"active","ping":100},{"user_id":127,"name":"Thebossdude22","steam_id":76561198125202109,"connected_time":49000000000,"state":"active","ping":85},{"user_id":112,"name":"Butters495","steam_id":76561197998689042,"connected_time":1592000000000,"state":"active","ping":80},{"user_id":129,"name":"Koffy","steam_id":76561198184386039,"connected_time":2000000000,"state":"spawning","ping":122},{"user_id":42,"name":"Jarnold","steam_id":76561198090434537,"connected_time":7151000000000,"state":"active","ping":55}]},{"server_id":36,"name":"Uncletopia | Chicago | 5 | All Maps","name_short":"chi-5","host":"chi-2.us.uncletopia.com","port":27015,"enabled":true,"region":"us-central","cc":"us","latitude":41.881832,"longitude":-87.62318,"reserved":0,"last_update":"0001-01-01T00:00:00Z","name_a2s":"Uncletopia | Chicago | 5 | All Maps","protocol":17,"map":"pl_borneo","folder":"tf","game":"Team Fortress","app_id":440,"player_count":24,"max_players":24,"Bots":0,"server_type":"Dedicated","server_os":"Linux","password":true,"vac":true,"version":"7961495","steam_id":85568392924866362,"keywords":["nocrits","nodmgspread","payload","uncletopia"],"game_id":440,"stv_port":27016,"stv_name":"Uncletopia | Chicago | 5 | All Maps | STV","players":[{"user_id":83,"name":"Chrysalis","steam_id":76561198028576126,"connected_time":3258000000000,"state":"active","ping":66},{"user_id":113,"name":"cheetaz","steam_id":76561198224614084,"connected_time":1366000000000,"state":"active","ping":65},{"user_id":99,"name":"Fightin Cow","steam_id":76561198080941486,"connected_time":2725000000000,"state":"active","ping":80},{"user_id":6,"name":"Strange Festive Femboy","steam_id":76561198050385093,"connected_time":7793000000000,"state":"active","ping":90},{"user_id":114,"name":"[GUT] tipups","steam_id":76561197972342705,"connected_time":1031000000000,"state":"active","ping":69},{"user_id":124,"name":"Kalhoun","steam_id":76561197999648122,"connected_time":326000000000,"state":"active","ping":50},{"user_id":97,"name":"Candy Sparkles","steam_id":76561198126871264,"connected_time":2782000000000,"state":"active","ping":87},{"user_id":81,"name":"Angry Ginger","steam_id":76561198256929349,"connected_time":4298000000000,"state":"active","ping":51},{"user_id":126,"name":"Spanghew (GTI)","steam_id":76561198346062560,"connected_time":61000000000,"state":"active","ping":83},{"user_id":82,"name":"孫子","steam_id":76561198083112681,"connected_time":3953000000000,"state":"active","ping":57},{"user_id":117,"name":"Zavha0mnic","steam_id":76561198379552298,"connected_time":570000000000,"state":"active","ping":74},{"user_id":122,"name":"Cat","steam_id":76561198132362099,"connected_time":509000000000,"state":"active","ping":110},{"user_id":92,"name":"roast pig with apple in mouth","steam_id":76561198051353647,"connected_time":3085000000000,"state":"active","ping":59},{"user_id":112,"name":"Queen Frau the Round","steam_id":76561197999942134,"connected_time":1441000000000,"state":"active","ping":45},{"user_id":106,"name":"[MRY] Sk-iLite","steam_id":76561198041797350,"connected_time":1666000000000,"state":"active","ping":64},{"user_id":104,"name":"Merchant","steam_id":76561198130468663,"connected_time":1730000000000,"state":"active","ping":59},{"user_id":95,"name":"Space⭐Taffy","steam_id":76561198002271720,"connected_time":2858000000000,"state":"active","ping":71},{"user_id":123,"name":"That Guy","steam_id":76561198074138740,"connected_time":507000000000,"state":"active","ping":84},{"user_id":116,"name":"Colin102004","steam_id":76561198202384334,"connected_time":654000000000,"state":"active","ping":54},{"user_id":54,"name":"C Papi","steam_id":76561198027779564,"connected_time":6448000000000,"state":"active","ping":58},{"user_id":119,"name":"Aeris","steam_id":76561198287271028,"connected_time":549000000000,"state":"active","ping":59},{"user_id":91,"name":"Wizard02","steam_id":76561198178293623,"connected_time":3127000000000,"state":"active","ping":93},{"user_id":98,"name":"Dallas","steam_id":76561198066542919,"connected_time":2767000000000,"state":"active","ping":100},{"user_id":107,"name":"Saulblox","steam_id":76561198873880081,"connected_time":1666000000000,"state":"active","ping":119}]},{"server_id":37,"name":"Uncletopia | Chicago | 6 | All Maps","name_short":"chi-6","host":"chi-2.us.uncletopia.com","port":27025,"enabled":true,"region":"us-central","cc":"us","latitude":41.881832,"longitude":-87.62318,"reserved":0,"last_update":"0001-01-01T00:00:00Z","name_a2s":"Uncletopia | Chicago | 6 | All Maps","protocol":17,"map":"pl_borneo","folder":"tf","game":"Team Fortress","app_id":440,"player_count":24,"max_players":24,"Bots":0,"server_type":"Dedicated","server_os":"Linux","password":true,"vac":true,"version":"7961495","steam_id":85568392924866363,"keywords":["nocrits","nodmgspread","payload","uncletopia"],"game_id":440,"stv_port":27026,"stv_name":"Uncletopia | Chicago | 6 | All Maps | STV","players":[{"user_id":129,"name":"Miauzy","steam_id":76561198280577383,"connected_time":667000000000,"state":"active","ping":54},{"user_id":134,"name":"Kzjytsugn","steam_id":76561198130241974,"connected_time":246000000000,"state":"active","ping":89},{"user_id":126,"name":"bojack from the show bojack hor","steam_id":76561198053006712,"connected_time":898000000000,"state":"active","ping":59},{"user_id":80,"name":"AverageJoe","steam_id":76561198313420109,"connected_time":3943000000000,"state":"active","ping":58},{"user_id":120,"name":"Mr.ParkJr","steam_id":76561198357216189,"connected_time":1334000000000,"state":"active","ping":91},{"user_id":97,"name":"Techo","steam_id":76561199169405285,"connected_time":3400000000000,"state":"active","ping":106},{"user_id":138,"name":"❤ Ashley ❤","steam_id":76561198056428303,"connected_time":189000000000,"state":"active","ping":98},{"user_id":135,"name":"eat Pant","steam_id":76561197974965536,"connected_time":240000000000,"state":"active","ping":64},{"user_id":119,"name":"Ohmterra","steam_id":76561198145537404,"connected_time":1350000000000,"state":"active","ping":78},{"user_id":131,"name":"Kobold With A Gun","steam_id":76561199160414689,"connected_time":556000000000,"state":"active","ping":70},{"user_id":122,"name":"heistworm","steam_id":76561198086052584,"connected_time":1266000000000,"state":"active","ping":52},{"user_id":106,"name":"Moo_UwU","steam_id":76561199138512017,"connected_time":2842000000000,"state":"active","ping":62},{"user_id":108,"name":"black ops 2 hank hill trolling","steam_id":76561198095313463,"connected_time":2746000000000,"state":"active","ping":80},{"user_id":82,"name":"BiggsyBoy","steam_id":76561198119656147,"connected_time":3928000000000,"state":"active","ping":63},{"user_id":69,"name":"An Erect Penis :)","steam_id":76561198086477485,"connected_time":4632000000000,"state":"active","ping":40},{"user_id":118,"name":"Lunartik","steam_id":76561199004827382,"connected_time":1354000000000,"state":"active","ping":69},{"user_id":83,"name":"Conjon","steam_id":76561198083408885,"connected_time":3924000000000,"state":"active","ping":53},{"user_id":139,"name":"big joe's tire company","steam_id":76561198204995668,"connected_time":182000000000,"state":"active","ping":84},{"user_id":137,"name":"pl_chicago","steam_id":76561198055626638,"connected_time":206000000000,"state":"active","ping":91},{"user_id":84,"name":"gary","steam_id":76561198140226890,"connected_time":3914000000000,"state":"active","ping":81},{"user_id":132,"name":"Frontier Psychiatrist","steam_id":76561198038689088,"connected_time":522000000000,"state":"active","ping":98},{"user_id":133,"name":"mlyb","steam_id":76561198144052860,"connected_time":322000000000,"state":"active","ping":86},{"user_id":130,"name":"King of Ping","steam_id":76561198278737470,"connected_time":666000000000,"state":"active","ping":70},{"user_id":136,"name":"Randy Butternubs","steam_id":76561197983738629,"connected_time":225000000000,"state":"active","ping":60}]},{"server_id":38,"name":"Uncletopia | Chicago | 7 | Stopwatch Beta","name_short":"chi-7","host":"chi-2.us.uncletopia.com","port":27035,"enabled":true,"region":"us-central","cc":"us","latitude":41.881832,"longitude":-87.62318,"reserved":0,"last_update":"0001-01-01T00:00:00Z","name_a2s":"Uncletopia | Chicago | 7 | Stopwatch Beta","protocol":17,"map":"pl_borneo","folder":"tf","game":"Team Fortress","app_id":440,"player_count":0,"max_players":24,"Bots":0,"server_type":"Dedicated","server_os":"Linux","password":true,"vac":true,"version":"7961495","steam_id":85568392924866364,"keywords":["nocrits","nodmgspread","payload","uncletopia"],"game_id":440,"stv_port":27036,"stv_name":"Uncletopia | Chicago | 7 | Stopwatch Beta | STV","players":null},{"server_id":39,"name":"Uncletopia | Chicago | 8 | Community","name_short":"chi-8","host":"chi-2.us.uncletopia.com","port":27045,"enabled":true,"region":"us-central","cc":"us","latitude":41.881832,"longitude":-87.62318,"reserved":0,"last_update":"0001-01-01T00:00:00Z","name_a2s":"Uncletopia | Chicago | 8 | Community","protocol":17,"map":"workshop/cp_villa_b19.ugc2113052569","folder":"tf","game":"Team Fortress","app_id":440,"player_count":24,"max_players":24,"Bots":0,"server_type":"Dedicated","server_os":"Linux","password":true,"vac":true,"version":"7961495","steam_id":85568392924866365,"keywords":["cp","nocrits","nodmgspread","uncletopia"],"game_id":440,"stv_port":27046,"stv_name":"Uncletopia | Chicago | 8 | Community | STV","players":[{"user_id":90,"name":"ECCO","steam_id":76561198002821513,"connected_time":659000000000,"state":"active","ping":62},{"user_id":97,"name":"chilis baby back ribs","steam_id":76561198813516435,"connected_time":367000000000,"state":"active","ping":94},{"user_id":99,"name":"I'm using tilt controls!","steam_id":76561198022097954,"connected_time":28000000000,"state":"spawning","ping":162},{"user_id":78,"name":"Twistedironpaw","steam_id":76561198025978157,"connected_time":1889000000000,"state":"active","ping":68},{"user_id":98,"name":"Rodrick Knee","steam_id":76561198283021062,"connected_time":262000000000,"state":"active","ping":84},{"user_id":11,"name":"HoneyIsCringe","steam_id":76561199011712065,"connected_time":5101000000000,"state":"active","ping":106},{"user_id":96,"name":"define ok","steam_id":76561198068190834,"connected_time":475000000000,"state":"active","ping":108},{"user_id":91,"name":"Dr Nefario","steam_id":76561198254646194,"connected_time":643000000000,"state":"active","ping":60},{"user_id":73,"name":"Swiftmend","steam_id":76561197995595692,"connected_time":1981000000000,"state":"active","ping":76},{"user_id":87,"name":"Itz_bub","steam_id":76561199089629419,"connected_time":1244000000000,"state":"active","ping":100},{"user_id":49,"name":"Best Friends With My Tapeworm","steam_id":76561198045010282,"connected_time":3684000000000,"state":"active","ping":74},{"user_id":57,"name":"PISSMAN (Xi/ Xim)","steam_id":76561198144801416,"connected_time":3269000000000,"state":"active","ping":66},{"user_id":65,"name":"NotSoNorth","steam_id":76561198447292053,"connected_time":2484000000000,"state":"active","ping":66},{"user_id":92,"name":"oxy","steam_id":76561198089770351,"connected_time":637000000000,"state":"active","ping":89},{"user_id":77,"name":"OctillionaireSigmaMale","steam_id":76561198816005207,"connected_time":1904000000000,"state":"active","ping":81},{"user_id":79,"name":"Stay-See","steam_id":76561199076612537,"connected_time":1883000000000,"state":"active","ping":59},{"user_id":29,"name":"Gramseal","steam_id":76561198181906333,"connected_time":4350000000000,"state":"active","ping":98},{"user_id":93,"name":"the pest","steam_id":76561198826298849,"connected_time":634000000000,"state":"active","ping":94},{"user_id":64,"name":"Lifial","steam_id":76561198271885819,"connected_time":2582000000000,"state":"active","ping":76},{"user_id":82,"name":"Man with pencil","steam_id":76561198074000459,"connected_time":1566000000000,"state":"active","ping":60},{"user_id":37,"name":"I'mWalkerHere","steam_id":76561199310055450,"connected_time":4261000000000,"state":"active","ping":87},{"user_id":94,"name":"Fermenting Kiwi","steam_id":76561198253303497,"connected_time":631000000000,"state":"active","ping":78},{"user_id":95,"name":"Cyclops_672","steam_id":76561198080169497,"connected_time":621000000000,"state":"active","ping":60},{"user_id":48,"name":"Karli ☭","steam_id":76561198092820390,"connected_time":3873000000000,"state":"active","ping":71}]},{"server_id":8,"name":"Uncletopia | Dallas | 1 | All Maps","name_short":"dal-1","host":"dal-1.us.uncletopia.com","port":27015,"enabled":true,"region":"us-central","cc":"us","latitude":32.779167,"longitude":-96.80889,"reserved":0,"last_update":"0001-01-01T00:00:00Z","name_a2s":"Uncletopia | Dallas | 1 | All Maps","protocol":17,"map":"pl_barnblitz","folder":"tf","game":"Team Fortress","app_id":440,"player_count":24,"max_players":24,"Bots":0,"server_type":"Dedicated","server_os":"Linux","password":true,"vac":true,"version":"7961495","steam_id":85568392924469986,"keywords":["nocrits","nodmgspread","payload","uncletopia"],"game_id":440,"stv_port":27016,"stv_name":"Uncletopia | Dallas | 1 | All Maps | STV","players":[{"user_id":173,"name":"|KPF|r0cks","steam_id":76561198023597573,"connected_time":2171000000000,"state":"spawning","ping":115},{"user_id":188,"name":"PowerGem3000","steam_id":76561198944644691,"connected_time":449000000000,"state":"spawning","ping":98},{"user_id":179,"name":"Bacon","steam_id":76561199078407152,"connected_time":1260000000000,"state":"spawning","ping":70},{"user_id":180,"name":"Rin \"Hindwing\" Redtail","steam_id":76561199074865638,"connected_time":1259000000000,"state":"spawning","ping":64},{"user_id":178,"name":"Light-Work","steam_id":76561198084263001,"connected_time":1342000000000,"state":"spawning","ping":57},{"user_id":162,"name":"DeckofDragons","steam_id":76561198057398213,"connected_time":2806000000000,"state":"spawning","ping":76},{"user_id":183,"name":"Freddy fatbear","steam_id":76561199077997794,"connected_time":1049000000000,"state":"spawning","ping":81},{"user_id":174,"name":"Kimchi Kouhai","steam_id":76561198167784445,"connected_time":2163000000000,"state":"spawning","ping":121},{"user_id":187,"name":"Hikaru Ichijyo","steam_id":76561198011002090,"connected_time":722000000000,"state":"spawning","ping":106},{"user_id":51,"name":"Moonflower ✦","steam_id":76561198191782483,"connected_time":5278000000000,"state":"spawning","ping":62},{"user_id":177,"name":"Justy","steam_id":76561198044014069,"connected_time":1711000000000,"state":"spawning","ping":85},{"user_id":171,"name":"chesterwnimitz","steam_id":76561198062664377,"connected_time":2234000000000,"state":"spawning","ping":59},{"user_id":189,"name":"Rob","steam_id":76561199187786660,"connected_time":393000000000,"state":"spawning","ping":49},{"user_id":181,"name":"MondoDong","steam_id":76561197991400109,"connected_time":1251000000000,"state":"spawning","ping":86},{"user_id":192,"name":"radicalPolio","steam_id":76561197961561855,"connected_time":37000000000,"state":"spawning","ping":55},{"user_id":194,"name":"Ko - こ - 코","steam_id":76561198035726982,"connected_time":26000000000,"state":"spawning","ping":65},{"user_id":191,"name":"ROGUE-PLANET","steam_id":76561198116023052,"connected_time":99000000000,"state":"spawning","ping":84},{"user_id":134,"name":"mkl","steam_id":76561197986401685,"connected_time":3562000000000,"state":"spawning","ping":65},{"user_id":182,"name":"JayRawgTV","steam_id":76561198044402840,"connected_time":1228000000000,"state":"spawning","ping":67},{"user_id":186,"name":"De MonkE","steam_id":76561198140626221,"connected_time":927000000000,"state":"spawning","ping":47},{"user_id":193,"name":"schmuck","steam_id":76561198143789773,"connected_time":32000000000,"state":"connecting","ping":50},{"user_id":190,"name":"Kng","steam_id":76561198993248203,"connected_time":213000000000,"state":"spawning","ping":88},{"user_id":172,"name":"plink","steam_id":76561198057829889,"connected_time":2228000000000,"state":"spawning","ping":67},{"user_id":170,"name":"Mehman","steam_id":76561199020244051,"connected_time":2270000000000,"state":"spawning","ping":109}]},{"server_id":108,"name":"Uncletopia | Dallas | 2 | All Maps","name_short":"dal-2","host":"dal-1.us.uncletopia.com","port":27025,"enabled":true,"region":"us-central","cc":"us","latitude":32.779167,"longitude":-96.80889,"reserved":0,"last_update":"0001-01-01T00:00:00Z","name_a2s":"Uncletopia | Dallas | 2 | All Maps","protocol":17,"map":"pl_badwater","folder":"tf","game":"Team Fortress","app_id":440,"player_count":24,"max_players":24,"Bots":0,"server_type":"Dedicated","server_os":"Linux","password":true,"vac":true,"version":"7961495","steam_id":85568392924469988,"keywords":["nocrits","nodmgspread","payload","uncletopia"],"game_id":440,"stv_port":27026,"stv_name":"Uncletopia | Dallas | 2 | All Maps | STV","players":[{"user_id":109,"name":"Mr. Everett","steam_id":76561198401204033,"connected_time":1252000000000,"state":"active","ping":78},{"user_id":97,"name":"Per My Last Email","steam_id":76561197970096950,"connected_time":2466000000000,"state":"active","ping":36},{"user_id":87,"name":"Jaydyn","steam_id":76561198140326797,"connected_time":2941000000000,"state":"active","ping":104},{"user_id":110,"name":"The Entire Population of Canada","steam_id":76561198090187112,"connected_time":1229000000000,"state":"active","ping":91},{"user_id":115,"name":"Aegis","steam_id":76561198272052750,"connected_time":1163000000000,"state":"active","ping":78},{"user_id":108,"name":"EvilPigglet","steam_id":76561197987243470,"connected_time":1282000000000,"state":"active","ping":76},{"user_id":105,"name":"Etomb","steam_id":76561198210017208,"connected_time":1790000000000,"state":"active","ping":75},{"user_id":116,"name":"intek","steam_id":76561198052705291,"connected_time":1097000000000,"state":"active","ping":105},{"user_id":80,"name":"Tribute","steam_id":76561198081594043,"connected_time":3774000000000,"state":"active","ping":63},{"user_id":111,"name":"Bones0010","steam_id":76561198096186958,"connected_time":1213000000000,"state":"active","ping":67},{"user_id":121,"name":"Levi","steam_id":76561198089832776,"connected_time":63000000000,"state":"active","ping":55},{"user_id":117,"name":"Insizhen","steam_id":76561198051352605,"connected_time":430000000000,"state":"active","ping":51},{"user_id":107,"name":"Gwando","steam_id":76561198294629124,"connected_time":1364000000000,"state":"active","ping":45},{"user_id":120,"name":"Metacarfoe","steam_id":76561198236016496,"connected_time":181000000000,"state":"active","ping":64},{"user_id":106,"name":"Hank Hill","steam_id":76561199083888017,"connected_time":1649000000000,"state":"active","ping":89},{"user_id":75,"name":"Crazy Dave!","steam_id":76561198951414566,"connected_time":4153000000000,"state":"active","ping":92},{"user_id":94,"name":"Huh?","steam_id":76561198305380082,"connected_time":2853000000000,"state":"active","ping":73},{"user_id":104,"name":"Manic","steam_id":76561198128149670,"connected_time":1990000000000,"state":"active","ping":54},{"user_id":119,"name":"Cloned","steam_id":76561198313267119,"connected_time":245000000000,"state":"active","ping":56},{"user_id":101,"name":"BakedBushido","steam_id":76561197976095068,"connected_time":2318000000000,"state":"active","ping":87},{"user_id":113,"name":"Evil little man","steam_id":76561198311053471,"connected_time":1204000000000,"state":"active","ping":57},{"user_id":102,"name":"Bone Daddy","steam_id":76561197989953895,"connected_time":2316000000000,"state":"active","ping":95},{"user_id":114,"name":"Sir.TopHats","steam_id":76561198267326839,"connected_time":1185000000000,"state":"active","ping":63},{"user_id":95,"name":"everettroth63","steam_id":76561199237772642,"connected_time":2825000000000,"state":"active","ping":83}]},{"server_id":404,"name":"Uncletopia | Dallas | 3 | All Maps","name_short":"dal-3","host":"dal-1.us.uncletopia.com","port":27035,"enabled":true,"region":"us-central","cc":"us","latitude":32.779167,"longitude":-96.80889,"reserved":0,"last_update":"0001-01-01T00:00:00Z","name_a2s":"Uncletopia | Dallas | 3 | All Maps","protocol":17,"map":"cp_powerhouse","folder":"tf","game":"Team Fortress","app_id":440,"player_count":24,"max_players":24,"Bots":0,"server_type":"Dedicated","server_os":"Linux","password":true,"vac":true,"version":"7961495","steam_id":85568392924515219,"keywords":["cp","nocrits","nodmgspread","uncletopia"],"game_id":440,"stv_port":27036,"stv_name":"Uncletopia | Dallas | 3 | All Maps | STV","players":[{"user_id":110,"name":"Lord Duke","steam_id":76561199285079634,"connected_time":739000000000,"state":"active","ping":76},{"user_id":91,"name":"_Lusty_","steam_id":76561198876948142,"connected_time":1976000000000,"state":"active","ping":59},{"user_id":72,"name":"PiolaCat","steam_id":76561199100535345,"connected_time":3189000000000,"state":"active","ping":98},{"user_id":112,"name":"Chilis 2 for 20","steam_id":76561198121544531,"connected_time":544000000000,"state":"active","ping":71},{"user_id":86,"name":"Trigger!","steam_id":76561198061514186,"connected_time":2812000000000,"state":"active","ping":85},{"user_id":38,"name":"HUESO","steam_id":76561198276383681,"connected_time":6072000000000,"state":"active","ping":89},{"user_id":114,"name":"salty like Lot's wife","steam_id":76561197998619845,"connected_time":450000000000,"state":"active","ping":87},{"user_id":111,"name":"nonagon infinity","steam_id":76561198397662124,"connected_time":651000000000,"state":"active","ping":61},{"user_id":120,"name":"elephant thumb","steam_id":76561198118859752,"connected_time":126000000000,"state":"active","ping":76},{"user_id":101,"name":"$limek✔ngEM0.an1me.B0Y_33309","steam_id":76561198283687382,"connected_time":1427000000000,"state":"active","ping":78},{"user_id":98,"name":"Big Tobacco","steam_id":76561198053752790,"connected_time":1741000000000,"state":"active","ping":66},{"user_id":99,"name":"Father Jon","steam_id":76561198324730919,"connected_time":1674000000000,"state":"active","ping":70},{"user_id":117,"name":"Komada337","steam_id":76561198153971124,"connected_time":413000000000,"state":"active","ping":74},{"user_id":67,"name":"StillNotGinger","steam_id":76561198063419189,"connected_time":3685000000000,"state":"active","ping":55},{"user_id":105,"name":"cinnamon","steam_id":76561198142109937,"connected_time":1185000000000,"state":"active","ping":63},{"user_id":116,"name":"Jams and Bread","steam_id":76561199240243522,"connected_time":415000000000,"state":"active","ping":104},{"user_id":102,"name":"Joe Nathan","steam_id":76561198041030399,"connected_time":1397000000000,"state":"active","ping":58},{"user_id":118,"name":"blanch","steam_id":76561198850629951,"connected_time":388000000000,"state":"active","ping":92},{"user_id":119,"name":"Howell at the Moon","steam_id":76561198060827426,"connected_time":380000000000,"state":"active","ping":80},{"user_id":87,"name":"AXZIOM","steam_id":76561198255074952,"connected_time":2667000000000,"state":"active","ping":93},{"user_id":106,"name":"aint that just the way","steam_id":76561198301423746,"connected_time":1140000000000,"state":"active","ping":77},{"user_id":104,"name":"ArcangelxGT","steam_id":76561198167946091,"connected_time":1316000000000,"state":"active","ping":69},{"user_id":97,"name":"Dynoscord","steam_id":76561199172777455,"connected_time":1767000000000,"state":"active","ping":106},{"user_id":69,"name":"Spaceman","steam_id":76561198349305249,"connected_time":3675000000000,"state":"active","ping":118}]},{"server_id":405,"name":"Uncletopia | Dallas | 4 | Community","name_short":"dal-4","host":"dal-1.us.uncletopia.com","port":27045,"enabled":true,"region":"us-central","cc":"us","latitude":32.779167,"longitude":-96.80889,"reserved":0,"last_update":"0001-01-01T00:00:00Z","name_a2s":"Uncletopia | Dallas | 4 | Community","protocol":17,"map":"koth_lakeside_final","folder":"tf","game":"Team Fortress","app_id":440,"player_count":0,"max_players":24,"Bots":0,"server_type":"Dedicated","server_os":"Linux","password":true,"vac":true,"version":"7961495","steam_id":85568392924515220,"keywords":["cp","nocrits","nodmgspread","uncletopia"],"game_id":440,"stv_port":27046,"stv_name":"Uncletopia | Dallas | 4 | Community | STV","players":null},{"server_id":5,"name":"Uncletopia | Frankfurt | 1 | All Maps","name_short":"frk-1","host":"frk-1.de.uncletopia.com","port":27015,"enabled":true,"region":"eu","cc":"de","latitude":50.110924,"longitude":8.682127,"reserved":0,"last_update":"0001-01-01T00:00:00Z","name_a2s":"Uncletopia | Frankfurt | 1 | All Maps","protocol":17,"map":"cp_sunshine","folder":"tf","game":"Team Fortress","app_id":440,"player_count":0,"max_players":24,"Bots":0,"server_type":"Dedicated","server_os":"Linux","password":true,"vac":true,"version":"7961495","steam_id":85568392924469989,"keywords":["cp","nocrits","nodmgspread","uncletopia"],"game_id":440,"stv_port":27016,"stv_name":"Uncletopia | Frankfurt | 1 | All Maps | STV","players":null},{"server_id":110,"name":"Uncletopia | Frankfurt | 2 | All Maps","name_short":"frk-2","host":"frk-1.de.uncletopia.com","port":27025,"enabled":true,"region":"eu","cc":"de","latitude":50.110924,"longitude":8.682127,"reserved":0,"last_update":"0001-01-01T00:00:00Z","name_a2s":"Uncletopia | Frankfurt | 2 | All Maps","protocol":17,"map":"pl_frontier_final","folder":"tf","game":"Team Fortress","app_id":440,"player_count":0,"max_players":24,"Bots":0,"server_type":"Dedicated","server_os":"Linux","password":true,"vac":true,"version":"7961495","steam_id":85568392924469990,"keywords":["nocrits","nodmgspread","payload","uncletopia"],"game_id":440,"stv_port":27026,"stv_name":"Uncletopia | Frankfurt | 2 | All Maps | STV","players":null},{"server_id":308,"name":"Uncletopia | Frankfurt | 3 | All Maps","name_short":"frk-3","host":"frk-1.de.uncletopia.com","port":27035,"enabled":true,"region":"eu","cc":"de","latitude":50.110924,"longitude":8.682127,"reserved":0,"last_update":"0001-01-01T00:00:00Z","name_a2s":"Uncletopia | Frankfurt | 3 | All Maps","protocol":17,"map":"koth_viaduct","folder":"tf","game":"Team Fortress","app_id":440,"player_count":0,"max_players":24,"Bots":0,"server_type":"Dedicated","server_os":"Linux","password":true,"vac":true,"version":"7961495","steam_id":85568392924504274,"keywords":["cp","nocrits","nodmgspread","uncletopia"],"game_id":440,"stv_port":27036,"stv_name":"Uncletopia | Frankfurt | 3 | All Maps | STV","players":null},{"server_id":309,"name":"Uncletopia | Frankfurt | 4 | All Maps","name_short":"frk-4","host":"frk-1.de.uncletopia.com","port":27045,"enabled":true,"region":"eu","cc":"de","latitude":50.110924,"longitude":8.682127,"reserved":0,"last_update":"0001-01-01T00:00:00Z","name_a2s":"Uncletopia | Frankfurt | 4 | All Maps","protocol":17,"map":"pl_frontier_final","folder":"tf","game":"Team Fortress","app_id":440,"player_count":0,"max_players":24,"Bots":0,"server_type":"Dedicated","server_os":"Linux","password":true,"vac":true,"version":"7961495","steam_id":85568392924504275,"keywords":["nocrits","nodmgspread","payload","uncletopia"],"game_id":440,"stv_port":27046,"stv_name":"Uncletopia | Frankfurt | 4 | All Maps | STV","players":null},{"server_id":310,"name":"Uncletopia | Frankfurt | 5 | All Maps","name_short":"frk-5","host":"frk-1.de.uncletopia.com","port":27055,"enabled":true,"region":"eu","cc":"de","latitude":50.110924,"longitude":8.682127,"reserved":0,"last_update":"0001-01-01T00:00:00Z","name_a2s":"Uncletopia | Frankfurt | 5 | All Maps","protocol":17,"map":"pl_swiftwater_final1","folder":"tf","game":"Team Fortress","app_id":440,"player_count":0,"max_players":24,"Bots":0,"server_type":"Dedicated","server_os":"Linux","password":true,"vac":true,"version":"7961495","steam_id":85568392924504277,"keywords":["nocrits","nodmgspread","payload","uncletopia"],"game_id":440,"stv_port":27056,"stv_name":"Uncletopia | Frankfurt | 5 | All Maps | STV","players":null},{"server_id":311,"name":"Uncletopia | Frankfurt | 6 | All Maps","name_short":"frk-6","host":"frk-1.de.uncletopia.com","port":27065,"enabled":true,"region":"eu","cc":"de","latitude":50.110924,"longitude":8.682127,"reserved":0,"last_update":"0001-01-01T00:00:00Z","name_a2s":"Uncletopia | Frankfurt | 6 | All Maps","protocol":17,"map":"pl_badwater","folder":"tf","game":"Team Fortress","app_id":440,"player_count":0,"max_players":24,"Bots":0,"server_type":"Dedicated","server_os":"Linux","password":true,"vac":true,"version":"7961495","steam_id":85568392924504278,"keywords":["nocrits","nodmgspread","payload","uncletopia"],"game_id":440,"stv_port":27066,"stv_name":"Uncletopia | Frankfurt | 6 | All Maps | STV","players":null},{"server_id":23,"name":"Uncletopia | Frankfurt | 7 | Stopwatch Beta","name_short":"frk-7","host":"frk-1.de.uncletopia.com","port":27075,"enabled":true,"region":"eu","cc":"de","latitude":50.110924,"longitude":8.682127,"reserved":0,"last_update":"0001-01-01T00:00:00Z","name_a2s":"Uncletopia | Frankfurt | 7 | Stopwatch Beta","protocol":17,"map":"pl_frontier_final","folder":"tf","game":"Team Fortress","app_id":440,"player_count":0,"max_players":24,"Bots":0,"server_type":"Dedicated","server_os":"Linux","password":true,"vac":true,"version":"7961495","steam_id":85568392924742827,"keywords":["nocrits","nodmgspread","payload","uncletopia"],"game_id":440,"stv_port":27076,"stv_name":"Uncletopia | Frankfurt | 7 | Stopwatch Beta | STV","players":null},{"server_id":24,"name":"Uncletopia | Frankfurt | 8 | Community","name_short":"frk-8","host":"frk-1.de.uncletopia.com","port":27085,"enabled":true,"region":"eu","cc":"de","latitude":50.110924,"longitude":8.682127,"reserved":0,"last_update":"0001-01-01T00:00:00Z","name_a2s":"Uncletopia | Frankfurt | 8 | Community","protocol":17,"map":"koth_highpass","folder":"tf","game":"Team Fortress","app_id":440,"player_count":0,"max_players":24,"Bots":0,"server_type":"Dedicated","server_os":"Linux","password":true,"vac":true,"version":"7961495","steam_id":85568392924742828,"keywords":["cp","nocrits","nodmgspread","uncletopia"],"game_id":440,"stv_port":27086,"stv_name":"Uncletopia | Frankfurt | 8 | Community | STV","players":null},{"server_id":202,"name":"Uncletopia | Hong Kong | 1 | All Maps","name_short":"hgk-1","host":"hgk-1.hk.uncletopia.com","port":27015,"enabled":true,"region":"asia","cc":"hk","latitude":22.302711,"longitude":114.177216,"reserved":0,"last_update":"0001-01-01T00:00:00Z","name_a2s":"Uncletopia | Hong Kong | 1 | All Maps","protocol":17,"map":"pl_barnblitz","folder":"tf","game":"Team Fortress","app_id":440,"player_count":0,"max_players":24,"Bots":0,"server_type":"Dedicated","server_os":"Linux","password":true,"vac":true,"version":"7961495","steam_id":85568392924494504,"keywords":["nocrits","nodmgspread","payload","uncletopia"],"game_id":440,"stv_port":27016,"stv_name":"Uncletopia | Hong Kong | 1 | All Maps | STV","players":null},{"server_id":1,"name":"Uncletopia | Los Angeles | 1 | All Maps","name_short":"lax-1","host":"lax-1.us.uncletopia.com","port":27015,"enabled":true,"region":"us-west","cc":"us","latitude":33.94279,"longitude":-118.41004,"reserved":0,"last_update":"0001-01-01T00:00:00Z","name_a2s":"Uncletopia | Los Angeles | 1 | All Maps","protocol":17,"map":"cp_steel","folder":"tf","game":"Team Fortress","app_id":440,"player_count":24,"max_players":24,"Bots":0,"server_type":"Dedicated","server_os":"Linux","password":true,"vac":true,"version":"7961495","steam_id":85568392924469991,"keywords":["cp","nocrits","nodmgspread","uncletopia"],"game_id":440,"stv_port":27016,"stv_name":"Uncletopia | Los Angeles | 1 | All Maps | STV","players":[{"user_id":64,"name":"lamadre07","steam_id":76561198067337453,"connected_time":1504000000000,"state":"active","ping":106},{"user_id":81,"name":"plutonium isotope","steam_id":76561198319442494,"connected_time":294000000000,"state":"active","ping":55},{"user_id":92,"name":"vee the fenn","steam_id":76561198049510832,"connected_time":119000000000,"state":"active","ping":52},{"user_id":94,"name":"InsulinDealer","steam_id":76561197994220909,"connected_time":43000000000,"state":"active","ping":59},{"user_id":82,"name":"celery","steam_id":76561199004451589,"connected_time":287000000000,"state":"active","ping":73},{"user_id":65,"name":"GlorifiedAshy","steam_id":76561198382684727,"connected_time":1482000000000,"state":"active","ping":106},{"user_id":72,"name":"Weakforanimebitches","steam_id":76561198217663016,"connected_time":683000000000,"state":"active","ping":54},{"user_id":41,"name":"indyjacob","steam_id":76561198065158713,"connected_time":2303000000000,"state":"active","ping":74},{"user_id":59,"name":"Quattro Bajeena","steam_id":76561198135151660,"connected_time":1646000000000,"state":"active","ping":88},{"user_id":58,"name":"Prof. Anesthesia","steam_id":76561198993250002,"connected_time":1681000000000,"state":"active","ping":64},{"user_id":77,"name":"idarmed","steam_id":76561198420064361,"connected_time":611000000000,"state":"active","ping":143},{"user_id":55,"name":"MakeSureToKnock","steam_id":76561198075600007,"connected_time":2074000000000,"state":"active","ping":101},{"user_id":45,"name":"Synonymancer","steam_id":76561198135492252,"connected_time":2249000000000,"state":"active","ping":104},{"user_id":79,"name":"boof^","steam_id":76561198087074444,"connected_time":599000000000,"state":"active","ping":42},{"user_id":83,"name":"Scotty","steam_id":76561198268006443,"connected_time":283000000000,"state":"active","ping":104},{"user_id":68,"name":"vulture pupy","steam_id":76561198061963965,"connected_time":1405000000000,"state":"active","ping":90},{"user_id":40,"name":"Tako","steam_id":76561199264073138,"connected_time":2343000000000,"state":"active","ping":32},{"user_id":61,"name":"npc energy","steam_id":76561198035342207,"connected_time":1619000000000,"state":"active","ping":89},{"user_id":78,"name":"97duckworth","steam_id":76561199231763519,"connected_time":605000000000,"state":"active","ping":116},{"user_id":44,"name":"Alexa, can you make it clap?","steam_id":76561198044473776,"connected_time":2278000000000,"state":"active","ping":81},{"user_id":89,"name":"SanitysEdge","steam_id":76561198130732813,"connected_time":204000000000,"state":"active","ping":45},{"user_id":91,"name":"theres no need to be upset","steam_id":76561199122208446,"connected_time":155000000000,"state":"active","ping":93},{"user_id":80,"name":"ii_BlooMoon","steam_id":76561199100597391,"connected_time":572000000000,"state":"active","ping":61},{"user_id":54,"name":"Noiceman","steam_id":76561199016137482,"connected_time":2096000000000,"state":"active","ping":80}]},{"server_id":112,"name":"Uncletopia | Los Angeles | 2 | All Maps","name_short":"lax-2","host":"lax-1.us.uncletopia.com","port":27025,"enabled":true,"region":"us-west","cc":"us","latitude":33.94279,"longitude":-118.41004,"reserved":0,"last_update":"0001-01-01T00:00:00Z","name_a2s":"Uncletopia | Los Angeles | 2 | All Maps","protocol":17,"map":"pl_pier","folder":"tf","game":"Team Fortress","app_id":440,"player_count":24,"max_players":24,"Bots":0,"server_type":"Dedicated","server_os":"Linux","password":true,"vac":true,"version":"7961495","steam_id":85568392924469992,"keywords":["nocrits","nodmgspread","payload","uncletopia"],"game_id":440,"stv_port":27026,"stv_name":"Uncletopia | Los Angeles | 2 | All Maps | STV","players":[{"user_id":127,"name":"Lord Blaident","steam_id":76561198076690878,"connected_time":1044000000000,"state":"active","ping":69},{"user_id":123,"name":"a chicken","steam_id":76561198313121580,"connected_time":1395000000000,"state":"active","ping":47},{"user_id":81,"name":"Amish","steam_id":76561198072145549,"connected_time":3688000000000,"state":"active","ping":126},{"user_id":135,"name":"ScrubM8","steam_id":76561198197800707,"connected_time":164000000000,"state":"active","ping":133},{"user_id":126,"name":"BenUpde","steam_id":76561198003554034,"connected_time":1311000000000,"state":"active","ping":118},{"user_id":112,"name":"CrunchyKraken","steam_id":76561198801166097,"connected_time":2189000000000,"state":"active","ping":47},{"user_id":102,"name":"Alcohol Hominid","steam_id":76561198320313950,"connected_time":2412000000000,"state":"active","ping":87},{"user_id":99,"name":"Melon","steam_id":76561199202306398,"connected_time":2627000000000,"state":"active","ping":54},{"user_id":132,"name":"samvaluez","steam_id":76561199213743808,"connected_time":393000000000,"state":"active","ping":72},{"user_id":133,"name":"YouAreReadingThis","steam_id":76561198367831600,"connected_time":317000000000,"state":"active","ping":68},{"user_id":85,"name":"Doof","steam_id":76561198034031819,"connected_time":3400000000000,"state":"active","ping":96},{"user_id":124,"name":"A Distraction!","steam_id":76561198145320480,"connected_time":1376000000000,"state":"active","ping":112},{"user_id":119,"name":"Boofus McDoofus","steam_id":76561198858989566,"connected_time":1694000000000,"state":"active","ping":120},{"user_id":121,"name":"finnamagiger","steam_id":76561198284099179,"connected_time":1639000000000,"state":"active","ping":147},{"user_id":90,"name":"cran","steam_id":76561198178840075,"connected_time":3291000000000,"state":"active","ping":88},{"user_id":96,"name":"papi Chulo","steam_id":76561198126274984,"connected_time":3096000000000,"state":"active","ping":86},{"user_id":92,"name":"evil","steam_id":76561199001918194,"connected_time":3228000000000,"state":"active","ping":68},{"user_id":130,"name":"Local Drug Addict","steam_id":76561198156452499,"connected_time":688000000000,"state":"active","ping":51},{"user_id":43,"name":"fagola :3","steam_id":76561198105374054,"connected_time":6438000000000,"state":"active","ping":71},{"user_id":75,"name":"yellow ᗜˬᗜ","steam_id":76561198366474647,"connected_time":3994000000000,"state":"active","ping":44},{"user_id":125,"name":"Powered","steam_id":76561199298693128,"connected_time":1358000000000,"state":"active","ping":109},{"user_id":120,"name":"Sup m8","steam_id":76561198081659121,"connected_time":1646000000000,"state":"active","ping":60},{"user_id":77,"name":"Loser","steam_id":76561198260540499,"connected_time":3953000000000,"state":"active","ping":140},{"user_id":116,"name":"Lock'd","steam_id":76561198170108230,"connected_time":2144000000000,"state":"active","ping":50}]},{"server_id":324,"name":"Uncletopia | Los Angeles | 3 | All Maps","name_short":"lax-3","host":"lax-1.us.uncletopia.com","port":27035,"enabled":true,"region":"us-west","cc":"us","latitude":33.94279,"longitude":-118.41004,"reserved":0,"last_update":"0001-01-01T00:00:00Z","name_a2s":"Uncletopia | Los Angeles | 3 | All Maps","protocol":17,"map":"cp_snakewater_final1","folder":"tf","game":"Team Fortress","app_id":440,"player_count":23,"max_players":24,"Bots":0,"server_type":"Dedicated","server_os":"Linux","password":true,"vac":true,"version":"7961495","steam_id":85568392924510198,"keywords":["cp","nocrits","nodmgspread","uncletopia"],"game_id":440,"stv_port":27036,"stv_name":"Uncletopia | Los Angeles | 3 | All Maps | STV","players":[{"user_id":121,"name":"Freyja","steam_id":76561198207412177,"connected_time":193000000000,"state":"active","ping":78},{"user_id":122,"name":"donutdagger","steam_id":76561199203048300,"connected_time":189000000000,"state":"active","ping":57},{"user_id":54,"name":"ducc","steam_id":76561198284178076,"connected_time":5239000000000,"state":"active","ping":109},{"user_id":73,"name":"couldn't think of cool alias","steam_id":76561198113083770,"connected_time":3527000000000,"state":"active","ping":104},{"user_id":128,"name":"teag2","steam_id":76561198076447485,"connected_time":151000000000,"state":"active","ping":61},{"user_id":99,"name":"shitass | troutsupply.net","steam_id":76561198210572481,"connected_time":1297000000000,"state":"active","ping":45},{"user_id":120,"name":"ᴍᴇɴᴀᴄᴇ Medic","steam_id":76561198271948299,"connected_time":370000000000,"state":"active","ping":69},{"user_id":124,"name":"T4NNEr","steam_id":76561198266327817,"connected_time":172000000000,"state":"active","ping":76},{"user_id":90,"name":"Viren","steam_id":76561198012636897,"connected_time":1612000000000,"state":"active","ping":75},{"user_id":79,"name":"tracker","steam_id":76561198046911616,"connected_time":3061000000000,"state":"active","ping":104},{"user_id":91,"name":"Bag","steam_id":76561198152890989,"connected_time":1605000000000,"state":"active","ping":150},{"user_id":106,"name":"BooceMaster","steam_id":76561198148520318,"connected_time":951000000000,"state":"active","ping":117},{"user_id":125,"name":"tum","steam_id":76561198084712019,"connected_time":169000000000,"state":"active","ping":46},{"user_id":119,"name":"Sleuth","steam_id":76561198418288939,"connected_time":480000000000,"state":"active","ping":68},{"user_id":95,"name":"Kdash","steam_id":76561198043829155,"connected_time":1538000000000,"state":"active","ping":85},{"user_id":103,"name":"SuperEvilPasta","steam_id":76561198078258907,"connected_time":1022000000000,"state":"active","ping":59},{"user_id":104,"name":"Cypress","steam_id":76561198070560915,"connected_time":1020000000000,"state":"active","ping":64},{"user_id":129,"name":"tosm-AA-","steam_id":76561198130032444,"connected_time":125000000000,"state":"active","ping":72},{"user_id":35,"name":"peko peko","steam_id":76561198149443710,"connected_time":6110000000000,"state":"active","ping":45},{"user_id":46,"name":"dunk","steam_id":76561198066114874,"connected_time":5706000000000,"state":"active","ping":90},{"user_id":100,"name":"brotalium","steam_id":76561198055439054,"connected_time":1128000000000,"state":"active","ping":112},{"user_id":127,"name":"Noxus","steam_id":76561199009820852,"connected_time":159000000000,"state":"active","ping":86},{"user_id":82,"name":"[TL] Andy","steam_id":76561198011133956,"connected_time":2579000000000,"state":"active","ping":60}]},{"server_id":25,"name":"Uncletopia | Los Angeles | 4 | Stopwatch Beta","name_short":"lax-4","host":"lax-1.us.uncletopia.com","port":27045,"enabled":true,"region":"us-west","cc":"us","latitude":33.94279,"longitude":-118.41004,"reserved":0,"last_update":"0001-01-01T00:00:00Z","name_a2s":"Uncletopia | Los Angeles | 4 | Stopwatch Beta","protocol":17,"map":"pl_swiftwater_final1","folder":"tf","game":"Team Fortress","app_id":440,"player_count":0,"max_players":24,"Bots":0,"server_type":"Dedicated","server_os":"Linux","password":true,"vac":true,"version":"7961495","steam_id":85568392924510199,"keywords":["nocrits","nodmgspread","payload","uncletopia"],"game_id":440,"stv_port":27046,"stv_name":"Uncletopia | Los Angeles | 4 | Stopwatch Beta | STV","players":null},{"server_id":11,"name":"Uncletopia | London | 1 | All Maps","name_short":"lon-1","host":"lon-1.uk.uncletopia.com","port":27015,"enabled":true,"region":"eu","cc":"gb","latitude":51.509865,"longitude":-0.118092,"reserved":0,"last_update":"0001-01-01T00:00:00Z","name_a2s":"Uncletopia | London | 1 | All Maps","protocol":17,"map":"cp_dustbowl","folder":"tf","game":"Team Fortress","app_id":440,"player_count":24,"max_players":24,"Bots":0,"server_type":"Dedicated","server_os":"Linux","password":true,"vac":true,"version":"7961495","steam_id":85568392924367362,"keywords":["cp","nocrits","nodmgspread","uncletopia"],"game_id":440,"stv_port":27016,"stv_name":"Uncletopia | London | 1 | All Maps | STV","players":[{"user_id":103,"name":"SALTe","steam_id":76561197996295408,"connected_time":671000000000,"state":"active","ping":160},{"user_id":43,"name":"jjkun786","steam_id":76561199438517484,"connected_time":5591000000000,"state":"active","ping":76},{"user_id":42,"name":"The Sun in Rags","steam_id":76561198169990975,"connected_time":5653000000000,"state":"active","ping":40},{"user_id":104,"name":"Herdez Hot Salsa","steam_id":76561197991740906,"connected_time":642000000000,"state":"active","ping":142},{"user_id":93,"name":"Sabour","steam_id":76561197963965445,"connected_time":1850000000000,"state":"active","ping":64},{"user_id":89,"name":"Cute Bulge","steam_id":76561198155494332,"connected_time":2175000000000,"state":"active","ping":42},{"user_id":60,"name":"joachym","steam_id":76561198428579761,"connected_time":4333000000000,"state":"active","ping":70},{"user_id":77,"name":"snowycoast","steam_id":76561198346638308,"connected_time":2834000000000,"state":"active","ping":58},{"user_id":54,"name":"elephantofdoom","steam_id":76561198062436835,"connected_time":4998000000000,"state":"active","ping":105},{"user_id":95,"name":"CamodronV2","steam_id":76561198353415237,"connected_time":1009000000000,"state":"active","ping":62},{"user_id":82,"name":"bird ideas","steam_id":76561199480942903,"connected_time":2371000000000,"state":"active","ping":72},{"user_id":96,"name":"Oxy","steam_id":76561197984790670,"connected_time":901000000000,"state":"active","ping":47},{"user_id":69,"name":"engie?","steam_id":76561198331852832,"connected_time":3182000000000,"state":"active","ping":41},{"user_id":105,"name":"Tortes","steam_id":76561199049185884,"connected_time":568000000000,"state":"active","ping":94},{"user_id":92,"name":"deloreg (playing soldier)","steam_id":76561199487318962,"connected_time":1884000000000,"state":"active","ping":77},{"user_id":72,"name":"Cex Employee","steam_id":76561198173581450,"connected_time":3099000000000,"state":"active","ping":54},{"user_id":106,"name":"Muk__Tuk","steam_id":76561199122524457,"connected_time":538000000000,"state":"active","ping":172},{"user_id":81,"name":"BD[PL]","steam_id":76561198115995871,"connected_time":2376000000000,"state":"active","ping":98},{"user_id":79,"name":"JelloSniffer","steam_id":76561198142770733,"connected_time":2479000000000,"state":"active","ping":142},{"user_id":102,"name":"Dr. House","steam_id":76561198052910702,"connected_time":691000000000,"state":"active","ping":134},{"user_id":87,"name":"harper","steam_id":76561198188642265,"connected_time":2227000000000,"state":"active","ping":55},{"user_id":90,"name":"Local Dumbass","steam_id":76561198252211608,"connected_time":2163000000000,"state":"active","ping":76},{"user_id":91,"name":"semen demon","steam_id":76561198091686339,"connected_time":2101000000000,"state":"active","ping":34},{"user_id":57,"name":"bowchika wowa #SlavaUkraine","steam_id":76561198159564550,"connected_time":4617000000000,"state":"active","ping":69}]},{"server_id":114,"name":"Uncletopia | London | 2 | All Maps","name_short":"lon-2","host":"lon-1.uk.uncletopia.com","port":27025,"enabled":true,"region":"eu","cc":"gb","latitude":51.509865,"longitude":-0.118092,"reserved":0,"last_update":"0001-01-01T00:00:00Z","name_a2s":"Uncletopia | London | 2 | All Maps","protocol":17,"map":"cp_sunshine","folder":"tf","game":"Team Fortress","app_id":440,"player_count":0,"max_players":24,"Bots":0,"server_type":"Dedicated","server_os":"Linux","password":true,"vac":true,"version":"7961495","steam_id":85568392924470941,"keywords":["cp","nocrits","nodmgspread","uncletopia"],"game_id":440,"stv_port":27026,"stv_name":"Uncletopia | London | 2 | All Maps | STV","players":null},{"server_id":320,"name":"Uncletopia | London | 3 | All Maps","name_short":"lon-3","host":"lon-1.uk.uncletopia.com","port":27035,"enabled":true,"region":"eu","cc":"gb","latitude":51.509865,"longitude":-0.118092,"reserved":0,"last_update":"0001-01-01T00:00:00Z","name_a2s":"Uncletopia | London | 3 | All Maps","protocol":17,"map":"pl_snowycoast","folder":"tf","game":"Team Fortress","app_id":440,"player_count":0,"max_players":24,"Bots":0,"server_type":"Dedicated","server_os":"Linux","password":true,"vac":true,"version":"7961495","steam_id":85568392924510192,"keywords":["nocrits","nodmgspread","payload","uncletopia"],"game_id":440,"stv_port":27036,"stv_name":"Uncletopia | London | 3 | All Maps | STV","players":null},{"server_id":321,"name":"Uncletopia | London | 4 | All Maps","name_short":"lon-4","host":"lon-1.uk.uncletopia.com","port":27045,"enabled":true,"region":"eu","cc":"gb","latitude":51.509865,"longitude":-0.118092,"reserved":0,"last_update":"0001-01-01T00:00:00Z","name_a2s":"Uncletopia | London | 4 | All Maps","protocol":17,"map":"pl_frontier_final","folder":"tf","game":"Team Fortress","app_id":440,"player_count":0,"max_players":24,"Bots":0,"server_type":"Dedicated","server_os":"Linux","password":true,"vac":true,"version":"7961495","steam_id":85568392924510193,"keywords":["nocrits","nodmgspread","payload","uncletopia"],"game_id":440,"stv_port":27046,"stv_name":"Uncletopia | London | 4 | All Maps | STV","players":null},{"server_id":21,"name":"Uncletopia | London | 5 | All Maps","name_short":"lon-5","host":"lon-1.uk.uncletopia.com","port":27055,"enabled":true,"region":"eu","cc":"gb","latitude":51.509865,"longitude":-0.118092,"reserved":0,"last_update":"0001-01-01T00:00:00Z","name_a2s":"Uncletopia | London | 5 | All Maps","protocol":17,"map":"pl_pier","folder":"tf","game":"Team Fortress","app_id":440,"player_count":0,"max_players":24,"Bots":0,"server_type":"Dedicated","server_os":"Linux","password":true,"vac":true,"version":"7961495","steam_id":85568392924742829,"keywords":["nocrits","nodmgspread","payload","uncletopia"],"game_id":440,"stv_port":27056,"stv_name":"Uncletopia | London | 5 | All Maps | STV","players":null},{"server_id":22,"name":"Uncletopia | London | 6 | All Maps","name_short":"lon-6","host":"lon-1.uk.uncletopia.com","port":27065,"enabled":true,"region":"eu","cc":"gb","latitude":51.509865,"longitude":-0.118092,"reserved":0,"last_update":"0001-01-01T00:00:00Z","name_a2s":"Uncletopia | London | 6 | All Maps","protocol":17,"map":"koth_lakeside_final","folder":"tf","game":"Team Fortress","app_id":440,"player_count":0,"max_players":24,"Bots":0,"server_type":"Dedicated","server_os":"Linux","password":true,"vac":true,"version":"7961495","steam_id":85568392924742830,"keywords":["cp","nocrits","nodmgspread","uncletopia"],"game_id":440,"stv_port":27066,"stv_name":"Uncletopia | London | 6 | All Maps | STV","players":null},{"server_id":40,"name":"Uncletopia | London | 7 | No Payload","name_short":"lon-7","host":"lon-1.uk.uncletopia.com","port":27075,"enabled":true,"region":"eu","cc":"gb","latitude":51.509865,"longitude":-0.118092,"reserved":0,"last_update":"0001-01-01T00:00:00Z","name_a2s":"Uncletopia | London | 7 | No Payload","protocol":17,"map":"cp_altitude","folder":"tf","game":"Team Fortress","app_id":440,"player_count":0,"max_players":24,"Bots":0,"server_type":"Dedicated","server_os":"Linux","password":true,"vac":true,"version":"7961495","steam_id":85568392924964314,"keywords":["cp","nocrits","nodmgspread","uncletopia"],"game_id":440,"stv_port":27076,"stv_name":"Uncletopia | London | 7 | No Payload | STV","players":null},{"server_id":41,"name":"Uncletopia | London | 8 | Community","name_short":"lon-8","host":"lon-1.uk.uncletopia.com","port":27085,"enabled":true,"region":"eu","cc":"gb","latitude":51.509865,"longitude":-0.118092,"reserved":0,"last_update":"0001-01-01T00:00:00Z","name_a2s":"Uncletopia | London | 8 | Community","protocol":17,"map":"workshop/rd_asteroid_redux_b1.ugc2154902912","folder":"tf","game":"Team Fortress","app_id":440,"player_count":0,"max_players":24,"Bots":0,"server_type":"Dedicated","server_os":"Linux","password":true,"vac":true,"version":"7961495","steam_id":85568392924964315,"keywords":["beta","nocrits","nodmgspread","rd","uncletopia"],"game_id":440,"stv_port":27086,"stv_name":"Uncletopia | London | 8 | Community | STV","players":null},{"server_id":300,"name":"Uncletopia | Montréal | 1 | All Maps","name_short":"mtl-1","host":"mtl-1.ca.uncletopia.com","port":27015,"enabled":true,"region":"us-east","cc":"ca","latitude":45.50889,"longitude":-73.56167,"reserved":0,"last_update":"0001-01-01T00:00:00Z","name_a2s":"","protocol":0,"map":"","folder":"","game":"","app_id":0,"player_count":0,"max_players":0,"Bots":0,"server_type":"","server_os":"","password":false,"vac":false,"version":"","steam_id":0,"keywords":null,"game_id":0,"stv_port":0,"stv_name":"","players":null},{"server_id":301,"name":"Uncletopia | Montréal | 2 | All Maps","name_short":"mtl-2","host":"mtl-1.ca.uncletopia.com","port":27025,"enabled":true,"region":"us-east","cc":"ca","latitude":45.50889,"longitude":-73.56167,"reserved":0,"last_update":"0001-01-01T00:00:00Z","name_a2s":"","protocol":0,"map":"","folder":"","game":"","app_id":0,"player_count":0,"max_players":0,"Bots":0,"server_type":"","server_os":"","password":false,"vac":false,"version":"","steam_id":0,"keywords":null,"game_id":0,"stv_port":0,"stv_name":"","players":null},{"server_id":302,"name":"Uncletopia | Montréal | 3 | All Maps","name_short":"mtl-3","host":"mtl-1.ca.uncletopia.com","port":27035,"enabled":true,"region":"us-east","cc":"ca","latitude":45.50889,"longitude":-73.56167,"reserved":0,"last_update":"0001-01-01T00:00:00Z","name_a2s":"","protocol":0,"map":"","folder":"","game":"","app_id":0,"player_count":24,"max_players":0,"Bots":0,"server_type":"","server_os":"","password":false,"vac":false,"version":"","steam_id":0,"keywords":null,"game_id":0,"stv_port":0,"stv_name":"","players":[{"user_id":141,"name":"westward (was/were)","steam_id":76561198805512350,"connected_time":391000000000,"state":"active","ping":126},{"user_id":124,"name":"Dr.StrangeGlove","steam_id":76561198286114229,"connected_time":1571000000000,"state":"active","ping":72},{"user_id":88,"name":"calin","steam_id":76561199009677514,"connected_time":4759000000000,"state":"active","ping":177},{"user_id":100,"name":"vinny6","steam_id":76561198386735728,"connected_time":3910000000000,"state":"active","ping":59},{"user_id":142,"name":"Blubber B. Spoi","steam_id":76561198405264878,"connected_time":328000000000,"state":"active","ping":126},{"user_id":132,"name":"`o2","steam_id":76561197992030936,"connected_time":1330000000000,"state":"active","ping":54},{"user_id":135,"name":"Maxmind24","steam_id":76561198859888778,"connected_time":1057000000000,"state":"active","ping":102},{"user_id":140,"name":"Rango","steam_id":76561198104086771,"connected_time":438000000000,"state":"active","ping":118},{"user_id":46,"name":"RHD BRAZIL [\u003c O \u003e]","steam_id":76561198028190080,"connected_time":7462000000000,"state":"active","ping":166},{"user_id":119,"name":"Slob and Sup","steam_id":76561198123441203,"connected_time":1790000000000,"state":"active","ping":58},{"user_id":146,"name":"BEN","steam_id":76561198170407423,"connected_time":238000000000,"state":"active","ping":81},{"user_id":143,"name":"the spy from team fortress 2","steam_id":76561198047797306,"connected_time":303000000000,"state":"active","ping":56},{"user_id":144,"name":"Murrdogg","steam_id":76561198210491188,"connected_time":303000000000,"state":"active","ping":85},{"user_id":123,"name":"MerpDurp","steam_id":76561198322838626,"connected_time":1599000000000,"state":"active","ping":67},{"user_id":109,"name":"comet sooicidy","steam_id":76561198025173479,"connected_time":2938000000000,"state":"active","ping":101},{"user_id":134,"name":"klevin","steam_id":76561198799106535,"connected_time":1086000000000,"state":"active","ping":115},{"user_id":145,"name":"CabbageMan","steam_id":76561198216980671,"connected_time":299000000000,"state":"active","ping":97},{"user_id":122,"name":"Flashyn","steam_id":76561197963590864,"connected_time":1681000000000,"state":"active","ping":85},{"user_id":93,"name":"dad playing in between naps","steam_id":76561198009425458,"connected_time":4504000000000,"state":"active","ping":88},{"user_id":138,"name":"soof","steam_id":76561198043762955,"connected_time":622000000000,"state":"active","ping":53},{"user_id":137,"name":"sparejaguar","steam_id":76561199057045306,"connected_time":666000000000,"state":"active","ping":106},{"user_id":110,"name":"Brigade","steam_id":76561198044656610,"connected_time":2934000000000,"state":"active","ping":56},{"user_id":147,"name":"Bluedime","steam_id":76561198123181025,"connected_time":200000000000,"state":"active","ping":46},{"user_id":148,"name":"Harvey","steam_id":76561198174973418,"connected_time":149000000000,"state":"active","ping":109}]},{"server_id":303,"name":"Uncletopia | Montréal | 4 | No Payload","name_short":"mtl-4","host":"mtl-1.ca.uncletopia.com","port":27045,"enabled":true,"region":"us-east","cc":"ca","latitude":45.50889,"longitude":-73.56167,"reserved":0,"last_update":"0001-01-01T00:00:00Z","name_a2s":"","protocol":0,"map":"","folder":"","game":"","app_id":0,"player_count":15,"max_players":0,"Bots":0,"server_type":"","server_os":"","password":false,"vac":false,"version":"","steam_id":0,"keywords":null,"game_id":0,"stv_port":0,"stv_name":"","players":[{"user_id":325,"name":"Isaac Clarke","steam_id":76561198317662346,"connected_time":1100000000000,"state":"active","ping":89},{"user_id":329,"name":"Jean Deere","steam_id":76561198105101309,"connected_time":884000000000,"state":"active","ping":79},{"user_id":330,"name":"prosciutto","steam_id":76561198882758067,"connected_time":867000000000,"state":"active","ping":68},{"user_id":338,"name":".mp3","steam_id":76561198070710025,"connected_time":321000000000,"state":"active","ping":100},{"user_id":320,"name":"RedZone","steam_id":76561197973665180,"connected_time":1640000000000,"state":"active","ping":69},{"user_id":327,"name":"Monkey D. Management","steam_id":76561198400603422,"connected_time":1071000000000,"state":"active","ping":87},{"user_id":339,"name":"d4efeb","steam_id":76561198148098761,"connected_time":288000000000,"state":"active","ping":55},{"user_id":311,"name":"Tangible Mango's","steam_id":76561199192910349,"connected_time":2311000000000,"state":"active","ping":79},{"user_id":342,"name":"Scum!","steam_id":76561198051805219,"connected_time":129000000000,"state":"active","ping":68},{"user_id":336,"name":"NoarBear","steam_id":76561198145929802,"connected_time":614000000000,"state":"active","ping":60},{"user_id":341,"name":"DrankDuck","steam_id":76561198063146716,"connected_time":143000000000,"state":"active","ping":70},{"user_id":343,"name":"Dunonuggs5156","steam_id":76561199417757885,"connected_time":129000000000,"state":"active","ping":145},{"user_id":344,"name":"Tinhead","steam_id":76561198446806080,"connected_time":106000000000,"state":"active","ping":61},{"user_id":307,"name":"TheChickenChuck","steam_id":76561199192686708,"connected_time":2558000000000,"state":"active","ping":84},{"user_id":345,"name":"mushoom","steam_id":76561199055453697,"connected_time":44000000000,"state":"active","ping":69}]},{"server_id":13,"name":"Uncletopia | New York City | 1 | All Maps","name_short":"nyc-1","host":"nyc-1.us.uncletopia.com","port":27015,"enabled":true,"region":"us-east","cc":"us","latitude":40.73061,"longitude":-73.93524,"reserved":0,"last_update":"0001-01-01T00:00:00Z","name_a2s":"Uncletopia | New York City | 1 | All Maps","protocol":17,"map":"cp_granary","folder":"tf","game":"Team Fortress","app_id":440,"player_count":24,"max_players":24,"Bots":0,"server_type":"Dedicated","server_os":"Linux","password":true,"vac":true,"version":"7961495","steam_id":85568392924469993,"keywords":["cp","nocrits","nodmgspread","uncletopia"],"game_id":440,"stv_port":27016,"stv_name":"Uncletopia | New York City | 1 | All Maps | STV","players":[{"user_id":52,"name":"helicas","steam_id":76561198165911011,"connected_time":4950000000000,"state":"active","ping":47},{"user_id":77,"name":"Toxic Ron","steam_id":76561198089302972,"connected_time":2658000000000,"state":"active","ping":67},{"user_id":78,"name":"Shorty","steam_id":76561198044873248,"connected_time":2652000000000,"state":"active","ping":61},{"user_id":86,"name":"Kras Mazov","steam_id":76561198833468802,"connected_time":1402000000000,"state":"active","ping":70},{"user_id":37,"name":"GummybearKillr","steam_id":76561198031235750,"connected_time":6456000000000,"state":"active","ping":56},{"user_id":79,"name":"Duncan Idaho","steam_id":76561197988963861,"connected_time":2650000000000,"state":"active","ping":52},{"user_id":43,"name":"Queso2469","steam_id":76561197993024580,"connected_time":5578000000000,"state":"active","ping":44},{"user_id":91,"name":"Ian","steam_id":76561198059717554,"connected_time":549000000000,"state":"active","ping":57},{"user_id":82,"name":"Runny Eggs","steam_id":76561198006785882,"connected_time":2586000000000,"state":"active","ping":84},{"user_id":53,"name":"my kneecap cartilage is eroding","steam_id":76561198012126625,"connected_time":4912000000000,"state":"active","ping":45},{"user_id":100,"name":"I'M PLAYING PYRO","steam_id":76561198096221632,"connected_time":299000000000,"state":"active","ping":61},{"user_id":101,"name":"FRANKIEonPCP","steam_id":76561198208451949,"connected_time":138000000000,"state":"active","ping":74},{"user_id":98,"name":"Lorberry","steam_id":76561198023706058,"connected_time":425000000000,"state":"active","ping":59},{"user_id":102,"name":"J21","steam_id":76561198066590783,"connected_time":138000000000,"state":"active","ping":63},{"user_id":71,"name":"Connection","steam_id":76561199230740231,"connected_time":3659000000000,"state":"active","ping":59},{"user_id":87,"name":"Bristance","steam_id":76561197994870129,"connected_time":1401000000000,"state":"active","ping":72},{"user_id":92,"name":"Crealo","steam_id":76561198117070967,"connected_time":531000000000,"state":"active","ping":78},{"user_id":83,"name":"Voracious Puma","steam_id":76561197963621649,"connected_time":2099000000000,"state":"active","ping":91},{"user_id":58,"name":"bald man on a plane to turkey","steam_id":76561198060296782,"connected_time":4615000000000,"state":"active","ping":125},{"user_id":104,"name":"Swifgz","steam_id":76561198162875756,"connected_time":15000000000,"state":"spawning","ping":45},{"user_id":94,"name":"BroBama","steam_id":76561198203732587,"connected_time":522000000000,"state":"active","ping":102},{"user_id":99,"name":"Punkin","steam_id":76561198334301755,"connected_time":346000000000,"state":"active","ping":55},{"user_id":96,"name":"Meerkat","steam_id":76561199245435539,"connected_time":498000000000,"state":"active","ping":121},{"user_id":105,"name":"GOLDIE","steam_id":76561199375258674,"connected_time":11000000000,"state":"spawning","ping":91}]},{"server_id":14,"name":"Uncletopia | New York City | 2 | All Maps","name_short":"nyc-2","host":"nyc-1.us.uncletopia.com","port":27025,"enabled":true,"region":"us-east","cc":"us","latitude":40.73061,"longitude":-73.93524,"reserved":0,"last_update":"0001-01-01T00:00:00Z","name_a2s":"Uncletopia | New York City | 2 | All Maps","protocol":17,"map":"pl_badwater","folder":"tf","game":"Team Fortress","app_id":440,"player_count":24,"max_players":24,"Bots":0,"server_type":"Dedicated","server_os":"Linux","password":true,"vac":true,"version":"7961495","steam_id":85568392924469994,"keywords":["nocrits","nodmgspread","payload","uncletopia"],"game_id":440,"stv_port":27026,"stv_name":"Uncletopia | New York City | 2 | All Maps | STV","players":[{"user_id":68,"name":"Calryan","steam_id":76561198060080966,"connected_time":1916000000000,"state":"active","ping":84},{"user_id":79,"name":"Deep Curly","steam_id":76561197981290558,"connected_time":907000000000,"state":"active","ping":59},{"user_id":5,"name":"Bee_Pirate","steam_id":76561199000599111,"connected_time":6641000000000,"state":"active","ping":57},{"user_id":64,"name":"eWVra2Vy","steam_id":76561198453565942,"connected_time":2472000000000,"state":"active","ping":69},{"user_id":32,"name":"Omega Move","steam_id":76561198031577205,"connected_time":5771000000000,"state":"active","ping":75},{"user_id":88,"name":"space man","steam_id":76561198066333670,"connected_time":217000000000,"state":"active","ping":68},{"user_id":80,"name":"Muddlefuts","steam_id":76561198252442712,"connected_time":864000000000,"state":"active","ping":51},{"user_id":60,"name":"Luther_51","steam_id":76561198042994473,"connected_time":2742000000000,"state":"active","ping":67},{"user_id":54,"name":"Cheeki","steam_id":76561198024375176,"connected_time":2778000000000,"state":"active","ping":32},{"user_id":65,"name":"dcqwerty","steam_id":76561198964101426,"connected_time":2093000000000,"state":"active","ping":42},{"user_id":83,"name":"MatTic","steam_id":76561198295138792,"connected_time":704000000000,"state":"active","ping":66},{"user_id":72,"name":"K. O. E.","steam_id":76561198025188490,"connected_time":1762000000000,"state":"active","ping":70},{"user_id":81,"name":"StmyD","steam_id":76561198002041609,"connected_time":862000000000,"state":"active","ping":69},{"user_id":31,"name":"concrete_car","steam_id":76561198388207363,"connected_time":5912000000000,"state":"active","ping":71},{"user_id":70,"name":"Ian","steam_id":76561199078852180,"connected_time":1789000000000,"state":"active","ping":49},{"user_id":77,"name":"StrudelB","steam_id":76561198000768061,"connected_time":964000000000,"state":"active","ping":55},{"user_id":19,"name":"Cosmic sR","steam_id":76561198081738675,"connected_time":6619000000000,"state":"active","ping":82},{"user_id":78,"name":"Hackpanic247","steam_id":76561198298267092,"connected_time":961000000000,"state":"active","ping":70},{"user_id":58,"name":"mountain goat","steam_id":76561198326628884,"connected_time":2751000000000,"state":"active","ping":57},{"user_id":22,"name":"Saikou!!!","steam_id":76561198044045406,"connected_time":6612000000000,"state":"active","ping":74},{"user_id":74,"name":"götóttir sokkar","steam_id":76561197999657118,"connected_time":1276000000000,"state":"active","ping":63},{"user_id":82,"name":"James!","steam_id":76561198328443797,"connected_time":851000000000,"state":"active","ping":65},{"user_id":50,"name":"Spiral Mountain","steam_id":76561198058683715,"connected_time":3033000000000,"state":"active","ping":68},{"user_id":85,"name":"Skiddy","steam_id":76561198125942665,"connected_time":485000000000,"state":"active","ping":60}]},{"server_id":15,"name":"Uncletopia | New York City | 3 | Stopwatch Beta","name_short":"nyc-3","host":"nyc-1.us.uncletopia.com","port":27035,"enabled":true,"region":"us-east","cc":"us","latitude":40.73061,"longitude":-73.93524,"reserved":0,"last_update":"0001-01-01T00:00:00Z","name_a2s":"Uncletopia | New York City | 3 | Stopwatch Beta","protocol":17,"map":"cp_snakewater_final1","folder":"tf","game":"Team Fortress","app_id":440,"player_count":23,"max_players":24,"Bots":0,"server_type":"Dedicated","server_os":"Linux","password":true,"vac":true,"version":"7961495","steam_id":85568392924742820,"keywords":["cp","nocrits","nodmgspread","uncletopia"],"game_id":440,"stv_port":27036,"stv_name":"Uncletopia | New York City | 3 | Stopwatch Beta | STV","players":[{"user_id":55,"name":"StarManMatt","steam_id":76561198125513574,"connected_time":1781000000000,"state":"active","ping":85},{"user_id":32,"name":"7thelden","steam_id":76561198297428761,"connected_time":2469000000000,"state":"active","ping":77},{"user_id":72,"name":"Squadle","steam_id":76561198366535794,"connected_time":1059000000000,"state":"active","ping":94},{"user_id":71,"name":"hashmap","steam_id":76561198043794014,"connected_time":1100000000000,"state":"active","ping":56},{"user_id":66,"name":"Deuderp","steam_id":76561199055175414,"connected_time":1394000000000,"state":"active","ping":79},{"user_id":90,"name":"OttoBohn","steam_id":76561197962501090,"connected_time":46000000000,"state":"active","ping":130},{"user_id":75,"name":"mrboiboi1359","steam_id":76561199188993569,"connected_time":860000000000,"state":"active","ping":75},{"user_id":91,"name":"enlite","steam_id":76561198884284647,"connected_time":39000000000,"state":"active","ping":85},{"user_id":30,"name":"werecat","steam_id":76561198005091213,"connected_time":2481000000000,"state":"active","ping":42},{"user_id":82,"name":"Шeevil","steam_id":76561198081260791,"connected_time":640000000000,"state":"active","ping":73},{"user_id":60,"name":"20 miles for a Quaalude","steam_id":76561198042579477,"connected_time":1553000000000,"state":"active","ping":51},{"user_id":67,"name":"Lexabyte","steam_id":76561198065032237,"connected_time":1359000000000,"state":"active","ping":54},{"user_id":86,"name":"Jeffman","steam_id":76561198165402070,"connected_time":401000000000,"state":"active","ping":73},{"user_id":68,"name":"kogasira","steam_id":76561198094152516,"connected_time":1290000000000,"state":"active","ping":52},{"user_id":74,"name":"Primitive","steam_id":76561198060500671,"connected_time":940000000000,"state":"active","ping":38},{"user_id":92,"name":"sigh","steam_id":76561199061174522,"connected_time":20000000000,"state":"spawning","ping":53},{"user_id":57,"name":"Herb","steam_id":76561198330311949,"connected_time":1709000000000,"state":"active","ping":58},{"user_id":52,"name":"Buckeye Crusader","steam_id":76561198126115279,"connected_time":1814000000000,"state":"active","ping":84},{"user_id":80,"name":"Wiggle Wiggle","steam_id":76561199053447896,"connected_time":715000000000,"state":"active","ping":77},{"user_id":46,"name":"kentuckyfriedsocks","steam_id":76561198311122883,"connected_time":2000000000000,"state":"active","ping":92},{"user_id":89,"name":"THIRDPIERCE","steam_id":76561198405366314,"connected_time":116000000000,"state":"active","ping":102},{"user_id":53,"name":"DoggyDogWhirl","steam_id":76561198042841344,"connected_time":1812000000000,"state":"active","ping":67},{"user_id":63,"name":"jamzine","steam_id":76561198186168293,"connected_time":1439000000000,"state":"active","ping":58}]},{"server_id":16,"name":"Uncletopia | New York City | 4 | Community","name_short":"nyc-4","host":"nyc-1.us.uncletopia.com","port":27045,"enabled":true,"region":"us-east","cc":"us","latitude":40.73061,"longitude":-73.93524,"reserved":0,"last_update":"0001-01-01T00:00:00Z","name_a2s":"Uncletopia | New York City | 4 | Community","protocol":17,"map":"cp_process_final","folder":"tf","game":"Team Fortress","app_id":440,"player_count":0,"max_players":24,"Bots":0,"server_type":"Dedicated","server_os":"Linux","password":true,"vac":true,"version":"7961495","steam_id":85568392924742821,"keywords":["cp","nocrits","nodmgspread","uncletopia"],"game_id":440,"stv_port":27046,"stv_name":"Uncletopia | New York City | 4 | Community | STV","players":null},{"server_id":142,"name":"Uncletopia | São Paulo | 1 | All Maps","name_short":"sao-1","host":"sao-1.br.uncletopia.com","port":27015,"enabled":true,"region":"sa","cc":"br","latitude":-23.533773,"longitude":-46.62529,"reserved":0,"last_update":"0001-01-01T00:00:00Z","name_a2s":"Uncletopia | São Paulo | 1 | All Maps","protocol":17,"map":"cp_dustbowl","folder":"tf","game":"Team Fortress","app_id":440,"player_count":2,"max_players":24,"Bots":0,"server_type":"Dedicated","server_os":"Linux","password":true,"vac":true,"version":"7961495","steam_id":85568392924469996,"keywords":["cp","nocrits","nodmgspread","uncletopia"],"game_id":440,"stv_port":27016,"stv_name":"Uncletopia | São Paulo | 1 | All Maps | STV","players":[{"user_id":6,"name":"angelgamer","steam_id":76561198127572302,"connected_time":336000000000,"state":"active","ping":117},{"user_id":5,"name":"joseperaltamunailla","steam_id":76561199225904886,"connected_time":521000000000,"state":"active","ping":114}]},{"server_id":143,"name":"Uncletopia | São Paulo | 2 | Community","name_short":"sao-2","host":"sao-2.br.uncletopia.com","port":27015,"enabled":true,"region":"sa","cc":"br","latitude":-23.533773,"longitude":-46.62529,"reserved":0,"last_update":"0001-01-01T00:00:00Z","name_a2s":"Uncletopia | São Paulo | 2 | Community","protocol":17,"map":"workshop/cp_kalinka_rc6a.ugc1272700588","folder":"tf","game":"Team Fortress","app_id":440,"player_count":0,"max_players":24,"Bots":0,"server_type":"Dedicated","server_os":"Linux","password":true,"vac":true,"version":"7961495","steam_id":85568392924485349,"keywords":["cp","nocrits","nodmgspread","uncletopia"],"game_id":440,"stv_port":27016,"stv_name":"Uncletopia | São Paulo | 2 | Community | STV","players":null},{"server_id":7,"name":"Uncletopia | Seattle | 1 | All Maps","name_short":"sea-1","host":"sea-1.us.uncletopia.com","port":27015,"enabled":true,"region":"us-west","cc":"us","latitude":47.608013,"longitude":-122.33517,"reserved":0,"last_update":"0001-01-01T00:00:00Z","name_a2s":"Uncletopia | Seattle | 1 | All Maps","protocol":17,"map":"pl_snowycoast","folder":"tf","game":"Team Fortress","app_id":440,"player_count":24,"max_players":24,"Bots":0,"server_type":"Dedicated","server_os":"Linux","password":true,"vac":true,"version":"7961495","steam_id":85568392924469997,"keywords":["nocrits","nodmgspread","payload","uncletopia"],"game_id":440,"stv_port":27016,"stv_name":"Uncletopia | Seattle | 1 | All Maps | STV","players":[{"user_id":146,"name":"Daz","steam_id":76561198041431938,"connected_time":1743000000000,"state":"active","ping":49},{"user_id":147,"name":"ismellgood","steam_id":76561199005142939,"connected_time":1235000000000,"state":"active","ping":63},{"user_id":142,"name":"SHADOW","steam_id":76561198207768148,"connected_time":2158000000000,"state":"active","ping":75},{"user_id":161,"name":"jables","steam_id":76561199067882406,"connected_time":851000000000,"state":"active","ping":89},{"user_id":154,"name":"PopcornBucketGames","steam_id":76561199089562026,"connected_time":1127000000000,"state":"active","ping":54},{"user_id":119,"name":"Gamba","steam_id":76561198069264650,"connected_time":4521000000000,"state":"active","ping":83},{"user_id":149,"name":"Mung Daal","steam_id":76561198010725277,"connected_time":1224000000000,"state":"active","ping":120},{"user_id":126,"name":"Themasterman75","steam_id":76561199385573293,"connected_time":4004000000000,"state":"active","ping":78},{"user_id":102,"name":"CashGordon","steam_id":76561197975594096,"connected_time":5580000000000,"state":"active","ping":44},{"user_id":158,"name":"spenca","steam_id":76561198025371154,"connected_time":1062000000000,"state":"active","ping":64},{"user_id":163,"name":"urine trouble","steam_id":76561199013266640,"connected_time":441000000000,"state":"active","ping":82},{"user_id":162,"name":"dingleflongle","steam_id":76561198183529802,"connected_time":448000000000,"state":"active","ping":63},{"user_id":18,"name":"Grand","steam_id":76561198290143399,"connected_time":7677000000000,"state":"active","ping":78},{"user_id":164,"name":"Fh","steam_id":76561198000903511,"connected_time":418000000000,"state":"active","ping":60},{"user_id":140,"name":"lead poisoning","steam_id":76561198868596461,"connected_time":2492000000000,"state":"active","ping":57},{"user_id":105,"name":"Joseph Stalin","steam_id":76561198382398935,"connected_time":4904000000000,"state":"active","ping":93},{"user_id":113,"name":"Haydob13","steam_id":76561198110378191,"connected_time":4707000000000,"state":"active","ping":59},{"user_id":141,"name":"Ayayayayayahuasca","steam_id":76561199002906056,"connected_time":2251000000000,"state":"active","ping":64},{"user_id":94,"name":"rat gets the cheese","steam_id":76561198031234032,"connected_time":6428000000000,"state":"active","ping":99},{"user_id":117,"name":"k1tty","steam_id":76561198869348268,"connected_time":4661000000000,"state":"active","ping":69},{"user_id":106,"name":"chunkysquare","steam_id":76561199076468383,"connected_time":4864000000000,"state":"active","ping":56},{"user_id":152,"name":"BolognaWithOlives","steam_id":76561198101262668,"connected_time":1151000000000,"state":"active","ping":105},{"user_id":155,"name":"Bendidy","steam_id":76561198041964300,"connected_time":1127000000000,"state":"active","ping":71},{"user_id":156,"name":"Confirmed Bachelor","steam_id":76561198441041496,"connected_time":1127000000000,"state":"active","ping":61}]},{"server_id":119,"name":"Uncletopia | Seattle | 2 | All Maps","name_short":"sea-2","host":"sea-1.us.uncletopia.com","port":27025,"enabled":true,"region":"us-west","cc":"us","latitude":47.608013,"longitude":-122.33517,"reserved":0,"last_update":"0001-01-01T00:00:00Z","name_a2s":"Uncletopia | Seattle | 2 | All Maps","protocol":17,"map":"cp_dustbowl","folder":"tf","game":"Team Fortress","app_id":440,"player_count":24,"max_players":24,"Bots":0,"server_type":"Dedicated","server_os":"Linux","password":true,"vac":true,"version":"7961495","steam_id":85568392924469998,"keywords":["cp","nocrits","nodmgspread","uncletopia"],"game_id":440,"stv_port":27026,"stv_name":"Uncletopia | Seattle | 2 | All Maps | STV","players":[{"user_id":120,"name":"LightBulbGlue #SaveTF2","steam_id":76561198329573529,"connected_time":354000000000,"state":"active","ping":122},{"user_id":121,"name":"WaveSmash","steam_id":76561198208785485,"connected_time":343000000000,"state":"active","ping":86},{"user_id":75,"name":"summerlis","steam_id":76561198165324438,"connected_time":2949000000000,"state":"active","ping":65},{"user_id":111,"name":"beckeon","steam_id":76561198056474975,"connected_time":931000000000,"state":"active","ping":120},{"user_id":67,"name":"Vibrantword3732","steam_id":76561198916638641,"connected_time":3555000000000,"state":"active","ping":62},{"user_id":81,"name":"Lilith","steam_id":76561198120362654,"connected_time":2703000000000,"state":"active","ping":43},{"user_id":112,"name":"Lots0","steam_id":76561198043143145,"connected_time":909000000000,"state":"active","ping":113},{"user_id":124,"name":"?","steam_id":76561198209880837,"connected_time":295000000000,"state":"active","ping":45},{"user_id":106,"name":"worker","steam_id":76561198039608940,"connected_time":1218000000000,"state":"active","ping":72},{"user_id":78,"name":"dewey.","steam_id":76561198138325039,"connected_time":2895000000000,"state":"active","ping":55},{"user_id":65,"name":"TheGhostThatWas","steam_id":76561198055836483,"connected_time":3792000000000,"state":"active","ping":120},{"user_id":126,"name":"nyna-persephone ♡","steam_id":76561198029320773,"connected_time":132000000000,"state":"active","ping":57},{"user_id":118,"name":"TV","steam_id":76561198352097354,"connected_time":444000000000,"state":"active","ping":181},{"user_id":125,"name":"NobleCorn","steam_id":76561198067304899,"connected_time":222000000000,"state":"active","ping":85},{"user_id":94,"name":"R5-D4","steam_id":76561198025196439,"connected_time":1722000000000,"state":"active","ping":52},{"user_id":21,"name":"ZincWolfWarrior","steam_id":76561199249729907,"connected_time":7343000000000,"state":"active","ping":207},{"user_id":97,"name":"Garfield (Real)","steam_id":76561199077027954,"connected_time":1682000000000,"state":"active","ping":70},{"user_id":98,"name":"Green eggs and ham","steam_id":76561198043507340,"connected_time":1652000000000,"state":"active","ping":69},{"user_id":109,"name":"Seriously Bruh","steam_id":76561198070408485,"connected_time":1127000000000,"state":"active","ping":73},{"user_id":130,"name":"ju n","steam_id":76561199026569241,"connected_time":18000000000,"state":"spawning","ping":155},{"user_id":55,"name":"Mr. Tako","steam_id":76561199212603905,"connected_time":4815000000000,"state":"active","ping":141},{"user_id":82,"name":"arsenic","steam_id":76561198176391550,"connected_time":2526000000000,"state":"active","ping":65},{"user_id":127,"name":"Jonatello","steam_id":76561198045699189,"connected_time":132000000000,"state":"active","ping":91},{"user_id":107,"name":"Elfy","steam_id":76561199166448617,"connected_time":1214000000000,"state":"active","ping":61}]},{"server_id":406,"name":"Uncletopia | Seattle | 3 | Stopwatch Beta","name_short":"sea-3","host":"sea-1.us.uncletopia.com","port":27035,"enabled":true,"region":"us-west","cc":"us","latitude":47.608013,"longitude":-122.33517,"reserved":0,"last_update":"0001-01-01T00:00:00Z","name_a2s":"Uncletopia | Seattle | 3 | Stopwatch Beta","protocol":17,"map":"koth_highpass","folder":"tf","game":"Team Fortress","app_id":440,"player_count":0,"max_players":24,"Bots":0,"server_type":"Dedicated","server_os":"Linux","password":true,"vac":true,"version":"7961495","steam_id":85568392924515217,"keywords":["cp","nocrits","nodmgspread","uncletopia"],"game_id":440,"stv_port":27036,"stv_name":"Uncletopia | Seattle | 3 | Stopwatch Beta | STV","players":null},{"server_id":17,"name":"Uncletopia | San Francisco | 1 | All Maps","name_short":"sfo-1","host":"sfo-1.us.uncletopia.com","port":27015,"enabled":true,"region":"us-west","cc":"us","latitude":37.77397,"longitude":-122.4313,"reserved":0,"last_update":"0001-01-01T00:00:00Z","name_a2s":"Uncletopia | San Francisco | 1 | All Maps","protocol":17,"map":"pl_upward","folder":"tf","game":"Team Fortress","app_id":440,"player_count":24,"max_players":24,"Bots":0,"server_type":"Dedicated","server_os":"Linux","password":true,"vac":true,"version":"7961495","steam_id":85568392924469999,"keywords":["nocrits","nodmgspread","payload","uncletopia"],"game_id":440,"stv_port":27016,"stv_name":"Uncletopia | San Francisco | 1 | All Maps | STV","players":[{"user_id":126,"name":"myunicorn","steam_id":76561199391478575,"connected_time":196000000000,"state":"active","ping":80},{"user_id":121,"name":"er","steam_id":76561198060762287,"connected_time":632000000000,"state":"active","ping":158},{"user_id":115,"name":"jxh300","steam_id":76561199196579894,"connected_time":1087000000000,"state":"active","ping":109},{"user_id":116,"name":"Baked Butter Beans","steam_id":76561198072222944,"connected_time":1075000000000,"state":"active","ping":42},{"user_id":114,"name":"SalsaDaddy","steam_id":76561198358869108,"connected_time":1205000000000,"state":"active","ping":111},{"user_id":118,"name":"megaroboleg","steam_id":76561198844644993,"connected_time":964000000000,"state":"active","ping":63},{"user_id":69,"name":"❦.•°≖Wisp≖°•.❦","steam_id":76561198860426754,"connected_time":4140000000000,"state":"active","ping":130},{"user_id":120,"name":"JACK BRUNO","steam_id":76561198027957690,"connected_time":641000000000,"state":"active","ping":57},{"user_id":63,"name":"❤ aloha! :3 ❤","steam_id":76561198148517055,"connected_time":4327000000000,"state":"active","ping":181},{"user_id":107,"name":"Keamy","steam_id":76561199471434875,"connected_time":1968000000000,"state":"active","ping":60},{"user_id":66,"name":"TwoBit","steam_id":76561198062437559,"connected_time":4249000000000,"state":"active","ping":135},{"user_id":110,"name":"blackkirby_420_","steam_id":76561198447076448,"connected_time":1477000000000,"state":"active","ping":69},{"user_id":71,"name":"Dusk","steam_id":76561198088681558,"connected_time":3948000000000,"state":"active","ping":61},{"user_id":102,"name":"22:57","steam_id":76561198025668771,"connected_time":2581000000000,"state":"active","ping":88},{"user_id":119,"name":"Griffers","steam_id":76561198040782561,"connected_time":949000000000,"state":"active","ping":130},{"user_id":122,"name":"Synical","steam_id":76561198917787801,"connected_time":516000000000,"state":"active","ping":48},{"user_id":117,"name":"Eric4bz","steam_id":76561198054439606,"connected_time":1072000000000,"state":"active","ping":85},{"user_id":113,"name":"mentos14","steam_id":76561198097993629,"connected_time":1229000000000,"state":"active","ping":73},{"user_id":81,"name":"PieTheMan","steam_id":76561198027825469,"connected_time":3416000000000,"state":"active","ping":135},{"user_id":108,"name":"Throw Artist","steam_id":76561198055589808,"connected_time":1691000000000,"state":"active","ping":45},{"user_id":82,"name":"YungTaxCollector","steam_id":76561199107257507,"connected_time":3409000000000,"state":"active","ping":128},{"user_id":55,"name":"The Rock","steam_id":76561198433328517,"connected_time":4623000000000,"state":"active","ping":129},{"user_id":124,"name":"Pyrotek⁴","steam_id":76561198072747672,"connected_time":459000000000,"state":"active","ping":58},{"user_id":90,"name":"blue duck the 2nd","steam_id":76561198263142765,"connected_time":3057000000000,"state":"active","ping":120}]},{"server_id":18,"name":"Uncletopia | San Francisco | 2 | All Maps","name_short":"sfo-2","host":"sfo-1.us.uncletopia.com","port":27025,"enabled":true,"region":"us-west","cc":"us","latitude":37.77397,"longitude":-122.4313,"reserved":0,"last_update":"0001-01-01T00:00:00Z","name_a2s":"Uncletopia | San Francisco | 2 | All Maps","protocol":17,"map":"pl_upward","folder":"tf","game":"Team Fortress","app_id":440,"player_count":24,"max_players":24,"Bots":0,"server_type":"Dedicated","server_os":"Linux","password":true,"vac":true,"version":"7961495","steam_id":85568392924470000,"keywords":["nocrits","nodmgspread","payload","uncletopia"],"game_id":440,"stv_port":27026,"stv_name":"Uncletopia | San Francisco | 2 | All Maps | STV","players":[{"user_id":124,"name":"devamar","steam_id":76561198069115467,"connected_time":1708000000000,"state":"active","ping":45},{"user_id":84,"name":"dab","steam_id":76561197997990613,"connected_time":4211000000000,"state":"active","ping":49},{"user_id":144,"name":"Chickidy China™","steam_id":76561198039184889,"connected_time":1092000000000,"state":"active","ping":68},{"user_id":105,"name":"Risky","steam_id":76561198231029328,"connected_time":2810000000000,"state":"active","ping":52},{"user_id":147,"name":"Five","steam_id":76561198026640473,"connected_time":1038000000000,"state":"active","ping":62},{"user_id":131,"name":"GameBreaker","steam_id":76561198836171572,"connected_time":1347000000000,"state":"active","ping":78},{"user_id":125,"name":"NaeNaeChungusBozo","steam_id":76561199446407203,"connected_time":1686000000000,"state":"active","ping":119},{"user_id":132,"name":"Tmiracle","steam_id":76561198052375275,"connected_time":1339000000000,"state":"active","ping":53},{"user_id":134,"name":"WaywardFinn","steam_id":76561198040391296,"connected_time":1325000000000,"state":"active","ping":124},{"user_id":135,"name":"Laggy Engineer","steam_id":76561198078317925,"connected_time":1312000000000,"state":"active","ping":74},{"user_id":136,"name":"Kringles","steam_id":76561198170154205,"connected_time":1304000000000,"state":"active","ping":109},{"user_id":159,"name":"Context","steam_id":76561197972634187,"connected_time":699000000000,"state":"active","ping":39},{"user_id":160,"name":"TheTalentlessChicken","steam_id":76561198148390834,"connected_time":686000000000,"state":"active","ping":65},{"user_id":158,"name":"xLeoparrd","steam_id":76561198940657194,"connected_time":712000000000,"state":"active","ping":89},{"user_id":156,"name":"boffo","steam_id":76561198096978718,"connected_time":816000000000,"state":"active","ping":105},{"user_id":148,"name":"A Loaf Of Fetus","steam_id":76561198058016214,"connected_time":1036000000000,"state":"active","ping":59},{"user_id":149,"name":"heyCharn","steam_id":76561198058641350,"connected_time":1032000000000,"state":"active","ping":69},{"user_id":164,"name":"PTR","steam_id":76561198237253772,"connected_time":231000000000,"state":"active","ping":89},{"user_id":163,"name":"Doggus","steam_id":76561198195618934,"connected_time":245000000000,"state":"active","ping":69},{"user_id":161,"name":"Nine Inch Иipples","steam_id":76561198149413947,"connected_time":366000000000,"state":"active","ping":68},{"user_id":150,"name":"Trash Man","steam_id":76561198064860110,"connected_time":1029000000000,"state":"active","ping":112},{"user_id":165,"name":"Old Man Jenkins","steam_id":76561198010708247,"connected_time":228000000000,"state":"active","ping":111},{"user_id":154,"name":"Mr. Poi","steam_id":76561198967112222,"connected_time":886000000000,"state":"active","ping":48},{"user_id":151,"name":"Rac Man","steam_id":76561198417029296,"connected_time":1021000000000,"state":"active","ping":103}]},{"server_id":19,"name":"Uncletopia | San Francisco | 3 | Stopwatch Beta","name_short":"sfo-3","host":"sfo-1.us.uncletopia.com","port":27035,"enabled":true,"region":"us-west","cc":"us","latitude":37.77397,"longitude":-122.4313,"reserved":0,"last_update":"0001-01-01T00:00:00Z","name_a2s":"Uncletopia | San Francisco | 3 | Stopwatch Beta","protocol":17,"map":"cp_granary","folder":"tf","game":"Team Fortress","app_id":440,"player_count":0,"max_players":24,"Bots":0,"server_type":"Dedicated","server_os":"Linux","password":true,"vac":true,"version":"7961495","steam_id":85568392924742824,"keywords":["cp","nocrits","nodmgspread","uncletopia"],"game_id":440,"stv_port":27036,"stv_name":"Uncletopia | San Francisco | 3 | Stopwatch Beta | STV","players":null},{"server_id":20,"name":"Uncletopia | San Francisco | 4 | Community","name_short":"sfo-4","host":"sfo-1.us.uncletopia.com","port":27045,"enabled":true,"region":"us-west","cc":"us","latitude":37.77397,"longitude":-122.4313,"reserved":0,"last_update":"0001-01-01T00:00:00Z","name_a2s":"Uncletopia | San Francisco | 4 | Community","protocol":17,"map":"workshop/cp_logjam_rc12.ugc454812035","folder":"tf","game":"Team Fortress","app_id":440,"player_count":0,"max_players":24,"Bots":0,"server_type":"Dedicated","server_os":"Linux","password":true,"vac":true,"version":"7961495","steam_id":85568392924742826,"keywords":["cp","nocrits","nodmgspread","uncletopia"],"game_id":440,"stv_port":27046,"stv_name":"Uncletopia | San Francisco | 4 | Community | STV","players":null},{"server_id":141,"name":"Uncletopia | Sydney | 1 | All Maps","name_short":"syd-1","host":"syd-1.au.uncletopia.com","port":27015,"enabled":true,"region":"au","cc":"au","latitude":-33.865143,"longitude":151.2099,"reserved":0,"last_update":"0001-01-01T00:00:00Z","name_a2s":"Uncletopia | Sydney | 1 | All Maps","protocol":17,"map":"pl_badwater","folder":"tf","game":"Team Fortress","app_id":440,"player_count":23,"max_players":24,"Bots":0,"server_type":"Dedicated","server_os":"Linux","password":true,"vac":true,"version":"7961495","steam_id":85568392924470001,"keywords":["nocrits","nodmgspread","payload","uncletopia"],"game_id":440,"stv_port":27016,"stv_name":"Uncletopia | Sydney | 1 | All Maps | STV","players":[{"user_id":118,"name":"nurf","steam_id":76561198019391327,"connected_time":50000000000,"state":"active","ping":60},{"user_id":119,"name":"Jray","steam_id":76561198831619367,"connected_time":8000000000,"state":"spawning","ping":315},{"user_id":116,"name":"berko","steam_id":76561198012286680,"connected_time":73000000000,"state":"active","ping":77},{"user_id":112,"name":"Kevin Parker","steam_id":76561198060677406,"connected_time":719000000000,"state":"active","ping":91},{"user_id":113,"name":"Bobby Wilkinson (She/They)","steam_id":76561198054985347,"connected_time":538000000000,"state":"active","ping":57},{"user_id":80,"name":"Tiblyat","steam_id":76561198093077688,"connected_time":3063000000000,"state":"active","ping":66},{"user_id":63,"name":"ShiftAU","steam_id":76561198036359969,"connected_time":4662000000000,"state":"active","ping":58},{"user_id":93,"name":"a e r g h","steam_id":76561198010212679,"connected_time":1994000000000,"state":"active","ping":50},{"user_id":117,"name":"Join the Jihad brother","steam_id":76561199257116847,"connected_time":64000000000,"state":"active","ping":67},{"user_id":114,"name":"RUSSIAN MAN","steam_id":76561198091009223,"connected_time":225000000000,"state":"active","ping":101},{"user_id":56,"name":"Lucky Pineapple","steam_id":76561198880143328,"connected_time":4964000000000,"state":"active","ping":123},{"user_id":69,"name":"wom","steam_id":76561199375834537,"connected_time":4335000000000,"state":"active","ping":134},{"user_id":94,"name":"deliver :\u003e","steam_id":76561198086792833,"connected_time":1724000000000,"state":"active","ping":91},{"user_id":111,"name":"SamK #AnnexTF2","steam_id":76561198149051619,"connected_time":886000000000,"state":"active","ping":65},{"user_id":90,"name":"Tiger_Tan","steam_id":76561198221733844,"connected_time":2070000000000,"state":"active","ping":73},{"user_id":89,"name":"Sherpa","steam_id":76561198018913829,"connected_time":2145000000000,"state":"active","ping":54},{"user_id":102,"name":"Kumbya","steam_id":76561198117979249,"connected_time":1555000000000,"state":"active","ping":59},{"user_id":46,"name":"ManofWonder1","steam_id":76561198904788550,"connected_time":5532000000000,"state":"active","ping":64},{"user_id":74,"name":"Nagapus","steam_id":76561198139578717,"connected_time":4047000000000,"state":"active","ping":70},{"user_id":108,"name":"Del Davis (Del Davis)","steam_id":76561199365669004,"connected_time":1125000000000,"state":"active","ping":57},{"user_id":103,"name":"Ganome Chilled","steam_id":76561198064898965,"connected_time":1552000000000,"state":"active","ping":79},{"user_id":59,"name":"Theducktube","steam_id":76561198137265224,"connected_time":4892000000000,"state":"active","ping":168},{"user_id":87,"name":"dizzy","steam_id":76561198102953163,"connected_time":2718000000000,"state":"active","ping":61}]},{"server_id":123,"name":"Uncletopia | Sydney | 2 | All Maps","name_short":"syd-2","host":"syd-1.au.uncletopia.com","port":27025,"enabled":true,"region":"au","cc":"au","latitude":-33.865143,"longitude":151.2099,"reserved":0,"last_update":"0001-01-01T00:00:00Z","name_a2s":"Uncletopia | Sydney | 2 | All Maps","protocol":17,"map":"pl_upward","folder":"tf","game":"Team Fortress","app_id":440,"player_count":7,"max_players":24,"Bots":0,"server_type":"Dedicated","server_os":"Linux","password":true,"vac":true,"version":"7961495","steam_id":85568392924470002,"keywords":["nocrits","nodmgspread","payload","uncletopia"],"game_id":440,"stv_port":27026,"stv_name":"Uncletopia | Sydney | 2 | All Maps | STV","players":[{"user_id":4,"name":"Nevron","steam_id":76561198128049036,"connected_time":2478000000000,"state":"active","ping":68},{"user_id":5,"name":"MS PowerPoint","steam_id":76561198369523192,"connected_time":2028000000000,"state":"active","ping":161},{"user_id":6,"name":"Onion Farmer","steam_id":76561198449452640,"connected_time":706000000000,"state":"active","ping":152},{"user_id":7,"name":"Combine hl2 real","steam_id":76561199060614128,"connected_time":529000000000,"state":"active","ping":50},{"user_id":15,"name":"i \u003c3 drain gang","steam_id":76561198237563430,"connected_time":97000000000,"state":"active","ping":64},{"user_id":14,"name":"Nothing▲","steam_id":76561198071152906,"connected_time":142000000000,"state":"active","ping":307},{"user_id":13,"name":"FrontlineNinja","steam_id":76561198046731954,"connected_time":212000000000,"state":"active","ping":53}]},{"server_id":395,"name":"Uncletopia | Sydney | 3 | All Maps","name_short":"syd-3","host":"syd-1.au.uncletopia.com","port":27035,"enabled":true,"region":"au","cc":"au","latitude":-33.865143,"longitude":151.2099,"reserved":0,"last_update":"0001-01-01T00:00:00Z","name_a2s":"Uncletopia | Sydney | 3 | All Maps","protocol":17,"map":"pl_borneo","folder":"tf","game":"Team Fortress","app_id":440,"player_count":0,"max_players":24,"Bots":0,"server_type":"Dedicated","server_os":"Linux","password":true,"vac":true,"version":"7961495","steam_id":85568392925194467,"keywords":["nocrits","nodmgspread","payload","uncletopia"],"game_id":440,"stv_port":27036,"stv_name":"Uncletopia | Sydney | 3 | All Maps | STV","players":null},{"server_id":396,"name":"Uncletopia | Sydney | 4 | All Maps","name_short":"syd-4","host":"syd-1.au.uncletopia.com","port":27045,"enabled":true,"region":"au","cc":"au","latitude":-33.865143,"longitude":151.2099,"reserved":0,"last_update":"0001-01-01T00:00:00Z","name_a2s":"Uncletopia | Sydney | 4 | All Maps","protocol":17,"map":"pl_barnblitz","folder":"tf","game":"Team Fortress","app_id":440,"player_count":0,"max_players":24,"Bots":0,"server_type":"Dedicated","server_os":"Linux","password":true,"vac":true,"version":"7961495","steam_id":85568392925397958,"keywords":["nocrits","nodmgspread","payload","uncletopia"],"game_id":440,"stv_port":27046,"stv_name":"Uncletopia | Sydney | 4 | All Maps | STV","players":null},{"server_id":58,"name":"Uncletopia | Sydney | 5 | Stopwatch Beta","name_short":"syd-5","host":"syd-1.au.uncletopia.com","port":27055,"enabled":true,"region":"au","cc":"au","latitude":-33.865143,"longitude":151.2099,"reserved":0,"last_update":"0001-01-01T00:00:00Z","name_a2s":"Uncletopia | Sydney | 5 | Stopwatch Beta","protocol":17,"map":"pl_frontier_final","folder":"tf","game":"Team Fortress","app_id":440,"player_count":0,"max_players":24,"Bots":0,"server_type":"Dedicated","server_os":"Linux","password":true,"vac":true,"version":"7961495","steam_id":85568392925397959,"keywords":["nocrits","nodmgspread","payload","uncletopia"],"game_id":440,"stv_port":27056,"stv_name":"Uncletopia | Sydney | 5 | Stopwatch Beta | STV","players":null},{"server_id":59,"name":"Uncletopia | Sydney | 6 | Community","name_short":"syd-6","host":"syd-1.au.uncletopia.com","port":27065,"enabled":true,"region":"au","cc":"au","latitude":-33.865143,"longitude":151.2099,"reserved":0,"last_update":"0001-01-01T00:00:00Z","name_a2s":"Uncletopia | Sydney | 6 | Community","protocol":17,"map":"pl_swiftwater_final1","folder":"tf","game":"Team Fortress","app_id":440,"player_count":0,"max_players":24,"Bots":0,"server_type":"Dedicated","server_os":"Linux","password":true,"vac":true,"version":"7961495","steam_id":85568392925397960,"keywords":["nocrits","nodmgspread","payload","uncletopia"],"game_id":440,"stv_port":27066,"stv_name":"Uncletopia | Sydney | 6 | Community | STV","players":null},{"server_id":49,"name":"Uncletopia | Warsaw | 1 | All Maps","name_short":"waw-1","host":"waw-1.pl.uncletopia.com","port":27015,"enabled":true,"region":"eu","cc":"pl","latitude":52.2297,"longitude":21.017532,"reserved":0,"last_update":"0001-01-01T00:00:00Z","name_a2s":"Uncletopia | Warsaw | 1 | All Maps","protocol":17,"map":"koth_viaduct","folder":"tf","game":"Team Fortress","app_id":440,"player_count":0,"max_players":24,"Bots":0,"server_type":"Dedicated","server_os":"Linux","password":true,"vac":true,"version":"7961495","steam_id":85568392925397850,"keywords":["cp","nocrits","nodmgspread","uncletopia"],"game_id":440,"stv_port":27016,"stv_name":"Uncletopia | Warsaw | 1 | All Maps | STV","players":null},{"server_id":50,"name":"Uncletopia | Warsaw | 2 | All Maps","name_short":"waw-2","host":"waw-1.pl.uncletopia.com","port":27025,"enabled":true,"region":"eu","cc":"pl","latitude":52.2297,"longitude":21.017532,"reserved":0,"last_update":"0001-01-01T00:00:00Z","name_a2s":"Uncletopia | Warsaw | 2 | All Maps","protocol":17,"map":"pl_badwater","folder":"tf","game":"Team Fortress","app_id":440,"player_count":0,"max_players":24,"Bots":0,"server_type":"Dedicated","server_os":"Linux","password":true,"vac":true,"version":"7961495","steam_id":85568392925397851,"keywords":["nocrits","nodmgspread","payload","uncletopia"],"game_id":440,"stv_port":27026,"stv_name":"Uncletopia | Warsaw | 2 | All Maps | STV","players":null},{"server_id":51,"name":"Uncletopia | Warsaw | 3 | All Maps","name_short":"waw-3","host":"waw-1.pl.uncletopia.com","port":27035,"enabled":true,"region":"eu","cc":"pl","latitude":52.2297,"longitude":21.017532,"reserved":0,"last_update":"0001-01-01T00:00:00Z","name_a2s":"Uncletopia | Warsaw | 3 | All Maps","protocol":17,"map":"cp_process_final","folder":"tf","game":"Team Fortress","app_id":440,"player_count":0,"max_players":24,"Bots":0,"server_type":"Dedicated","server_os":"Linux","password":true,"vac":true,"version":"7961495","steam_id":85568392925397852,"keywords":["cp","nocrits","nodmgspread","uncletopia"],"game_id":440,"stv_port":27036,"stv_name":"Uncletopia | Warsaw | 3 | All Maps | STV","players":null},{"server_id":52,"name":"Uncletopia | Warsaw | 4 | All Maps","name_short":"waw-4","host":"waw-1.pl.uncletopia.com","port":27045,"enabled":true,"region":"eu","cc":"pl","latitude":52.2297,"longitude":21.017532,"reserved":0,"last_update":"0001-01-01T00:00:00Z","name_a2s":"Uncletopia | Warsaw | 4 | All Maps","protocol":17,"map":"koth_lakeside_final","folder":"tf","game":"Team Fortress","app_id":440,"player_count":0,"max_players":24,"Bots":0,"server_type":"Dedicated","server_os":"Linux","password":true,"vac":true,"version":"7961495","steam_id":85568392925397853,"keywords":["cp","nocrits","nodmgspread","uncletopia"],"game_id":440,"stv_port":27046,"stv_name":"Uncletopia | Warsaw | 4 | All Maps | STV","players":null},{"server_id":53,"name":"Uncletopia | Warsaw | 5 | Stopwatch Beta","name_short":"waw-5","host":"waw-1.pl.uncletopia.com","port":27055,"enabled":true,"region":"eu","cc":"pl","latitude":52.2297,"longitude":21.017532,"reserved":0,"last_update":"0001-01-01T00:00:00Z","name_a2s":"Uncletopia | Warsaw | 5 | Stopwatch Beta","protocol":17,"map":"pl_snowycoast","folder":"tf","game":"Team Fortress","app_id":440,"player_count":0,"max_players":24,"Bots":0,"server_type":"Dedicated","server_os":"Linux","password":true,"vac":true,"version":"7961495","steam_id":85568392925397854,"keywords":["nocrits","nodmgspread","payload","uncletopia"],"game_id":440,"stv_port":27056,"stv_name":"Uncletopia | Warsaw | 5 | Stopwatch Beta | STV","players":null},{"server_id":54,"name":"Uncletopia | Warsaw | 6 | Community","name_short":"waw-6","host":"waw-1.pl.uncletopia.com","port":27065,"enabled":true,"region":"eu","cc":"pl","latitude":52.2297,"longitude":21.017532,"reserved":0,"last_update":"0001-01-01T00:00:00Z","name_a2s":"Uncletopia | Warsaw | 6 | Community","protocol":17,"map":"pl_borneo","folder":"tf","game":"Team Fortress","app_id":440,"player_count":0,"max_players":24,"Bots":0,"server_type":"Dedicated","server_os":"Linux","password":true,"vac":true,"version":"7961495","steam_id":85568392925397856,"keywords":["nocrits","nodmgspread","payload","uncletopia"],"game_id":440,"stv_port":27066,"stv_name":"Uncletopia | Warsaw | 6 | Community | STV","players":null}]}