{"status":true,"message":"","result":[{"server_id":9,"name":"Uncletopia | Atlanta | 1 | All Maps","name_short":"atl-1","host":"atl-1.us.uncletopia.com","port":27015,"enabled":true,"region":"us-east","cc":"us","latitude":33.753746,"longitude":-84.38633,"reserved":0,"last_update":"0001-01-01T00:00:00Z","name_a2s":"Uncletopia | Atlanta | 1 | All Maps","protocol":17,"map":"pl_upward","folder":"tf","game":"Team Fortress","app_id":440,"player_count":24,"max_players":24,"Bots":0,"server_type":"Dedicated","server_os":"Linux","password":true,"vac":true,"version":"7757534","steam_id":85568392924469982,"keywords":["nocrits","nodmgspread","payload","uncletopia"],"game_id":440,"stv_port":27016,"stv_name":"Uncletopia | Atlanta | 1 | All Maps | STV","players":[{"user_id":222,"name":"evan_is_sauce","steam_id":76561199086802383,"connected_time":2317000000000,"state":"active","ping":104},{"user_id":219,"name":"Ardor.","steam_id":76561198103503066,"connected_time":2445000000000,"state":"active","ping":62},{"user_id":238,"name":"ATL1 | Bandicario","steam_id":76561198432036026,"connected_time":97000000000,"state":"active","ping":55},{"user_id":227,"name":"plushie","steam_id":76561198088103572,"connected_time":1945000000000,"state":"active","ping":115},{"user_id":234,"name":"Towns","steam_id":76561198984662863,"connected_time":693000000000,"state":"active","ping":58},{"user_id":242,"name":"Syrix","steam_id":76561198017328672,"connected_time":70000000000,"state":"active","ping":70},{"user_id":232,"name":"Motreir","steam_id":76561198151717946,"connected_time":1801000000000,"state":"active","ping":76},{"user_id":212,"name":"dj üÖ±Ô∏èeter greffen","steam_id":76561198079603532,"connected_time":3248000000000,"state":"active","ping":76},{"user_id":220,"name":"mio","steam_id":76561198239286750,"connected_time":2387000000000,"state":"active","ping":60},{"user_id":174,"name":"Soul Garg Plushy","steam_id":76561198044480181,"connected_time":5909000000000,"state":"active","ping":59},{"user_id":240,"name":"mechiimi ‚òÖ","steam_id":76561198321627268,"connected_time":85000000000,"state":"active","ping":126},{"user_id":181,"name":"Mem","steam_id":76561198170391715,"connected_time":5380000000000,"state":"active","ping":82},{"user_id":224,"name":"JJDrowsy","steam_id":76561198274501963,"connected_time":2187000000000,"state":"active","ping":87},{"user_id":241,"name":"McDumDum","steam_id":76561198040738807,"connected_time":76000000000,"state":"active","ping":76},{"user_id":195,"name":"‚òº gamble","steam_id":76561198074180953,"connected_time":4666000000000,"state":"active","ping":73},{"user_id":152,"name":"Scorch","steam_id":76561198167024005,"connected_time":7178000000000,"state":"active","ping":61},{"user_id":243,"name":"Legit_Jaxer","steam_id":76561198172234053,"connected_time":68000000000,"state":"active","ping":105},{"user_id":205,"name":"Wang of Wall St","steam_id":76561198047460598,"connected_time":4089000000000,"state":"active","ping":72},{"user_id":244,"name":"Samrizo el Chorizo","steam_id":76561198009838162,"connected_time":66000000000,"state":"active","ping":70},{"user_id":245,"name":"Elliot","steam_id":76561198052843856,"connected_time":63000000000,"state":"active","ping":68},{"user_id":194,"name":"Thotimus Begonimus","steam_id":76561197970275938,"connected_time":4770000000000,"state":"active","ping":43},{"user_id":233,"name":"N√∏rzaq","steam_id":76561198143188802,"connected_time":705000000000,"state":"active","ping":115},{"user_id":237,"name":"‚ô•NoodleGaming‚ô•","steam_id":76561199100662183,"connected_time":351000000000,"state":"active","ping":57},{"user_id":246,"name":"ùìπùì±ùì™ùì∑ùìΩùì∏ùì∂","steam_id":76561199095923041,"connected_time":56000000000,"state":"active","ping":232}]},{"server_id":400,"name":"Uncletopia | Atlanta | 3 | Community","name_short":"atl-3","host":"atl-1.us.uncletopia.com","port":27035,"enabled":true,"region":"us-east","cc":"us","latitude":33.753746,"longitude":-84.38633,"reserved":0,"last_update":"0001-01-01T00:00:00Z","name_a2s":"Uncletopia | Atlanta | 3 | Community","protocol":17,"map":"workshop/koth_ashville_final.ugc2130459942","folder":"tf","game":"Team Fortress","app_id":440,"player_count":0,"max_players":24,"Bots":0,"server_type":"Dedicated","server_os":"Linux","password":true,"vac":true,"version":"7757534","steam_id":85568392924515187,"keywords":["cp","nocrits","nodmgspread","uncletopia"],"game_id":440,"stv_port":27036,"stv_name":"Uncletopia | Atlanta | 3 | Community | STV","players":null},{"server_id":401,"name":"Uncletopia | Atlanta | 4 | No Payload","name_short":"atl-4","host":"atl-1.us.uncletopia.com","port":27045,"enabled":true,"region":"us-east","cc":"us","latitude":33.753746,"longitude":-84.38633,"reserved":0,"last_update":"0001-01-01T00:00:00Z","name_a2s":"","protocol":0,"map":"","folder":"","game":"","app_id":0,"player_count":0,"max_players":0,"Bots":0,"server_type":"","server_os":"","password":false,"vac":false,"version":"","steam_id":0,"keywords":null,"game_id":0,"stv_port":0,"stv_name":"","players":null},{"server_id":2,"name":"Uncletopia | Chicago | 1 | All Maps","name_short":"chi-1","host":"chi-1.us.uncletopia.com","port":27015,"enabled":true,"region":"us-central","cc":"us","latitude":41.881832,"longitude":-87.62318,"reserved":0,"last_update":"0001-01-01T00:00:00Z","name_a2s":"Uncletopia | Chicago | 1 | All Maps","protocol":17,"map":"pl_frontier_final","folder":"tf","game":"Team Fortress","app_id":440,"player_count":24,"max_players":24,"Bots":0,"server_type":"Dedicated","server_os":"Linux","password":true,"vac":true,"version":"7757534","steam_id":85568392924469984,"keywords":["nocrits","nodmgspread","payload","uncletopia"],"game_id":440,"stv_port":27016,"stv_name":"Uncletopia | Chicago | 1 | All Maps | STV","players":[{"user_id":3,"name":"daemon","steam_id":76561198001541433,"connected_time":23853000000000,"state":"active","ping":57},{"user_id":284,"name":"Coupon","steam_id":76561198111947598,"connected_time":3931000000000,"state":"active","ping":88},{"user_id":309,"name":"Dagoth","steam_id":76561198100896443,"connected_time":1822000000000,"state":"active","ping":56},{"user_id":294,"name":"Robin","steam_id":76561198121165149,"connected_time":3465000000000,"state":"active","ping":39},{"user_id":321,"name":"L0b5terlick","steam_id":76561198134990930,"connected_time":284000000000,"state":"active","ping":58},{"user_id":290,"name":"Bongo","steam_id":76561198393756793,"connected_time":3667000000000,"state":"active","ping":76},{"user_id":310,"name":"And","steam_id":76561198366997281,"connected_time":1786000000000,"state":"active","ping":73},{"user_id":302,"name":"Waddluigi","steam_id":76561198181328519,"connected_time":2591000000000,"state":"active","ping":66},{"user_id":278,"name":"primordialheath","steam_id":76561199386942638,"connected_time":5188000000000,"state":"active","ping":71},{"user_id":325,"name":"the cia","steam_id":76561198287124402,"connected_time":14000000000,"state":"spawning","ping":474},{"user_id":317,"name":"Walkiing","steam_id":76561198074473413,"connected_time":855000000000,"state":"active","ping":43},{"user_id":219,"name":"blue","steam_id":76561199010765510,"connected_time":10078000000000,"state":"active","ping":65},{"user_id":297,"name":"Adam (Cursed Confetti Creature)","steam_id":76561198317690197,"connected_time":3251000000000,"state":"active","ping":46},{"user_id":271,"name":"richard clock","steam_id":76561198048455671,"connected_time":5538000000000,"state":"active","ping":51},{"user_id":295,"name":"Doinnoid","steam_id":76561198262276139,"connected_time":3377000000000,"state":"active","ping":68},{"user_id":323,"name":"Not A Toaster","steam_id":76561198860521464,"connected_time":127000000000,"state":"active","ping":74},{"user_id":240,"name":"captainspatklz","steam_id":76561198432167270,"connected_time":6966000000000,"state":"active","ping":77},{"user_id":311,"name":"Piss Champion","steam_id":76561198059362878,"connected_time":1770000000000,"state":"active","ping":45},{"user_id":292,"name":"kametro4","steam_id":76561198835430429,"connected_time":3499000000000,"state":"active","ping":79},{"user_id":306,"name":"Quansen","steam_id":76561198151594550,"connected_time":2035000000000,"state":"active","ping":51},{"user_id":324,"name":"Rein","steam_id":76561198300340427,"connected_time":113000000000,"state":"active","ping":61},{"user_id":307,"name":"shokie","steam_id":76561197997961542,"connected_time":1940000000000,"state":"active","ping":72},{"user_id":281,"name":"Parker","steam_id":76561198046044893,"connected_time":5153000000000,"state":"active","ping":53},{"user_id":322,"name":"SpinetinglingToast","steam_id":76561198099470670,"connected_time":203000000000,"state":"active","ping":75}]},{"server_id":106,"name":"Uncletopia | Chicago | 2 | All Maps","name_short":"chi-2","host":"chi-1.us.uncletopia.com","port":27025,"enabled":true,"region":"us-central","cc":"us","latitude":41.881832,"longitude":-87.62318,"reserved":0,"last_update":"0001-01-01T00:00:00Z","name_a2s":"Uncletopia | Chicago | 2 | All Maps","protocol":17,"map":"pl_borneo","folder":"tf","game":"Team Fortress","app_id":440,"player_count":24,"max_players":24,"Bots":0,"server_type":"Dedicated","server_os":"Linux","password":true,"vac":true,"version":"7757534","steam_id":85568392924469985,"keywords":["nocrits","nodmgspread","payload","uncletopia"],"game_id":440,"stv_port":27026,"stv_name":"Uncletopia | Chicago | 2 | All Maps | STV","players":[{"user_id":77,"name":"Mug Moment Gaming","steam_id":76561198233098136,"connected_time":1032000000000,"state":"active","ping":70},{"user_id":70,"name":"KingToaster","steam_id":76561198007903802,"connected_time":1506000000000,"state":"active","ping":75},{"user_id":80,"name":"Casual Heavy Main","steam_id":76561199149825278,"connected_time":869000000000,"state":"active","ping":72},{"user_id":22,"name":"his flatulence","steam_id":76561198799404824,"connected_time":3674000000000,"state":"active","ping":70},{"user_id":78,"name":"Loark","steam_id":76561198069381385,"connected_time":974000000000,"state":"active","ping":161},{"user_id":27,"name":"h0ly gh0s7","steam_id":76561198082984763,"connected_time":3571000000000,"state":"active","ping":62},{"user_id":62,"name":"ItsBrieDude","steam_id":76561198051971306,"connected_time":1788000000000,"state":"active","ping":47},{"user_id":90,"name":"mineblast99","steam_id":76561199065648954,"connected_time":270000000000,"state":"active","ping":87},{"user_id":81,"name":"RyInc","steam_id":76561198874261643,"connected_time":830000000000,"state":"active","ping":35},{"user_id":72,"name":"ARGON Soulidity","steam_id":76561198429603550,"connected_time":1428000000000,"state":"active","ping":77},{"user_id":93,"name":"leumas","steam_id":76561198240408540,"connected_time":124000000000,"state":"active","ping":74},{"user_id":76,"name":"Colonel Sassacre","steam_id":76561198006880656,"connected_time":1058000000000,"state":"active","ping":101},{"user_id":88,"name":"PurplePond","steam_id":76561199062421006,"connected_time":356000000000,"state":"active","ping":60},{"user_id":69,"name":"IPlayGamez","steam_id":76561198041387508,"connected_time":1539000000000,"state":"active","ping":63},{"user_id":38,"name":"M@verick","steam_id":76561198006363519,"connected_time":3328000000000,"state":"active","ping":76},{"user_id":59,"name":"Quaker Oats","steam_id":76561197992800293,"connected_time":1937000000000,"state":"active","ping":92},{"user_id":65,"name":"Starr","steam_id":76561198372019581,"connected_time":1760000000000,"state":"active","ping":55},{"user_id":87,"name":"LG_Fridge_User","steam_id":76561198977815014,"connected_time":601000000000,"state":"active","ping":85},{"user_id":89,"name":"Skeleton Rick","steam_id":76561197988235877,"connected_time":355000000000,"state":"active","ping":84},{"user_id":83,"name":"Scalie with Soup","steam_id":76561198126745958,"connected_time":794000000000,"state":"active","ping":79},{"user_id":46,"name":"Curls","steam_id":76561198079039937,"connected_time":3201000000000,"state":"active","ping":170},{"user_id":47,"name":"breaking the exosphere","steam_id":76561198825658971,"connected_time":3192000000000,"state":"active","ping":92},{"user_id":86,"name":"Lemony-Lime","steam_id":76561198057935780,"connected_time":612000000000,"state":"active","ping":75},{"user_id":74,"name":"Broadsword","steam_id":76561198011160411,"connected_time":1371000000000,"state":"active","ping":94}]},{"server_id":402,"name":"Uncletopia | Chicago | 3 | All Maps","name_short":"chi-3","host":"chi-1.us.uncletopia.com","port":27035,"enabled":true,"region":"us-central","cc":"us","latitude":41.881832,"longitude":-87.62318,"reserved":0,"last_update":"0001-01-01T00:00:00Z","name_a2s":"Uncletopia | Chicago | 3 | All Maps","protocol":17,"map":"koth_lakeside_final","folder":"tf","game":"Team Fortress","app_id":440,"player_count":0,"max_players":24,"Bots":0,"server_type":"Dedicated","server_os":"Linux","password":true,"vac":true,"version":"7757534","steam_id":85568392924515191,"keywords":["cp","nocrits","nodmgspread","uncletopia"],"game_id":440,"stv_port":27036,"stv_name":"Uncletopia | Chicago | 3 | All Maps | STV","players":null},{"server_id":403,"name":"Uncletopia | Chicago | 4 | All Maps","name_short":"chi-4","host":"chi-1.us.uncletopia.com","port":27045,"enabled":true,"region":"us-central","cc":"us","latitude":41.881832,"longitude":-87.62318,"reserved":0,"last_update":"0001-01-01T00:00:00Z","name_a2s":"Uncletopia | Chicago | 4 | All Maps","protocol":17,"map":"pl_hoodoo_final","folder":"tf","game":"Team Fortress","app_id":440,"player_count":24,"max_players":24,"Bots":0,"server_type":"Dedicated","server_os":"Linux","password":true,"vac":true,"version":"7757534","steam_id":85568392924515193,"keywords":["nocrits","nodmgspread","payload","uncletopia"],"game_id":440,"stv_port":27046,"stv_name":"Uncletopia | Chicago | 4 | All Maps | STV","players":[{"user_id":188,"name":"Wafflez","steam_id":76561198081611996,"connected_time":1693000000000,"state":"active","ping":69},{"user_id":203,"name":"jake1west","steam_id":76561199468452444,"connected_time":439000000000,"state":"active","ping":197},{"user_id":172,"name":"Buswolley","steam_id":76561197995205571,"connected_time":2628000000000,"state":"active","ping":100},{"user_id":154,"name":"bojack from the show bojack hor","steam_id":76561198053006712,"connected_time":4440000000000,"state":"active","ping":60},{"user_id":206,"name":"Neoplix","steam_id":76561199012756422,"connected_time":273000000000,"state":"active","ping":71},{"user_id":205,"name":"Pathara44","steam_id":76561198048238620,"connected_time":319000000000,"state":"active","ping":58},{"user_id":197,"name":"Cheese","steam_id":76561199207081299,"connected_time":1387000000000,"state":"active","ping":117},{"user_id":185,"name":"Frenemy \u003e:D","steam_id":76561198011363677,"connected_time":1913000000000,"state":"active","ping":46},{"user_id":186,"name":"Wiener Hole Paper Cut","steam_id":76561198000808203,"connected_time":1836000000000,"state":"active","ping":71},{"user_id":204,"name":"Swedish Crowbar","steam_id":76561199105488936,"connected_time":371000000000,"state":"active","ping":151},{"user_id":149,"name":"JennaShinx","steam_id":76561198074773762,"connected_time":4767000000000,"state":"active","ping":59},{"user_id":194,"name":"ZOROJURO","steam_id":76561198927057331,"connected_time":1536000000000,"state":"active","ping":59},{"user_id":195,"name":"i really like this dog :)","steam_id":76561198882404753,"connected_time":1451000000000,"state":"active","ping":82},{"user_id":187,"name":"Konrad Vilulf","steam_id":76561198111124481,"connected_time":1779000000000,"state":"active","ping":92},{"user_id":207,"name":"Clyde","steam_id":76561198158206236,"connected_time":268000000000,"state":"active","ping":107},{"user_id":113,"name":"Glory","steam_id":76561198013975080,"connected_time":7741000000000,"state":"active","ping":70},{"user_id":198,"name":"Protoshake","steam_id":76561198840276176,"connected_time":1356000000000,"state":"active","ping":62},{"user_id":191,"name":"Tyler\u0026Fingers","steam_id":76561198085154485,"connected_time":1658000000000,"state":"active","ping":88},{"user_id":201,"name":"Riff","steam_id":76561198066921423,"connected_time":619000000000,"state":"active","ping":70},{"user_id":208,"name":"El Bondin","steam_id":76561198820792434,"connected_time":257000000000,"state":"active","ping":100},{"user_id":173,"name":"Rornir","steam_id":76561198081829615,"connected_time":2614000000000,"state":"active","ping":40},{"user_id":179,"name":"PeopleOrderOurPatties","steam_id":76561198323144922,"connected_time":2162000000000,"state":"active","ping":63},{"user_id":202,"name":"mle-","steam_id":76561199129384026,"connected_time":598000000000,"state":"active","ping":69},{"user_id":51,"name":"ZombieSkeletor2","steam_id":76561198244937990,"connected_time":12216000000000,"state":"active","ping":89}]},{"server_id":36,"name":"Uncletopia | Chicago | 5 | All Maps","name_short":"chi-5","host":"chi-2.us.uncletopia.com","port":27015,"enabled":true,"region":"us-central","cc":"us","latitude":41.881832,"longitude":-87.62318,"reserved":0,"last_update":"0001-01-01T00:00:00Z","name_a2s":"Uncletopia | Chicago | 5 | All Maps","protocol":17,"map":"cp_snakewater_final1","folder":"tf","game":"Team Fortress","app_id":440,"player_count":24,"max_players":24,"Bots":0,"server_type":"Dedicated","server_os":"Linux","password":true,"vac":true,"version":"7757534","steam_id":85568392924866362,"keywords":["cp","nocrits","nodmgspread","uncletopia"],"game_id":440,"stv_port":27016,"stv_name":"Uncletopia | Chicago | 5 | All Maps | STV","players":[{"user_id":327,"name":"lol emoji","steam_id":76561198072796208,"connected_time":106000000000,"state":"active","ping":90},{"user_id":322,"name":"The Jim Super Saiyan IV","steam_id":76561199046650666,"connected_time":369000000000,"state":"active","ping":55},{"user_id":231,"name":"bash -lc ./asshat.sh","steam_id":76561198004584315,"connected_time":5631000000000,"state":"active","ping":66},{"user_id":285,"name":"CptSkippy","steam_id":76561198127439343,"connected_time":1358000000000,"state":"active","ping":93},{"user_id":313,"name":"Olive","steam_id":76561198003474783,"connected_time":641000000000,"state":"active","ping":85},{"user_id":323,"name":"StarChaser","steam_id":76561198144090730,"connected_time":345000000000,"state":"active","ping":124},{"user_id":307,"name":"[BBW] Justario","steam_id":76561198016095410,"connected_time":879000000000,"state":"active","ping":65},{"user_id":288,"name":"RED","steam_id":76561198030282308,"connected_time":1340000000000,"state":"active","ping":102},{"user_id":291,"name":"nomallife","steam_id":76561198066078134,"connected_time":1255000000000,"state":"active","ping":72},{"user_id":281,"name":"Liver stealer","steam_id":76561199029954287,"connected_time":1542000000000,"state":"active","ping":144},{"user_id":266,"name":"Sunvaar","steam_id":76561198852679851,"connected_time":3643000000000,"state":"active","ping":68},{"user_id":314,"name":"{FITH}‚Ñ¢ SmittyWun {FM}","steam_id":76561198079531938,"connected_time":633000000000,"state":"active","ping":66},{"user_id":324,"name":"Scope","steam_id":76561198164813564,"connected_time":339000000000,"state":"active","ping":59},{"user_id":294,"name":"Andres Flores","steam_id":76561199355592005,"connected_time":1192000000000,"state":"active","ping":61},{"user_id":326,"name":"Madness_Agent69420","steam_id":76561198132774114,"connected_time":295000000000,"state":"active","ping":118},{"user_id":325,"name":"Tusk","steam_id":76561199066977033,"connected_time":306000000000,"state":"active","ping":79},{"user_id":289,"name":"Stinkly","steam_id":76561198045010846,"connected_time":1334000000000,"state":"active","ping":80},{"user_id":292,"name":"Asher","steam_id":76561198218499636,"connected_time":1223000000000,"state":"active","ping":67},{"user_id":310,"name":"nav","steam_id":76561198872608266,"connected_time":771000000000,"state":"active","ping":94},{"user_id":316,"name":"Depresso","steam_id":76561198394787270,"connected_time":574000000000,"state":"active","ping":80},{"user_id":320,"name":"faxxy","steam_id":76561198079621240,"connected_time":514000000000,"state":"active","ping":80},{"user_id":297,"name":"gold ps3 controller üÖáüÑ≥","steam_id":76561198798081541,"connected_time":1129000000000,"state":"active","ping":59},{"user_id":300,"name":"Fudgely","steam_id":76561198039425862,"connected_time":1065000000000,"state":"active","ping":76},{"user_id":311,"name":"WebChill","steam_id":76561199137238941,"connected_time":753000000000,"state":"active","ping":77}]},{"server_id":37,"name":"Uncletopia | Chicago | 6 | All Maps","name_short":"chi-6","host":"chi-2.us.uncletopia.com","port":27025,"enabled":true,"region":"us-central","cc":"us","latitude":41.881832,"longitude":-87.62318,"reserved":0,"last_update":"0001-01-01T00:00:00Z","name_a2s":"Uncletopia | Chicago | 6 | All Maps","protocol":17,"map":"pl_swiftwater_final1","folder":"tf","game":"Team Fortress","app_id":440,"player_count":11,"max_players":24,"Bots":0,"server_type":"Dedicated","server_os":"Linux","password":true,"vac":true,"version":"7757534","steam_id":85568392924866363,"keywords":["nocrits","nodmgspread","payload","uncletopia"],"game_id":440,"stv_port":27026,"stv_name":"Uncletopia | Chicago | 6 | All Maps | STV","players":[{"user_id":9,"name":"Bigfootjinx","steam_id":76561199128050459,"connected_time":1877000000000,"state":"active","ping":72},{"user_id":10,"name":"Snipekid","steam_id":76561199385495976,"connected_time":1812000000000,"state":"active","ping":114},{"user_id":15,"name":"KxnoYT","steam_id":76561199221016324,"connected_time":1011000000000,"state":"active","ping":114},{"user_id":17,"name":"Gnome Man","steam_id":76561199047999402,"connected_time":463000000000,"state":"active","ping":80},{"user_id":18,"name":"Glitchpower64","steam_id":76561198994710718,"connected_time":423000000000,"state":"active","ping":165},{"user_id":19,"name":"ItzDigit4l","steam_id":76561198979147416,"connected_time":251000000000,"state":"active","ping":159},{"user_id":20,"name":"The World's Softest Sandwich","steam_id":76561198015577707,"connected_time":184000000000,"state":"active","ping":75},{"user_id":21,"name":"KingSteve42","steam_id":76561198409455888,"connected_time":176000000000,"state":"active","ping":103},{"user_id":22,"name":"medic gaming","steam_id":76561199177936005,"connected_time":144000000000,"state":"active","ping":51},{"user_id":23,"name":"Regi","steam_id":76561198271508598,"connected_time":132000000000,"state":"active","ping":52},{"user_id":26,"name":"Ostin","steam_id":76561197993726444,"connected_time":104000000000,"state":"active","ping":79}]},{"server_id":38,"name":"Uncletopia | Chicago | 7 | Stopwatch Beta","name_short":"chi-7","host":"chi-2.us.uncletopia.com","port":27035,"enabled":true,"region":"us-central","cc":"us","latitude":41.881832,"longitude":-87.62318,"reserved":0,"last_update":"0001-01-01T00:00:00Z","name_a2s":"Uncletopia | Chicago | 7 | Stopwatch Beta","protocol":17,"map":"pl_upward","folder":"tf","game":"Team Fortress","app_id":440,"player_count":0,"max_players":24,"Bots":0,"server_type":"Dedicated","server_os":"Linux","password":true,"vac":true,"version":"7757534","steam_id":85568392924866364,"keywords":["nocrits","nodmgspread","payload","uncletopia"],"game_id":440,"stv_port":27036,"stv_name":"Uncletopia | Chicago | 7 | Stopwatch Beta | STV","players":null},{"server_id":39,"name":"Uncletopia | Chicago | 8 | Community","name_short":"chi-8","host":"chi-2.us.uncletopia.com","port":27045,"enabled":true,"region":"us-central","cc":"us","latitude":41.881832,"longitude":-87.62318,"reserved":0,"last_update":"0001-01-01T00:00:00Z","name_a2s":"Uncletopia | Chicago | 8 | Community","protocol":17,"map":"workshop/pl_emerge_rc2.ugc888027758","folder":"tf","game":"Team Fortress","app_id":440,"player_count":19,"max_players":24,"Bots":0,"server_type":"Dedicated","server_os":"Linux","password":true,"vac":true,"version":"7757534","steam_id":85568392924866365,"keywords":["nocrits","nodmgspread","payload","uncletopia"],"game_id":440,"stv_port":27046,"stv_name":"Uncletopia | Chicago | 8 | Community | STV","players":[{"user_id":23,"name":"APOTATO","steam_id":76561198118199858,"connected_time":3450000000000,"state":"active","ping":88},{"user_id":28,"name":"Hitlinemoss","steam_id":76561198155435669,"connected_time":2807000000000,"state":"active","ping":71},{"user_id":58,"name":"povertyy","steam_id":76561198042833774,"connected_time":182000000000,"state":"active","ping":91},{"user_id":30,"name":"Hot Milk + Sweet Delight","steam_id":76561197988989149,"connected_time":2375000000000,"state":"active","ping":79},{"user_id":57,"name":"cup","steam_id":76561198121245586,"connected_time":213000000000,"state":"active","ping":100},{"user_id":35,"name":"Aeris","steam_id":76561198287271028,"connected_time":1809000000000,"state":"active","ping":55},{"user_id":32,"name":"Biffy","steam_id":76561198026335945,"connected_time":2221000000000,"state":"active","ping":64},{"user_id":54,"name":"fallacy","steam_id":76561198057374871,"connected_time":637000000000,"state":"active","ping":59},{"user_id":36,"name":"bobbyboy4020","steam_id":76561198055602369,"connected_time":1650000000000,"state":"active","ping":60},{"user_id":37,"name":"v‚Åßotlu","steam_id":76561198211993579,"connected_time":1649000000000,"state":"active","ping":61},{"user_id":59,"name":"Dr. Tropen","steam_id":76561198405271669,"connected_time":167000000000,"state":"active","ping":65},{"user_id":60,"name":"alpha1zer0ready","steam_id":76561199206731331,"connected_time":106000000000,"state":"active","ping":91},{"user_id":56,"name":"SpeakableCoin","steam_id":76561198123972599,"connected_time":425000000000,"state":"active","ping":69},{"user_id":52,"name":"Mike Arsfast","steam_id":76561198839205387,"connected_time":895000000000,"state":"active","ping":64},{"user_id":43,"name":"your local forecast","steam_id":76561198042243083,"connected_time":1302000000000,"state":"active","ping":62},{"user_id":46,"name":"Rin \"Hindwing\" Redtail","steam_id":76561199074865638,"connected_time":1162000000000,"state":"active","ping":73},{"user_id":47,"name":"Serene Salamander","steam_id":76561198001094770,"connected_time":1136000000000,"state":"active","ping":118},{"user_id":50,"name":"Grizzly","steam_id":76561198176174371,"connected_time":1020000000000,"state":"active","ping":120},{"user_id":51,"name":"Warkeidan","steam_id":76561198118805546,"connected_time":1002000000000,"state":"active","ping":72}]},{"server_id":8,"name":"Uncletopia | Dallas | 1 | All Maps","name_short":"dal-1","host":"dal-1.us.uncletopia.com","port":27015,"enabled":true,"region":"us-central","cc":"us","latitude":32.779167,"longitude":-96.80889,"reserved":0,"last_update":"0001-01-01T00:00:00Z","name_a2s":"Uncletopia | Dallas | 1 | All Maps","protocol":17,"map":"cp_altitude","folder":"tf","game":"Team Fortress","app_id":440,"player_count":0,"max_players":24,"Bots":0,"server_type":"Dedicated","server_os":"Linux","password":true,"vac":true,"version":"7757534","steam_id":85568392924469986,"keywords":["cp","nocrits","nodmgspread","uncletopia"],"game_id":440,"stv_port":27016,"stv_name":"Uncletopia | Dallas | 1 | All Maps | STV","players":null},{"server_id":108,"name":"Uncletopia | Dallas | 2 | All Maps","name_short":"dal-2","host":"dal-1.us.uncletopia.com","port":27025,"enabled":true,"region":"us-central","cc":"us","latitude":32.779167,"longitude":-96.80889,"reserved":0,"last_update":"0001-01-01T00:00:00Z","name_a2s":"Uncletopia | Dallas | 2 | All Maps","protocol":17,"map":"pl_barnblitz","folder":"tf","game":"Team Fortress","app_id":440,"player_count":0,"max_players":24,"Bots":0,"server_type":"Dedicated","server_os":"Linux","password":true,"vac":true,"version":"7757534","steam_id":85568392924469988,"keywords":["nocrits","nodmgspread","payload","uncletopia"],"game_id":440,"stv_port":27026,"stv_name":"Uncletopia | Dallas | 2 | All Maps | STV","players":null},{"server_id":5,"name":"Uncletopia | Frankfurt | 1 | All Maps","name_short":"frk-1","host":"frk-1.de.uncletopia.com","port":27015,"enabled":true,"region":"eu","cc":"de","latitude":50.110924,"longitude":8.682127,"reserved":0,"last_update":"0001-01-01T00:00:00Z","name_a2s":"Uncletopia | Frankfurt | 1 | All Maps","protocol":17,"map":"pl_pier","folder":"tf","game":"Team Fortress","app_id":440,"player_count":24,"max_players":24,"Bots":0,"server_type":"Dedicated","server_os":"Linux","password":true,"vac":true,"version":"7757534","steam_id":85568392924469989,"keywords":["nocrits","nodmgspread","payload","uncletopia"],"game_id":440,"stv_port":27016,"stv_name":"Uncletopia | Frankfurt | 1 | All Maps | STV","players":[{"user_id":255,"name":"Rops","steam_id":76561198031608011,"connected_time":2511000000000,"state":"active","ping":78},{"user_id":214,"name":"aksu","steam_id":76561198083955517,"connected_time":4786000000000,"state":"active","ping":60},{"user_id":215,"name":"Fran","steam_id":76561199070516960,"connected_time":4780000000000,"state":"active","ping":64},{"user_id":284,"name":"Shovelhalfrusty","steam_id":76561198346447513,"connected_time":183000000000,"state":"active","ping":98},{"user_id":274,"name":"EdSuedi","steam_id":76561199387956486,"connected_time":1321000000000,"state":"active","ping":53},{"user_id":171,"name":"Rambi","steam_id":76561199058078505,"connected_time":7751000000000,"state":"active","ping":152},{"user_id":256,"name":"Fnutek","steam_id":76561198082168552,"connected_time":2252000000000,"state":"active","ping":55},{"user_id":257,"name":"OTP ¬∞Roticher","steam_id":76561198194559879,"connected_time":2242000000000,"state":"active","ping":56},{"user_id":231,"name":"hananamanna","steam_id":76561198006570285,"connected_time":3713000000000,"state":"active","ping":105},{"user_id":285,"name":"Towercat","steam_id":76561198013141793,"connected_time":149000000000,"state":"active","ping":68},{"user_id":261,"name":"Major Tom","steam_id":76561198117525443,"connected_time":1869000000000,"state":"active","ping":59},{"user_id":276,"name":"Deva Path","steam_id":76561198085763542,"connected_time":1309000000000,"state":"active","ping":72},{"user_id":196,"name":"Anri Okita's Massive Milkers","steam_id":76561199186352720,"connected_time":6256000000000,"state":"active","ping":74},{"user_id":206,"name":"Kiryu Kazuma","steam_id":76561198120390292,"connected_time":5552000000000,"state":"active","ping":78},{"user_id":286,"name":"KajaStorm","steam_id":76561199215842872,"connected_time":135000000000,"state":"active","ping":195},{"user_id":210,"name":"SocialistBacon","steam_id":76561198055872267,"connected_time":5444000000000,"state":"active","ping":71},{"user_id":287,"name":"Michael","steam_id":76561198106684566,"connected_time":16000000000,"state":"active","ping":79},{"user_id":269,"name":"tiszkrisz","steam_id":76561198144544207,"connected_time":1412000000000,"state":"active","ping":66},{"user_id":281,"name":"√Ñ√§rik ‚ô£","steam_id":76561198131871737,"connected_time":987000000000,"state":"active","ping":54},{"user_id":270,"name":"George S. Patton","steam_id":76561198010790865,"connected_time":1398000000000,"state":"active","ping":121},{"user_id":244,"name":"OTP DynamoDM","steam_id":76561198150755391,"connected_time":2978000000000,"state":"active","ping":54},{"user_id":282,"name":"Frylock","steam_id":76561198050292560,"connected_time":963000000000,"state":"active","ping":45},{"user_id":283,"name":"hellrunner","steam_id":76561198205309695,"connected_time":884000000000,"state":"active","ping":86},{"user_id":280,"name":"Churaq Cyril","steam_id":76561198125381319,"connected_time":1100000000000,"state":"active","ping":88}]},{"server_id":110,"name":"Uncletopia | Frankfurt | 2 | All Maps","name_short":"frk-2","host":"frk-1.de.uncletopia.com","port":27025,"enabled":true,"region":"eu","cc":"de","latitude":50.110924,"longitude":8.682127,"reserved":0,"last_update":"0001-01-01T00:00:00Z","name_a2s":"Uncletopia | Frankfurt | 2 | All Maps","protocol":17,"map":"pl_pier","folder":"tf","game":"Team Fortress","app_id":440,"player_count":0,"max_players":24,"Bots":0,"server_type":"Dedicated","server_os":"Linux","password":true,"vac":true,"version":"7757534","steam_id":85568392924469990,"keywords":["nocrits","nodmgspread","payload","uncletopia"],"game_id":440,"stv_port":27026,"stv_name":"Uncletopia | Frankfurt | 2 | All Maps | STV","players":null},{"server_id":308,"name":"Uncletopia | Frankfurt | 3 | All Maps","name_short":"frk-3","host":"frk-1.de.uncletopia.com","port":27035,"enabled":true,"region":"eu","cc":"de","latitude":50.110924,"longitude":8.682127,"reserved":0,"last_update":"0001-01-01T00:00:00Z","name_a2s":"Uncletopia | Frankfurt | 3 | All Maps","protocol":17,"map":"pl_upward","folder":"tf","game":"Team Fortress","app_id":440,"player_count":24,"max_players":24,"Bots":0,"server_type":"Dedicated","server_os":"Linux","password":true,"vac":true,"version":"7757534","steam_id":85568392924504274,"keywords":["nocrits","nodmgspread","payload","uncletopia"],"game_id":440,"stv_port":27036,"stv_name":"Uncletopia | Frankfurt | 3 | All Maps | STV","players":[{"user_id":277,"name":"nvmHastee","steam_id":76561199371458295,"connected_time":1463000000000,"state":"active","ping":72},{"user_id":305,"name":"remove trains","steam_id":76561199433578516,"connected_time":106000000000,"state":"active","ping":78},{"user_id":279,"name":"Kalarad","steam_id":76561198981545517,"connected_time":1243000000000,"state":"active","ping":95},{"user_id":280,"name":"Skeletros","steam_id":76561198130969152,"connected_time":1128000000000,"state":"active","ping":130},{"user_id":281,"name":"Otzeo","steam_id":76561198835657637,"connected_time":1107000000000,"state":"active","ping":62},{"user_id":282,"name":"Mozzaza","steam_id":76561198156316111,"connected_time":1057000000000,"state":"active","ping":133},{"user_id":283,"name":"Malik794","steam_id":76561198967164437,"connected_time":929000000000,"state":"active","ping":103},{"user_id":306,"name":"dacia papuc 4x4","steam_id":76561198020487843,"connected_time":101000000000,"state":"active","ping":83},{"user_id":286,"name":"Nominace","steam_id":76561198158567717,"connected_time":663000000000,"state":"active","ping":134},{"user_id":287,"name":"Jack.Orlando","steam_id":76561198802400236,"connected_time":569000000000,"state":"active","ping":70},{"user_id":288,"name":"Doriian","steam_id":76561198071438810,"connected_time":547000000000,"state":"active","ping":75},{"user_id":289,"name":"KingVoker","steam_id":76561198039602539,"connected_time":538000000000,"state":"active","ping":62},{"user_id":290,"name":"Ged","steam_id":76561198079288943,"connected_time":517000000000,"state":"active","ping":117},{"user_id":291,"name":"xenia","steam_id":76561198062107879,"connected_time":491000000000,"state":"active","ping":75},{"user_id":293,"name":"goktwoxd","steam_id":76561198065114415,"connected_time":443000000000,"state":"active","ping":78},{"user_id":294,"name":"skiety","steam_id":76561198126524735,"connected_time":432000000000,"state":"active","ping":70},{"user_id":295,"name":"Barmax","steam_id":76561198973424528,"connected_time":423000000000,"state":"active","ping":95},{"user_id":296,"name":"engie?","steam_id":76561198331852832,"connected_time":369000000000,"state":"active","ping":63},{"user_id":297,"name":"Dolcelatte","steam_id":76561198038501770,"connected_time":366000000000,"state":"active","ping":59},{"user_id":298,"name":"quickfast","steam_id":76561199438900919,"connected_time":194000000000,"state":"active","ping":70},{"user_id":299,"name":"After8","steam_id":76561198090750865,"connected_time":181000000000,"state":"active","ping":75},{"user_id":300,"name":"The engineer","steam_id":76561199234860030,"connected_time":176000000000,"state":"active","ping":169},{"user_id":302,"name":"AmadStatistician","steam_id":76561198163654770,"connected_time":156000000000,"state":"active","ping":69},{"user_id":304,"name":"happy","steam_id":76561198053141766,"connected_time":152000000000,"state":"active","ping":94}]},{"server_id":309,"name":"Uncletopia | Frankfurt | 4 | All Maps","name_short":"frk-4","host":"frk-1.de.uncletopia.com","port":27045,"enabled":true,"region":"eu","cc":"de","latitude":50.110924,"longitude":8.682127,"reserved":0,"last_update":"0001-01-01T00:00:00Z","name_a2s":"Uncletopia | Frankfurt | 4 | All Maps","protocol":17,"map":"cp_mercenarypark","folder":"tf","game":"Team Fortress","app_id":440,"player_count":9,"max_players":24,"Bots":0,"server_type":"Dedicated","server_os":"Linux","password":true,"vac":true,"version":"7757534","steam_id":85568392924504275,"keywords":["cp","nocrits","nodmgspread","uncletopia"],"game_id":440,"stv_port":27046,"stv_name":"Uncletopia | Frankfurt | 4 | All Maps | STV","players":[{"user_id":162,"name":"skeleton94","steam_id":76561199032256341,"connected_time":472000000000,"state":"active","ping":99},{"user_id":127,"name":"Tynnyri","steam_id":76561198075516541,"connected_time":2005000000000,"state":"active","ping":107},{"user_id":167,"name":"thebananabomb00","steam_id":76561198296409283,"connected_time":137000000000,"state":"active","ping":76},{"user_id":169,"name":"Vischan but worse","steam_id":76561199371650805,"connected_time":29000000000,"state":"active","ping":91},{"user_id":166,"name":"swueuws","steam_id":76561198020716743,"connected_time":226000000000,"state":"active","ping":45},{"user_id":61,"name":"Aspartus","steam_id":76561198101385763,"connected_time":5021000000000,"state":"active","ping":42},{"user_id":148,"name":"NaN","steam_id":76561198071098413,"connected_time":1406000000000,"state":"active","ping":50},{"user_id":160,"name":"AfroCookie","steam_id":76561198138362851,"connected_time":550000000000,"state":"active","ping":63},{"user_id":91,"name":"Fancy","steam_id":76561198350658462,"connected_time":3870000000000,"state":"active","ping":73}]},{"server_id":310,"name":"Uncletopia | Frankfurt | 5 | All Maps","name_short":"frk-5","host":"frk-1.de.uncletopia.com","port":27055,"enabled":true,"region":"eu","cc":"de","latitude":50.110924,"longitude":8.682127,"reserved":0,"last_update":"0001-01-01T00:00:00Z","name_a2s":"Uncletopia | Frankfurt | 5 | All Maps","protocol":17,"map":"cp_mossrock","folder":"tf","game":"Team Fortress","app_id":440,"player_count":24,"max_players":24,"Bots":0,"server_type":"Dedicated","server_os":"Linux","password":true,"vac":true,"version":"7757534","steam_id":85568392924504277,"keywords":["cp","nocrits","nodmgspread","uncletopia"],"game_id":440,"stv_port":27056,"stv_name":"Uncletopia | Frankfurt | 5 | All Maps | STV","players":[{"user_id":406,"name":"Nugget","steam_id":76561198338916407,"connected_time":3314000000000,"state":"active","ping":77},{"user_id":443,"name":"Snortman","steam_id":76561199012566222,"connected_time":822000000000,"state":"active","ping":59},{"user_id":348,"name":"Philip","steam_id":76561198420288961,"connected_time":5922000000000,"state":"active","ping":61},{"user_id":455,"name":"Caliban","steam_id":76561197999696839,"connected_time":371000000000,"state":"active","ping":120},{"user_id":433,"name":"Renard pos4","steam_id":76561197998908594,"connected_time":1333000000000,"state":"active","ping":69},{"user_id":435,"name":"101 000 tuns of democracy","steam_id":76561198218257120,"connected_time":1194000000000,"state":"active","ping":72},{"user_id":401,"name":"Noob_with_source","steam_id":76561198870362103,"connected_time":3488000000000,"state":"active","ping":60},{"user_id":402,"name":"Aregularhuman","steam_id":76561198343319848,"connected_time":3474000000000,"state":"active","ping":43},{"user_id":404,"name":"Sch","steam_id":76561198071341689,"connected_time":3394000000000,"state":"active","ping":54},{"user_id":434,"name":"anairat","steam_id":76561198863788240,"connected_time":1332000000000,"state":"active","ping":81},{"user_id":449,"name":"kee5","steam_id":76561198834199131,"connected_time":608000000000,"state":"active","ping":100},{"user_id":451,"name":"slnc","steam_id":76561198041151496,"connected_time":538000000000,"state":"active","ping":69},{"user_id":410,"name":"Toasty5050","steam_id":76561198073540881,"connected_time":2765000000000,"state":"active","ping":46},{"user_id":439,"name":"The Nekomancer ‚ô•","steam_id":76561198095563918,"connected_time":1043000000000,"state":"active","ping":76},{"user_id":450,"name":"sou","steam_id":76561198320209201,"connected_time":555000000000,"state":"active","ping":82},{"user_id":456,"name":"The 4th Doctor","steam_id":76561198191516706,"connected_time":355000000000,"state":"active","ping":69},{"user_id":453,"name":"AsuX","steam_id":76561197990333289,"connected_time":494000000000,"state":"active","ping":60},{"user_id":344,"name":"Autumnsky","steam_id":76561198055161203,"connected_time":6576000000000,"state":"active","ping":57},{"user_id":457,"name":"mt","steam_id":76561197961319303,"connected_time":343000000000,"state":"active","ping":59},{"user_id":454,"name":"R0b0b3rt","steam_id":76561198314564194,"connected_time":451000000000,"state":"active","ping":98},{"user_id":424,"name":"citronous","steam_id":76561198093290934,"connected_time":2252000000000,"state":"active","ping":56},{"user_id":438,"name":"Fridge","steam_id":76561198071665589,"connected_time":1049000000000,"state":"active","ping":107},{"user_id":425,"name":"night.s","steam_id":76561198326287823,"connected_time":2180000000000,"state":"active","ping":86},{"user_id":409,"name":"Rimx","steam_id":76561198053034840,"connected_time":2923000000000,"state":"active","ping":99}]},{"server_id":311,"name":"Uncletopia | Frankfurt | 6 | All Maps","name_short":"frk-6","host":"frk-1.de.uncletopia.com","port":27065,"enabled":true,"region":"eu","cc":"de","latitude":50.110924,"longitude":8.682127,"reserved":0,"last_update":"0001-01-01T00:00:00Z","name_a2s":"Uncletopia | Frankfurt | 6 | All Maps","protocol":17,"map":"pl_upward","folder":"tf","game":"Team Fortress","app_id":440,"player_count":24,"max_players":24,"Bots":0,"server_type":"Dedicated","server_os":"Linux","password":true,"vac":true,"version":"7757534","steam_id":85568392924504278,"keywords":["nocrits","nodmgspread","payload","uncletopia"],"game_id":440,"stv_port":27066,"stv_name":"Uncletopia | Frankfurt | 6 | All Maps | STV","players":[{"user_id":165,"name":"Din Javel","steam_id":76561198043018352,"connected_time":2255000000000,"state":"active","ping":68},{"user_id":202,"name":"dartush","steam_id":76561198067506270,"connected_time":651000000000,"state":"active","ping":72},{"user_id":207,"name":"K√°men","steam_id":76561199167174993,"connected_time":596000000000,"state":"active","ping":71},{"user_id":208,"name":"Datenegassie","steam_id":76561198089417032,"connected_time":588000000000,"state":"active","ping":67},{"user_id":222,"name":"Wir suchen dich!","steam_id":76561198307613521,"connected_time":92000000000,"state":"active","ping":45},{"user_id":205,"name":"Seal","steam_id":76561198093461170,"connected_time":634000000000,"state":"active","ping":59},{"user_id":213,"name":"Germanium_Ge","steam_id":76561198130561775,"connected_time":420000000000,"state":"active","ping":60},{"user_id":214,"name":"‚ô´‚òÖXriasp‚òÖ‚ô´","steam_id":76561198104721321,"connected_time":328000000000,"state":"active","ping":74},{"user_id":209,"name":"Majami","steam_id":76561198054365738,"connected_time":576000000000,"state":"active","ping":87},{"user_id":181,"name":"I was good before.","steam_id":76561198187045217,"connected_time":1335000000000,"state":"active","ping":80},{"user_id":210,"name":"Accident","steam_id":76561198115160396,"connected_time":574000000000,"state":"active","ping":69},{"user_id":215,"name":"BAGASSER","steam_id":76561198051283300,"connected_time":286000000000,"state":"active","ping":70},{"user_id":196,"name":"breedable","steam_id":76561198010300032,"connected_time":933000000000,"state":"active","ping":60},{"user_id":190,"name":"tomix7","steam_id":76561198365122597,"connected_time":1221000000000,"state":"active","ping":59},{"user_id":183,"name":"Exe_Red","steam_id":76561198154952759,"connected_time":1313000000000,"state":"active","ping":77},{"user_id":219,"name":"Pyrolander","steam_id":76561198050785450,"connected_time":141000000000,"state":"active","ping":56},{"user_id":178,"name":"teddyswk","steam_id":76561198404939571,"connected_time":1513000000000,"state":"active","ping":83},{"user_id":191,"name":"Sultan Mohammad S√ºleyman II.","steam_id":76561198124568025,"connected_time":1202000000000,"state":"active","ping":59},{"user_id":192,"name":"Rodia","steam_id":76561197968293161,"connected_time":1187000000000,"state":"active","ping":61},{"user_id":193,"name":"Jamba Sparabo","steam_id":76561198131647600,"connected_time":1184000000000,"state":"active","ping":46},{"user_id":185,"name":"Gormbrain","steam_id":76561198020079511,"connected_time":1303000000000,"state":"active","ping":55},{"user_id":216,"name":"[82AD] maskofthesun","steam_id":76561198118061517,"connected_time":279000000000,"state":"active","ping":48},{"user_id":187,"name":"Slipskip","steam_id":76561198018493540,"connected_time":1296000000000,"state":"active","ping":74},{"user_id":220,"name":"leo6ix","steam_id":76561197974177672,"connected_time":141000000000,"state":"active","ping":88}]},{"server_id":23,"name":"Uncletopia | Frankfurt | 7 | Stopwatch Beta","name_short":"frk-7","host":"frk-1.de.uncletopia.com","port":27075,"enabled":true,"region":"eu","cc":"de","latitude":50.110924,"longitude":8.682127,"reserved":0,"last_update":"0001-01-01T00:00:00Z","name_a2s":"Uncletopia | Frankfurt | 7 | Stopwatch Beta","protocol":17,"map":"pl_frontier_final","folder":"tf","game":"Team Fortress","app_id":440,"player_count":0,"max_players":24,"Bots":0,"server_type":"Dedicated","server_os":"Linux","password":true,"vac":true,"version":"7757534","steam_id":85568392924742827,"keywords":["nocrits","nodmgspread","payload","uncletopia"],"game_id":440,"stv_port":27076,"stv_name":"Uncletopia | Frankfurt | 7 | Stopwatch Beta | STV","players":null},{"server_id":24,"name":"Uncletopia | Frankfurt | 8 | Community","name_short":"frk-8","host":"frk-1.de.uncletopia.com","port":27085,"enabled":true,"region":"eu","cc":"de","latitude":50.110924,"longitude":8.682127,"reserved":0,"last_update":"0001-01-01T00:00:00Z","name_a2s":"Uncletopia | Frankfurt | 8 | Community","protocol":17,"map":"workshop/pl_shoreleave_rc1.ugc1238849347","folder":"tf","game":"Team Fortress","app_id":440,"player_count":0,"max_players":24,"Bots":0,"server_type":"Dedicated","server_os":"Linux","password":true,"vac":true,"version":"7757534","steam_id":85568392924742828,"keywords":["nocrits","nodmgspread","payload","uncletopia"],"game_id":440,"stv_port":27086,"stv_name":"Uncletopia | Frankfurt | 8 | Community | STV","players":null},{"server_id":202,"name":"Uncletopia | Hong Kong | 1 | All Maps","name_short":"hgk-1","host":"hgk-1.hk.uncletopia.com","port":27015,"enabled":true,"region":"asia","cc":"hk","latitude":22.302711,"longitude":114.177216,"reserved":0,"last_update":"0001-01-01T00:00:00Z","name_a2s":"Uncletopia | Hong Kong | 1 | All Maps","protocol":17,"map":"koth_harvest_final","folder":"tf","game":"Team Fortress","app_id":440,"player_count":0,"max_players":24,"Bots":0,"server_type":"Dedicated","server_os":"Linux","password":true,"vac":true,"version":"7757534","steam_id":85568392924494504,"keywords":["cp","nocrits","nodmgspread","uncletopia"],"game_id":440,"stv_port":27016,"stv_name":"Uncletopia | Hong Kong | 1 | All Maps | STV","players":null},{"server_id":1,"name":"Uncletopia | Los Angeles | 1 | All Maps","name_short":"lax-1","host":"lax-1.us.uncletopia.com","port":27015,"enabled":true,"region":"us-west","cc":"us","latitude":33.94279,"longitude":-118.41004,"reserved":0,"last_update":"0001-01-01T00:00:00Z","name_a2s":"Uncletopia | Los Angeles | 1 | All Maps","protocol":17,"map":"cp_dustbowl","folder":"tf","game":"Team Fortress","app_id":440,"player_count":0,"max_players":24,"Bots":0,"server_type":"Dedicated","server_os":"Linux","password":true,"vac":true,"version":"7757534","steam_id":85568392924469991,"keywords":["cp","nocrits","nodmgspread","uncletopia"],"game_id":440,"stv_port":27016,"stv_name":"Uncletopia | Los Angeles | 1 | All Maps | STV","players":null},{"server_id":112,"name":"Uncletopia | Los Angeles | 2 | All Maps","name_short":"lax-2","host":"lax-1.us.uncletopia.com","port":27025,"enabled":true,"region":"us-west","cc":"us","latitude":33.94279,"longitude":-118.41004,"reserved":0,"last_update":"0001-01-01T00:00:00Z","name_a2s":"Uncletopia | Los Angeles | 2 | All Maps","protocol":17,"map":"koth_cascade","folder":"tf","game":"Team Fortress","app_id":440,"player_count":0,"max_players":24,"Bots":0,"server_type":"Dedicated","server_os":"Linux","password":true,"vac":true,"version":"7757534","steam_id":85568392924469992,"keywords":["cp","nocrits","nodmgspread","uncletopia"],"game_id":440,"stv_port":27026,"stv_name":"Uncletopia | Los Angeles | 2 | All Maps | STV","players":null},{"server_id":324,"name":"Uncletopia | Los Angeles | 3 | All Maps","name_short":"lax-3","host":"lax-1.us.uncletopia.com","port":27035,"enabled":true,"region":"us-west","cc":"us","latitude":33.94279,"longitude":-118.41004,"reserved":0,"last_update":"0001-01-01T00:00:00Z","name_a2s":"Uncletopia | Los Angeles | 3 | All Maps","protocol":17,"map":"koth_cascade","folder":"tf","game":"Team Fortress","app_id":440,"player_count":0,"max_players":24,"Bots":0,"server_type":"Dedicated","server_os":"Linux","password":true,"vac":true,"version":"7757534","steam_id":85568392924510198,"keywords":["cp","nocrits","nodmgspread","uncletopia"],"game_id":440,"stv_port":27036,"stv_name":"Uncletopia | Los Angeles | 3 | All Maps | STV","players":null},{"server_id":25,"name":"Uncletopia | Los Angeles | 4 | Stopwatch Beta","name_short":"lax-4","host":"lax-1.us.uncletopia.com","port":27045,"enabled":true,"region":"us-west","cc":"us","latitude":33.94279,"longitude":-118.41004,"reserved":0,"last_update":"0001-01-01T00:00:00Z","name_a2s":"Uncletopia | Los Angeles | 4 | Stopwatch Beta","protocol":17,"map":"pl_frontier_final","folder":"tf","game":"Team Fortress","app_id":440,"player_count":0,"max_players":24,"Bots":0,"server_type":"Dedicated","server_os":"Linux","password":true,"vac":true,"version":"7757534","steam_id":85568392924510199,"keywords":["nocrits","nodmgspread","payload","uncletopia"],"game_id":440,"stv_port":27046,"stv_name":"Uncletopia | Los Angeles | 4 | Stopwatch Beta | STV","players":null},{"server_id":11,"name":"Uncletopia | London | 1 | All Maps","name_short":"lon-1","host":"lon-1.uk.uncletopia.com","port":27015,"enabled":true,"region":"eu","cc":"gb","latitude":51.509865,"longitude":-0.118092,"reserved":0,"last_update":"0001-01-01T00:00:00Z","name_a2s":"Uncletopia | London | 1 | All Maps","protocol":17,"map":"plr_bananabay","folder":"tf","game":"Team Fortress","app_id":440,"player_count":24,"max_players":24,"Bots":0,"server_type":"Dedicated","server_os":"Linux","password":true,"vac":true,"version":"7757534","steam_id":85568392924367362,"keywords":["nocrits","nodmgspread","payload","uncletopia"],"game_id":440,"stv_port":27016,"stv_name":"Uncletopia | London | 1 | All Maps | STV","players":[{"user_id":527,"name":"eoy","steam_id":76561198116511067,"connected_time":3191000000000,"state":"active","ping":97},{"user_id":536,"name":"lvl. 50 honkler","steam_id":76561198061688660,"connected_time":2812000000000,"state":"active","ping":119},{"user_id":566,"name":"Alex Jones","steam_id":76561198029367233,"connected_time":333000000000,"state":"active","ping":82},{"user_id":557,"name":"HyperBruh","steam_id":76561198867157520,"connected_time":849000000000,"state":"active","ping":154},{"user_id":567,"name":"sethlington14","steam_id":76561199438357690,"connected_time":310000000000,"state":"active","ping":55},{"user_id":555,"name":"willo","steam_id":76561198034442999,"connected_time":881000000000,"state":"active","ping":59},{"user_id":465,"name":"DoraTheExplora","steam_id":76561198059319529,"connected_time":5021000000000,"state":"active","ping":90},{"user_id":451,"name":"Moja jaja ≈°lajdraju","steam_id":76561198280390098,"connected_time":5626000000000,"state":"active","ping":88},{"user_id":379,"name":"Grillem Dafoe","steam_id":76561198306874574,"connected_time":11338000000000,"state":"active","ping":59},{"user_id":573,"name":"astra","steam_id":76561198042980579,"connected_time":97000000000,"state":"active","ping":79},{"user_id":565,"name":"Aaron","steam_id":76561197990046953,"connected_time":661000000000,"state":"active","ping":71},{"user_id":559,"name":"Audiofall","steam_id":76561198208814216,"connected_time":803000000000,"state":"active","ping":50},{"user_id":560,"name":"PK Blizzard","steam_id":76561198039836567,"connected_time":779000000000,"state":"active","ping":47},{"user_id":549,"name":"tendon","steam_id":76561198870764276,"connected_time":1047000000000,"state":"active","ping":69},{"user_id":570,"name":"lolmurphyy","steam_id":76561198143068715,"connected_time":266000000000,"state":"active","ping":35},{"user_id":551,"name":"Kris","steam_id":76561198240638652,"connected_time":1026000000000,"state":"active","ping":47},{"user_id":561,"name":"The_Jaystone","steam_id":76561198126280691,"connected_time":773000000000,"state":"active","ping":37},{"user_id":562,"name":"Antimation","steam_id":76561198125649544,"connected_time":748000000000,"state":"active","ping":48},{"user_id":540,"name":"Posho","steam_id":76561198062396436,"connected_time":1799000000000,"state":"active","ping":44},{"user_id":538,"name":"Founder","steam_id":76561198193763778,"connected_time":2426000000000,"state":"active","ping":65},{"user_id":571,"name":"foureyesfries","steam_id":76561198271831555,"connected_time":250000000000,"state":"active","ping":75},{"user_id":564,"name":"SkiTzIe","steam_id":76561198010381798,"connected_time":726000000000,"state":"active","ping":58},{"user_id":478,"name":"Nobaddy","steam_id":76561198037871007,"connected_time":4531000000000,"state":"active","ping":74},{"user_id":486,"name":"ciliorkun18","steam_id":76561198228942500,"connected_time":4293000000000,"state":"active","ping":99}]},{"server_id":114,"name":"Uncletopia | London | 2 | All Maps","name_short":"lon-2","host":"lon-1.uk.uncletopia.com","port":27025,"enabled":true,"region":"eu","cc":"gb","latitude":51.509865,"longitude":-0.118092,"reserved":0,"last_update":"0001-01-01T00:00:00Z","name_a2s":"Uncletopia | London | 2 | All Maps","protocol":17,"map":"pl_borneo","folder":"tf","game":"Team Fortress","app_id":440,"player_count":24,"max_players":24,"Bots":0,"server_type":"Dedicated","server_os":"Linux","password":true,"vac":true,"version":"7757534","steam_id":85568392924470941,"keywords":["nocrits","nodmgspread","payload","uncletopia"],"game_id":440,"stv_port":27026,"stv_name":"Uncletopia | London | 2 | All Maps | STV","players":[{"user_id":505,"name":"scantron","steam_id":76561199103959197,"connected_time":530000000000,"state":"active","ping":113},{"user_id":498,"name":"non_ai","steam_id":76561198270951938,"connected_time":1038000000000,"state":"active","ping":115},{"user_id":487,"name":"nik","steam_id":76561198210482280,"connected_time":1449000000000,"state":"active","ping":60},{"user_id":453,"name":"hellbound","steam_id":76561198160562773,"connected_time":4071000000000,"state":"active","ping":97},{"user_id":460,"name":"dorthyhy","steam_id":76561198062578399,"connected_time":3698000000000,"state":"active","ping":63},{"user_id":461,"name":"dysesthesia","steam_id":76561198027159018,"connected_time":3696000000000,"state":"active","ping":157},{"user_id":484,"name":"AWJ ÀÜ-ÀÜ","steam_id":76561198053628243,"connected_time":1603000000000,"state":"active","ping":44},{"user_id":508,"name":"gagalak","steam_id":76561198089979108,"connected_time":350000000000,"state":"active","ping":104},{"user_id":499,"name":"Lucker","steam_id":76561198079469430,"connected_time":1036000000000,"state":"active","ping":69},{"user_id":496,"name":"G6 sherlock","steam_id":76561198802967796,"connected_time":1112000000000,"state":"active","ping":119},{"user_id":489,"name":"TMC","steam_id":76561198077956157,"connected_time":1337000000000,"state":"active","ping":42},{"user_id":497,"name":"LAMC","steam_id":76561199066888917,"connected_time":1065000000000,"state":"active","ping":81},{"user_id":486,"name":"Remax5","steam_id":76561198155644993,"connected_time":1534000000000,"state":"active","ping":127},{"user_id":506,"name":"I am csgoing","steam_id":76561198267612598,"connected_time":490000000000,"state":"active","ping":92},{"user_id":500,"name":"KlevukaS‚Ñ¢","steam_id":76561198312867604,"connected_time":759000000000,"state":"active","ping":99},{"user_id":477,"name":"Drdarlekzzz","steam_id":76561198160141785,"connected_time":2205000000000,"state":"active","ping":45},{"user_id":416,"name":"Night Fury","steam_id":76561197995207032,"connected_time":6339000000000,"state":"active","ping":87},{"user_id":501,"name":"Undertaker","steam_id":76561198364121077,"connected_time":677000000000,"state":"active","ping":100},{"user_id":502,"name":"St√ºmpy","steam_id":76561198255904077,"connected_time":653000000000,"state":"active","ping":80},{"user_id":503,"name":"Mayor Wank from Wanker Town","steam_id":76561197998253588,"connected_time":610000000000,"state":"active","ping":66},{"user_id":482,"name":"Pablo","steam_id":76561198160394046,"connected_time":1768000000000,"state":"active","ping":117},{"user_id":507,"name":"ayaka","steam_id":76561198028078806,"connected_time":359000000000,"state":"active","ping":44},{"user_id":509,"name":"Bobo","steam_id":76561198052308399,"connected_time":9000000000,"state":"spawning","ping":67},{"user_id":480,"name":"Jeg","steam_id":76561198405291408,"connected_time":1979000000000,"state":"active","ping":77}]},{"server_id":320,"name":"Uncletopia | London | 3 | All Maps","name_short":"lon-3","host":"lon-1.uk.uncletopia.com","port":27035,"enabled":true,"region":"eu","cc":"gb","latitude":51.509865,"longitude":-0.118092,"reserved":0,"last_update":"0001-01-01T00:00:00Z","name_a2s":"Uncletopia | London | 3 | All Maps","protocol":17,"map":"pl_badwater","folder":"tf","game":"Team Fortress","app_id":440,"player_count":22,"max_players":24,"Bots":0,"server_type":"Dedicated","server_os":"Linux","password":true,"vac":true,"version":"7757534","steam_id":85568392924510192,"keywords":["nocrits","nodmgspread","payload","uncletopia"],"game_id":440,"stv_port":27036,"stv_name":"Uncletopia | London | 3 | All Maps | STV","players":[{"user_id":598,"name":"BASSLAU36 PLAYS TF2?","steam_id":76561198099594482,"connected_time":63000000000,"state":"spawning","ping":93},{"user_id":567,"name":"Hydro","steam_id":76561199081791855,"connected_time":1492000000000,"state":"active","ping":57},{"user_id":484,"name":"rmn","steam_id":76561198182789386,"connected_time":4224000000000,"state":"active","ping":58},{"user_id":599,"name":"BeS","steam_id":76561198045752247,"connected_time":56000000000,"state":"active","ping":66},{"user_id":537,"name":"otro 0","steam_id":76561199472138537,"connected_time":2194000000000,"state":"active","ping":60},{"user_id":575,"name":"garbage mikuknight","steam_id":76561198361819054,"connected_time":1119000000000,"state":"active","ping":112},{"user_id":547,"name":"my ray died last week","steam_id":76561198834897089,"connected_time":2040000000000,"state":"active","ping":73},{"user_id":600,"name":"Chin Crimson","steam_id":76561198271965927,"connected_time":50000000000,"state":"active","ping":70},{"user_id":601,"name":"big hoops","steam_id":76561198004703799,"connected_time":49000000000,"state":"active","ping":53},{"user_id":602,"name":"brtaba","steam_id":76561198796334790,"connected_time":45000000000,"state":"active","ping":78},{"user_id":526,"name":"Ray","steam_id":76561199471696026,"connected_time":2485000000000,"state":"active","ping":67},{"user_id":586,"name":"son rke","steam_id":76561198083827094,"connected_time":750000000000,"state":"active","ping":84},{"user_id":603,"name":"jovi_","steam_id":76561198449280552,"connected_time":41000000000,"state":"active","ping":45},{"user_id":542,"name":"zion","steam_id":76561199433913089,"connected_time":2088000000000,"state":"active","ping":90},{"user_id":534,"name":"Swayer","steam_id":76561198056192460,"connected_time":2242000000000,"state":"active","ping":59},{"user_id":604,"name":"Banehallow","steam_id":76561198020385353,"connected_time":18000000000,"state":"active","ping":88},{"user_id":535,"name":"Gerry Adams","steam_id":76561197968575924,"connected_time":2221000000000,"state":"active","ping":48},{"user_id":548,"name":"Sneaky boi","steam_id":76561199195985387,"connected_time":1940000000000,"state":"active","ping":90},{"user_id":594,"name":"the rizzard of oz","steam_id":76561198066631833,"connected_time":173000000000,"state":"active","ping":96},{"user_id":595,"name":"Krea_tor","steam_id":76561199049663197,"connected_time":148000000000,"state":"active","ping":72},{"user_id":596,"name":"Magirby","steam_id":76561198818777390,"connected_time":130000000000,"state":"active","ping":103},{"user_id":597,"name":"P Diddy","steam_id":76561198829344838,"connected_time":129000000000,"state":"active","ping":58}]},{"server_id":321,"name":"Uncletopia | London | 4 | All Maps","name_short":"lon-4","host":"lon-1.uk.uncletopia.com","port":27045,"enabled":true,"region":"eu","cc":"gb","latitude":51.509865,"longitude":-0.118092,"reserved":0,"last_update":"0001-01-01T00:00:00Z","name_a2s":"Uncletopia | London | 4 | All Maps","protocol":17,"map":"pl_pier","folder":"tf","game":"Team Fortress","app_id":440,"player_count":23,"max_players":24,"Bots":0,"server_type":"Dedicated","server_os":"Linux","password":true,"vac":true,"version":"7757534","steam_id":85568392924510193,"keywords":["nocrits","nodmgspread","payload","uncletopia"],"game_id":440,"stv_port":27046,"stv_name":"Uncletopia | London | 4 | All Maps | STV","players":[{"user_id":172,"name":"Uncle Terry","steam_id":76561198396415736,"connected_time":1712000000000,"state":"active","ping":50},{"user_id":149,"name":"Uncle Owen","steam_id":76561198157999291,"connected_time":2951000000000,"state":"active","ping":91},{"user_id":180,"name":"‚ôîapple","steam_id":76561198116932635,"connected_time":856000000000,"state":"active","ping":47},{"user_id":189,"name":"there is no Fred","steam_id":76561198045505082,"connected_time":489000000000,"state":"active","ping":90},{"user_id":175,"name":"jankomit","steam_id":76561198043024857,"connected_time":1403000000000,"state":"active","ping":104},{"user_id":147,"name":"‚ôöjar","steam_id":76561198156384007,"connected_time":3109000000000,"state":"active","ping":47},{"user_id":192,"name":"joni","steam_id":76561198413766717,"connected_time":48000000000,"state":"active","ping":170},{"user_id":187,"name":"WolfmanCZ","steam_id":76561199157141414,"connected_time":563000000000,"state":"active","ping":82},{"user_id":183,"name":"KillerQueen (he/they/she)","steam_id":76561199019399725,"connected_time":822000000000,"state":"active","ping":52},{"user_id":194,"name":"Manslayer","steam_id":76561198063956707,"connected_time":0,"state":"spawning","ping":19},{"user_id":177,"name":"Codex","steam_id":76561198068748584,"connected_time":1081000000000,"state":"active","ping":82},{"user_id":130,"name":"Not Friends","steam_id":76561198043775605,"connected_time":3942000000000,"state":"active","ping":99},{"user_id":184,"name":"Wardruna96","steam_id":76561199057083828,"connected_time":802000000000,"state":"active","ping":75},{"user_id":154,"name":"VibeCheck","steam_id":76561198425961218,"connected_time":2826000000000,"state":"active","ping":115},{"user_id":164,"name":"SilverSV","steam_id":76561198164579830,"connected_time":2604000000000,"state":"active","ping":51},{"user_id":155,"name":"Liten Jaevel","steam_id":76561198215876044,"connected_time":2816000000000,"state":"active","ping":126},{"user_id":185,"name":"DrExplosive","steam_id":76561198063678579,"connected_time":791000000000,"state":"active","ping":33},{"user_id":179,"name":"soda","steam_id":76561198202990635,"connected_time":997000000000,"state":"active","ping":77},{"user_id":161,"name":"Rubi","steam_id":76561198139410003,"connected_time":2649000000000,"state":"active","ping":91},{"user_id":90,"name":":)","steam_id":76561198039964082,"connected_time":7783000000000,"state":"active","ping":63},{"user_id":103,"name":"Tort","steam_id":76561198329646769,"connected_time":6677000000000,"state":"active","ping":52},{"user_id":93,"name":"0xDEADBEEF","steam_id":76561199075416111,"connected_time":7304000000000,"state":"active","ping":75},{"user_id":162,"name":"‚ò© Knightz ‚ò©","steam_id":76561198040936414,"connected_time":2644000000000,"state":"active","ping":114}]},{"server_id":21,"name":"Uncletopia | London | 5 | All Maps","name_short":"lon-5","host":"lon-1.uk.uncletopia.com","port":27055,"enabled":true,"region":"eu","cc":"gb","latitude":51.509865,"longitude":-0.118092,"reserved":0,"last_update":"0001-01-01T00:00:00Z","name_a2s":"Uncletopia | London | 5 | All Maps","protocol":17,"map":"koth_lakeside_final","folder":"tf","game":"Team Fortress","app_id":440,"player_count":4,"max_players":24,"Bots":0,"server_type":"Dedicated","server_os":"Linux","password":true,"vac":true,"version":"7757534","steam_id":85568392924742829,"keywords":["cp","nocrits","nodmgspread","uncletopia"],"game_id":440,"stv_port":27056,"stv_name":"Uncletopia | London | 5 | All Maps | STV","players":[{"user_id":20,"name":"ran is running","steam_id":76561199443185667,"connected_time":1186000000000,"state":"active","ping":148},{"user_id":21,"name":"justin_ (f2p) (real)","steam_id":76561198839843428,"connected_time":1077000000000,"state":"active","ping":142},{"user_id":22,"name":"pathetic ham sniper","steam_id":76561199143951435,"connected_time":975000000000,"state":"active","ping":232},{"user_id":23,"name":"gugu gaga warrior","steam_id":76561199088915605,"connected_time":794000000000,"state":"active","ping":83}]},{"server_id":22,"name":"Uncletopia | London | 6 | All Maps","name_short":"lon-6","host":"lon-1.uk.uncletopia.com","port":27065,"enabled":true,"region":"eu","cc":"gb","latitude":51.509865,"longitude":-0.118092,"reserved":0,"last_update":"0001-01-01T00:00:00Z","name_a2s":"Uncletopia | London | 6 | All Maps","protocol":17,"map":"koth_viaduct","folder":"tf","game":"Team Fortress","app_id":440,"player_count":0,"max_players":24,"Bots":0,"server_type":"Dedicated","server_os":"Linux","password":true,"vac":true,"version":"7757534","steam_id":85568392924742830,"keywords":["cp","nocrits","nodmgspread","uncletopia"],"game_id":440,"stv_port":27066,"stv_name":"Uncletopia | London | 6 | All Maps | STV","players":null},{"server_id":40,"name":"Uncletopia | London | 7 | No Payload","name_short":"lon-7","host":"lon-1.uk.uncletopia.com","port":27075,"enabled":true,"region":"eu","cc":"gb","latitude":51.509865,"longitude":-0.118092,"reserved":0,"last_update":"0001-01-01T00:00:00Z","name_a2s":"Uncletopia | London | 7 | No Payload","protocol":17,"map":"cp_mountainlab","folder":"tf","game":"Team Fortress","app_id":440,"player_count":23,"max_players":24,"Bots":0,"server_type":"Dedicated","server_os":"Linux","password":true,"vac":true,"version":"7757534","steam_id":85568392924964314,"keywords":["cp","nocrits","nodmgspread","uncletopia"],"game_id":440,"stv_port":27076,"stv_name":"Uncletopia | London | 7 | No Payload | STV","players":[{"user_id":50,"name":"fried","steam_id":76561198307522022,"connected_time":5493000000000,"state":"active","ping":49},{"user_id":96,"name":"GMsU | Rebikas","steam_id":76561198077053764,"connected_time":168000000000,"state":"active","ping":59},{"user_id":61,"name":"Nerfan20 #SaveTF2","steam_id":76561198227391788,"connected_time":2448000000000,"state":"active","ping":90},{"user_id":97,"name":"—á–∏–∫–∏–ø–∏–∫–∏–ø—É–∫—É—Ä–∞–∫\ufffd","steam_id":76561198277351789,"connected_time":111000000000,"state":"active","ping":105},{"user_id":62,"name":"Hruon Nordhorn","steam_id":76561198086125014,"connected_time":2423000000000,"state":"active","ping":101},{"user_id":63,"name":"–ü–∞—Å–∫—É–¥–µ—Ä","steam_id":76561199002864030,"connected_time":2409000000000,"state":"active","ping":103},{"user_id":64,"name":"–†—ç–ø—Ç–∏–ª–∏—è","steam_id":76561198258401816,"connected_time":2389000000000,"state":"active","ping":97},{"user_id":65,"name":"Dr. PeePee","steam_id":76561198024506307,"connected_time":2361000000000,"state":"active","ping":104},{"user_id":89,"name":"0","steam_id":76561198047648913,"connected_time":657000000000,"state":"active","ping":105},{"user_id":83,"name":"Techm32","steam_id":76561198317134994,"connected_time":1073000000000,"state":"active","ping":70},{"user_id":98,"name":"bob0rutin","steam_id":76561198010760312,"connected_time":99000000000,"state":"active","ping":75},{"user_id":99,"name":"PluNgBe #SaveTF2","steam_id":76561198131100420,"connected_time":94000000000,"state":"active","ping":58},{"user_id":79,"name":"GMsU | Smiley","steam_id":76561198121494414,"connected_time":1138000000000,"state":"active","ping":96},{"user_id":71,"name":"moonsurface","steam_id":76561198370493860,"connected_time":1589000000000,"state":"active","ping":104},{"user_id":101,"name":"Sheerluck Holmes","steam_id":76561198051161936,"connected_time":66000000000,"state":"active","ping":52},{"user_id":102,"name":"Nanitus","steam_id":76561198241772340,"connected_time":60000000000,"state":"active","ping":121},{"user_id":80,"name":"GMsU | AuxiliusM","steam_id":76561198071903356,"connected_time":1137000000000,"state":"active","ping":59},{"user_id":105,"name":"Alfred Schroom","steam_id":76561198117990411,"connected_time":50000000000,"state":"active","ping":107},{"user_id":82,"name":"FUKAYU","steam_id":76561198380484033,"connected_time":1100000000000,"state":"active","ping":59},{"user_id":104,"name":"Approximately 3.5 eaten HobNobs","steam_id":76561198026519426,"connected_time":52000000000,"state":"active","ping":47},{"user_id":87,"name":"Strangeguy","steam_id":76561198402377829,"connected_time":820000000000,"state":"active","ping":64},{"user_id":93,"name":"GoCommitGibby","steam_id":76561198853933595,"connected_time":419000000000,"state":"active","ping":90},{"user_id":95,"name":"Orth√´nar","steam_id":76561198389203347,"connected_time":288000000000,"state":"active","ping":103}]},{"server_id":41,"name":"Uncletopia | London | 8 | Community","name_short":"lon-8","host":"lon-1.uk.uncletopia.com","port":27085,"enabled":true,"region":"eu","cc":"gb","latitude":51.509865,"longitude":-0.118092,"reserved":0,"last_update":"0001-01-01T00:00:00Z","name_a2s":"Uncletopia | London | 8 | Community","protocol":17,"map":"workshop/koth_bagel_rc5.ugc2514036946","folder":"tf","game":"Team Fortress","app_id":440,"player_count":1,"max_players":24,"Bots":0,"server_type":"Dedicated","server_os":"Linux","password":true,"vac":true,"version":"7757534","steam_id":85568392924964315,"keywords":["cp","nocrits","nodmgspread","uncletopia"],"game_id":440,"stv_port":27086,"stv_name":"Uncletopia | London | 8 | Community | STV","players":[{"user_id":302,"name":"quarterlome000","steam_id":76561199229700757,"connected_time":785000000000,"state":"active","ping":159}]},{"server_id":300,"name":"Uncletopia | Montr√©al | 1 | All Maps","name_short":"mtl-1","host":"mtl-1.ca.uncletopia.com","port":27015,"enabled":true,"region":"us-east","cc":"ca","latitude":45.50889,"longitude":-73.56167,"reserved":0,"last_update":"0001-01-01T00:00:00Z","name_a2s":"Uncletopia | Montr√©al | 1 | All Maps","protocol":17,"map":"pl_snowycoast","folder":"tf","game":"Team Fortress","app_id":440,"player_count":0,"max_players":24,"Bots":0,"server_type":"Dedicated","server_os":"Linux","password":true,"vac":true,"version":"7757534","steam_id":85568392924500087,"keywords":["nocrits","nodmgspread","payload","uncletopia"],"game_id":440,"stv_port":27016,"stv_name":"Uncletopia | Montr√©al | 1 | All Maps | STV","players":null},{"server_id":301,"name":"Uncletopia | Montr√©al | 2 | All Maps","name_short":"mtl-2","host":"mtl-1.ca.uncletopia.com","port":27025,"enabled":true,"region":"us-east","cc":"ca","latitude":45.50889,"longitude":-73.56167,"reserved":0,"last_update":"0001-01-01T00:00:00Z","name_a2s":"Uncletopia | Montr√©al | 2 | All Maps","protocol":17,"map":"pl_snowycoast","folder":"tf","game":"Team Fortress","app_id":440,"player_count":0,"max_players":24,"Bots":0,"server_type":"Dedicated","server_os":"Linux","password":true,"vac":true,"version":"7757534","steam_id":85568392924500088,"keywords":["nocrits","nodmgspread","payload","uncletopia"],"game_id":440,"stv_port":27026,"stv_name":"Uncletopia | Montr√©al | 2 | All Maps | STV","players":null},{"server_id":302,"name":"Uncletopia | Montr√©al | 3 | All Maps","name_short":"mtl-3","host":"mtl-1.ca.uncletopia.com","port":27035,"enabled":true,"region":"us-east","cc":"ca","latitude":45.50889,"longitude":-73.56167,"reserved":0,"last_update":"0001-01-01T00:00:00Z","name_a2s":"Uncletopia | Montr√©al | 3 | All Maps","protocol":17,"map":"cp_dustbowl","folder":"tf","game":"Team Fortress","app_id":440,"player_count":0,"max_players":24,"Bots":0,"server_type":"Dedicated","server_os":"Linux","password":true,"vac":true,"version":"7757534","steam_id":85568392924500089,"keywords":["cp","nocrits","nodmgspread","uncletopia"],"game_id":440,"stv_port":27036,"stv_name":"Uncletopia | Montr√©al | 3 | All Maps | STV","players":null},{"server_id":303,"name":"Uncletopia | Montr√©al | 4 | No Payload","name_short":"mtl-4","host":"mtl-1.ca.uncletopia.com","port":27045,"enabled":true,"region":"us-east","cc":"ca","latitude":45.50889,"longitude":-73.56167,"reserved":0,"last_update":"0001-01-01T00:00:00Z","name_a2s":"Uncletopia | Montr√©al | 4 | No Payload","protocol":17,"map":"pl_borneo","folder":"tf","game":"Team Fortress","app_id":440,"player_count":0,"max_players":24,"Bots":0,"server_type":"Dedicated","server_os":"Linux","password":true,"vac":true,"version":"7757534","steam_id":85568392924500090,"keywords":["nocrits","nodmgspread","payload","uncletopia"],"game_id":440,"stv_port":27046,"stv_name":"Uncletopia | Montr√©al | 4 | No Payload | STV","players":null},{"server_id":13,"name":"Uncletopia | New York City | 1 | All Maps","name_short":"nyc-1","host":"nyc-1.us.uncletopia.com","port":27015,"enabled":true,"region":"us-east","cc":"us","latitude":40.73061,"longitude":-73.93524,"reserved":0,"last_update":"0001-01-01T00:00:00Z","name_a2s":"Uncletopia | New York City | 1 | All Maps","protocol":17,"map":"pl_badwater","folder":"tf","game":"Team Fortress","app_id":440,"player_count":24,"max_players":24,"Bots":0,"server_type":"Dedicated","server_os":"Linux","password":true,"vac":true,"version":"7757534","steam_id":85568392924469993,"keywords":["nocrits","nodmgspread","payload","uncletopia"],"game_id":440,"stv_port":27016,"stv_name":"Uncletopia | New York City | 1 | All Maps | STV","players":[{"user_id":167,"name":"Frank","steam_id":76561198261851104,"connected_time":2082000000000,"state":"active","ping":82},{"user_id":169,"name":"Spirit","steam_id":76561199069322627,"connected_time":2067000000000,"state":"active","ping":59},{"user_id":186,"name":"Mister Mundy","steam_id":76561198145675134,"connected_time":6000000000,"state":"spawning","ping":82},{"user_id":149,"name":"tatanv0406","steam_id":76561198842954039,"connected_time":3470000000000,"state":"active","ping":151},{"user_id":161,"name":"Pickle Chips","steam_id":76561198271951504,"connected_time":2760000000000,"state":"active","ping":57},{"user_id":180,"name":"Kasane","steam_id":76561198209006780,"connected_time":453000000000,"state":"active","ping":85},{"user_id":166,"name":"uVeins","steam_id":76561198067445528,"connected_time":2377000000000,"state":"active","ping":46},{"user_id":171,"name":"t h e n a","steam_id":76561198169736062,"connected_time":2047000000000,"state":"active","ping":101},{"user_id":181,"name":"Bird","steam_id":76561198247484514,"connected_time":428000000000,"state":"active","ping":65},{"user_id":126,"name":"Nic0","steam_id":76561198305690218,"connected_time":4841000000000,"state":"active","ping":56},{"user_id":187,"name":"lofileBOOYAH :)","steam_id":76561198083798918,"connected_time":0,"state":"spawning","ping":14},{"user_id":158,"name":"sex","steam_id":76561198198787713,"connected_time":2806000000000,"state":"active","ping":58},{"user_id":184,"name":"pdse","steam_id":76561198072897202,"connected_time":301000000000,"state":"active","ping":75},{"user_id":148,"name":"AER0.exe","steam_id":76561198062940197,"connected_time":3473000000000,"state":"active","ping":61},{"user_id":179,"name":"Rappitor","steam_id":76561198105613110,"connected_time":672000000000,"state":"active","ping":72},{"user_id":151,"name":"beans","steam_id":76561199132406388,"connected_time":3252000000000,"state":"active","ping":134},{"user_id":152,"name":"Professor 'Iggins","steam_id":76561198064448905,"connected_time":3220000000000,"state":"active","ping":74},{"user_id":185,"name":"starfungus","steam_id":76561198158312789,"connected_time":288000000000,"state":"active","ping":66},{"user_id":99,"name":"FreonAddict9x19","steam_id":76561198060010824,"connected_time":7262000000000,"state":"active","ping":62},{"user_id":164,"name":"Silva Baq","steam_id":76561198025445281,"connected_time":2457000000000,"state":"active","ping":44},{"user_id":177,"name":"Female Gamer","steam_id":76561199366482682,"connected_time":1473000000000,"state":"active","ping":115},{"user_id":178,"name":"blobb","steam_id":76561198950448488,"connected_time":1319000000000,"state":"active","ping":62},{"user_id":156,"name":"MILF Gaming","steam_id":76561198155378170,"connected_time":2973000000000,"state":"active","ping":59},{"user_id":165,"name":"Basil","steam_id":76561198305988335,"connected_time":2429000000000,"state":"active","ping":55}]},{"server_id":14,"name":"Uncletopia | New York City | 2 | All Maps","name_short":"nyc-2","host":"nyc-1.us.uncletopia.com","port":27025,"enabled":true,"region":"us-east","cc":"us","latitude":40.73061,"longitude":-73.93524,"reserved":0,"last_update":"0001-01-01T00:00:00Z","name_a2s":"Uncletopia | New York City | 2 | All Maps","protocol":17,"map":"koth_viaduct","folder":"tf","game":"Team Fortress","app_id":440,"player_count":0,"max_players":24,"Bots":0,"server_type":"Dedicated","server_os":"Linux","password":true,"vac":true,"version":"7757534","steam_id":85568392924469994,"keywords":["cp","nocrits","nodmgspread","uncletopia"],"game_id":440,"stv_port":27026,"stv_name":"Uncletopia | New York City | 2 | All Maps | STV","players":null},{"server_id":15,"name":"Uncletopia | New York City | 3 | Stopwatch Beta","name_short":"nyc-3","host":"nyc-1.us.uncletopia.com","port":27035,"enabled":true,"region":"us-east","cc":"us","latitude":40.73061,"longitude":-73.93524,"reserved":0,"last_update":"0001-01-01T00:00:00Z","name_a2s":"Uncletopia | New York City | 3 | Stopwatch Beta","protocol":17,"map":"cp_mountainlab","folder":"tf","game":"Team Fortress","app_id":440,"player_count":0,"max_players":24,"Bots":0,"server_type":"Dedicated","server_os":"Linux","password":true,"vac":true,"version":"7757534","steam_id":85568392924742820,"keywords":["cp","nocrits","nodmgspread","uncletopia"],"game_id":440,"stv_port":27036,"stv_name":"Uncletopia | New York City | 3 | Stopwatch Beta | STV","players":null},{"server_id":16,"name":"Uncletopia | New York City | 4 | Community","name_short":"nyc-4","host":"nyc-1.us.uncletopia.com","port":27045,"enabled":true,"region":"us-east","cc":"us","latitude":40.73061,"longitude":-73.93524,"reserved":0,"last_update":"0001-01-01T00:00:00Z","name_a2s":"Uncletopia | New York City | 4 | Community","protocol":17,"map":"workshop/cp_glacier_rc6.ugc2905735376","folder":"tf","game":"Team Fortress","app_id":440,"player_count":0,"max_players":24,"Bots":0,"server_type":"Dedicated","server_os":"Linux","password":true,"vac":true,"version":"7757534","steam_id":85568392924742821,"keywords":["cp","nocrits","nodmgspread","uncletopia"],"game_id":440,"stv_port":27046,"stv_name":"Uncletopia | New York City | 4 | Community | STV","players":null},{"server_id":142,"name":"Uncletopia | S√£o Paulo | 1 | All Maps","name_short":"sao-1","host":"sao-1.br.uncletopia.com","port":27015,"enabled":true,"region":"sa","cc":"br","latitude":-23.533773,"longitude":-46.62529,"reserved":0,"last_update":"0001-01-01T00:00:00Z","name_a2s":"Uncletopia | S√£o Paulo | 1 | All Maps","protocol":17,"map":"koth_highpass","folder":"tf","game":"Team Fortress","app_id":440,"player_count":0,"max_players":24,"Bots":0,"server_type":"Dedicated","server_os":"Linux","password":true,"vac":true,"version":"7757534","steam_id":85568392924469996,"keywords":["cp","nocrits","nodmgspread","uncletopia"],"game_id":440,"stv_port":27016,"stv_name":"Uncletopia | S√£o Paulo | 1 | All Maps | STV","players":null},{"server_id":143,"name":"Uncletopia | S√£o Paulo | 2 | All Maps","name_short":"sao-2","host":"sao-2.br.uncletopia.com","port":27015,"enabled":true,"region":"sa","cc":"br","latitude":-23.533773,"longitude":-46.62529,"reserved":0,"last_update":"0001-01-01T00:00:00Z","name_a2s":"Uncletopia | S√£o Paulo | 2 | All Maps","protocol":17,"map":"pl_snowycoast","folder":"tf","game":"Team Fortress","app_id":440,"player_count":0,"max_players":24,"Bots":0,"server_type":"Dedicated","server_os":"Linux","password":true,"vac":true,"version":"7757534","steam_id":85568392924485349,"keywords":["nocrits","nodmgspread","payload","uncletopia"],"game_id":440,"stv_port":27016,"stv_name":"Uncletopia | S√£o Paulo | 2 | All Maps | STV","players":null},{"server_id":7,"name":"Uncletopia | Seattle | 1 | All Maps","name_short":"sea-1","host":"sea-1.us.uncletopia.com","port":27015,"enabled":true,"region":"us-west","cc":"us","latitude":47.608013,"longitude":-122.33517,"reserved":0,"last_update":"0001-01-01T00:00:00Z","name_a2s":"Uncletopia | Seattle | 1 | All Maps","protocol":17,"map":"cp_dustbowl","folder":"tf","game":"Team Fortress","app_id":440,"player_count":24,"max_players":24,"Bots":0,"server_type":"Dedicated","server_os":"Linux","password":true,"vac":true,"version":"7757534","steam_id":85568392924469997,"keywords":["cp","nocrits","nodmgspread","uncletopia"],"game_id":440,"stv_port":27016,"stv_name":"Uncletopia | Seattle | 1 | All Maps | STV","players":[{"user_id":152,"name":"„Ä£dust„Ä£ -she/her-","steam_id":76561198045218909,"connected_time":5168000000000,"state":"active","ping":38},{"user_id":205,"name":"Oktayey","steam_id":76561198143213426,"connected_time":1038000000000,"state":"active","ping":63},{"user_id":198,"name":"8core","steam_id":76561198131163454,"connected_time":1708000000000,"state":"active","ping":78},{"user_id":221,"name":"pathetic NEET","steam_id":76561198325306660,"connected_time":20000000000,"state":"spawning","ping":46},{"user_id":206,"name":"Nathang238","steam_id":76561199190787886,"connected_time":1030000000000,"state":"active","ping":101},{"user_id":220,"name":"Wake up remember","steam_id":76561198217229039,"connected_time":69000000000,"state":"active","ping":55},{"user_id":207,"name":"manbearswineflu","steam_id":76561198083945137,"connected_time":1005000000000,"state":"active","ping":104},{"user_id":209,"name":"Cricket Girl!","steam_id":76561198838054669,"connected_time":981000000000,"state":"active","ping":122},{"user_id":197,"name":"[TrC] Dackstrus","steam_id":76561197973518509,"connected_time":1741000000000,"state":"active","ping":53},{"user_id":171,"name":"Dad 2","steam_id":76561198138546187,"connected_time":3417000000000,"state":"active","ping":137},{"user_id":128,"name":"hoOmIN","steam_id":76561198334947079,"connected_time":9153000000000,"state":"active","ping":66},{"user_id":191,"name":"Peppy","steam_id":76561198866629645,"connected_time":2190000000000,"state":"active","ping":56},{"user_id":210,"name":"Nelson Your F2p Friend","steam_id":76561198850327678,"connected_time":924000000000,"state":"active","ping":149},{"user_id":211,"name":"mp3dotjpg","steam_id":76561199086931196,"connected_time":913000000000,"state":"active","ping":110},{"user_id":212,"name":"compulsive","steam_id":76561198212421513,"connected_time":858000000000,"state":"active","ping":76},{"user_id":213,"name":"Gordon From White Castle (real)","steam_id":76561198364172677,"connected_time":853000000000,"state":"active","ping":132},{"user_id":214,"name":"parrot1002924","steam_id":76561199443882275,"connected_time":836000000000,"state":"active","ping":64},{"user_id":215,"name":"Froggy Chair Enjoyer","steam_id":76561198844727250,"connected_time":816000000000,"state":"active","ping":89},{"user_id":193,"name":"Backside540","steam_id":76561197960602545,"connected_time":2161000000000,"state":"active","ping":99},{"user_id":216,"name":"rlty","steam_id":76561198009395055,"connected_time":812000000000,"state":"active","ping":120},{"user_id":184,"name":"me","steam_id":76561199468285784,"connected_time":3078000000000,"state":"active","ping":60},{"user_id":182,"name":"oo","steam_id":76561198119626492,"connected_time":3180000000000,"state":"active","ping":78},{"user_id":130,"name":"Suu Hung","steam_id":76561198036218766,"connected_time":8243000000000,"state":"active","ping":67},{"user_id":219,"name":"Dimple","steam_id":76561198980324190,"connected_time":501000000000,"state":"active","ping":49}]},{"server_id":119,"name":"Uncletopia | Seattle | 2 | All Maps","name_short":"sea-2","host":"sea-1.us.uncletopia.com","port":27025,"enabled":true,"region":"us-west","cc":"us","latitude":47.608013,"longitude":-122.33517,"reserved":0,"last_update":"0001-01-01T00:00:00Z","name_a2s":"Uncletopia | Seattle | 2 | All Maps","protocol":17,"map":"cp_fastlane","folder":"tf","game":"Team Fortress","app_id":440,"player_count":22,"max_players":24,"Bots":0,"server_type":"Dedicated","server_os":"Linux","password":true,"vac":true,"version":"7757534","steam_id":85568392924469998,"keywords":["cp","nocrits","nodmgspread","uncletopia"],"game_id":440,"stv_port":27026,"stv_name":"Uncletopia | Seattle | 2 | All Maps | STV","players":[{"user_id":12,"name":"BoX_hEaD101","steam_id":76561198200875467,"connected_time":4160000000000,"state":"active","ping":94},{"user_id":23,"name":"‡ºò ‚ãÜÀöüéßCaffeine‚òï*Àñ¬∞","steam_id":76561199259309294,"connected_time":2538000000000,"state":"active","ping":128},{"user_id":24,"name":"KFC‚ò≠","steam_id":76561199206815320,"connected_time":2496000000000,"state":"active","ping":78},{"user_id":69,"name":"julien","steam_id":76561198120898029,"connected_time":279000000000,"state":"active","ping":89},{"user_id":71,"name":"hotdogs in paris","steam_id":76561198046073848,"connected_time":235000000000,"state":"active","ping":45},{"user_id":16,"name":"Nibotshooter","steam_id":76561199284825579,"connected_time":3681000000000,"state":"active","ping":95},{"user_id":22,"name":"Belmore","steam_id":76561198009355231,"connected_time":2697000000000,"state":"active","ping":74},{"user_id":25,"name":"ApplesMate","steam_id":76561198832763278,"connected_time":2422000000000,"state":"active","ping":89},{"user_id":26,"name":"zeplos24","steam_id":76561198803486113,"connected_time":2378000000000,"state":"active","ping":102},{"user_id":61,"name":"soda pop","steam_id":76561199403530076,"connected_time":759000000000,"state":"active","ping":90},{"user_id":29,"name":"Ser Bong - Gentlemen Bandit","steam_id":76561197967964278,"connected_time":2138000000000,"state":"active","ping":124},{"user_id":62,"name":"Surly Joe","steam_id":76561199150833796,"connected_time":602000000000,"state":"active","ping":91},{"user_id":44,"name":"Also UbeR","steam_id":76561198166926843,"connected_time":1721000000000,"state":"active","ping":75},{"user_id":73,"name":"HideOnTate","steam_id":76561198209880837,"connected_time":25000000000,"state":"active","ping":45},{"user_id":50,"name":"Biznickel","steam_id":76561199422511230,"connected_time":1620000000000,"state":"active","ping":53},{"user_id":35,"name":"Knocc","steam_id":76561198034659636,"connected_time":2058000000000,"state":"active","ping":64},{"user_id":46,"name":"Spooky","steam_id":76561198030817605,"connected_time":1703000000000,"state":"active","ping":30},{"user_id":65,"name":"john","steam_id":76561198850447852,"connected_time":545000000000,"state":"active","ping":82},{"user_id":66,"name":"help the dude","steam_id":76561199227905172,"connected_time":544000000000,"state":"active","ping":111},{"user_id":70,"name":"toodles","steam_id":76561198025463883,"connected_time":246000000000,"state":"active","ping":54},{"user_id":59,"name":"albert jones","steam_id":76561198404271005,"connected_time":832000000000,"state":"active","ping":86},{"user_id":54,"name":"predinator850","steam_id":76561199392085652,"connected_time":1542000000000,"state":"active","ping":128}]},{"server_id":406,"name":"Uncletopia | Seattle | 3 | Stopwatch Beta","name_short":"sea-3","host":"sea-1.us.uncletopia.com","port":27035,"enabled":true,"region":"us-west","cc":"us","latitude":47.608013,"longitude":-122.33517,"reserved":0,"last_update":"0001-01-01T00:00:00Z","name_a2s":"Uncletopia | Seattle | 3 | Stopwatch Beta","protocol":17,"map":"pl_barnblitz","folder":"tf","game":"Team Fortress","app_id":440,"player_count":0,"max_players":24,"Bots":0,"server_type":"Dedicated","server_os":"Linux","password":true,"vac":true,"version":"7757534","steam_id":85568392924515217,"keywords":["nocrits","nodmgspread","payload","uncletopia"],"game_id":440,"stv_port":27036,"stv_name":"Uncletopia | Seattle | 3 | Stopwatch Beta | STV","players":null},{"server_id":17,"name":"Uncletopia | San Francisco | 1 | All Maps","name_short":"sfo-1","host":"sfo-1.us.uncletopia.com","port":27015,"enabled":true,"region":"us-west","cc":"us","latitude":37.77397,"longitude":-122.4313,"reserved":0,"last_update":"0001-01-01T00:00:00Z","name_a2s":"Uncletopia | San Francisco | 1 | All Maps","protocol":17,"map":"pl_snowycoast","folder":"tf","game":"Team Fortress","app_id":440,"player_count":0,"max_players":24,"Bots":0,"server_type":"Dedicated","server_os":"Linux","password":true,"vac":true,"version":"7757534","steam_id":85568392924469999,"keywords":["nocrits","nodmgspread","payload","uncletopia"],"game_id":440,"stv_port":27016,"stv_name":"Uncletopia | San Francisco | 1 | All Maps | STV","players":null},{"server_id":18,"name":"Uncletopia | San Francisco | 2 | All Maps","name_short":"sfo-2","host":"sfo-1.us.uncletopia.com","port":27025,"enabled":true,"region":"us-west","cc":"us","latitude":37.77397,"longitude":-122.4313,"reserved":0,"last_update":"0001-01-01T00:00:00Z","name_a2s":"Uncletopia | San Francisco | 2 | All Maps","protocol":17,"map":"koth_highpass","folder":"tf","game":"Team Fortress","app_id":440,"player_count":0,"max_players":24,"Bots":0,"server_type":"Dedicated","server_os":"Linux","password":true,"vac":true,"version":"7757534","steam_id":85568392924470000,"keywords":["cp","nocrits","nodmgspread","uncletopia"],"game_id":440,"stv_port":27026,"stv_name":"Uncletopia | San Francisco | 2 | All Maps | STV","players":null},{"server_id":19,"name":"Uncletopia | San Francisco | 3 | Stopwatch Beta","name_short":"sfo-3","host":"sfo-1.us.uncletopia.com","port":27035,"enabled":true,"region":"us-west","cc":"us","latitude":37.77397,"longitude":-122.4313,"reserved":0,"last_update":"0001-01-01T00:00:00Z","name_a2s":"Uncletopia | San Francisco | 3 | Stopwatch Beta","protocol":17,"map":"pl_borneo","folder":"tf","game":"Team Fortress","app_id":440,"player_count":0,"max_players":24,"Bots":0,"server_type":"Dedicated","server_os":"Linux","password":true,"vac":true,"version":"7757534","steam_id":85568392924742824,"keywords":["nocrits","nodmgspread","payload","uncletopia"],"game_id":440,"stv_port":27036,"stv_name":"Uncletopia | San Francisco | 3 | Stopwatch Beta | STV","players":null},{"server_id":20,"name":"Uncletopia | San Francisco | 4 | Community","name_short":"sfo-4","host":"sfo-1.us.uncletopia.com","port":27045,"enabled":true,"region":"us-west","cc":"us","latitude":37.77397,"longitude":-122.4313,"reserved":0,"last_update":"0001-01-01T00:00:00Z","name_a2s":"Uncletopia | San Francisco | 4 | Community","protocol":17,"map":"koth_highpass","folder":"tf","game":"Team Fortress","app_id":440,"player_count":0,"max_players":24,"Bots":0,"server_type":"Dedicated","server_os":"Linux","password":true,"vac":true,"version":"7757534","steam_id":85568392924742826,"keywords":["cp","nocrits","nodmgspread","uncletopia"],"game_id":440,"stv_port":27046,"stv_name":"Uncletopia | San Francisco | 4 | Community | STV","players":null},{"server_id":141,"name":"Uncletopia | Sydney | 1 | All Maps","name_short":"syd-1","host":"syd-1.au.uncletopia.com","port":27015,"enabled":true,"region":"au","cc":"au","latitude":-33.865143,"longitude":151.2099,"reserved":0,"last_update":"0001-01-01T00:00:00Z","name_a2s":"Uncletopia | Sydney | 1 | All Maps","protocol":17,"map":"pl_borneo","folder":"tf","game":"Team Fortress","app_id":440,"player_count":0,"max_players":24,"Bots":0,"server_type":"Dedicated","server_os":"Linux","password":true,"vac":true,"version":"7757534","steam_id":85568392924470001,"keywords":["nocrits","nodmgspread","payload","uncletopia"],"game_id":440,"stv_port":27016,"stv_name":"Uncletopia | Sydney | 1 | All Maps | STV","players":null},{"server_id":123,"name":"Uncletopia | Sydney | 2 | All Maps","name_short":"syd-2","host":"syd-1.au.uncletopia.com","port":27025,"enabled":true,"region":"au","cc":"au","latitude":-33.865143,"longitude":151.2099,"reserved":0,"last_update":"0001-01-01T00:00:00Z","name_a2s":"Uncletopia | Sydney | 2 | All Maps","protocol":17,"map":"cp_altitude","folder":"tf","game":"Team Fortress","app_id":440,"player_count":0,"max_players":24,"Bots":0,"server_type":"Dedicated","server_os":"Linux","password":true,"vac":true,"version":"7757534","steam_id":85568392924470002,"keywords":["cp","nocrits","nodmgspread","uncletopia"],"game_id":440,"stv_port":27026,"stv_name":"Uncletopia | Sydney | 2 | All Maps | STV","players":null},{"server_id":395,"name":"Uncletopia | Sydney | 3 | All Maps","name_short":"syd-3","host":"syd-1.au.uncletopia.com","port":27035,"enabled":true,"region":"au","cc":"au","latitude":-33.865143,"longitude":151.2099,"reserved":0,"last_update":"0001-01-01T00:00:00Z","name_a2s":"Uncletopia | Sydney | 3 | All Maps","protocol":17,"map":"koth_cascade","folder":"tf","game":"Team Fortress","app_id":440,"player_count":0,"max_players":24,"Bots":0,"server_type":"Dedicated","server_os":"Linux","password":true,"vac":true,"version":"7757534","steam_id":85568392925194467,"keywords":["cp","nocrits","nodmgspread","uncletopia"],"game_id":440,"stv_port":27036,"stv_name":"Uncletopia | Sydney | 3 | All Maps | STV","players":null},{"server_id":396,"name":"Uncletopia | Sydney | 4 | All Maps","name_short":"syd-4","host":"syd-1.au.uncletopia.com","port":27045,"enabled":true,"region":"au","cc":"au","latitude":-33.865143,"longitude":151.2099,"reserved":0,"last_update":"0001-01-01T00:00:00Z","name_a2s":"Uncletopia | Sydney | 4 | All Maps","protocol":17,"map":"pl_frontier_final","folder":"tf","game":"Team Fortress","app_id":440,"player_count":0,"max_players":24,"Bots":0,"server_type":"Dedicated","server_os":"Linux","password":true,"vac":true,"version":"7757534","steam_id":85568392925397958,"keywords":["nocrits","nodmgspread","payload","uncletopia"],"game_id":440,"stv_port":27046,"stv_name":"Uncletopia | Sydney | 4 | All Maps | STV","players":null},{"server_id":58,"name":"Uncletopia | Sydney | 5 | Stopwatch Beta","name_short":"syd-5","host":"syd-1.au.uncletopia.com","port":27055,"enabled":true,"region":"au","cc":"au","latitude":-33.865143,"longitude":151.2099,"reserved":0,"last_update":"0001-01-01T00:00:00Z","name_a2s":"Uncletopia | Sydney | 5 | Stopwatch Beta","protocol":17,"map":"koth_lakeside_final","folder":"tf","game":"Team Fortress","app_id":440,"player_count":0,"max_players":24,"Bots":0,"server_type":"Dedicated","server_os":"Linux","password":true,"vac":true,"version":"7757534","steam_id":85568392925397959,"keywords":["cp","nocrits","nodmgspread","uncletopia"],"game_id":440,"stv_port":27056,"stv_name":"Uncletopia | Sydney | 5 | Stopwatch Beta | STV","players":null},{"server_id":59,"name":"Uncletopia | Sydney | 6 | Community","name_short":"syd-6","host":"syd-1.au.uncletopia.com","port":27065,"enabled":true,"region":"au","cc":"au","latitude":-33.865143,"longitude":151.2099,"reserved":0,"last_update":"0001-01-01T00:00:00Z","name_a2s":"Uncletopia | Sydney | 6 | Community","protocol":17,"map":"workshop/koth_slaughter_rc1.ugc1712845210","folder":"tf","game":"Team Fortress","app_id":440,"player_count":0,"max_players":24,"Bots":0,"server_type":"Dedicated","server_os":"Linux","password":true,"vac":true,"version":"7757534","steam_id":85568392925397960,"keywords":["cp","nocrits","nodmgspread","uncletopia"],"game_id":440,"stv_port":27066,"stv_name":"Uncletopia | Sydney | 6 | Community | STV","players":null},{"server_id":49,"name":"Uncletopia | Warsaw | 1 | All Maps","name_short":"waw-1","host":"waw-1.pl.uncletopia.com","port":27015,"enabled":true,"region":"eu","cc":"pl","latitude":52.2297,"longitude":21.017532,"reserved":0,"last_update":"0001-01-01T00:00:00Z","name_a2s":"","protocol":0,"map":"","folder":"","game":"","app_id":0,"player_count":0,"max_players":0,"Bots":0,"server_type":"","server_os":"","password":false,"vac":false,"version":"","steam_id":0,"keywords":null,"game_id":0,"stv_port":0,"stv_name":"","players":null},{"server_id":50,"name":"Uncletopia | Warsaw | 2 | All Maps","name_short":"waw-2","host":"waw-1.pl.uncletopia.com","port":27025,"enabled":true,"region":"eu","cc":"pl","latitude":52.2297,"longitude":21.017532,"reserved":0,"last_update":"0001-01-01T00:00:00Z","name_a2s":"Uncletopia | Warsaw | 2 | All Maps","protocol":17,"map":"koth_lakeside_final","folder":"tf","game":"Team Fortress","app_id":440,"player_count":0,"max_players":24,"Bots":0,"server_type":"Dedicated","server_os":"Linux","password":true,"vac":true,"version":"7757534","steam_id":85568392925397851,"keywords":["cp","nocrits","nodmgspread","uncletopia"],"game_id":440,"stv_port":27026,"stv_name":"Uncletopia | Warsaw | 2 | All Maps | STV","players":null},{"server_id":51,"name":"Uncletopia | Warsaw | 3 | All Maps","name_short":"waw-3","host":"waw-1.pl.uncletopia.com","port":27035,"enabled":true,"region":"eu","cc":"pl","latitude":52.2297,"longitude":21.017532,"reserved":0,"last_update":"0001-01-01T00:00:00Z","name_a2s":"Uncletopia | Warsaw | 3 | All Maps","protocol":17,"map":"koth_highpass","folder":"tf","game":"Team Fortress","app_id":440,"player_count":0,"max_players":24,"Bots":0,"server_type":"Dedicated","server_os":"Linux","password":true,"vac":true,"version":"7757534","steam_id":85568392925397852,"keywords":["cp","nocrits","nodmgspread","uncletopia"],"game_id":440,"stv_port":27036,"stv_name":"Uncletopia | Warsaw | 3 | All Maps | STV","players":null},{"server_id":52,"name":"Uncletopia | Warsaw | 4 | All Maps","name_short":"waw-4","host":"waw-1.pl.uncletopia.com","port":27045,"enabled":true,"region":"eu","cc":"pl","latitude":52.2297,"longitude":21.017532,"reserved":0,"last_update":"0001-01-01T00:00:00Z","name_a2s":"Uncletopia | Warsaw | 4 | All Maps","protocol":17,"map":"cp_sunshine","folder":"tf","game":"Team Fortress","app_id":440,"player_count":0,"max_players":24,"Bots":0,"server_type":"Dedicated","server_os":"Linux","password":true,"vac":true,"version":"7757534","steam_id":85568392925397853,"keywords":["cp","nocrits","nodmgspread","uncletopia"],"game_id":440,"stv_port":27046,"stv_name":"Uncletopia | Warsaw | 4 | All Maps | STV","players":null},{"server_id":53,"name":"Uncletopia | Warsaw | 5 | Stopwatch Beta","name_short":"waw-5","host":"waw-1.pl.uncletopia.com","port":27055,"enabled":true,"region":"eu","cc":"pl","latitude":52.2297,"longitude":21.017532,"reserved":0,"last_update":"0001-01-01T00:00:00Z","name_a2s":"Uncletopia | Warsaw | 5 | Stopwatch Beta","protocol":17,"map":"pl_barnblitz","folder":"tf","game":"Team Fortress","app_id":440,"player_count":0,"max_players":24,"Bots":0,"server_type":"Dedicated","server_os":"Linux","password":true,"vac":true,"version":"7757534","steam_id":85568392925397854,"keywords":["nocrits","nodmgspread","payload","uncletopia"],"game_id":440,"stv_port":27056,"stv_name":"Uncletopia | Warsaw | 5 | Stopwatch Beta | STV","players":null},{"server_id":54,"name":"Uncletopia | Warsaw | 6 | Community","name_short":"waw-6","host":"waw-1.pl.uncletopia.com","port":27065,"enabled":true,"region":"eu","cc":"pl","latitude":52.2297,"longitude":21.017532,"reserved":0,"last_update":"0001-01-01T00:00:00Z","name_a2s":"Uncletopia | Warsaw | 6 | Community","protocol":17,"map":"pl_swiftwater_final1","folder":"tf","game":"Team Fortress","app_id":440,"player_count":0,"max_players":24,"Bots":0,"server_type":"Dedicated","server_os":"Linux","password":true,"vac":true,"version":"7757534","steam_id":85568392925397856,"keywords":["nocrits","nodmgspread","payload","uncletopia"],"game_id":440,"stv_port":27066,"stv_name":"Uncletopia | Warsaw | 6 | Community | STV","players":null}]}