{"status":true,"message":"","result":[{"server_id":9,"name":"Uncletopia | Atlanta | 1 | All Maps","name_short":"atl-1","host":"atl-1.us.uncletopia.com","port":27015,"enabled":true,"region":"us-east","cc":"us","latitude":33.753746,"longitude":-84.38633,"reserved":0,"last_update":"0001-01-01T00:00:00Z","name_a2s":"Uncletopia | Atlanta | 1 | All Maps","protocol":17,"map":"pl_upward","folder":"tf","game":"Team Fortress","app_id":440,"player_count":2,"max_players":24,"Bots":0,"server_type":"Dedicated","server_os":"Linux","password":true,"vac":true,"version":"7882260","steam_id":85568392924469982,"keywords":["nocrits","nodmgspread","payload","uncletopia"],"game_id":440,"stv_port":27016,"stv_name":"Uncletopia | Atlanta | 1 | All Maps | STV","players":[{"user_id":851,"name":"Garbage Gun Spy","steam_id":76561198180742229,"connected_time":103000000000,"state":"active","ping":97},{"user_id":852,"name":"Dr.Gooserjuicer","steam_id":76561198426214993,"connected_time":35000000000,"state":"active","ping":90}]},{"server_id":104,"name":"Uncletopia | Atlanta | 2 | All Maps","name_short":"atl-2","host":"atl-1.us.uncletopia.com","port":27025,"enabled":true,"region":"us-east","cc":"us","latitude":33.753746,"longitude":-84.38633,"reserved":0,"last_update":"0001-01-01T00:00:00Z","name_a2s":"Uncletopia | Atlanta | 2 | All Maps","protocol":17,"map":"cp_snakewater_final1","folder":"tf","game":"Team Fortress","app_id":440,"player_count":24,"max_players":24,"Bots":0,"server_type":"Dedicated","server_os":"Linux","password":true,"vac":true,"version":"7882260","steam_id":85568392924469983,"keywords":["cp","nocrits","nodmgspread","uncletopia"],"game_id":440,"stv_port":27026,"stv_name":"Uncletopia | Atlanta | 2 | All Maps | STV","players":[{"user_id":710,"name":"ranroll, Ph.D.","steam_id":76561197980733511,"connected_time":415000000000,"state":"active","ping":73},{"user_id":719,"name":"BeeseDeez","steam_id":76561198011012347,"connected_time":181000000000,"state":"active","ping":70},{"user_id":713,"name":"entity","steam_id":76561198959849917,"connected_time":267000000000,"state":"active","ping":74},{"user_id":658,"name":"dinocoder","steam_id":76561198311038263,"connected_time":3209000000000,"state":"active","ping":101},{"user_id":714,"name":"jackpots","steam_id":76561198103515747,"connected_time":250000000000,"state":"active","ping":98},{"user_id":687,"name":"TÖZI","steam_id":76561198045268695,"connected_time":1659000000000,"state":"active","ping":75},{"user_id":697,"name":"Aristotle Voulton","steam_id":76561198100174923,"connected_time":1033000000000,"state":"active","ping":118},{"user_id":698,"name":"Pomegranate88","steam_id":76561198056385456,"connected_time":935000000000,"state":"active","ping":62},{"user_id":678,"name":"Underscore","steam_id":76561198374209415,"connected_time":2460000000000,"state":"active","ping":72},{"user_id":699,"name":"Fish Fisherman","steam_id":76561198018656022,"connected_time":934000000000,"state":"active","ping":77},{"user_id":664,"name":"charm quark","steam_id":76561198098770777,"connected_time":2994000000000,"state":"active","ping":108},{"user_id":645,"name":"G6 habib","steam_id":76561198053621664,"connected_time":4068000000000,"state":"active","ping":72},{"user_id":715,"name":"Pete Zahut","steam_id":76561198299080037,"connected_time":241000000000,"state":"active","ping":74},{"user_id":716,"name":"Pineapple Pizza","steam_id":76561197997233176,"connected_time":203000000000,"state":"active","ping":90},{"user_id":717,"name":"XCellent","steam_id":76561198805514323,"connected_time":197000000000,"state":"active","ping":117},{"user_id":725,"name":"tosm-AA-","steam_id":76561198130032444,"connected_time":66000000000,"state":"active","ping":106},{"user_id":720,"name":"Depths","steam_id":76561198343435310,"connected_time":157000000000,"state":"active","ping":127},{"user_id":702,"name":"Neophyte","steam_id":76561198027183394,"connected_time":691000000000,"state":"active","ping":103},{"user_id":721,"name":"waymin","steam_id":76561198150914868,"connected_time":151000000000,"state":"active","ping":108},{"user_id":646,"name":"his sniper","steam_id":76561198083756054,"connected_time":3731000000000,"state":"active","ping":70},{"user_id":722,"name":"Zelumie","steam_id":76561198147335801,"connected_time":143000000000,"state":"active","ping":73},{"user_id":723,"name":"Monochrome | Cashmoney","steam_id":76561198377320040,"connected_time":128000000000,"state":"active","ping":60},{"user_id":724,"name":"Mobius","steam_id":76561199121973450,"connected_time":72000000000,"state":"active","ping":67},{"user_id":681,"name":"her heavy","steam_id":76561198046926728,"connected_time":2389000000000,"state":"active","ping":104}]},{"server_id":400,"name":"Uncletopia | Atlanta | 3 | Community","name_short":"atl-3","host":"atl-1.us.uncletopia.com","port":27035,"enabled":true,"region":"us-east","cc":"us","latitude":33.753746,"longitude":-84.38633,"reserved":0,"last_update":"0001-01-01T00:00:00Z","name_a2s":"Uncletopia | Atlanta | 3 | Community","protocol":17,"map":"workshop/pl_eruption_b9a.ugc2807898013","folder":"tf","game":"Team Fortress","app_id":440,"player_count":7,"max_players":24,"Bots":0,"server_type":"Dedicated","server_os":"Linux","password":true,"vac":true,"version":"7882260","steam_id":85568392924515187,"keywords":["nocrits","nodmgspread","payload","uncletopia"],"game_id":440,"stv_port":27036,"stv_name":"Uncletopia | Atlanta | 3 | Community | STV","players":[{"user_id":424,"name":"Missing Minus","steam_id":76561198120822928,"connected_time":1212000000000,"state":"active","ping":45},{"user_id":420,"name":"r3xit","steam_id":76561198065725996,"connected_time":2187000000000,"state":"active","ping":82},{"user_id":416,"name":"๖Ðiestow","steam_id":76561198046662484,"connected_time":2346000000000,"state":"active","ping":94},{"user_id":393,"name":"kjo2016","steam_id":76561199000977226,"connected_time":4962000000000,"state":"active","ping":93},{"user_id":417,"name":"Antking14","steam_id":76561198188971771,"connected_time":2283000000000,"state":"active","ping":105},{"user_id":405,"name":"Bottom feeder","steam_id":76561198181298169,"connected_time":3824000000000,"state":"active","ping":66},{"user_id":411,"name":"shalankawanak","steam_id":76561198987719376,"connected_time":3205000000000,"state":"active","ping":68}]},{"server_id":401,"name":"Uncletopia | Atlanta | 4 | No Payload","name_short":"atl-4","host":"atl-1.us.uncletopia.com","port":27045,"enabled":true,"region":"us-east","cc":"us","latitude":33.753746,"longitude":-84.38633,"reserved":0,"last_update":"0001-01-01T00:00:00Z","name_a2s":"","protocol":0,"map":"","folder":"","game":"","app_id":0,"player_count":0,"max_players":0,"Bots":0,"server_type":"","server_os":"","password":false,"vac":false,"version":"","steam_id":0,"keywords":null,"game_id":0,"stv_port":0,"stv_name":"","players":null},{"server_id":2,"name":"Uncletopia | Chicago | 1 | All Maps","name_short":"chi-1","host":"chi-1.us.uncletopia.com","port":27015,"enabled":true,"region":"us-central","cc":"us","latitude":41.881832,"longitude":-87.62318,"reserved":0,"last_update":"0001-01-01T00:00:00Z","name_a2s":"Uncletopia | Chicago | 1 | All Maps","protocol":17,"map":"pl_pier","folder":"tf","game":"Team Fortress","app_id":440,"player_count":11,"max_players":24,"Bots":0,"server_type":"Dedicated","server_os":"Linux","password":true,"vac":true,"version":"7882260","steam_id":85568392924469984,"keywords":["nocrits","nodmgspread","payload","uncletopia"],"game_id":440,"stv_port":27016,"stv_name":"Uncletopia | Chicago | 1 | All Maps | STV","players":[{"user_id":640,"name":"breakfast","steam_id":76561198043712978,"connected_time":276000000000,"state":"active","ping":90},{"user_id":636,"name":"Tyco","steam_id":76561197978414167,"connected_time":688000000000,"state":"active","ping":65},{"user_id":632,"name":"HK™","steam_id":76561198196793415,"connected_time":1259000000000,"state":"active","ping":99},{"user_id":625,"name":"Catass","steam_id":76561198255802361,"connected_time":2005000000000,"state":"active","ping":79},{"user_id":628,"name":"Big Tony","steam_id":76561198086790000,"connected_time":1807000000000,"state":"active","ping":103},{"user_id":635,"name":"AppleTruffle","steam_id":76561198031299571,"connected_time":703000000000,"state":"active","ping":59},{"user_id":598,"name":"JimmyNeutron","steam_id":76561197993353322,"connected_time":4116000000000,"state":"active","ping":74},{"user_id":630,"name":"goose","steam_id":76561198367551668,"connected_time":1580000000000,"state":"active","ping":54},{"user_id":627,"name":"Nightingale","steam_id":76561198067851381,"connected_time":1940000000000,"state":"active","ping":54},{"user_id":637,"name":"ash","steam_id":76561198127890645,"connected_time":621000000000,"state":"active","ping":74},{"user_id":633,"name":"Dr. Pleasant","steam_id":76561198111945101,"connected_time":1237000000000,"state":"active","ping":62}]},{"server_id":106,"name":"Uncletopia | Chicago | 2 | All Maps","name_short":"chi-2","host":"chi-1.us.uncletopia.com","port":27025,"enabled":true,"region":"us-central","cc":"us","latitude":41.881832,"longitude":-87.62318,"reserved":0,"last_update":"0001-01-01T00:00:00Z","name_a2s":"Uncletopia | Chicago | 2 | All Maps","protocol":17,"map":"pl_upward","folder":"tf","game":"Team Fortress","app_id":440,"player_count":24,"max_players":24,"Bots":0,"server_type":"Dedicated","server_os":"Linux","password":true,"vac":true,"version":"7882260","steam_id":85568392924469985,"keywords":["nocrits","nodmgspread","payload","uncletopia"],"game_id":440,"stv_port":27026,"stv_name":"Uncletopia | Chicago | 2 | All Maps | STV","players":[{"user_id":853,"name":"men","steam_id":76561199194759161,"connected_time":1309000000000,"state":"active","ping":96},{"user_id":846,"name":"Grin","steam_id":76561198145511889,"connected_time":1696000000000,"state":"active","ping":79},{"user_id":877,"name":"Yosh","steam_id":76561198027078899,"connected_time":271000000000,"state":"active","ping":76},{"user_id":875,"name":"Assitins","steam_id":76561198041572892,"connected_time":413000000000,"state":"active","ping":75},{"user_id":854,"name":"Dask","steam_id":76561198043385839,"connected_time":1263000000000,"state":"active","ping":47},{"user_id":855,"name":"Melancholia","steam_id":76561198197066783,"connected_time":1235000000000,"state":"active","ping":84},{"user_id":839,"name":"Jasmine Rice","steam_id":76561198163163590,"connected_time":2709000000000,"state":"active","ping":63},{"user_id":865,"name":"OrangeSodaMachine","steam_id":76561198079230156,"connected_time":923000000000,"state":"active","ping":79},{"user_id":876,"name":"kiseek","steam_id":76561198075474088,"connected_time":380000000000,"state":"active","ping":76},{"user_id":878,"name":"pete_the_cat_2014","steam_id":76561198199266047,"connected_time":242000000000,"state":"active","ping":51},{"user_id":860,"name":"comet","steam_id":76561198149217841,"connected_time":1102000000000,"state":"active","ping":95},{"user_id":879,"name":"Blagoni","steam_id":76561198079134230,"connected_time":234000000000,"state":"active","ping":104},{"user_id":883,"name":"Unregistered Hypercam 2","steam_id":76561198046895822,"connected_time":79000000000,"state":"active","ping":75},{"user_id":861,"name":"ipodnova-Aura","steam_id":76561198272353485,"connected_time":1093000000000,"state":"active","ping":68},{"user_id":862,"name":"cilo","steam_id":76561198046163502,"connected_time":1078000000000,"state":"active","ping":70},{"user_id":863,"name":"LG_Fridge_User","steam_id":76561198977815014,"connected_time":1025000000000,"state":"active","ping":75},{"user_id":847,"name":"Loggybears","steam_id":76561198366828434,"connected_time":1690000000000,"state":"active","ping":96},{"user_id":866,"name":"Bubblegum Bitch","steam_id":76561198043307965,"connected_time":884000000000,"state":"active","ping":88},{"user_id":840,"name":"Error_404","steam_id":76561198163074047,"connected_time":2703000000000,"state":"active","ping":66},{"user_id":872,"name":"Phaze (Human PLUS)","steam_id":76561198025267071,"connected_time":486000000000,"state":"active","ping":68},{"user_id":815,"name":"Nekro Kitty","steam_id":76561198025054596,"connected_time":3842000000000,"state":"active","ping":84},{"user_id":884,"name":"SmiteSight","steam_id":76561199122315920,"connected_time":52000000000,"state":"active","ping":61},{"user_id":868,"name":"Gary Gilbert","steam_id":76561198143988056,"connected_time":773000000000,"state":"active","ping":99},{"user_id":874,"name":"Reals","steam_id":76561198826005248,"connected_time":473000000000,"state":"active","ping":164}]},{"server_id":402,"name":"Uncletopia | Chicago | 3 | All Maps","name_short":"chi-3","host":"chi-1.us.uncletopia.com","port":27035,"enabled":true,"region":"us-central","cc":"us","latitude":41.881832,"longitude":-87.62318,"reserved":0,"last_update":"0001-01-01T00:00:00Z","name_a2s":"Uncletopia | Chicago | 3 | All Maps","protocol":17,"map":"pl_barnblitz","folder":"tf","game":"Team Fortress","app_id":440,"player_count":21,"max_players":24,"Bots":0,"server_type":"Dedicated","server_os":"Linux","password":true,"vac":true,"version":"7882260","steam_id":85568392924515191,"keywords":["nocrits","nodmgspread","payload","uncletopia"],"game_id":440,"stv_port":27036,"stv_name":"Uncletopia | Chicago | 3 | All Maps | STV","players":[{"user_id":673,"name":"i forgor","steam_id":76561199120622265,"connected_time":4542000000000,"state":"active","ping":76},{"user_id":739,"name":"eish","steam_id":76561198089463603,"connected_time":396000000000,"state":"active","ping":130},{"user_id":719,"name":"Hermoine Gainger","steam_id":76561198077260471,"connected_time":1912000000000,"state":"active","ping":90},{"user_id":740,"name":"morphine","steam_id":76561198072124799,"connected_time":382000000000,"state":"active","ping":82},{"user_id":678,"name":"Kuyumiester","steam_id":76561198126835302,"connected_time":3958000000000,"state":"active","ping":60},{"user_id":689,"name":"postgres","steam_id":76561198011204750,"connected_time":3230000000000,"state":"active","ping":84},{"user_id":705,"name":"The Law","steam_id":76561198080974454,"connected_time":2410000000000,"state":"active","ping":66},{"user_id":734,"name":"MR MODE","steam_id":76561198046775352,"connected_time":553000000000,"state":"active","ping":97},{"user_id":728,"name":"Paul","steam_id":76561198156358796,"connected_time":1245000000000,"state":"active","ping":49},{"user_id":726,"name":"Breach","steam_id":76561198045060392,"connected_time":1536000000000,"state":"active","ping":47},{"user_id":742,"name":"Toonice","steam_id":76561198402994885,"connected_time":377000000000,"state":"active","ping":76},{"user_id":699,"name":"DVD Copy of Men in Black II","steam_id":76561198080067715,"connected_time":2534000000000,"state":"active","ping":48},{"user_id":732,"name":"indyjacob","steam_id":76561198065158713,"connected_time":834000000000,"state":"active","ping":123},{"user_id":743,"name":"Sophie","steam_id":76561198170408057,"connected_time":375000000000,"state":"active","ping":60},{"user_id":744,"name":"nomad","steam_id":76561197998740399,"connected_time":365000000000,"state":"active","ping":64},{"user_id":707,"name":"bob_2_","steam_id":76561198103511119,"connected_time":2334000000000,"state":"active","ping":60},{"user_id":736,"name":"kjr :d","steam_id":76561198206903132,"connected_time":458000000000,"state":"active","ping":103},{"user_id":745,"name":"Rocky","steam_id":76561198048158539,"connected_time":293000000000,"state":"active","ping":74},{"user_id":729,"name":"Discourse","steam_id":76561198984286678,"connected_time":1220000000000,"state":"active","ping":56},{"user_id":747,"name":"Rix FPV","steam_id":76561198299320893,"connected_time":266000000000,"state":"active","ping":60},{"user_id":748,"name":"Monsignor Martinez","steam_id":76561198004472558,"connected_time":259000000000,"state":"active","ping":93}]},{"server_id":403,"name":"Uncletopia | Chicago | 4 | All Maps","name_short":"chi-4","host":"chi-1.us.uncletopia.com","port":27045,"enabled":true,"region":"us-central","cc":"us","latitude":41.881832,"longitude":-87.62318,"reserved":0,"last_update":"0001-01-01T00:00:00Z","name_a2s":"Uncletopia | Chicago | 4 | All Maps","protocol":17,"map":"cp_mossrock","folder":"tf","game":"Team Fortress","app_id":440,"player_count":24,"max_players":24,"Bots":0,"server_type":"Dedicated","server_os":"Linux","password":true,"vac":true,"version":"7882260","steam_id":85568392924515193,"keywords":["cp","nocrits","nodmgspread","uncletopia"],"game_id":440,"stv_port":27046,"stv_name":"Uncletopia | Chicago | 4 | All Maps | STV","players":[{"user_id":396,"name":"Bree Van de Kamp","steam_id":76561197991503576,"connected_time":5146000000000,"state":"active","ping":95},{"user_id":401,"name":"Sbbmckean #savetf2","steam_id":76561198070304998,"connected_time":4959000000000,"state":"active","ping":70},{"user_id":413,"name":"Marshall","steam_id":76561198042570322,"connected_time":3005000000000,"state":"active","ping":89},{"user_id":418,"name":"JayArr","steam_id":76561198124371253,"connected_time":2130000000000,"state":"active","ping":44},{"user_id":434,"name":"Nilantive","steam_id":76561198177565082,"connected_time":660000000000,"state":"active","ping":62},{"user_id":409,"name":"Wizard Raccoon","steam_id":76561198072562591,"connected_time":4227000000000,"state":"active","ping":80},{"user_id":326,"name":"Makina","steam_id":76561198057475567,"connected_time":10343000000000,"state":"active","ping":71},{"user_id":395,"name":"Whargolflorp","steam_id":76561197992030133,"connected_time":5173000000000,"state":"active","ping":45},{"user_id":435,"name":"night.light","steam_id":76561198014557455,"connected_time":623000000000,"state":"active","ping":60},{"user_id":374,"name":"emotional Suport engi :)","steam_id":76561198882404753,"connected_time":7368000000000,"state":"active","ping":87},{"user_id":433,"name":"RiceRiceDesu","steam_id":76561198018568723,"connected_time":671000000000,"state":"active","ping":55},{"user_id":415,"name":"Jezzus","steam_id":76561199289676387,"connected_time":2968000000000,"state":"active","ping":85},{"user_id":436,"name":"Feel the bern","steam_id":76561198078824519,"connected_time":546000000000,"state":"active","ping":102},{"user_id":437,"name":"Mops","steam_id":76561198058213741,"connected_time":536000000000,"state":"active","ping":66},{"user_id":320,"name":"Pizza","steam_id":76561198118748364,"connected_time":11233000000000,"state":"active","ping":79},{"user_id":438,"name":"Lex","steam_id":76561198069948353,"connected_time":414000000000,"state":"active","ping":80},{"user_id":407,"name":"Daehypeels","steam_id":76561198268981599,"connected_time":4674000000000,"state":"active","ping":68},{"user_id":424,"name":"Krellah","steam_id":76561198287045069,"connected_time":1897000000000,"state":"active","ping":57},{"user_id":393,"name":"TheCheeseWizard","steam_id":76561198058931315,"connected_time":5739000000000,"state":"active","ping":61},{"user_id":439,"name":"smino","steam_id":76561198937717599,"connected_time":363000000000,"state":"active","ping":60},{"user_id":300,"name":"SpazHero","steam_id":76561198021130008,"connected_time":13010000000000,"state":"active","ping":82},{"user_id":426,"name":"sonic1394","steam_id":76561198054636788,"connected_time":1854000000000,"state":"active","ping":70},{"user_id":441,"name":"DannyM","steam_id":76561198351165570,"connected_time":40000000000,"state":"active","ping":63},{"user_id":430,"name":"Brown_Dream","steam_id":76561198975766145,"connected_time":693000000000,"state":"active","ping":79}]},{"server_id":36,"name":"Uncletopia | Chicago | 5 | All Maps","name_short":"chi-5","host":"chi-2.us.uncletopia.com","port":27015,"enabled":true,"region":"us-central","cc":"us","latitude":41.881832,"longitude":-87.62318,"reserved":0,"last_update":"0001-01-01T00:00:00Z","name_a2s":"Uncletopia | Chicago | 5 | All Maps","protocol":17,"map":"pl_upward","folder":"tf","game":"Team Fortress","app_id":440,"player_count":24,"max_players":24,"Bots":0,"server_type":"Dedicated","server_os":"Linux","password":true,"vac":true,"version":"7882260","steam_id":85568392924866362,"keywords":["nocrits","nodmgspread","payload","uncletopia"],"game_id":440,"stv_port":27016,"stv_name":"Uncletopia | Chicago | 5 | All Maps | STV","players":[{"user_id":1024,"name":"bucket'o'racoons","steam_id":76561199086234004,"connected_time":2012000000000,"state":"active","ping":107},{"user_id":1035,"name":"President William Howard Taft","steam_id":76561198047691108,"connected_time":1472000000000,"state":"active","ping":68},{"user_id":1025,"name":"Happy Yaoi Friday","steam_id":76561198111290441,"connected_time":1943000000000,"state":"active","ping":56},{"user_id":1002,"name":"Merci?","steam_id":76561198096823118,"connected_time":3170000000000,"state":"active","ping":77},{"user_id":1041,"name":"JestinJester","steam_id":76561198411846094,"connected_time":1196000000000,"state":"active","ping":72},{"user_id":1036,"name":"Mehman","steam_id":76561199020244051,"connected_time":1453000000000,"state":"active","ping":86},{"user_id":1049,"name":"nikka.","steam_id":76561198880569269,"connected_time":372000000000,"state":"active","ping":46},{"user_id":1023,"name":"the biggest bird","steam_id":76561198361999761,"connected_time":2102000000000,"state":"active","ping":106},{"user_id":1039,"name":"pinecone the lynx","steam_id":76561198313192553,"connected_time":1258000000000,"state":"active","ping":43},{"user_id":1040,"name":"Furry","steam_id":76561199368485421,"connected_time":1248000000000,"state":"active","ping":45},{"user_id":1042,"name":"bengineer","steam_id":76561198171912174,"connected_time":1127000000000,"state":"active","ping":90},{"user_id":1046,"name":"Cosmic sR","steam_id":76561198081738675,"connected_time":531000000000,"state":"active","ping":82},{"user_id":1020,"name":"Pastel","steam_id":76561198147847673,"connected_time":2231000000000,"state":"active","ping":102},{"user_id":1004,"name":"Lavender","steam_id":76561198142770666,"connected_time":3095000000000,"state":"active","ping":62},{"user_id":1005,"name":"flasky","steam_id":76561198079119793,"connected_time":3090000000000,"state":"active","ping":65},{"user_id":1006,"name":"I Have A Name","steam_id":76561198011699246,"connected_time":3086000000000,"state":"active","ping":96},{"user_id":1047,"name":"Transformouse","steam_id":76561198004669368,"connected_time":503000000000,"state":"active","ping":75},{"user_id":1045,"name":"Infinitytacos","steam_id":76561198884260211,"connected_time":879000000000,"state":"active","ping":49},{"user_id":1050,"name":"supcupman","steam_id":76561198051513866,"connected_time":260000000000,"state":"active","ping":110},{"user_id":1048,"name":"Mickmissión","steam_id":76561199133527421,"connected_time":437000000000,"state":"active","ping":118},{"user_id":1030,"name":"zeredis","steam_id":76561198076596689,"connected_time":1794000000000,"state":"active","ping":68},{"user_id":1013,"name":"MADHEAD347","steam_id":76561199475145723,"connected_time":2760000000000,"state":"active","ping":88},{"user_id":928,"name":"lycoris","steam_id":76561199113965768,"connected_time":8537000000000,"state":"active","ping":87},{"user_id":995,"name":"thepicgamer","steam_id":76561198211354351,"connected_time":3968000000000,"state":"active","ping":67}]},{"server_id":37,"name":"Uncletopia | Chicago | 6 | All Maps","name_short":"chi-6","host":"chi-2.us.uncletopia.com","port":27025,"enabled":true,"region":"us-central","cc":"us","latitude":41.881832,"longitude":-87.62318,"reserved":0,"last_update":"0001-01-01T00:00:00Z","name_a2s":"Uncletopia | Chicago | 6 | All Maps","protocol":17,"map":"koth_lakeside_final","folder":"tf","game":"Team Fortress","app_id":440,"player_count":15,"max_players":24,"Bots":0,"server_type":"Dedicated","server_os":"Linux","password":true,"vac":true,"version":"7882260","steam_id":85568392924866363,"keywords":["cp","nocrits","nodmgspread","uncletopia"],"game_id":440,"stv_port":27026,"stv_name":"Uncletopia | Chicago | 6 | All Maps | STV","players":[{"user_id":553,"name":"THEDINKY","steam_id":76561198190077399,"connected_time":569000000000,"state":"active","ping":55},{"user_id":559,"name":"King_Of_The_Asians","steam_id":76561198138772993,"connected_time":40000000000,"state":"active","ping":101},{"user_id":555,"name":"HunkPapa","steam_id":76561198142515500,"connected_time":464000000000,"state":"active","ping":89},{"user_id":560,"name":"Antony Bologne","steam_id":76561198249274908,"connected_time":37000000000,"state":"spawning","ping":121},{"user_id":526,"name":"Bytor2121","steam_id":76561197991263350,"connected_time":2641000000000,"state":"active","ping":39},{"user_id":543,"name":"White Boy Freestyle #337","steam_id":76561198880396651,"connected_time":1313000000000,"state":"active","ping":73},{"user_id":544,"name":"brae","steam_id":76561198047126327,"connected_time":1286000000000,"state":"active","ping":70},{"user_id":545,"name":"Mr RocknRoll","steam_id":76561198067495035,"connected_time":1285000000000,"state":"active","ping":49},{"user_id":548,"name":"Nicko","steam_id":76561198328490503,"connected_time":995000000000,"state":"active","ping":163},{"user_id":558,"name":"Quack","steam_id":76561199086339263,"connected_time":368000000000,"state":"active","ping":95},{"user_id":550,"name":"Sovulous","steam_id":76561198045389233,"connected_time":889000000000,"state":"active","ping":67},{"user_id":551,"name":"ARGON Soulidity","steam_id":76561198429603550,"connected_time":886000000000,"state":"active","ping":59},{"user_id":502,"name":"YelloGoat","steam_id":76561198367174421,"connected_time":4640000000000,"state":"spawning","ping":57},{"user_id":535,"name":"Pie Eater 9000","steam_id":76561198003791564,"connected_time":2392000000000,"state":"active","ping":45},{"user_id":456,"name":"nori_420 (mute)","steam_id":76561199117134203,"connected_time":7381000000000,"state":"active","ping":102}]},{"server_id":38,"name":"Uncletopia | Chicago | 7 | Stopwatch Beta","name_short":"chi-7","host":"chi-2.us.uncletopia.com","port":27035,"enabled":true,"region":"us-central","cc":"us","latitude":41.881832,"longitude":-87.62318,"reserved":0,"last_update":"0001-01-01T00:00:00Z","name_a2s":"Uncletopia | Chicago | 7 | Stopwatch Beta","protocol":17,"map":"workshop/koth_ashville_final.ugc2130459942","folder":"tf","game":"Team Fortress","app_id":440,"player_count":0,"max_players":24,"Bots":0,"server_type":"Dedicated","server_os":"Linux","password":true,"vac":true,"version":"7882260","steam_id":85568392924866364,"keywords":["cp","nocrits","nodmgspread","uncletopia"],"game_id":440,"stv_port":27036,"stv_name":"Uncletopia | Chicago | 7 | Stopwatch Beta | STV","players":null},{"server_id":39,"name":"Uncletopia | Chicago | 8 | Community","name_short":"chi-8","host":"chi-2.us.uncletopia.com","port":27045,"enabled":true,"region":"us-central","cc":"us","latitude":41.881832,"longitude":-87.62318,"reserved":0,"last_update":"0001-01-01T00:00:00Z","name_a2s":"Uncletopia | Chicago | 8 | Community","protocol":17,"map":"cp_snakewater_final1","folder":"tf","game":"Team Fortress","app_id":440,"player_count":0,"max_players":24,"Bots":0,"server_type":"Dedicated","server_os":"Linux","password":true,"vac":true,"version":"7882260","steam_id":85568392924866365,"keywords":["cp","nocrits","nodmgspread","uncletopia"],"game_id":440,"stv_port":27046,"stv_name":"Uncletopia | Chicago | 8 | Community | STV","players":null},{"server_id":8,"name":"Uncletopia | Dallas | 1 | All Maps","name_short":"dal-1","host":"dal-1.us.uncletopia.com","port":27015,"enabled":true,"region":"us-central","cc":"us","latitude":32.779167,"longitude":-96.80889,"reserved":0,"last_update":"0001-01-01T00:00:00Z","name_a2s":"Uncletopia | Dallas | 1 | All Maps","protocol":17,"map":"pl_barnblitz","folder":"tf","game":"Team Fortress","app_id":440,"player_count":24,"max_players":24,"Bots":0,"server_type":"Dedicated","server_os":"Linux","password":true,"vac":true,"version":"7882260","steam_id":85568392924469986,"keywords":["nocrits","nodmgspread","payload","uncletopia"],"game_id":440,"stv_port":27016,"stv_name":"Uncletopia | Dallas | 1 | All Maps | STV","players":[{"user_id":608,"name":"R     i     q","steam_id":76561198105485586,"connected_time":3405000000000,"state":"active","ping":75},{"user_id":628,"name":"tar","steam_id":76561198069648768,"connected_time":2508000000000,"state":"active","ping":76},{"user_id":651,"name":"Average Caber Fan","steam_id":76561199451299044,"connected_time":1041000000000,"state":"active","ping":76},{"user_id":637,"name":"Speed Weed","steam_id":76561198007512620,"connected_time":1979000000000,"state":"active","ping":68},{"user_id":655,"name":"DemoLiberTF2","steam_id":76561198095378689,"connected_time":924000000000,"state":"active","ping":118},{"user_id":640,"name":"AAGooseman","steam_id":76561198378941369,"connected_time":1718000000000,"state":"active","ping":68},{"user_id":597,"name":"Alejandro","steam_id":76561197970051493,"connected_time":3675000000000,"state":"active","ping":151},{"user_id":612,"name":"Bugc97","steam_id":76561198007662645,"connected_time":3256000000000,"state":"active","ping":57},{"user_id":645,"name":"Zesty Italian","steam_id":76561198117835053,"connected_time":1276000000000,"state":"active","ping":60},{"user_id":605,"name":"Pight","steam_id":76561198823422389,"connected_time":3494000000000,"state":"active","ping":88},{"user_id":613,"name":"Omarmeister","steam_id":76561198088369586,"connected_time":3239000000000,"state":"active","ping":85},{"user_id":632,"name":"Antifa Supersoldier","steam_id":76561198141816516,"connected_time":2113000000000,"state":"active","ping":45},{"user_id":633,"name":"Genius Meme","steam_id":76561198162911254,"connected_time":2085000000000,"state":"active","ping":86},{"user_id":629,"name":"spot","steam_id":76561198151135298,"connected_time":2383000000000,"state":"active","ping":72},{"user_id":656,"name":"WLFGRL","steam_id":76561198080179490,"connected_time":792000000000,"state":"active","ping":40},{"user_id":641,"name":"gamers aren't real","steam_id":76561198113748347,"connected_time":1635000000000,"state":"active","ping":72},{"user_id":642,"name":"Emperor Dankatine","steam_id":76561198044741086,"connected_time":1553000000000,"state":"active","ping":84},{"user_id":660,"name":"Skoorb673","steam_id":76561199079002400,"connected_time":162000000000,"state":"active","ping":79},{"user_id":661,"name":"ouch my funny bone","steam_id":76561198066566813,"connected_time":10000000000,"state":"spawning","ping":94},{"user_id":650,"name":"Sponge","steam_id":76561198099024378,"connected_time":1075000000000,"state":"active","ping":52},{"user_id":622,"name":"boof","steam_id":76561198053901968,"connected_time":3040000000000,"state":"active","ping":59},{"user_id":653,"name":"ScoutSecoTF2","steam_id":76561198366212156,"connected_time":966000000000,"state":"active","ping":70},{"user_id":618,"name":"Manic","steam_id":76561198128149670,"connected_time":3208000000000,"state":"active","ping":48},{"user_id":654,"name":"Celebratinguilt","steam_id":76561198059244314,"connected_time":951000000000,"state":"active","ping":126}]},{"server_id":108,"name":"Uncletopia | Dallas | 2 | All Maps","name_short":"dal-2","host":"dal-1.us.uncletopia.com","port":27025,"enabled":true,"region":"us-central","cc":"us","latitude":32.779167,"longitude":-96.80889,"reserved":0,"last_update":"0001-01-01T00:00:00Z","name_a2s":"Uncletopia | Dallas | 2 | All Maps","protocol":17,"map":"cp_mountainlab","folder":"tf","game":"Team Fortress","app_id":440,"player_count":24,"max_players":24,"Bots":0,"server_type":"Dedicated","server_os":"Linux","password":true,"vac":true,"version":"7882260","steam_id":85568392924469988,"keywords":["cp","nocrits","nodmgspread","uncletopia"],"game_id":440,"stv_port":27026,"stv_name":"Uncletopia | Dallas | 2 | All Maps | STV","players":[{"user_id":674,"name":"Monsieur Pequeño","steam_id":76561198327271041,"connected_time":2057000000000,"state":"active","ping":106},{"user_id":655,"name":"mel","steam_id":76561198215559840,"connected_time":2975000000000,"state":"active","ping":68},{"user_id":688,"name":"счизяѳ","steam_id":76561199182960322,"connected_time":1365000000000,"state":"active","ping":64},{"user_id":643,"name":"Hideout","steam_id":76561198163765260,"connected_time":3869000000000,"state":"active","ping":57},{"user_id":647,"name":"dweamy","steam_id":76561198119181880,"connected_time":3450000000000,"state":"active","ping":71},{"user_id":693,"name":"123","steam_id":76561198106308056,"connected_time":969000000000,"state":"active","ping":75},{"user_id":692,"name":"Facepalm","steam_id":76561198001935226,"connected_time":1132000000000,"state":"active","ping":93},{"user_id":630,"name":"xXx_The_REAL_Marge_Simpson_xXx","steam_id":76561199116846851,"connected_time":4852000000000,"state":"active","ping":64},{"user_id":664,"name":"Womanwer","steam_id":76561198194760222,"connected_time":2760000000000,"state":"active","ping":96},{"user_id":695,"name":"Snake Handler","steam_id":76561198027198306,"connected_time":657000000000,"state":"active","ping":76},{"user_id":682,"name":"CHIKN","steam_id":76561198277792665,"connected_time":1755000000000,"state":"active","ping":78},{"user_id":640,"name":"MeMyBongusAndTheGreatOutdoors","steam_id":76561198097708978,"connected_time":4086000000000,"state":"active","ping":47},{"user_id":696,"name":"Tskuno","steam_id":76561198129291597,"connected_time":654000000000,"state":"active","ping":78},{"user_id":685,"name":"Mac Tonight","steam_id":76561198099642820,"connected_time":1617000000000,"state":"active","ping":87},{"user_id":672,"name":"...","steam_id":76561198121508845,"connected_time":2302000000000,"state":"active","ping":97},{"user_id":697,"name":"Woozy","steam_id":76561198008220735,"connected_time":597000000000,"state":"active","ping":274},{"user_id":650,"name":"Trackpad Gaming","steam_id":76561198189062066,"connected_time":3154000000000,"state":"active","ping":105},{"user_id":698,"name":"CUBICLE #35","steam_id":76561198799010228,"connected_time":567000000000,"state":"active","ping":75},{"user_id":700,"name":"Purple potato","steam_id":76561198932276149,"connected_time":30000000000,"state":"active","ping":100},{"user_id":652,"name":"Pom Pom Super Bomb","steam_id":76561198132316905,"connected_time":3018000000000,"state":"active","ping":61},{"user_id":658,"name":"cucumper","steam_id":76561198079504588,"connected_time":2919000000000,"state":"active","ping":70},{"user_id":690,"name":"UnkownGamerLOL","steam_id":76561198225902368,"connected_time":1275000000000,"state":"active","ping":68},{"user_id":691,"name":"sibling bane ツ","steam_id":76561198196769297,"connected_time":1273000000000,"state":"active","ping":81},{"user_id":661,"name":"SleeplessCollin","steam_id":76561198968140914,"connected_time":2870000000000,"state":"active","ping":70}]},{"server_id":5,"name":"Uncletopia | Frankfurt | 1 | All Maps","name_short":"frk-1","host":"frk-1.de.uncletopia.com","port":27015,"enabled":true,"region":"eu","cc":"de","latitude":50.110924,"longitude":8.682127,"reserved":0,"last_update":"0001-01-01T00:00:00Z","name_a2s":"Uncletopia | Frankfurt | 1 | All Maps","protocol":17,"map":"pl_badwater","folder":"tf","game":"Team Fortress","app_id":440,"player_count":1,"max_players":24,"Bots":0,"server_type":"Dedicated","server_os":"Linux","password":true,"vac":true,"version":"7882260","steam_id":85568392924469989,"keywords":["nocrits","nodmgspread","payload","uncletopia"],"game_id":440,"stv_port":27016,"stv_name":"Uncletopia | Frankfurt | 1 | All Maps | STV","players":[{"user_id":3,"name":"Razorback from Team Fortress 2","steam_id":76561199214163032,"connected_time":478000000000,"state":"active","ping":90}]},{"server_id":110,"name":"Uncletopia | Frankfurt | 2 | All Maps","name_short":"frk-2","host":"frk-1.de.uncletopia.com","port":27025,"enabled":true,"region":"eu","cc":"de","latitude":50.110924,"longitude":8.682127,"reserved":0,"last_update":"0001-01-01T00:00:00Z","name_a2s":"Uncletopia | Frankfurt | 2 | All Maps","protocol":17,"map":"pl_swiftwater_final1","folder":"tf","game":"Team Fortress","app_id":440,"player_count":0,"max_players":24,"Bots":0,"server_type":"Dedicated","server_os":"Linux","password":true,"vac":true,"version":"7882260","steam_id":85568392924469990,"keywords":["nocrits","nodmgspread","payload","uncletopia"],"game_id":440,"stv_port":27026,"stv_name":"Uncletopia | Frankfurt | 2 | All Maps | STV","players":null},{"server_id":308,"name":"Uncletopia | Frankfurt | 3 | All Maps","name_short":"frk-3","host":"frk-1.de.uncletopia.com","port":27035,"enabled":true,"region":"eu","cc":"de","latitude":50.110924,"longitude":8.682127,"reserved":0,"last_update":"0001-01-01T00:00:00Z","name_a2s":"Uncletopia | Frankfurt | 3 | All Maps","protocol":17,"map":"cp_process_final","folder":"tf","game":"Team Fortress","app_id":440,"player_count":0,"max_players":24,"Bots":0,"server_type":"Dedicated","server_os":"Linux","password":true,"vac":true,"version":"7882260","steam_id":85568392924504274,"keywords":["cp","nocrits","nodmgspread","uncletopia"],"game_id":440,"stv_port":27036,"stv_name":"Uncletopia | Frankfurt | 3 | All Maps | STV","players":null},{"server_id":309,"name":"Uncletopia | Frankfurt | 4 | All Maps","name_short":"frk-4","host":"frk-1.de.uncletopia.com","port":27045,"enabled":true,"region":"eu","cc":"de","latitude":50.110924,"longitude":8.682127,"reserved":0,"last_update":"0001-01-01T00:00:00Z","name_a2s":"Uncletopia | Frankfurt | 4 | All Maps","protocol":17,"map":"koth_lakeside_final","folder":"tf","game":"Team Fortress","app_id":440,"player_count":0,"max_players":24,"Bots":0,"server_type":"Dedicated","server_os":"Linux","password":true,"vac":true,"version":"7882260","steam_id":85568392924504275,"keywords":["cp","nocrits","nodmgspread","uncletopia"],"game_id":440,"stv_port":27046,"stv_name":"Uncletopia | Frankfurt | 4 | All Maps | STV","players":null},{"server_id":310,"name":"Uncletopia | Frankfurt | 5 | All Maps","name_short":"frk-5","host":"frk-1.de.uncletopia.com","port":27055,"enabled":true,"region":"eu","cc":"de","latitude":50.110924,"longitude":8.682127,"reserved":0,"last_update":"0001-01-01T00:00:00Z","name_a2s":"Uncletopia | Frankfurt | 5 | All Maps","protocol":17,"map":"cp_mountainlab","folder":"tf","game":"Team Fortress","app_id":440,"player_count":0,"max_players":24,"Bots":0,"server_type":"Dedicated","server_os":"Linux","password":true,"vac":true,"version":"7882260","steam_id":85568392924504277,"keywords":["cp","nocrits","nodmgspread","uncletopia"],"game_id":440,"stv_port":27056,"stv_name":"Uncletopia | Frankfurt | 5 | All Maps | STV","players":null},{"server_id":311,"name":"Uncletopia | Frankfurt | 6 | All Maps","name_short":"frk-6","host":"frk-1.de.uncletopia.com","port":27065,"enabled":true,"region":"eu","cc":"de","latitude":50.110924,"longitude":8.682127,"reserved":0,"last_update":"0001-01-01T00:00:00Z","name_a2s":"Uncletopia | Frankfurt | 6 | All Maps","protocol":17,"map":"cp_sunshine","folder":"tf","game":"Team Fortress","app_id":440,"player_count":0,"max_players":24,"Bots":0,"server_type":"Dedicated","server_os":"Linux","password":true,"vac":true,"version":"7882260","steam_id":85568392924504278,"keywords":["cp","nocrits","nodmgspread","uncletopia"],"game_id":440,"stv_port":27066,"stv_name":"Uncletopia | Frankfurt | 6 | All Maps | STV","players":null},{"server_id":23,"name":"Uncletopia | Frankfurt | 7 | Stopwatch Beta","name_short":"frk-7","host":"frk-1.de.uncletopia.com","port":27075,"enabled":true,"region":"eu","cc":"de","latitude":50.110924,"longitude":8.682127,"reserved":0,"last_update":"0001-01-01T00:00:00Z","name_a2s":"Uncletopia | Frankfurt | 7 | Stopwatch Beta","protocol":17,"map":"cp_dustbowl","folder":"tf","game":"Team Fortress","app_id":440,"player_count":0,"max_players":24,"Bots":0,"server_type":"Dedicated","server_os":"Linux","password":true,"vac":true,"version":"7882260","steam_id":85568392924742827,"keywords":["cp","nocrits","nodmgspread","uncletopia"],"game_id":440,"stv_port":27076,"stv_name":"Uncletopia | Frankfurt | 7 | Stopwatch Beta | STV","players":null},{"server_id":24,"name":"Uncletopia | Frankfurt | 8 | Community","name_short":"frk-8","host":"frk-1.de.uncletopia.com","port":27085,"enabled":true,"region":"eu","cc":"de","latitude":50.110924,"longitude":8.682127,"reserved":0,"last_update":"0001-01-01T00:00:00Z","name_a2s":"Uncletopia | Frankfurt | 8 | Community","protocol":17,"map":"koth_cascade","folder":"tf","game":"Team Fortress","app_id":440,"player_count":0,"max_players":24,"Bots":0,"server_type":"Dedicated","server_os":"Linux","password":true,"vac":true,"version":"7882260","steam_id":85568392924742828,"keywords":["cp","nocrits","nodmgspread","uncletopia"],"game_id":440,"stv_port":27086,"stv_name":"Uncletopia | Frankfurt | 8 | Community | STV","players":null},{"server_id":202,"name":"Uncletopia | Hong Kong | 1 | All Maps","name_short":"hgk-1","host":"hgk-1.hk.uncletopia.com","port":27015,"enabled":true,"region":"asia","cc":"hk","latitude":22.302711,"longitude":114.177216,"reserved":0,"last_update":"0001-01-01T00:00:00Z","name_a2s":"Uncletopia | Hong Kong | 1 | All Maps","protocol":17,"map":"pl_snowycoast","folder":"tf","game":"Team Fortress","app_id":440,"player_count":22,"max_players":24,"Bots":0,"server_type":"Dedicated","server_os":"Linux","password":true,"vac":true,"version":"7882260","steam_id":85568392924494504,"keywords":["nocrits","nodmgspread","payload","uncletopia"],"game_id":440,"stv_port":27016,"stv_name":"Uncletopia | Hong Kong | 1 | All Maps | STV","players":[{"user_id":87,"name":"POOTIS FAZBEAR PRODUCTIONS","steam_id":76561198797387199,"connected_time":2000000000,"state":"spawning","ping":47},{"user_id":53,"name":"Vortex Medico","steam_id":76561198833527091,"connected_time":2849000000000,"state":"active","ping":95},{"user_id":67,"name":"Puddin","steam_id":76561198140052918,"connected_time":1466000000000,"state":"active","ping":96},{"user_id":68,"name":"Zinx","steam_id":76561199116459368,"connected_time":1373000000000,"state":"active","ping":93},{"user_id":69,"name":"bam","steam_id":76561198418964176,"connected_time":1340000000000,"state":"active","ping":92},{"user_id":54,"name":"Cipher(I_Lag_a_lot_bare_with_me","steam_id":76561198796591492,"connected_time":2540000000000,"state":"active","ping":103},{"user_id":86,"name":"CaptainBozo","steam_id":76561199151959977,"connected_time":193000000000,"state":"active","ping":60},{"user_id":85,"name":"bodacious bogey","steam_id":76561198055553140,"connected_time":256000000000,"state":"active","ping":72},{"user_id":58,"name":"Butt_grater","steam_id":76561198929466103,"connected_time":2309000000000,"state":"active","ping":73},{"user_id":60,"name":"water tastes good","steam_id":76561199375947670,"connected_time":2150000000000,"state":"active","ping":60},{"user_id":62,"name":"Draculium","steam_id":76561199137927625,"connected_time":2038000000000,"state":"active","ping":93},{"user_id":63,"name":"Jumanji™","steam_id":76561198431664383,"connected_time":1835000000000,"state":"active","ping":67},{"user_id":70,"name":"Sky","steam_id":76561198445161997,"connected_time":1319000000000,"state":"active","ping":41},{"user_id":82,"name":"urotsuki with da doobie","steam_id":76561198074339034,"connected_time":712000000000,"state":"active","ping":75},{"user_id":72,"name":"protoguy(한국인임 제발)","steam_id":76561199249312448,"connected_time":1164000000000,"state":"active","ping":93},{"user_id":84,"name":"Windmill","steam_id":76561199230997986,"connected_time":361000000000,"state":"active","ping":83},{"user_id":74,"name":"C. RONALDO","steam_id":76561198211578967,"connected_time":1119000000000,"state":"active","ping":90},{"user_id":76,"name":"Saggle","steam_id":76561198056075147,"connected_time":1097000000000,"state":"active","ping":137},{"user_id":77,"name":"UltraFat","steam_id":76561198253918132,"connected_time":953000000000,"state":"active","ping":92},{"user_id":79,"name":"Hay","steam_id":76561199438952901,"connected_time":918000000000,"state":"active","ping":53},{"user_id":80,"name":"spinach (old mouse)","steam_id":76561198042539541,"connected_time":907000000000,"state":"active","ping":75},{"user_id":81,"name":"sp00ky lemon","steam_id":76561198084638682,"connected_time":841000000000,"state":"active","ping":76}]},{"server_id":1,"name":"Uncletopia | Los Angeles | 1 | All Maps","name_short":"lax-1","host":"lax-1.us.uncletopia.com","port":27015,"enabled":true,"region":"us-west","cc":"us","latitude":33.94279,"longitude":-118.41004,"reserved":0,"last_update":"0001-01-01T00:00:00Z","name_a2s":"Uncletopia | Los Angeles | 1 | All Maps","protocol":17,"map":"koth_harvest_final","folder":"tf","game":"Team Fortress","app_id":440,"player_count":24,"max_players":24,"Bots":0,"server_type":"Dedicated","server_os":"Linux","password":true,"vac":true,"version":"7882260","steam_id":85568392924469991,"keywords":["cp","nocrits","nodmgspread","uncletopia"],"game_id":440,"stv_port":27016,"stv_name":"Uncletopia | Los Angeles | 1 | All Maps | STV","players":[{"user_id":505,"name":"Wendall555","steam_id":76561198985637603,"connected_time":1199000000000,"state":"active","ping":47},{"user_id":514,"name":"docmcstuffin","steam_id":76561198117631012,"connected_time":588000000000,"state":"active","ping":75},{"user_id":519,"name":"Lumperton","steam_id":76561198142847910,"connected_time":298000000000,"state":"active","ping":94},{"user_id":482,"name":"johnman gooberguy","steam_id":76561199014859764,"connected_time":3646000000000,"state":"active","ping":75},{"user_id":506,"name":"HeroOfTime","steam_id":76561199096218001,"connected_time":1039000000000,"state":"active","ping":50},{"user_id":472,"name":"St. Michael","steam_id":76561198037611052,"connected_time":4304000000000,"state":"active","ping":68},{"user_id":518,"name":"dubba (•̀_•́ )","steam_id":76561199428471192,"connected_time":432000000000,"state":"active","ping":89},{"user_id":442,"name":"rimble","steam_id":76561198150137369,"connected_time":6752000000000,"state":"active","ping":50},{"user_id":521,"name":"zpalmtree","steam_id":76561198134307620,"connected_time":220000000000,"state":"active","ping":111},{"user_id":413,"name":"Nyges","steam_id":76561198139236154,"connected_time":9876000000000,"state":"active","ping":50},{"user_id":444,"name":"Clagger","steam_id":76561198066701092,"connected_time":6744000000000,"state":"active","ping":60},{"user_id":440,"name":"Pink","steam_id":76561199093650594,"connected_time":7467000000000,"state":"active","ping":71},{"user_id":434,"name":"NFL.com","steam_id":76561198113405376,"connected_time":8055000000000,"state":"active","ping":48},{"user_id":509,"name":"vioxynteris","steam_id":76561198161428666,"connected_time":865000000000,"state":"active","ping":29},{"user_id":520,"name":"Jellojiggler","steam_id":76561198094320477,"connected_time":250000000000,"state":"active","ping":76},{"user_id":463,"name":"Buswolley","steam_id":76561197995205571,"connected_time":5922000000000,"state":"active","ping":61},{"user_id":516,"name":"Whisper!","steam_id":76561198119609795,"connected_time":561000000000,"state":"active","ping":47},{"user_id":513,"name":"rivulet","steam_id":76561198165825391,"connected_time":712000000000,"state":"active","ping":106},{"user_id":496,"name":"Nuggies","steam_id":76561198272432592,"connected_time":1901000000000,"state":"active","ping":58},{"user_id":512,"name":"shy guy","steam_id":76561198151246059,"connected_time":731000000000,"state":"active","ping":40},{"user_id":522,"name":"pandoRA","steam_id":76561198075490385,"connected_time":96000000000,"state":"active","ping":45},{"user_id":376,"name":"Shamrock Shake Oct.10.2020 @8pm","steam_id":76561198833313201,"connected_time":12478000000000,"state":"active","ping":62},{"user_id":493,"name":"The Fool","steam_id":76561198132939482,"connected_time":2343000000000,"state":"active","ping":85},{"user_id":481,"name":"Mr Baseball","steam_id":76561198960521363,"connected_time":3800000000000,"state":"active","ping":76}]},{"server_id":112,"name":"Uncletopia | Los Angeles | 2 | All Maps","name_short":"lax-2","host":"lax-1.us.uncletopia.com","port":27025,"enabled":true,"region":"us-west","cc":"us","latitude":33.94279,"longitude":-118.41004,"reserved":0,"last_update":"0001-01-01T00:00:00Z","name_a2s":"Uncletopia | Los Angeles | 2 | All Maps","protocol":17,"map":"cp_dustbowl","folder":"tf","game":"Team Fortress","app_id":440,"player_count":24,"max_players":24,"Bots":0,"server_type":"Dedicated","server_os":"Linux","password":true,"vac":true,"version":"7882260","steam_id":85568392924469992,"keywords":["cp","nocrits","nodmgspread","uncletopia"],"game_id":440,"stv_port":27026,"stv_name":"Uncletopia | Los Angeles | 2 | All Maps | STV","players":[{"user_id":300,"name":"i cant aim","steam_id":76561198065873462,"connected_time":1901000000000,"state":"active","ping":46},{"user_id":323,"name":"Big Manny","steam_id":76561198999284997,"connected_time":806000000000,"state":"active","ping":63},{"user_id":247,"name":"Scotty","steam_id":76561198268006443,"connected_time":4072000000000,"state":"active","ping":114},{"user_id":301,"name":"silver","steam_id":76561199020503397,"connected_time":1878000000000,"state":"active","ping":48},{"user_id":297,"name":"Grand","steam_id":76561198290143399,"connected_time":1914000000000,"state":"active","ping":76},{"user_id":227,"name":"Axelfreeze14","steam_id":76561198436383913,"connected_time":6494000000000,"state":"active","ping":36},{"user_id":258,"name":"Lane","steam_id":76561197965828506,"connected_time":3752000000000,"state":"active","ping":88},{"user_id":264,"name":"PT Cruiser","steam_id":76561198118588102,"connected_time":3522000000000,"state":"active","ping":57},{"user_id":265,"name":"squidward testicles","steam_id":76561199278872120,"connected_time":3498000000000,"state":"active","ping":67},{"user_id":296,"name":"Truffles","steam_id":76561198095868800,"connected_time":1932000000000,"state":"active","ping":98},{"user_id":310,"name":"Jerry Bondle","steam_id":76561198337512213,"connected_time":1673000000000,"state":"active","ping":119},{"user_id":298,"name":"Wálter","steam_id":76561198118176126,"connected_time":1913000000000,"state":"active","ping":54},{"user_id":327,"name":"californjoe","steam_id":76561197965047795,"connected_time":71000000000,"state":"active","ping":45},{"user_id":311,"name":"Reliant Robin","steam_id":76561198277599259,"connected_time":1617000000000,"state":"active","ping":58},{"user_id":261,"name":"TRAIN of CHAOS","steam_id":76561198073589886,"connected_time":3641000000000,"state":"active","ping":50},{"user_id":313,"name":"ghealy96","steam_id":76561199224515037,"connected_time":1541000000000,"state":"active","ping":79},{"user_id":315,"name":"austintacious","steam_id":76561198054118061,"connected_time":1446000000000,"state":"active","ping":101},{"user_id":306,"name":"Cuno Doesn't Care!","steam_id":76561198007372782,"connected_time":1847000000000,"state":"active","ping":64},{"user_id":328,"name":"Lots0","steam_id":76561198043143145,"connected_time":30000000000,"state":"active","ping":97},{"user_id":316,"name":"Danger McHazard","steam_id":76561198059451274,"connected_time":1438000000000,"state":"active","ping":51},{"user_id":322,"name":"Soda Popinski","steam_id":76561198045209288,"connected_time":1041000000000,"state":"active","ping":45},{"user_id":314,"name":"Moss Giant","steam_id":76561198062535902,"connected_time":1541000000000,"state":"active","ping":98},{"user_id":317,"name":"Federal Tax Evasion Gaming","steam_id":76561198348693440,"connected_time":1344000000000,"state":"active","ping":105},{"user_id":320,"name":"Father Jon","steam_id":76561198324730919,"connected_time":1172000000000,"state":"active","ping":97}]},{"server_id":324,"name":"Uncletopia | Los Angeles | 3 | All Maps","name_short":"lax-3","host":"lax-1.us.uncletopia.com","port":27035,"enabled":true,"region":"us-west","cc":"us","latitude":33.94279,"longitude":-118.41004,"reserved":0,"last_update":"0001-01-01T00:00:00Z","name_a2s":"Uncletopia | Los Angeles | 3 | All Maps","protocol":17,"map":"pl_pier","folder":"tf","game":"Team Fortress","app_id":440,"player_count":24,"max_players":24,"Bots":0,"server_type":"Dedicated","server_os":"Linux","password":true,"vac":true,"version":"7882260","steam_id":85568392924510198,"keywords":["nocrits","nodmgspread","payload","uncletopia"],"game_id":440,"stv_port":27036,"stv_name":"Uncletopia | Los Angeles | 3 | All Maps | STV","players":[{"user_id":234,"name":"SanitysEdge","steam_id":76561198130732813,"connected_time":5656000000000,"state":"active","ping":46},{"user_id":170,"name":"triph","steam_id":76561198067196509,"connected_time":8644000000000,"state":"active","ping":40},{"user_id":314,"name":"bennyboy","steam_id":76561198005546941,"connected_time":503000000000,"state":"active","ping":88},{"user_id":315,"name":"An00bis","steam_id":76561198044084508,"connected_time":500000000000,"state":"active","ping":46},{"user_id":312,"name":"cringy","steam_id":76561198323000455,"connected_time":732000000000,"state":"active","ping":57},{"user_id":308,"name":"noellehound","steam_id":76561198108844158,"connected_time":1072000000000,"state":"active","ping":52},{"user_id":320,"name":"GLXy","steam_id":76561198207551544,"connected_time":267000000000,"state":"active","ping":102},{"user_id":310,"name":"mEch114","steam_id":76561198236936060,"connected_time":926000000000,"state":"active","ping":76},{"user_id":299,"name":"Mr. Unlucky","steam_id":76561198123471917,"connected_time":1325000000000,"state":"active","ping":97},{"user_id":291,"name":"Markex","steam_id":76561199060005550,"connected_time":1948000000000,"state":"active","ping":50},{"user_id":311,"name":"EggPencil","steam_id":76561198043633284,"connected_time":743000000000,"state":"active","ping":83},{"user_id":316,"name":"poetic","steam_id":76561197999481727,"connected_time":485000000000,"state":"active","ping":80},{"user_id":305,"name":"Excrement","steam_id":76561198167740127,"connected_time":1162000000000,"state":"active","ping":73},{"user_id":302,"name":"GRAPE","steam_id":76561198150447896,"connected_time":1292000000000,"state":"active","ping":56},{"user_id":263,"name":"fart with reverb","steam_id":76561198861823583,"connected_time":3538000000000,"state":"active","ping":111},{"user_id":292,"name":"anipe10","steam_id":76561199084698417,"connected_time":1854000000000,"state":"active","ping":60},{"user_id":317,"name":"Jacrushar","steam_id":76561198045229843,"connected_time":472000000000,"state":"active","ping":55},{"user_id":294,"name":"dsmagic","steam_id":76561198038601542,"connected_time":1650000000000,"state":"active","ping":62},{"user_id":307,"name":"Nez","steam_id":76561197963109059,"connected_time":1110000000000,"state":"active","ping":64},{"user_id":319,"name":"Blackbeard","steam_id":76561198046952265,"connected_time":400000000000,"state":"active","ping":75},{"user_id":295,"name":"Satori Komeiji","steam_id":76561198158211423,"connected_time":1529000000000,"state":"active","ping":51},{"user_id":318,"name":"god approaches","steam_id":76561198081617990,"connected_time":433000000000,"state":"active","ping":111},{"user_id":309,"name":"NotAWeeb","steam_id":76561198165530739,"connected_time":1050000000000,"state":"active","ping":57},{"user_id":242,"name":"DUCKS DUCKS DUCKS DUCKS","steam_id":76561198107486812,"connected_time":5065000000000,"state":"active","ping":64}]},{"server_id":25,"name":"Uncletopia | Los Angeles | 4 | Stopwatch Beta","name_short":"lax-4","host":"lax-1.us.uncletopia.com","port":27045,"enabled":true,"region":"us-west","cc":"us","latitude":33.94279,"longitude":-118.41004,"reserved":0,"last_update":"0001-01-01T00:00:00Z","name_a2s":"Uncletopia | Los Angeles | 4 | Stopwatch Beta","protocol":17,"map":"koth_lakeside_final","folder":"tf","game":"Team Fortress","app_id":440,"player_count":0,"max_players":24,"Bots":0,"server_type":"Dedicated","server_os":"Linux","password":true,"vac":true,"version":"7882260","steam_id":85568392924510199,"keywords":["cp","nocrits","nodmgspread","uncletopia"],"game_id":440,"stv_port":27046,"stv_name":"Uncletopia | Los Angeles | 4 | Stopwatch Beta | STV","players":null},{"server_id":11,"name":"Uncletopia | London | 1 | All Maps","name_short":"lon-1","host":"lon-1.uk.uncletopia.com","port":27015,"enabled":true,"region":"eu","cc":"gb","latitude":51.509865,"longitude":-0.118092,"reserved":0,"last_update":"0001-01-01T00:00:00Z","name_a2s":"Uncletopia | London | 1 | All Maps","protocol":17,"map":"cp_process_final","folder":"tf","game":"Team Fortress","app_id":440,"player_count":0,"max_players":24,"Bots":0,"server_type":"Dedicated","server_os":"Linux","password":true,"vac":true,"version":"7882260","steam_id":85568392924367362,"keywords":["cp","nocrits","nodmgspread","uncletopia"],"game_id":440,"stv_port":27016,"stv_name":"Uncletopia | London | 1 | All Maps | STV","players":null},{"server_id":114,"name":"Uncletopia | London | 2 | All Maps","name_short":"lon-2","host":"lon-1.uk.uncletopia.com","port":27025,"enabled":true,"region":"eu","cc":"gb","latitude":51.509865,"longitude":-0.118092,"reserved":0,"last_update":"0001-01-01T00:00:00Z","name_a2s":"Uncletopia | London | 2 | All Maps","protocol":17,"map":"pl_frontier_final","folder":"tf","game":"Team Fortress","app_id":440,"player_count":18,"max_players":24,"Bots":0,"server_type":"Dedicated","server_os":"Linux","password":true,"vac":true,"version":"7882260","steam_id":85568392924470941,"keywords":["nocrits","nodmgspread","payload","uncletopia"],"game_id":440,"stv_port":27026,"stv_name":"Uncletopia | London | 2 | All Maps | STV","players":[{"user_id":3,"name":"Borat","steam_id":76561198122226417,"connected_time":4397000000000,"state":"active","ping":44},{"user_id":53,"name":"markkululz","steam_id":76561198120166752,"connected_time":1381000000000,"state":"active","ping":76},{"user_id":58,"name":"lucabargagli","steam_id":76561199353783858,"connected_time":836000000000,"state":"active","ping":71},{"user_id":71,"name":"Artificial.Ignorance","steam_id":76561198453090180,"connected_time":22000000000,"state":"active","ping":185},{"user_id":66,"name":"unkle","steam_id":76561198093794423,"connected_time":294000000000,"state":"active","ping":90},{"user_id":67,"name":"strideΔ","steam_id":76561199007826093,"connected_time":205000000000,"state":"active","ping":81},{"user_id":40,"name":"PP_master69420","steam_id":76561199019913910,"connected_time":2535000000000,"state":"active","ping":81},{"user_id":36,"name":"Enigmus","steam_id":76561197994063627,"connected_time":2814000000000,"state":"active","ping":90},{"user_id":12,"name":"REN","steam_id":76561198000596385,"connected_time":4383000000000,"state":"active","ping":77},{"user_id":68,"name":"JUST C2","steam_id":76561199194240072,"connected_time":152000000000,"state":"active","ping":121},{"user_id":69,"name":"Nelkobud","steam_id":76561198115606282,"connected_time":133000000000,"state":"active","ping":75},{"user_id":15,"name":"Bubsy 3D","steam_id":76561197988942314,"connected_time":4373000000000,"state":"active","ping":50},{"user_id":63,"name":"shotgunplayer2004","steam_id":76561198382281653,"connected_time":698000000000,"state":"active","ping":86},{"user_id":64,"name":"Emma","steam_id":76561198076724979,"connected_time":673000000000,"state":"active","ping":68},{"user_id":46,"name":"Vikud","steam_id":76561199110575856,"connected_time":1934000000000,"state":"active","ping":147},{"user_id":61,"name":"Qxillum","steam_id":76561198037201297,"connected_time":801000000000,"state":"active","ping":58},{"user_id":44,"name":"Bruh","steam_id":76561199094106464,"connected_time":2371000000000,"state":"active","ping":87},{"user_id":29,"name":"™⁧⁧乃ȽOOD PRINCΞ","steam_id":76561198137835796,"connected_time":3779000000000,"state":"active","ping":64}]},{"server_id":320,"name":"Uncletopia | London | 3 | All Maps","name_short":"lon-3","host":"lon-1.uk.uncletopia.com","port":27035,"enabled":true,"region":"eu","cc":"gb","latitude":51.509865,"longitude":-0.118092,"reserved":0,"last_update":"0001-01-01T00:00:00Z","name_a2s":"Uncletopia | London | 3 | All Maps","protocol":17,"map":"koth_highpass","folder":"tf","game":"Team Fortress","app_id":440,"player_count":0,"max_players":24,"Bots":0,"server_type":"Dedicated","server_os":"Linux","password":true,"vac":true,"version":"7882260","steam_id":85568392924510192,"keywords":["cp","nocrits","nodmgspread","uncletopia"],"game_id":440,"stv_port":27036,"stv_name":"Uncletopia | London | 3 | All Maps | STV","players":null},{"server_id":321,"name":"Uncletopia | London | 4 | All Maps","name_short":"lon-4","host":"lon-1.uk.uncletopia.com","port":27045,"enabled":true,"region":"eu","cc":"gb","latitude":51.509865,"longitude":-0.118092,"reserved":0,"last_update":"0001-01-01T00:00:00Z","name_a2s":"Uncletopia | London | 4 | All Maps","protocol":17,"map":"pl_upward","folder":"tf","game":"Team Fortress","app_id":440,"player_count":0,"max_players":24,"Bots":0,"server_type":"Dedicated","server_os":"Linux","password":true,"vac":true,"version":"7882260","steam_id":85568392924510193,"keywords":["nocrits","nodmgspread","payload","uncletopia"],"game_id":440,"stv_port":27046,"stv_name":"Uncletopia | London | 4 | All Maps | STV","players":null},{"server_id":21,"name":"Uncletopia | London | 5 | All Maps","name_short":"lon-5","host":"lon-1.uk.uncletopia.com","port":27055,"enabled":true,"region":"eu","cc":"gb","latitude":51.509865,"longitude":-0.118092,"reserved":0,"last_update":"0001-01-01T00:00:00Z","name_a2s":"Uncletopia | London | 5 | All Maps","protocol":17,"map":"pl_frontier_final","folder":"tf","game":"Team Fortress","app_id":440,"player_count":0,"max_players":24,"Bots":0,"server_type":"Dedicated","server_os":"Linux","password":true,"vac":true,"version":"7882260","steam_id":85568392924742829,"keywords":["nocrits","nodmgspread","payload","uncletopia"],"game_id":440,"stv_port":27056,"stv_name":"Uncletopia | London | 5 | All Maps | STV","players":null},{"server_id":22,"name":"Uncletopia | London | 6 | All Maps","name_short":"lon-6","host":"lon-1.uk.uncletopia.com","port":27065,"enabled":true,"region":"eu","cc":"gb","latitude":51.509865,"longitude":-0.118092,"reserved":0,"last_update":"0001-01-01T00:00:00Z","name_a2s":"Uncletopia | London | 6 | All Maps","protocol":17,"map":"cp_altitude","folder":"tf","game":"Team Fortress","app_id":440,"player_count":0,"max_players":24,"Bots":0,"server_type":"Dedicated","server_os":"Linux","password":true,"vac":true,"version":"7882260","steam_id":85568392924742830,"keywords":["cp","nocrits","nodmgspread","uncletopia"],"game_id":440,"stv_port":27066,"stv_name":"Uncletopia | London | 6 | All Maps | STV","players":null},{"server_id":40,"name":"Uncletopia | London | 7 | No Payload","name_short":"lon-7","host":"lon-1.uk.uncletopia.com","port":27075,"enabled":true,"region":"eu","cc":"gb","latitude":51.509865,"longitude":-0.118092,"reserved":0,"last_update":"0001-01-01T00:00:00Z","name_a2s":"Uncletopia | London | 7 | No Payload","protocol":17,"map":"pl_pier","folder":"tf","game":"Team Fortress","app_id":440,"player_count":0,"max_players":24,"Bots":0,"server_type":"Dedicated","server_os":"Linux","password":true,"vac":true,"version":"7882260","steam_id":85568392924964314,"keywords":["nocrits","nodmgspread","payload","uncletopia"],"game_id":440,"stv_port":27076,"stv_name":"Uncletopia | London | 7 | No Payload | STV","players":null},{"server_id":41,"name":"Uncletopia | London | 8 | Community","name_short":"lon-8","host":"lon-1.uk.uncletopia.com","port":27085,"enabled":true,"region":"eu","cc":"gb","latitude":51.509865,"longitude":-0.118092,"reserved":0,"last_update":"0001-01-01T00:00:00Z","name_a2s":"Uncletopia | London | 8 | Community","protocol":17,"map":"pl_swiftwater_final1","folder":"tf","game":"Team Fortress","app_id":440,"player_count":0,"max_players":24,"Bots":0,"server_type":"Dedicated","server_os":"Linux","password":true,"vac":true,"version":"7882260","steam_id":85568392924964315,"keywords":["nocrits","nodmgspread","payload","uncletopia"],"game_id":440,"stv_port":27086,"stv_name":"Uncletopia | London | 8 | Community | STV","players":null},{"server_id":300,"name":"Uncletopia | Montréal | 1 | All Maps","name_short":"mtl-1","host":"mtl-1.ca.uncletopia.com","port":27015,"enabled":true,"region":"us-east","cc":"ca","latitude":45.50889,"longitude":-73.56167,"reserved":0,"last_update":"0001-01-01T00:00:00Z","name_a2s":"Uncletopia | Montréal | 1 | All Maps","protocol":17,"map":"cp_dustbowl","folder":"tf","game":"Team Fortress","app_id":440,"player_count":0,"max_players":24,"Bots":0,"server_type":"Dedicated","server_os":"Linux","password":true,"vac":true,"version":"7882260","steam_id":85568392924500087,"keywords":["cp","nocrits","nodmgspread","uncletopia"],"game_id":440,"stv_port":27016,"stv_name":"Uncletopia | Montréal | 1 | All Maps | STV","players":null},{"server_id":301,"name":"Uncletopia | Montréal | 2 | All Maps","name_short":"mtl-2","host":"mtl-1.ca.uncletopia.com","port":27025,"enabled":true,"region":"us-east","cc":"ca","latitude":45.50889,"longitude":-73.56167,"reserved":0,"last_update":"0001-01-01T00:00:00Z","name_a2s":"Uncletopia | Montréal | 2 | All Maps","protocol":17,"map":"cp_process_final","folder":"tf","game":"Team Fortress","app_id":440,"player_count":0,"max_players":24,"Bots":0,"server_type":"Dedicated","server_os":"Linux","password":true,"vac":true,"version":"7882260","steam_id":85568392924500088,"keywords":["cp","nocrits","nodmgspread","uncletopia"],"game_id":440,"stv_port":27026,"stv_name":"Uncletopia | Montréal | 2 | All Maps | STV","players":null},{"server_id":302,"name":"Uncletopia | Montréal | 3 | All Maps","name_short":"mtl-3","host":"mtl-1.ca.uncletopia.com","port":27035,"enabled":true,"region":"us-east","cc":"ca","latitude":45.50889,"longitude":-73.56167,"reserved":0,"last_update":"0001-01-01T00:00:00Z","name_a2s":"Uncletopia | Montréal | 3 | All Maps","protocol":17,"map":"koth_viaduct","folder":"tf","game":"Team Fortress","app_id":440,"player_count":0,"max_players":24,"Bots":0,"server_type":"Dedicated","server_os":"Linux","password":true,"vac":true,"version":"7882260","steam_id":85568392924500089,"keywords":["cp","nocrits","nodmgspread","uncletopia"],"game_id":440,"stv_port":27036,"stv_name":"Uncletopia | Montréal | 3 | All Maps | STV","players":null},{"server_id":303,"name":"Uncletopia | Montréal | 4 | No Payload","name_short":"mtl-4","host":"mtl-1.ca.uncletopia.com","port":27045,"enabled":true,"region":"us-east","cc":"ca","latitude":45.50889,"longitude":-73.56167,"reserved":0,"last_update":"0001-01-01T00:00:00Z","name_a2s":"Uncletopia | Montréal | 4 | No Payload","protocol":17,"map":"ctf_doublecross","folder":"tf","game":"Team Fortress","app_id":440,"player_count":0,"max_players":24,"Bots":0,"server_type":"Dedicated","server_os":"Linux","password":true,"vac":true,"version":"7882260","steam_id":85568392924500090,"keywords":["ctf","nocrits","nodmgspread","uncletopia"],"game_id":440,"stv_port":27046,"stv_name":"Uncletopia | Montréal | 4 | No Payload | STV","players":null},{"server_id":13,"name":"Uncletopia | New York City | 1 | All Maps","name_short":"nyc-1","host":"nyc-1.us.uncletopia.com","port":27015,"enabled":true,"region":"us-east","cc":"us","latitude":40.73061,"longitude":-73.93524,"reserved":0,"last_update":"0001-01-01T00:00:00Z","name_a2s":"Uncletopia | New York City | 1 | All Maps","protocol":17,"map":"koth_cascade","folder":"tf","game":"Team Fortress","app_id":440,"player_count":5,"max_players":24,"Bots":0,"server_type":"Dedicated","server_os":"Linux","password":true,"vac":true,"version":"7882260","steam_id":85568392924469993,"keywords":["cp","nocrits","nodmgspread","uncletopia"],"game_id":440,"stv_port":27016,"stv_name":"Uncletopia | New York City | 1 | All Maps | STV","players":[{"user_id":674,"name":"ฅ^•ﻌ•^ฅ","steam_id":76561198326987939,"connected_time":1118000000000,"state":"active","ping":82},{"user_id":675,"name":"cleet","steam_id":76561198042510363,"connected_time":1117000000000,"state":"active","ping":45},{"user_id":677,"name":"D3V1L","steam_id":76561198419588328,"connected_time":1105000000000,"state":"active","ping":69},{"user_id":678,"name":"AussieAlex","steam_id":76561198001611833,"connected_time":1103000000000,"state":"active","ping":104},{"user_id":679,"name":"dyragu","steam_id":76561198172046883,"connected_time":1102000000000,"state":"active","ping":30}]},{"server_id":14,"name":"Uncletopia | New York City | 2 | All Maps","name_short":"nyc-2","host":"nyc-1.us.uncletopia.com","port":27025,"enabled":true,"region":"us-east","cc":"us","latitude":40.73061,"longitude":-73.93524,"reserved":0,"last_update":"0001-01-01T00:00:00Z","name_a2s":"Uncletopia | New York City | 2 | All Maps","protocol":17,"map":"pl_swiftwater_final1","folder":"tf","game":"Team Fortress","app_id":440,"player_count":25,"max_players":24,"Bots":0,"server_type":"Dedicated","server_os":"Linux","password":true,"vac":true,"version":"7882260","steam_id":85568392924469994,"keywords":["nocrits","nodmgspread","payload","uncletopia"],"game_id":440,"stv_port":27026,"stv_name":"Uncletopia | New York City | 2 | All Maps | STV","players":[{"user_id":870,"name":"Snugglebug Midnight","steam_id":76561198045190355,"connected_time":1631000000000,"state":"active","ping":72},{"user_id":867,"name":"big tiddie deathclaw gf","steam_id":76561198101450925,"connected_time":1783000000000,"state":"active","ping":100},{"user_id":888,"name":"[chef] iron","steam_id":76561197970888616,"connected_time":630000000000,"state":"active","ping":70},{"user_id":890,"name":"greeno","steam_id":76561198109901138,"connected_time":626000000000,"state":"active","ping":57},{"user_id":875,"name":"Starseeing Oracle","steam_id":76561198097720124,"connected_time":1352000000000,"state":"active","ping":94},{"user_id":844,"name":"parch","steam_id":76561198016946421,"connected_time":3344000000000,"state":"active","ping":83},{"user_id":845,"name":"crafty","steam_id":76561198139128297,"connected_time":3310000000000,"state":"active","ping":85},{"user_id":894,"name":"DomTheBomb07","steam_id":76561199153949548,"connected_time":143000000000,"state":"connecting","ping":0},{"user_id":876,"name":"TuxTheAstronaut","steam_id":76561198249141126,"connected_time":1263000000000,"state":"active","ping":57},{"user_id":891,"name":"Shimshaw Creamtime","steam_id":76561198087144636,"connected_time":625000000000,"state":"active","ping":64},{"user_id":892,"name":"weewa","steam_id":76561198064876090,"connected_time":619000000000,"state":"active","ping":54},{"user_id":886,"name":"ButtNutts","steam_id":76561198044165817,"connected_time":764000000000,"state":"active","ping":124},{"user_id":846,"name":"Strawberry","steam_id":76561198027554025,"connected_time":3310000000000,"state":"active","ping":68},{"user_id":884,"name":"Chadapon Waffle$","steam_id":76561198280424107,"connected_time":845000000000,"state":"active","ping":52},{"user_id":895,"name":"Thereaper2122","steam_id":76561198001985286,"connected_time":85000000000,"state":"active","ping":83},{"user_id":838,"name":"ElZeto","steam_id":76561198252322622,"connected_time":3933000000000,"state":"active","ping":130},{"user_id":839,"name":"AnnByuh","steam_id":76561198355654742,"connected_time":3917000000000,"state":"active","ping":131},{"user_id":854,"name":"sithreis","steam_id":76561198000564263,"connected_time":2801000000000,"state":"active","ping":75},{"user_id":885,"name":"Narwhal","steam_id":76561198132448838,"connected_time":839000000000,"state":"active","ping":54},{"user_id":840,"name":"Nelfyen","steam_id":76561198335066458,"connected_time":3908000000000,"state":"active","ping":130},{"user_id":855,"name":"lanoc","steam_id":76561198055415367,"connected_time":2797000000000,"state":"active","ping":61},{"user_id":857,"name":"java","steam_id":76561198030276792,"connected_time":2741000000000,"state":"active","ping":60},{"user_id":861,"name":"Peepster","steam_id":76561198297854733,"connected_time":2590000000000,"state":"active","ping":75},{"user_id":896,"name":"Person","steam_id":76561198093244204,"connected_time":34000000000,"state":"active","ping":68},{"user_id":897,"name":"Lore","steam_id":76561198098407538,"connected_time":14000000000,"state":"active","ping":65}]},{"server_id":15,"name":"Uncletopia | New York City | 3 | Stopwatch Beta","name_short":"nyc-3","host":"nyc-1.us.uncletopia.com","port":27035,"enabled":true,"region":"us-east","cc":"us","latitude":40.73061,"longitude":-73.93524,"reserved":0,"last_update":"0001-01-01T00:00:00Z","name_a2s":"Uncletopia | New York City | 3 | Stopwatch Beta","protocol":17,"map":"pl_borneo","folder":"tf","game":"Team Fortress","app_id":440,"player_count":0,"max_players":24,"Bots":0,"server_type":"Dedicated","server_os":"Linux","password":true,"vac":true,"version":"7882260","steam_id":85568392924742820,"keywords":["nocrits","nodmgspread","payload","uncletopia"],"game_id":440,"stv_port":27036,"stv_name":"Uncletopia | New York City | 3 | Stopwatch Beta | STV","players":null},{"server_id":16,"name":"Uncletopia | New York City | 4 | Community","name_short":"nyc-4","host":"nyc-1.us.uncletopia.com","port":27045,"enabled":true,"region":"us-east","cc":"us","latitude":40.73061,"longitude":-73.93524,"reserved":0,"last_update":"0001-01-01T00:00:00Z","name_a2s":"Uncletopia | New York City | 4 | Community","protocol":17,"map":"pl_badwater","folder":"tf","game":"Team Fortress","app_id":440,"player_count":0,"max_players":24,"Bots":0,"server_type":"Dedicated","server_os":"Linux","password":true,"vac":true,"version":"7882260","steam_id":85568392924742821,"keywords":["nocrits","nodmgspread","payload","uncletopia"],"game_id":440,"stv_port":27046,"stv_name":"Uncletopia | New York City | 4 | Community | STV","players":null},{"server_id":142,"name":"Uncletopia | São Paulo | 1 | All Maps","name_short":"sao-1","host":"sao-1.br.uncletopia.com","port":27015,"enabled":true,"region":"sa","cc":"br","latitude":-23.533773,"longitude":-46.62529,"reserved":0,"last_update":"0001-01-01T00:00:00Z","name_a2s":"Uncletopia | São Paulo | 1 | All Maps","protocol":17,"map":"cp_mountainlab","folder":"tf","game":"Team Fortress","app_id":440,"player_count":0,"max_players":24,"Bots":0,"server_type":"Dedicated","server_os":"Linux","password":true,"vac":true,"version":"7882260","steam_id":85568392924469996,"keywords":["cp","nocrits","nodmgspread","uncletopia"],"game_id":440,"stv_port":27016,"stv_name":"Uncletopia | São Paulo | 1 | All Maps | STV","players":null},{"server_id":143,"name":"Uncletopia | São Paulo | 2 | All Maps","name_short":"sao-2","host":"sao-2.br.uncletopia.com","port":27015,"enabled":true,"region":"sa","cc":"br","latitude":-23.533773,"longitude":-46.62529,"reserved":0,"last_update":"0001-01-01T00:00:00Z","name_a2s":"Uncletopia | São Paulo | 2 | All Maps","protocol":17,"map":"pl_barnblitz","folder":"tf","game":"Team Fortress","app_id":440,"player_count":0,"max_players":24,"Bots":0,"server_type":"Dedicated","server_os":"Linux","password":true,"vac":true,"version":"7882260","steam_id":85568392924485349,"keywords":["nocrits","nodmgspread","payload","uncletopia"],"game_id":440,"stv_port":27016,"stv_name":"Uncletopia | São Paulo | 2 | All Maps | STV","players":null},{"server_id":7,"name":"Uncletopia | Seattle | 1 | All Maps","name_short":"sea-1","host":"sea-1.us.uncletopia.com","port":27015,"enabled":true,"region":"us-west","cc":"us","latitude":47.608013,"longitude":-122.33517,"reserved":0,"last_update":"0001-01-01T00:00:00Z","name_a2s":"Uncletopia | Seattle | 1 | All Maps","protocol":17,"map":"pl_swiftwater_final1","folder":"tf","game":"Team Fortress","app_id":440,"player_count":24,"max_players":24,"Bots":0,"server_type":"Dedicated","server_os":"Linux","password":true,"vac":true,"version":"7882260","steam_id":85568392924469997,"keywords":["nocrits","nodmgspread","payload","uncletopia"],"game_id":440,"stv_port":27016,"stv_name":"Uncletopia | Seattle | 1 | All Maps | STV","players":[{"user_id":739,"name":"Jacobzeba01","steam_id":76561198131808718,"connected_time":6624000000000,"state":"active","ping":59},{"user_id":751,"name":"gorlab","steam_id":76561198025089694,"connected_time":6029000000000,"state":"active","ping":60},{"user_id":770,"name":"toes","steam_id":76561198221151676,"connected_time":3813000000000,"state":"active","ping":53},{"user_id":753,"name":"Arsonist Goose","steam_id":76561198147441830,"connected_time":5713000000000,"state":"active","ping":66},{"user_id":687,"name":"makeshift_burrito","steam_id":76561198042510825,"connected_time":9187000000000,"state":"active","ping":69},{"user_id":723,"name":"An Old Lady","steam_id":76561198047480318,"connected_time":7395000000000,"state":"active","ping":61},{"user_id":779,"name":"Cam","steam_id":76561198285054047,"connected_time":2191000000000,"state":"active","ping":82},{"user_id":772,"name":"$neezers","steam_id":76561198028107725,"connected_time":3661000000000,"state":"active","ping":57},{"user_id":812,"name":"S Q U I S H E  T H A T  C A T","steam_id":76561198293865429,"connected_time":373000000000,"state":"active","ping":41},{"user_id":777,"name":"Ayayayayayahuasca","steam_id":76561199002906056,"connected_time":2618000000000,"state":"active","ping":53},{"user_id":776,"name":"dubious little creature","steam_id":76561198113251746,"connected_time":2642000000000,"state":"active","ping":66},{"user_id":808,"name":"Deathkillsme","steam_id":76561198059468746,"connected_time":438000000000,"state":"active","ping":46},{"user_id":742,"name":"profile name","steam_id":76561198032625036,"connected_time":6478000000000,"state":"active","ping":60},{"user_id":765,"name":"bbbbb","steam_id":76561198095480838,"connected_time":3906000000000,"state":"active","ping":48},{"user_id":768,"name":"jay","steam_id":76561198022374405,"connected_time":3835000000000,"state":"active","ping":58},{"user_id":786,"name":"Sniff","steam_id":76561198010270922,"connected_time":1139000000000,"state":"active","ping":42},{"user_id":729,"name":"NEBULA","steam_id":76561198086878595,"connected_time":7300000000000,"state":"active","ping":75},{"user_id":782,"name":"rorywashere /ᐠ - ˕ -マ Ⳋ","steam_id":76561198065825165,"connected_time":1470000000000,"state":"active","ping":97},{"user_id":758,"name":"goopy goblin gamer","steam_id":76561198798667624,"connected_time":5326000000000,"state":"active","ping":44},{"user_id":817,"name":"Bald Rice","steam_id":76561199019142767,"connected_time":318000000000,"state":"active","ping":54},{"user_id":738,"name":"Broly","steam_id":76561198271939793,"connected_time":6707000000000,"state":"active","ping":53},{"user_id":799,"name":"town.midi","steam_id":76561198059041027,"connected_time":574000000000,"state":"active","ping":66},{"user_id":783,"name":"shane","steam_id":76561198060491451,"connected_time":1461000000000,"state":"active","ping":96},{"user_id":788,"name":"kenZino","steam_id":76561197967971192,"connected_time":832000000000,"state":"active","ping":50}]},{"server_id":119,"name":"Uncletopia | Seattle | 2 | All Maps","name_short":"sea-2","host":"sea-1.us.uncletopia.com","port":27025,"enabled":true,"region":"us-west","cc":"us","latitude":47.608013,"longitude":-122.33517,"reserved":0,"last_update":"0001-01-01T00:00:00Z","name_a2s":"Uncletopia | Seattle | 2 | All Maps","protocol":17,"map":"pl_snowycoast","folder":"tf","game":"Team Fortress","app_id":440,"player_count":19,"max_players":24,"Bots":0,"server_type":"Dedicated","server_os":"Linux","password":true,"vac":true,"version":"7882260","steam_id":85568392924469998,"keywords":["nocrits","nodmgspread","payload","uncletopia"],"game_id":440,"stv_port":27026,"stv_name":"Uncletopia | Seattle | 2 | All Maps | STV","players":[{"user_id":541,"name":"Real (real)","steam_id":76561199059653595,"connected_time":30000000000,"state":"active","ping":44},{"user_id":532,"name":"i love macdonad","steam_id":76561198975706117,"connected_time":219000000000,"state":"active","ping":80},{"user_id":522,"name":"bad spy player","steam_id":76561198873699671,"connected_time":1009000000000,"state":"active","ping":52},{"user_id":526,"name":"ROGUE-PLANET","steam_id":76561198116023052,"connected_time":747000000000,"state":"active","ping":69},{"user_id":535,"name":"FireQuiz","steam_id":76561198107357249,"connected_time":161000000000,"state":"active","ping":67},{"user_id":533,"name":"Johnson, Navin R.","steam_id":76561197961107982,"connected_time":212000000000,"state":"active","ping":75},{"user_id":534,"name":"FI LO","steam_id":76561198976530881,"connected_time":189000000000,"state":"active","ping":60},{"user_id":499,"name":"greens beans","steam_id":76561198153611491,"connected_time":2649000000000,"state":"active","ping":45},{"user_id":538,"name":"The Collective","steam_id":76561198170423483,"connected_time":57000000000,"state":"active","ping":121},{"user_id":505,"name":"00","steam_id":76561198041700636,"connected_time":1913000000000,"state":"active","ping":62},{"user_id":537,"name":"C^a^L","steam_id":76561198241124222,"connected_time":102000000000,"state":"active","ping":64},{"user_id":539,"name":"Jam Jams","steam_id":76561198128811267,"connected_time":51000000000,"state":"active","ping":73},{"user_id":502,"name":"SvicidalBug","steam_id":76561198221390504,"connected_time":1983000000000,"state":"active","ping":67},{"user_id":540,"name":"Keamy","steam_id":76561199471434875,"connected_time":44000000000,"state":"active","ping":42},{"user_id":542,"name":"2 Point Tom","steam_id":76561198087617008,"connected_time":14000000000,"state":"spawning","ping":46},{"user_id":485,"name":"ORANGE","steam_id":76561198000401769,"connected_time":4009000000000,"state":"active","ping":46},{"user_id":489,"name":"cirmona tuwoka","steam_id":76561198213385439,"connected_time":3773000000000,"state":"active","ping":72},{"user_id":528,"name":"Bateman 64","steam_id":76561198093689792,"connected_time":739000000000,"state":"active","ping":79},{"user_id":501,"name":"stinky fresh","steam_id":76561198004022947,"connected_time":2142000000000,"state":"active","ping":47}]},{"server_id":406,"name":"Uncletopia | Seattle | 3 | Stopwatch Beta","name_short":"sea-3","host":"sea-1.us.uncletopia.com","port":27035,"enabled":true,"region":"us-west","cc":"us","latitude":47.608013,"longitude":-122.33517,"reserved":0,"last_update":"0001-01-01T00:00:00Z","name_a2s":"Uncletopia | Seattle | 3 | Stopwatch Beta","protocol":17,"map":"workshop/koth_bagel_rc6.ugc2514036946","folder":"tf","game":"Team Fortress","app_id":440,"player_count":22,"max_players":24,"Bots":0,"server_type":"Dedicated","server_os":"Linux","password":true,"vac":true,"version":"7882260","steam_id":85568392924515217,"keywords":["cp","nocrits","nodmgspread","uncletopia"],"game_id":440,"stv_port":27036,"stv_name":"Uncletopia | Seattle | 3 | Stopwatch Beta | STV","players":[{"user_id":467,"name":"Fat Fur Gaming","steam_id":76561198072774915,"connected_time":355000000000,"state":"active","ping":98},{"user_id":470,"name":"oil","steam_id":76561198099980149,"connected_time":203000000000,"state":"active","ping":76},{"user_id":406,"name":"dP | I'm in a Wookie Suit","steam_id":76561198083307644,"connected_time":5351000000000,"state":"active","ping":56},{"user_id":427,"name":"bingo bango","steam_id":76561198068933412,"connected_time":3462000000000,"state":"active","ping":107},{"user_id":471,"name":"kite man","steam_id":76561198156336213,"connected_time":203000000000,"state":"active","ping":30},{"user_id":468,"name":"Owningcat1987","steam_id":76561199088881426,"connected_time":289000000000,"state":"active","ping":93},{"user_id":437,"name":"La Chancla","steam_id":76561198971528917,"connected_time":2261000000000,"state":"active","ping":111},{"user_id":391,"name":"King PB James","steam_id":76561197988610306,"connected_time":6392000000000,"state":"active","ping":37},{"user_id":472,"name":"rxqueen","steam_id":76561198049258493,"connected_time":165000000000,"state":"active","ping":52},{"user_id":333,"name":"Thequirka","steam_id":76561198968058652,"connected_time":9228000000000,"state":"active","ping":51},{"user_id":439,"name":"Spicy Within Reason","steam_id":76561198066700370,"connected_time":2209000000000,"state":"active","ping":56},{"user_id":458,"name":"Racc","steam_id":76561198053855381,"connected_time":1120000000000,"state":"active","ping":125},{"user_id":459,"name":"The Fluke","steam_id":76561198168479314,"connected_time":1112000000000,"state":"active","ping":90},{"user_id":452,"name":"Phoenix","steam_id":76561199465534945,"connected_time":1523000000000,"state":"active","ping":106},{"user_id":442,"name":"Genderneutron","steam_id":76561199022773775,"connected_time":2121000000000,"state":"active","ping":141},{"user_id":461,"name":"Mr Majesticals","steam_id":76561198015242706,"connected_time":994000000000,"state":"active","ping":85},{"user_id":448,"name":"drrockso20[MicS]","steam_id":76561198001003987,"connected_time":1959000000000,"state":"active","ping":88},{"user_id":466,"name":"THE_VIRTUAL_DOG.exe","steam_id":76561197999522253,"connected_time":462000000000,"state":"active","ping":32},{"user_id":450,"name":"R5-D4","steam_id":76561198025196439,"connected_time":1562000000000,"state":"active","ping":55},{"user_id":473,"name":"reiidaya","steam_id":76561198325306660,"connected_time":150000000000,"state":"active","ping":56},{"user_id":464,"name":"Camaleon","steam_id":76561198041329791,"connected_time":647000000000,"state":"active","ping":77},{"user_id":410,"name":"zeel107","steam_id":76561198063892990,"connected_time":5176000000000,"state":"active","ping":73}]},{"server_id":17,"name":"Uncletopia | San Francisco | 1 | All Maps","name_short":"sfo-1","host":"sfo-1.us.uncletopia.com","port":27015,"enabled":true,"region":"us-west","cc":"us","latitude":37.77397,"longitude":-122.4313,"reserved":0,"last_update":"0001-01-01T00:00:00Z","name_a2s":"Uncletopia | San Francisco | 1 | All Maps","protocol":17,"map":"cp_process_final","folder":"tf","game":"Team Fortress","app_id":440,"player_count":0,"max_players":24,"Bots":0,"server_type":"Dedicated","server_os":"Linux","password":true,"vac":true,"version":"7757534","steam_id":85568392924469999,"keywords":["cp","nocrits","nodmgspread","uncletopia"],"game_id":440,"stv_port":27016,"stv_name":"Uncletopia | San Francisco | 1 | All Maps | STV","players":null},{"server_id":18,"name":"Uncletopia | San Francisco | 2 | All Maps","name_short":"sfo-2","host":"sfo-1.us.uncletopia.com","port":27025,"enabled":true,"region":"us-west","cc":"us","latitude":37.77397,"longitude":-122.4313,"reserved":0,"last_update":"0001-01-01T00:00:00Z","name_a2s":"Uncletopia | San Francisco | 2 | All Maps","protocol":17,"map":"koth_highpass","folder":"tf","game":"Team Fortress","app_id":440,"player_count":0,"max_players":24,"Bots":0,"server_type":"Dedicated","server_os":"Linux","password":true,"vac":true,"version":"7757534","steam_id":85568392924470000,"keywords":["cp","nocrits","nodmgspread","uncletopia"],"game_id":440,"stv_port":27026,"stv_name":"Uncletopia | San Francisco | 2 | All Maps | STV","players":null},{"server_id":19,"name":"Uncletopia | San Francisco | 3 | Stopwatch Beta","name_short":"sfo-3","host":"sfo-1.us.uncletopia.com","port":27035,"enabled":true,"region":"us-west","cc":"us","latitude":37.77397,"longitude":-122.4313,"reserved":0,"last_update":"0001-01-01T00:00:00Z","name_a2s":"Uncletopia | San Francisco | 3 | Stopwatch Beta","protocol":17,"map":"koth_lakeside_final","folder":"tf","game":"Team Fortress","app_id":440,"player_count":0,"max_players":24,"Bots":0,"server_type":"Dedicated","server_os":"Linux","password":true,"vac":true,"version":"7757534","steam_id":85568392924742824,"keywords":["cp","nocrits","nodmgspread","uncletopia"],"game_id":440,"stv_port":27036,"stv_name":"Uncletopia | San Francisco | 3 | Stopwatch Beta | STV","players":null},{"server_id":20,"name":"Uncletopia | San Francisco | 4 | Community","name_short":"sfo-4","host":"sfo-1.us.uncletopia.com","port":27045,"enabled":true,"region":"us-west","cc":"us","latitude":37.77397,"longitude":-122.4313,"reserved":0,"last_update":"0001-01-01T00:00:00Z","name_a2s":"Uncletopia | San Francisco | 4 | Community","protocol":17,"map":"cp_altitude","folder":"tf","game":"Team Fortress","app_id":440,"player_count":0,"max_players":24,"Bots":0,"server_type":"Dedicated","server_os":"Linux","password":true,"vac":true,"version":"7757534","steam_id":85568392924742826,"keywords":["cp","nocrits","nodmgspread","uncletopia"],"game_id":440,"stv_port":27046,"stv_name":"Uncletopia | San Francisco | 4 | Community | STV","players":null},{"server_id":141,"name":"Uncletopia | Sydney | 1 | All Maps","name_short":"syd-1","host":"syd-1.au.uncletopia.com","port":27015,"enabled":true,"region":"au","cc":"au","latitude":-33.865143,"longitude":151.2099,"reserved":0,"last_update":"0001-01-01T00:00:00Z","name_a2s":"Uncletopia | Sydney | 1 | All Maps","protocol":17,"map":"pl_frontier_final","folder":"tf","game":"Team Fortress","app_id":440,"player_count":23,"max_players":24,"Bots":0,"server_type":"Dedicated","server_os":"Linux","password":true,"vac":true,"version":"7882260","steam_id":85568392924470001,"keywords":["nocrits","nodmgspread","payload","uncletopia"],"game_id":440,"stv_port":27016,"stv_name":"Uncletopia | Sydney | 1 | All Maps | STV","players":[{"user_id":428,"name":"Sinister80s","steam_id":76561198343540472,"connected_time":432000000000,"state":"active","ping":65},{"user_id":420,"name":"Strike","steam_id":76561198254083849,"connected_time":816000000000,"state":"active","ping":70},{"user_id":394,"name":"Marmalade Cat","steam_id":76561198086309767,"connected_time":4098000000000,"state":"active","ping":64},{"user_id":385,"name":"samm","steam_id":76561198190525662,"connected_time":4610000000000,"state":"active","ping":60},{"user_id":414,"name":"Floor Gamer!!!","steam_id":76561197972786509,"connected_time":1364000000000,"state":"active","ping":70},{"user_id":424,"name":"Sexy Turtle","steam_id":76561198256865969,"connected_time":632000000000,"state":"active","ping":45},{"user_id":381,"name":"Anime Cat Girl","steam_id":76561198406388524,"connected_time":4782000000000,"state":"active","ping":59},{"user_id":406,"name":"Jelko","steam_id":76561198148081570,"connected_time":2134000000000,"state":"active","ping":59},{"user_id":294,"name":"thrax","steam_id":76561197992385270,"connected_time":9873000000000,"state":"active","ping":52},{"user_id":413,"name":"AmazingMcmuffin","steam_id":76561199153526656,"connected_time":1379000000000,"state":"active","ping":158},{"user_id":429,"name":"SUSHIMAN","steam_id":76561199089989428,"connected_time":291000000000,"state":"active","ping":99},{"user_id":371,"name":"kitkat","steam_id":76561198442601104,"connected_time":5294000000000,"state":"active","ping":59},{"user_id":411,"name":"any skateboarding maids in chat","steam_id":76561198150293480,"connected_time":1582000000000,"state":"active","ping":63},{"user_id":423,"name":"Snake101","steam_id":76561198418910767,"connected_time":693000000000,"state":"active","ping":57},{"user_id":412,"name":"Capt. Dea'Claw","steam_id":76561198025419320,"connected_time":1580000000000,"state":"active","ping":49},{"user_id":417,"name":"Hertog van Damme","steam_id":76561198152470958,"connected_time":991000000000,"state":"active","ping":73},{"user_id":357,"name":"iSmile02","steam_id":76561198003851119,"connected_time":5711000000000,"state":"active","ping":46},{"user_id":293,"name":"Muffin","steam_id":76561198075391119,"connected_time":9886000000000,"state":"active","ping":54},{"user_id":425,"name":"ToadFungus","steam_id":76561199219667039,"connected_time":532000000000,"state":"active","ping":106},{"user_id":331,"name":"NightSpawn","steam_id":76561199447160011,"connected_time":8178000000000,"state":"active","ping":79},{"user_id":430,"name":"Clear Vision","steam_id":76561198000346720,"connected_time":146000000000,"state":"active","ping":79},{"user_id":418,"name":"dumbvent","steam_id":76561198190062810,"connected_time":967000000000,"state":"active","ping":66},{"user_id":408,"name":"youre a boy kisser","steam_id":76561198132937542,"connected_time":2075000000000,"state":"active","ping":57}]},{"server_id":123,"name":"Uncletopia | Sydney | 2 | All Maps","name_short":"syd-2","host":"syd-1.au.uncletopia.com","port":27025,"enabled":true,"region":"au","cc":"au","latitude":-33.865143,"longitude":151.2099,"reserved":0,"last_update":"0001-01-01T00:00:00Z","name_a2s":"Uncletopia | Sydney | 2 | All Maps","protocol":17,"map":"pl_barnblitz","folder":"tf","game":"Team Fortress","app_id":440,"player_count":24,"max_players":24,"Bots":0,"server_type":"Dedicated","server_os":"Linux","password":true,"vac":true,"version":"7882260","steam_id":85568392924470002,"keywords":["nocrits","nodmgspread","payload","uncletopia"],"game_id":440,"stv_port":27026,"stv_name":"Uncletopia | Sydney | 2 | All Maps | STV","players":[{"user_id":340,"name":"Tigger The Tiger","steam_id":76561198446343409,"connected_time":245000000000,"state":"active","ping":55},{"user_id":314,"name":"LightningBlock","steam_id":76561198289997742,"connected_time":2593000000000,"state":"active","ping":41},{"user_id":281,"name":"michael","steam_id":76561198052848358,"connected_time":4953000000000,"state":"active","ping":64},{"user_id":329,"name":"CypressFluff (She/Her)","steam_id":76561198174667818,"connected_time":1467000000000,"state":"active","ping":65},{"user_id":335,"name":"Tiger_Tan","steam_id":76561198221733844,"connected_time":436000000000,"state":"active","ping":72},{"user_id":344,"name":"Del Davis","steam_id":76561199365669004,"connected_time":39000000000,"state":"active","ping":61},{"user_id":332,"name":"alex","steam_id":76561198053382248,"connected_time":850000000000,"state":"active","ping":44},{"user_id":323,"name":"therealllamait","steam_id":76561198841226950,"connected_time":1993000000000,"state":"active","ping":73},{"user_id":338,"name":"Johnny 2 pipes","steam_id":76561198971245592,"connected_time":373000000000,"state":"active","ping":61},{"user_id":290,"name":"whiteshaq","steam_id":76561198131988811,"connected_time":3788000000000,"state":"active","ping":49},{"user_id":339,"name":"krandlez` (Any/All)","steam_id":76561198044839726,"connected_time":317000000000,"state":"active","ping":39},{"user_id":304,"name":"Partially Moblie Dispenser","steam_id":76561198302841509,"connected_time":3089000000000,"state":"active","ping":58},{"user_id":342,"name":"veteran","steam_id":76561199457046392,"connected_time":187000000000,"state":"active","ping":76},{"user_id":322,"name":"Pompadouraus","steam_id":76561198327530525,"connected_time":2046000000000,"state":"active","ping":75},{"user_id":324,"name":"koyaa","steam_id":76561198047484772,"connected_time":1948000000000,"state":"active","ping":62},{"user_id":300,"name":"Rashid Of The Dank Memes","steam_id":76561198281398078,"connected_time":3313000000000,"state":"active","ping":55},{"user_id":333,"name":"miyamoto is daddy","steam_id":76561199483818230,"connected_time":595000000000,"state":"active","ping":154},{"user_id":343,"name":"Cringe Weeaboo","steam_id":76561198133490050,"connected_time":167000000000,"state":"active","ping":82},{"user_id":330,"name":"LegEaterHK","steam_id":76561199357838817,"connected_time":1342000000000,"state":"active","ping":81},{"user_id":310,"name":"BruceWillis235","steam_id":76561198884324029,"connected_time":2711000000000,"state":"active","ping":88},{"user_id":309,"name":"Sentry Gun (EpicGuy4227)","steam_id":76561198094132328,"connected_time":2816000000000,"state":"active","ping":54},{"user_id":326,"name":"Generic_username7","steam_id":76561199083971136,"connected_time":1931000000000,"state":"active","ping":71},{"user_id":331,"name":"Q*bert-the42ndwafflefluxtardis","steam_id":76561199152151734,"connected_time":1322000000000,"state":"active","ping":106},{"user_id":248,"name":"Jodelkönig Franzl Lang","steam_id":76561198007667830,"connected_time":7049000000000,"state":"active","ping":59}]},{"server_id":395,"name":"Uncletopia | Sydney | 3 | All Maps","name_short":"syd-3","host":"syd-1.au.uncletopia.com","port":27035,"enabled":true,"region":"au","cc":"au","latitude":-33.865143,"longitude":151.2099,"reserved":0,"last_update":"0001-01-01T00:00:00Z","name_a2s":"Uncletopia | Sydney | 3 | All Maps","protocol":17,"map":"koth_highpass","folder":"tf","game":"Team Fortress","app_id":440,"player_count":0,"max_players":24,"Bots":0,"server_type":"Dedicated","server_os":"Linux","password":true,"vac":true,"version":"7882260","steam_id":85568392925194467,"keywords":["cp","nocrits","nodmgspread","uncletopia"],"game_id":440,"stv_port":27036,"stv_name":"Uncletopia | Sydney | 3 | All Maps | STV","players":null},{"server_id":396,"name":"Uncletopia | Sydney | 4 | All Maps","name_short":"syd-4","host":"syd-1.au.uncletopia.com","port":27045,"enabled":true,"region":"au","cc":"au","latitude":-33.865143,"longitude":151.2099,"reserved":0,"last_update":"0001-01-01T00:00:00Z","name_a2s":"Uncletopia | Sydney | 4 | All Maps","protocol":17,"map":"pl_frontier_final","folder":"tf","game":"Team Fortress","app_id":440,"player_count":0,"max_players":24,"Bots":0,"server_type":"Dedicated","server_os":"Linux","password":true,"vac":true,"version":"7882260","steam_id":85568392925397958,"keywords":["nocrits","nodmgspread","payload","uncletopia"],"game_id":440,"stv_port":27046,"stv_name":"Uncletopia | Sydney | 4 | All Maps | STV","players":null},{"server_id":58,"name":"Uncletopia | Sydney | 5 | Stopwatch Beta","name_short":"syd-5","host":"syd-1.au.uncletopia.com","port":27055,"enabled":true,"region":"au","cc":"au","latitude":-33.865143,"longitude":151.2099,"reserved":0,"last_update":"0001-01-01T00:00:00Z","name_a2s":"Uncletopia | Sydney | 5 | Stopwatch Beta","protocol":17,"map":"cp_snakewater_final1","folder":"tf","game":"Team Fortress","app_id":440,"player_count":0,"max_players":24,"Bots":0,"server_type":"Dedicated","server_os":"Linux","password":true,"vac":true,"version":"7882260","steam_id":85568392925397959,"keywords":["cp","nocrits","nodmgspread","uncletopia"],"game_id":440,"stv_port":27056,"stv_name":"Uncletopia | Sydney | 5 | Stopwatch Beta | STV","players":null},{"server_id":59,"name":"Uncletopia | Sydney | 6 | Community","name_short":"syd-6","host":"syd-1.au.uncletopia.com","port":27065,"enabled":true,"region":"au","cc":"au","latitude":-33.865143,"longitude":151.2099,"reserved":0,"last_update":"0001-01-01T00:00:00Z","name_a2s":"Uncletopia | Sydney | 6 | Community","protocol":17,"map":"pl_snowycoast","folder":"tf","game":"Team Fortress","app_id":440,"player_count":0,"max_players":24,"Bots":0,"server_type":"Dedicated","server_os":"Linux","password":true,"vac":true,"version":"7882260","steam_id":85568392925397960,"keywords":["nocrits","nodmgspread","payload","uncletopia"],"game_id":440,"stv_port":27066,"stv_name":"Uncletopia | Sydney | 6 | Community | STV","players":null},{"server_id":49,"name":"Uncletopia | Warsaw | 1 | All Maps","name_short":"waw-1","host":"waw-1.pl.uncletopia.com","port":27015,"enabled":true,"region":"eu","cc":"pl","latitude":52.2297,"longitude":21.017532,"reserved":0,"last_update":"0001-01-01T00:00:00Z","name_a2s":"","protocol":0,"map":"","folder":"","game":"","app_id":0,"player_count":0,"max_players":0,"Bots":0,"server_type":"","server_os":"","password":false,"vac":false,"version":"","steam_id":0,"keywords":null,"game_id":0,"stv_port":0,"stv_name":"","players":null},{"server_id":50,"name":"Uncletopia | Warsaw | 2 | All Maps","name_short":"waw-2","host":"waw-1.pl.uncletopia.com","port":27025,"enabled":true,"region":"eu","cc":"pl","latitude":52.2297,"longitude":21.017532,"reserved":0,"last_update":"0001-01-01T00:00:00Z","name_a2s":"Uncletopia | Warsaw | 2 | All Maps","protocol":17,"map":"pl_swiftwater_final1","folder":"tf","game":"Team Fortress","app_id":440,"player_count":0,"max_players":24,"Bots":0,"server_type":"Dedicated","server_os":"Linux","password":true,"vac":true,"version":"7882260","steam_id":85568392925397851,"keywords":["nocrits","nodmgspread","payload","uncletopia"],"game_id":440,"stv_port":27026,"stv_name":"Uncletopia | Warsaw | 2 | All Maps | STV","players":null},{"server_id":51,"name":"Uncletopia | Warsaw | 3 | All Maps","name_short":"waw-3","host":"waw-1.pl.uncletopia.com","port":27035,"enabled":true,"region":"eu","cc":"pl","latitude":52.2297,"longitude":21.017532,"reserved":0,"last_update":"0001-01-01T00:00:00Z","name_a2s":"Uncletopia | Warsaw | 3 | All Maps","protocol":17,"map":"koth_viaduct","folder":"tf","game":"Team Fortress","app_id":440,"player_count":0,"max_players":24,"Bots":0,"server_type":"Dedicated","server_os":"Linux","password":true,"vac":true,"version":"7882260","steam_id":85568392925397852,"keywords":["cp","nocrits","nodmgspread","uncletopia"],"game_id":440,"stv_port":27036,"stv_name":"Uncletopia | Warsaw | 3 | All Maps | STV","players":null},{"server_id":52,"name":"Uncletopia | Warsaw | 4 | All Maps","name_short":"waw-4","host":"waw-1.pl.uncletopia.com","port":27045,"enabled":true,"region":"eu","cc":"pl","latitude":52.2297,"longitude":21.017532,"reserved":0,"last_update":"0001-01-01T00:00:00Z","name_a2s":"Uncletopia | Warsaw | 4 | All Maps","protocol":17,"map":"koth_highpass","folder":"tf","game":"Team Fortress","app_id":440,"player_count":0,"max_players":24,"Bots":0,"server_type":"Dedicated","server_os":"Linux","password":true,"vac":true,"version":"7882260","steam_id":85568392925397853,"keywords":["cp","nocrits","nodmgspread","uncletopia"],"game_id":440,"stv_port":27046,"stv_name":"Uncletopia | Warsaw | 4 | All Maps | STV","players":null},{"server_id":53,"name":"Uncletopia | Warsaw | 5 | Stopwatch Beta","name_short":"waw-5","host":"waw-1.pl.uncletopia.com","port":27055,"enabled":true,"region":"eu","cc":"pl","latitude":52.2297,"longitude":21.017532,"reserved":0,"last_update":"0001-01-01T00:00:00Z","name_a2s":"Uncletopia | Warsaw | 5 | Stopwatch Beta","protocol":17,"map":"cp_mountainlab","folder":"tf","game":"Team Fortress","app_id":440,"player_count":0,"max_players":24,"Bots":0,"server_type":"Dedicated","server_os":"Linux","password":true,"vac":true,"version":"7882260","steam_id":85568392925397854,"keywords":["cp","nocrits","nodmgspread","uncletopia"],"game_id":440,"stv_port":27056,"stv_name":"Uncletopia | Warsaw | 5 | Stopwatch Beta | STV","players":null},{"server_id":54,"name":"Uncletopia | Warsaw | 6 | Community","name_short":"waw-6","host":"waw-1.pl.uncletopia.com","port":27065,"enabled":true,"region":"eu","cc":"pl","latitude":52.2297,"longitude":21.017532,"reserved":0,"last_update":"0001-01-01T00:00:00Z","name_a2s":"Uncletopia | Warsaw | 6 | Community","protocol":17,"map":"koth_viaduct","folder":"tf","game":"Team Fortress","app_id":440,"player_count":0,"max_players":24,"Bots":0,"server_type":"Dedicated","server_os":"Linux","password":true,"vac":true,"version":"7882260","steam_id":85568392925397856,"keywords":["cp","nocrits","nodmgspread","uncletopia"],"game_id":440,"stv_port":27066,"stv_name":"Uncletopia | Warsaw | 6 | Community | STV","players":null}]}