{"status":true,"message":"","result":[{"server_id":9,"name":"Uncletopia | Atlanta | 1 | All Maps","name_short":"atl-1","host":"atl-1.us.uncletopia.com","port":27015,"enabled":true,"region":"us-east","cc":"us","latitude":33.753746,"longitude":-84.38633,"reserved":0,"last_update":"0001-01-01T00:00:00Z","name_a2s":"Uncletopia | Atlanta | 1 | All Maps","protocol":17,"map":"pl_barnblitz","folder":"tf","game":"Team Fortress","app_id":440,"player_count":24,"max_players":24,"Bots":0,"server_type":"Dedicated","server_os":"Linux","password":true,"vac":true,"version":"7757534","steam_id":85568392924469982,"keywords":["nocrits","nodmgspread","payload","uncletopia"],"game_id":440,"stv_port":27016,"stv_name":"Uncletopia | Atlanta | 1 | All Maps | STV","players":[{"user_id":371,"name":"Gus","steam_id":76561198085203150,"connected_time":423000000000,"state":"active","ping":69},{"user_id":364,"name":"GreenApples","steam_id":76561198120559543,"connected_time":1452000000000,"state":"active","ping":97},{"user_id":328,"name":"hyuck","steam_id":76561198319990195,"connected_time":4783000000000,"state":"active","ping":76},{"user_id":338,"name":"ough","steam_id":76561199156428309,"connected_time":3777000000000,"state":"active","ping":49},{"user_id":339,"name":"BORN IN GOOP RAISED IN POOP","steam_id":76561198095909397,"connected_time":3594000000000,"state":"active","ping":58},{"user_id":363,"name":"CreativeUsername","steam_id":76561198186045503,"connected_time":1476000000000,"state":"active","ping":72},{"user_id":374,"name":"Mr.maxpax","steam_id":76561198209845743,"connected_time":394000000000,"state":"active","ping":65},{"user_id":362,"name":"dont suck me i uber","steam_id":76561198281968441,"connected_time":1492000000000,"state":"active","ping":115},{"user_id":346,"name":"Lost (15)","steam_id":76561198093713427,"connected_time":2409000000000,"state":"active","ping":86},{"user_id":349,"name":"Johnbug1","steam_id":76561198066898527,"connected_time":2398000000000,"state":"active","ping":75},{"user_id":354,"name":"Lancer47","steam_id":76561198020481475,"connected_time":2388000000000,"state":"active","ping":74},{"user_id":370,"name":"ATL1 | Lylith","steam_id":76561198386687546,"connected_time":574000000000,"state":"active","ping":53},{"user_id":361,"name":"$50 amazon gift card","steam_id":76561198978797171,"connected_time":1498000000000,"state":"active","ping":72},{"user_id":375,"name":"BotchyAlarm8","steam_id":76561198092682129,"connected_time":377000000000,"state":"active","ping":77},{"user_id":348,"name":"【TRHD】Pharaxer™","steam_id":76561198051236069,"connected_time":2405000000000,"state":"active","ping":160},{"user_id":368,"name":"DFR Le4n!!!","steam_id":76561198045522596,"connected_time":955000000000,"state":"active","ping":67},{"user_id":358,"name":"woah ass ahoy","steam_id":76561198327138508,"connected_time":1722000000000,"state":"active","ping":91},{"user_id":365,"name":"Duffy","steam_id":76561199034067640,"connected_time":1413000000000,"state":"active","ping":67},{"user_id":310,"name":"fortnite.jimmy.2014","steam_id":76561199177672325,"connected_time":6785000000000,"state":"active","ping":45},{"user_id":377,"name":"The Spy from TF2","steam_id":76561199121276474,"connected_time":52000000000,"state":"spawning","ping":76},{"user_id":342,"name":"Slazzer","steam_id":76561198404351844,"connected_time":3225000000000,"state":"active","ping":68},{"user_id":351,"name":"Tom!","steam_id":76561198110937717,"connected_time":2393000000000,"state":"active","ping":67},{"user_id":366,"name":"Soul Garg Plushy","steam_id":76561198044480181,"connected_time":1406000000000,"state":"active","ping":72},{"user_id":373,"name":"Mr.Mug","steam_id":76561199282207802,"connected_time":421000000000,"state":"active","ping":79}]},{"server_id":400,"name":"Uncletopia | Atlanta | 3 | Stopwatch Beta","name_short":"atl-3","host":"atl-1.us.uncletopia.com","port":27035,"enabled":true,"region":"us-east","cc":"us","latitude":33.753746,"longitude":-84.38633,"reserved":0,"last_update":"0001-01-01T00:00:00Z","name_a2s":"Uncletopia | Atlanta | 3 | Stopwatch Beta","protocol":17,"map":"workshop/koth_bagel_rc5.ugc2514036946","folder":"tf","game":"Team Fortress","app_id":440,"player_count":20,"max_players":24,"Bots":0,"server_type":"Dedicated","server_os":"Linux","password":true,"vac":true,"version":"7757534","steam_id":85568392924515187,"keywords":["cp","nocrits","nodmgspread","uncletopia"],"game_id":440,"stv_port":27036,"stv_name":"Uncletopia | Atlanta | 3 | Stopwatch Beta | STV","players":[{"user_id":437,"name":"Bottle","steam_id":76561198044031558,"connected_time":2111000000000,"state":"active","ping":67},{"user_id":454,"name":"Autumn Clover","steam_id":76561198012295314,"connected_time":555000000000,"state":"active","ping":73},{"user_id":414,"name":"GiraffeMan","steam_id":76561198042104084,"connected_time":3371000000000,"state":"active","ping":77},{"user_id":457,"name":"Seff","steam_id":76561199035036877,"connected_time":138000000000,"state":"active","ping":70},{"user_id":412,"name":"DannyBoy","steam_id":76561198044198580,"connected_time":3730000000000,"state":"active","ping":95},{"user_id":422,"name":"carrion goat she/it","steam_id":76561198262064871,"connected_time":3094000000000,"state":"active","ping":60},{"user_id":458,"name":"j","steam_id":76561198821569078,"connected_time":130000000000,"state":"active","ping":106},{"user_id":453,"name":"fapasaurusrex","steam_id":76561197994951255,"connected_time":894000000000,"state":"active","ping":59},{"user_id":456,"name":"Anthoneeee","steam_id":76561199209220671,"connected_time":290000000000,"state":"active","ping":127},{"user_id":424,"name":"oh god i'm gonna CHUM","steam_id":76561198019210187,"connected_time":2974000000000,"state":"active","ping":73},{"user_id":459,"name":"vortexgamer","steam_id":76561197999435527,"connected_time":121000000000,"state":"active","ping":96},{"user_id":350,"name":"Eins","steam_id":76561199030343810,"connected_time":6783000000000,"state":"active","ping":45},{"user_id":447,"name":"DJ Spit","steam_id":76561198186637025,"connected_time":1157000000000,"state":"active","ping":90},{"user_id":460,"name":"turn up! this guy is crazy as f","steam_id":76561197999601253,"connected_time":102000000000,"state":"active","ping":62},{"user_id":461,"name":"HanakoToast","steam_id":76561198045233131,"connected_time":46000000000,"state":"active","ping":115},{"user_id":462,"name":"fhish","steam_id":76561198064911344,"connected_time":22000000000,"state":"active","ping":89},{"user_id":436,"name":"Flump","steam_id":76561198044848415,"connected_time":2304000000000,"state":"active","ping":77},{"user_id":344,"name":"FEARSUM ENDJINN","steam_id":76561197984273698,"connected_time":6903000000000,"state":"active","ping":85},{"user_id":446,"name":"DogComrade","steam_id":76561199056013933,"connected_time":1164000000000,"state":"active","ping":142},{"user_id":452,"name":"ClearAster","steam_id":76561198113615374,"connected_time":963000000000,"state":"active","ping":129}]},{"server_id":401,"name":"Uncletopia | Atlanta | 4 | No Payload","name_short":"atl-4","host":"atl-1.us.uncletopia.com","port":27045,"enabled":true,"region":"us-east","cc":"us","latitude":33.753746,"longitude":-84.38633,"reserved":0,"last_update":"0001-01-01T00:00:00Z","name_a2s":"Uncletopia | Atlanta | 4 | No Payload","protocol":17,"map":"pl_pier","folder":"tf","game":"Team Fortress","app_id":440,"player_count":0,"max_players":24,"Bots":0,"server_type":"Dedicated","server_os":"Linux","password":true,"vac":true,"version":"7723704","steam_id":85568392924515188,"keywords":["nocrits","nodmgspread","payload","uncletopia"],"game_id":440,"stv_port":27046,"stv_name":"Uncletopia | Atlanta | 4 | No Payload | STV","players":null},{"server_id":2,"name":"Uncletopia | Chicago | 1 | All Maps","name_short":"chi-1","host":"chi-1.us.uncletopia.com","port":27015,"enabled":true,"region":"us-central","cc":"us","latitude":41.881832,"longitude":-87.62318,"reserved":0,"last_update":"0001-01-01T00:00:00Z","name_a2s":"Uncletopia | Chicago | 1 | All Maps","protocol":17,"map":"pl_borneo","folder":"tf","game":"Team Fortress","app_id":440,"player_count":24,"max_players":24,"Bots":0,"server_type":"Dedicated","server_os":"Linux","password":true,"vac":true,"version":"7757534","steam_id":85568392924469984,"keywords":["nocrits","nodmgspread","payload","uncletopia"],"game_id":440,"stv_port":27016,"stv_name":"Uncletopia | Chicago | 1 | All Maps | STV","players":[{"user_id":460,"name":"Female Gamer","steam_id":76561199366482682,"connected_time":5273000000000,"state":"active","ping":106},{"user_id":500,"name":"TheToastingToaster","steam_id":76561198439391966,"connected_time":1775000000000,"state":"active","ping":65},{"user_id":513,"name":"Steve Jobs' cousin Hand Jobs","steam_id":76561198282766831,"connected_time":489000000000,"state":"active","ping":52},{"user_id":505,"name":"capybara","steam_id":76561198798828328,"connected_time":1323000000000,"state":"active","ping":45},{"user_id":519,"name":"Fuegan Ra","steam_id":76561198287923849,"connected_time":193000000000,"state":"active","ping":45},{"user_id":520,"name":"catboy phroliax","steam_id":76561198207075529,"connected_time":82000000000,"state":"active","ping":101},{"user_id":481,"name":"AOTFB | Eminem Fortnite","steam_id":76561198064631314,"connected_time":2701000000000,"state":"active","ping":69},{"user_id":490,"name":"linus","steam_id":76561198106196691,"connected_time":2191000000000,"state":"active","ping":64},{"user_id":509,"name":"pug","steam_id":76561198186400630,"connected_time":921000000000,"state":"active","ping":49},{"user_id":493,"name":"goombinus","steam_id":76561198136164826,"connected_time":2176000000000,"state":"active","ping":51},{"user_id":501,"name":"Bottle","steam_id":76561199229771653,"connected_time":1693000000000,"state":"active","ping":85},{"user_id":515,"name":"mrp","steam_id":76561198942843544,"connected_time":454000000000,"state":"active","ping":110},{"user_id":489,"name":"Curvrstob","steam_id":76561199012446849,"connected_time":2312000000000,"state":"active","ping":77},{"user_id":488,"name":"steakfarmasian","steam_id":76561198212754036,"connected_time":2615000000000,"state":"active","ping":35},{"user_id":516,"name":"30 FPS Master Player","steam_id":76561198869222282,"connected_time":434000000000,"state":"active","ping":96},{"user_id":483,"name":"♥ Femboy♥Ventily ♥","steam_id":76561198157260335,"connected_time":2688000000000,"state":"active","ping":46},{"user_id":491,"name":"SG21","steam_id":76561199381171306,"connected_time":2188000000000,"state":"active","ping":115},{"user_id":517,"name":"wida","steam_id":76561198036119899,"connected_time":313000000000,"state":"active","ping":93},{"user_id":475,"name":"Vox Vulpera","steam_id":76561198796227041,"connected_time":3773000000000,"state":"active","ping":66},{"user_id":511,"name":"average Fembaj enjoyer","steam_id":76561199245717718,"connected_time":696000000000,"state":"active","ping":61},{"user_id":476,"name":"AOTFB | WhiteWolf6421","steam_id":76561199184921234,"connected_time":3771000000000,"state":"active","ping":75},{"user_id":512,"name":"No Telefrag Plz","steam_id":76561198113931312,"connected_time":571000000000,"state":"active","ping":77},{"user_id":507,"name":"IamDORKeegan","steam_id":76561198263695730,"connected_time":1019000000000,"state":"active","ping":84},{"user_id":504,"name":"Pikman","steam_id":76561199365595998,"connected_time":1556000000000,"state":"active","ping":80}]},{"server_id":106,"name":"Uncletopia | Chicago | 2 | All Maps","name_short":"chi-2","host":"chi-1.us.uncletopia.com","port":27025,"enabled":true,"region":"us-central","cc":"us","latitude":41.881832,"longitude":-87.62318,"reserved":0,"last_update":"0001-01-01T00:00:00Z","name_a2s":"Uncletopia | Chicago | 2 | All Maps","protocol":17,"map":"pl_swiftwater_final1","folder":"tf","game":"Team Fortress","app_id":440,"player_count":24,"max_players":24,"Bots":0,"server_type":"Dedicated","server_os":"Linux","password":true,"vac":true,"version":"7757534","steam_id":85568392924469985,"keywords":["nocrits","nodmgspread","payload","uncletopia"],"game_id":440,"stv_port":27026,"stv_name":"Uncletopia | Chicago | 2 | All Maps | STV","players":[{"user_id":322,"name":"Dug","steam_id":76561198017691029,"connected_time":1913000000000,"state":"active","ping":53},{"user_id":330,"name":"Turtle","steam_id":76561198262110064,"connected_time":779000000000,"state":"active","ping":76},{"user_id":325,"name":"Dreamland","steam_id":76561198185490075,"connected_time":1343000000000,"state":"active","ping":69},{"user_id":331,"name":"lamadre07","steam_id":76561198067337453,"connected_time":772000000000,"state":"active","ping":91},{"user_id":309,"name":"Mailman","steam_id":76561198090675970,"connected_time":2947000000000,"state":"active","ping":45},{"user_id":326,"name":"❤ Ashley ❤","steam_id":76561198056428303,"connected_time":1332000000000,"state":"active","ping":104},{"user_id":315,"name":"AverageArtist","steam_id":76561198302576273,"connected_time":2419000000000,"state":"active","ping":63},{"user_id":332,"name":"Talvisota","steam_id":76561199190574223,"connected_time":768000000000,"state":"active","ping":59},{"user_id":333,"name":"A Sun","steam_id":76561198142545364,"connected_time":765000000000,"state":"active","ping":68},{"user_id":318,"name":"Gooey Gaped Grannys","steam_id":76561198089731303,"connected_time":2126000000000,"state":"active","ping":72},{"user_id":334,"name":"TAYLOR SWIFT","steam_id":76561198066767801,"connected_time":754000000000,"state":"active","ping":58},{"user_id":335,"name":"Prodious","steam_id":76561198063250819,"connected_time":738000000000,"state":"active","ping":45},{"user_id":294,"name":"bonk","steam_id":76561198004823930,"connected_time":3358000000000,"state":"active","ping":54},{"user_id":303,"name":"coffee bagel","steam_id":76561198141198352,"connected_time":3287000000000,"state":"active","ping":45},{"user_id":336,"name":"Thumbs","steam_id":76561199065890132,"connected_time":719000000000,"state":"active","ping":66},{"user_id":253,"name":"fresco","steam_id":76561199101199477,"connected_time":5047000000000,"state":"active","ping":59},{"user_id":310,"name":"Sous-Chef","steam_id":76561198075705827,"connected_time":2851000000000,"state":"active","ping":129},{"user_id":314,"name":"Dr Spaceman","steam_id":76561197969755657,"connected_time":2778000000000,"state":"active","ping":48},{"user_id":327,"name":"a garbage can","steam_id":76561198403626105,"connected_time":1311000000000,"state":"active","ping":54},{"user_id":323,"name":"T.w² | Sliced Bread","steam_id":76561198128489595,"connected_time":1810000000000,"state":"active","ping":85},{"user_id":324,"name":"Cheese Graffiti","steam_id":76561198046575913,"connected_time":1484000000000,"state":"active","ping":56},{"user_id":276,"name":"SoWhich","steam_id":76561198237125842,"connected_time":3631000000000,"state":"active","ping":58},{"user_id":313,"name":"devolverG","steam_id":76561198127497239,"connected_time":2793000000000,"state":"active","ping":75},{"user_id":321,"name":"Max_Attack","steam_id":76561198944028607,"connected_time":1924000000000,"state":"active","ping":87}]},{"server_id":402,"name":"Uncletopia | Chicago | 3 | All Maps","name_short":"chi-3","host":"chi-1.us.uncletopia.com","port":27035,"enabled":true,"region":"us-central","cc":"us","latitude":41.881832,"longitude":-87.62318,"reserved":0,"last_update":"0001-01-01T00:00:00Z","name_a2s":"Uncletopia | Chicago | 3 | All Maps","protocol":17,"map":"cp_steel","folder":"tf","game":"Team Fortress","app_id":440,"player_count":24,"max_players":24,"Bots":0,"server_type":"Dedicated","server_os":"Linux","password":true,"vac":true,"version":"7757534","steam_id":85568392924515191,"keywords":["cp","nocrits","nodmgspread","uncletopia"],"game_id":440,"stv_port":27036,"stv_name":"Uncletopia | Chicago | 3 | All Maps | STV","players":[{"user_id":381,"name":"LocaKola","steam_id":76561198173435430,"connected_time":233000000000,"state":"active","ping":71},{"user_id":360,"name":"Crabs on Deck","steam_id":76561198812183594,"connected_time":1791000000000,"state":"active","ping":62},{"user_id":366,"name":"The Animated Gamer","steam_id":76561198120639995,"connected_time":1349000000000,"state":"active","ping":116},{"user_id":327,"name":"Dusk","steam_id":76561199093333752,"connected_time":4747000000000,"state":"active","ping":79},{"user_id":339,"name":"ShitsandGiggles™","steam_id":76561198058708019,"connected_time":3358000000000,"state":"active","ping":56},{"user_id":384,"name":"Billy Williams","steam_id":76561198109509578,"connected_time":157000000000,"state":"active","ping":102},{"user_id":328,"name":"Normal Bagel","steam_id":76561198153971949,"connected_time":4540000000000,"state":"active","ping":55},{"user_id":375,"name":"Stars of Sirius","steam_id":76561198064634697,"connected_time":640000000000,"state":"active","ping":92},{"user_id":361,"name":"nel","steam_id":76561199211193548,"connected_time":1752000000000,"state":"active","ping":50},{"user_id":333,"name":"PAC-MATH","steam_id":76561198327729748,"connected_time":4269000000000,"state":"active","ping":83},{"user_id":295,"name":"Banana","steam_id":76561198321485249,"connected_time":6722000000000,"state":"active","ping":53},{"user_id":349,"name":"happy man!!! :D!!!!","steam_id":76561198128468316,"connected_time":2661000000000,"state":"active","ping":90},{"user_id":337,"name":"Edi","steam_id":76561198283003299,"connected_time":4209000000000,"state":"active","ping":96},{"user_id":372,"name":"Un_Zipped","steam_id":76561197990111649,"connected_time":695000000000,"state":"active","ping":63},{"user_id":345,"name":"CheeseCake488","steam_id":76561199407617942,"connected_time":3188000000000,"state":"active","ping":130},{"user_id":324,"name":"Chrome Knight","steam_id":76561198851348871,"connected_time":4788000000000,"state":"active","ping":85},{"user_id":383,"name":"Soull","steam_id":76561199188088471,"connected_time":172000000000,"state":"active","ping":81},{"user_id":376,"name":"ö¿rö  ù π (NGï○á x 21","steam_id":76561198069589278,"connected_time":633000000000,"state":"active","ping":95},{"user_id":377,"name":"Smet19","steam_id":76561198118455606,"connected_time":600000000000,"state":"active","ping":76},{"user_id":371,"name":"Kaypo","steam_id":76561198262420097,"connected_time":910000000000,"state":"active","ping":60},{"user_id":378,"name":"SnowBerry","steam_id":76561199002635831,"connected_time":590000000000,"state":"active","ping":62},{"user_id":369,"name":"Sink","steam_id":76561198192420249,"connected_time":1278000000000,"state":"active","ping":74},{"user_id":379,"name":"Sicko Mode (Chris Pratt Cover)","steam_id":76561198315786174,"connected_time":575000000000,"state":"active","ping":86},{"user_id":365,"name":"Censing Auto, The Challenger","steam_id":76561198060926681,"connected_time":1495000000000,"state":"active","ping":65}]},{"server_id":403,"name":"Uncletopia | Chicago | 4 | All Maps","name_short":"chi-4","host":"chi-1.us.uncletopia.com","port":27045,"enabled":true,"region":"us-central","cc":"us","latitude":41.881832,"longitude":-87.62318,"reserved":0,"last_update":"0001-01-01T00:00:00Z","name_a2s":"Uncletopia | Chicago | 4 | All Maps","protocol":17,"map":"pl_barnblitz","folder":"tf","game":"Team Fortress","app_id":440,"player_count":24,"max_players":24,"Bots":0,"server_type":"Dedicated","server_os":"Linux","password":true,"vac":true,"version":"7757534","steam_id":85568392924515193,"keywords":["nocrits","nodmgspread","payload","uncletopia"],"game_id":440,"stv_port":27046,"stv_name":"Uncletopia | Chicago | 4 | All Maps | STV","players":[{"user_id":623,"name":"gulch","steam_id":76561199227946025,"connected_time":2039000000000,"state":"active","ping":70},{"user_id":609,"name":"Shrimp Supreme","steam_id":76561198063676435,"connected_time":2743000000000,"state":"active","ping":61},{"user_id":579,"name":"(TTV) The_Astrum_Guardian","steam_id":76561198130134103,"connected_time":4649000000000,"state":"active","ping":64},{"user_id":630,"name":"Balerion the Black Dread","steam_id":76561198003728369,"connected_time":1692000000000,"state":"active","ping":61},{"user_id":632,"name":"Mister Boombastic","steam_id":76561198355442714,"connected_time":1668000000000,"state":"active","ping":68},{"user_id":619,"name":"Masotan","steam_id":76561199047187302,"connected_time":2215000000000,"state":"active","ping":45},{"user_id":650,"name":"Owen","steam_id":76561198025446908,"connected_time":642000000000,"state":"active","ping":63},{"user_id":633,"name":"Kirmie","steam_id":76561198109497010,"connected_time":1663000000000,"state":"active","ping":64},{"user_id":634,"name":"Knight Minson","steam_id":76561198091567396,"connected_time":1662000000000,"state":"active","ping":53},{"user_id":651,"name":"wilson","steam_id":76561198055392135,"connected_time":236000000000,"state":"active","ping":66},{"user_id":646,"name":"Mr. Morrow","steam_id":76561198011333701,"connected_time":813000000000,"state":"active","ping":65},{"user_id":637,"name":"Gixel","steam_id":76561198225886180,"connected_time":1637000000000,"state":"active","ping":95},{"user_id":564,"name":"Banana Dispenser","steam_id":76561198446549451,"connected_time":6304000000000,"state":"active","ping":152},{"user_id":628,"name":"Sone","steam_id":76561198069601032,"connected_time":1895000000000,"state":"active","ping":82},{"user_id":649,"name":"BNTF","steam_id":76561198062740087,"connected_time":796000000000,"state":"active","ping":75},{"user_id":652,"name":"xeeyuh","steam_id":76561198822313775,"connected_time":23000000000,"state":"active","ping":75},{"user_id":629,"name":"Acid-talon","steam_id":76561198039545578,"connected_time":1876000000000,"state":"active","ping":74},{"user_id":607,"name":"ghostyAlchemist","steam_id":76561198448078291,"connected_time":2878000000000,"state":"active","ping":72},{"user_id":647,"name":"DeadErebus","steam_id":76561198286117045,"connected_time":809000000000,"state":"active","ping":34},{"user_id":644,"name":"Catcow","steam_id":76561198025329176,"connected_time":1466000000000,"state":"active","ping":86},{"user_id":648,"name":"primordialheath","steam_id":76561199386942638,"connected_time":808000000000,"state":"active","ping":76},{"user_id":642,"name":"world machine","steam_id":76561198020689909,"connected_time":1520000000000,"state":"active","ping":90},{"user_id":618,"name":"slep.py","steam_id":76561197988287144,"connected_time":2443000000000,"state":"active","ping":49},{"user_id":643,"name":"BOBB","steam_id":76561198173601523,"connected_time":1514000000000,"state":"active","ping":81}]},{"server_id":36,"name":"Uncletopia | Chicago | 5 | All Maps","name_short":"chi-5","host":"chi-2.us.uncletopia.com","port":27015,"enabled":true,"region":"us-central","cc":"us","latitude":41.881832,"longitude":-87.62318,"reserved":0,"last_update":"0001-01-01T00:00:00Z","name_a2s":"Uncletopia | Chicago | 5 | All Maps","protocol":17,"map":"pl_borneo","folder":"tf","game":"Team Fortress","app_id":440,"player_count":24,"max_players":24,"Bots":0,"server_type":"Dedicated","server_os":"Linux","password":true,"vac":true,"version":"7757534","steam_id":85568392924866362,"keywords":["nocrits","nodmgspread","payload","uncletopia"],"game_id":440,"stv_port":27016,"stv_name":"Uncletopia | Chicago | 5 | All Maps | STV","players":[{"user_id":483,"name":"bobby peanstalk","steam_id":76561198040495463,"connected_time":2882000000000,"state":"active","ping":73},{"user_id":540,"name":"Average 5’11 man","steam_id":76561199236177480,"connected_time":267000000000,"state":"active","ping":56},{"user_id":517,"name":"A Large Wooden Badger","steam_id":76561197993747302,"connected_time":824000000000,"state":"active","ping":72},{"user_id":499,"name":"DiscoTraveler","steam_id":76561199240168088,"connected_time":1608000000000,"state":"active","ping":61},{"user_id":488,"name":"Sharpie","steam_id":76561198034745792,"connected_time":2476000000000,"state":"active","ping":60},{"user_id":528,"name":"tim-","steam_id":76561199119101315,"connected_time":472000000000,"state":"active","ping":75},{"user_id":516,"name":"Warpy","steam_id":76561198055852599,"connected_time":851000000000,"state":"active","ping":88},{"user_id":469,"name":"Pika","steam_id":76561198068063436,"connected_time":3087000000000,"state":"active","ping":53},{"user_id":470,"name":"ch","steam_id":76561198012566405,"connected_time":3086000000000,"state":"active","ping":63},{"user_id":502,"name":"Cyber Cylon","steam_id":76561198048972781,"connected_time":1237000000000,"state":"active","ping":58},{"user_id":547,"name":"crs22","steam_id":76561198120149196,"connected_time":47000000000,"state":"active","ping":61},{"user_id":473,"name":"Mei","steam_id":76561198082727031,"connected_time":3050000000000,"state":"active","ping":71},{"user_id":459,"name":"Theodore Roosevelt","steam_id":76561197993295656,"connected_time":4604000000000,"state":"active","ping":46},{"user_id":503,"name":"Jon_595","steam_id":76561198846843547,"connected_time":1174000000000,"state":"active","ping":75},{"user_id":490,"name":"Regi","steam_id":76561198271508598,"connected_time":2237000000000,"state":"active","ping":56},{"user_id":478,"name":"Ka Xin Yu","steam_id":76561198057116531,"connected_time":2932000000000,"state":"active","ping":55},{"user_id":497,"name":"1920","steam_id":76561198111669774,"connected_time":1633000000000,"state":"active","ping":45},{"user_id":484,"name":"EvilMrPotoo ｡◕‿◕｡","steam_id":76561198012566870,"connected_time":2879000000000,"state":"active","ping":83},{"user_id":506,"name":"JACOB","steam_id":76561198211874895,"connected_time":1132000000000,"state":"active","ping":96},{"user_id":436,"name":"Dealyo","steam_id":76561198282395338,"connected_time":6540000000000,"state":"active","ping":85},{"user_id":500,"name":"ethan","steam_id":76561198132637556,"connected_time":1585000000000,"state":"active","ping":55},{"user_id":539,"name":"Alvin And The Femur Breakers","steam_id":76561199013395904,"connected_time":298000000000,"state":"active","ping":68},{"user_id":462,"name":"reis","steam_id":76561199232952016,"connected_time":4270000000000,"state":"active","ping":178},{"user_id":481,"name":"Yes Man Kablaam","steam_id":76561198056690632,"connected_time":2906000000000,"state":"active","ping":115}]},{"server_id":37,"name":"Uncletopia | Chicago | 6 | All Maps","name_short":"chi-6","host":"chi-2.us.uncletopia.com","port":27025,"enabled":true,"region":"us-central","cc":"us","latitude":41.881832,"longitude":-87.62318,"reserved":0,"last_update":"0001-01-01T00:00:00Z","name_a2s":"Uncletopia | Chicago | 6 | All Maps","protocol":17,"map":"koth_highpass","folder":"tf","game":"Team Fortress","app_id":440,"player_count":0,"max_players":24,"Bots":0,"server_type":"Dedicated","server_os":"Linux","password":true,"vac":true,"version":"7757534","steam_id":85568392924866363,"keywords":["cp","nocrits","nodmgspread","uncletopia"],"game_id":440,"stv_port":27026,"stv_name":"Uncletopia | Chicago | 6 | All Maps | STV","players":null},{"server_id":38,"name":"Uncletopia | Chicago | 7 | Stopwatch Beta","name_short":"chi-7","host":"chi-2.us.uncletopia.com","port":27035,"enabled":true,"region":"us-central","cc":"us","latitude":41.881832,"longitude":-87.62318,"reserved":0,"last_update":"0001-01-01T00:00:00Z","name_a2s":"Uncletopia | Chicago | 7 | Stopwatch Beta","protocol":17,"map":"workshop/koth_bagel_rc5.ugc2514036946","folder":"tf","game":"Team Fortress","app_id":440,"player_count":0,"max_players":24,"Bots":0,"server_type":"Dedicated","server_os":"Linux","password":true,"vac":true,"version":"7757534","steam_id":85568392924866364,"keywords":["cp","nocrits","nodmgspread","uncletopia"],"game_id":440,"stv_port":27036,"stv_name":"Uncletopia | Chicago | 7 | Stopwatch Beta | STV","players":null},{"server_id":39,"name":"Uncletopia | Chicago | 8 | Community","name_short":"chi-8","host":"chi-2.us.uncletopia.com","port":27045,"enabled":true,"region":"us-central","cc":"us","latitude":41.881832,"longitude":-87.62318,"reserved":0,"last_update":"0001-01-01T00:00:00Z","name_a2s":"Uncletopia | Chicago | 8 | Community","protocol":17,"map":"workshop/koth_product_final.ugc454272353","folder":"tf","game":"Team Fortress","app_id":440,"player_count":0,"max_players":24,"Bots":0,"server_type":"Dedicated","server_os":"Linux","password":true,"vac":true,"version":"7757534","steam_id":85568392924866365,"keywords":["cp","nocrits","nodmgspread","uncletopia"],"game_id":440,"stv_port":27046,"stv_name":"Uncletopia | Chicago | 8 | Community | STV","players":null},{"server_id":8,"name":"Uncletopia | Dallas | 1 | All Maps","name_short":"dal-1","host":"dal-1.us.uncletopia.com","port":27015,"enabled":true,"region":"us-central","cc":"us","latitude":32.779167,"longitude":-96.80889,"reserved":0,"last_update":"0001-01-01T00:00:00Z","name_a2s":"Uncletopia | Dallas | 1 | All Maps","protocol":17,"map":"pl_snowycoast","folder":"tf","game":"Team Fortress","app_id":440,"player_count":24,"max_players":24,"Bots":0,"server_type":"Dedicated","server_os":"Linux","password":true,"vac":true,"version":"7757534","steam_id":85568392924469986,"keywords":["nocrits","nodmgspread","payload","uncletopia"],"game_id":440,"stv_port":27016,"stv_name":"Uncletopia | Dallas | 1 | All Maps | STV","players":[{"user_id":557,"name":"Emma","steam_id":76561198318093783,"connected_time":1337000000000,"state":"active","ping":60},{"user_id":579,"name":"Malex","steam_id":76561198012216805,"connected_time":430000000000,"state":"active","ping":80},{"user_id":543,"name":"god approaches","steam_id":76561198081617990,"connected_time":2175000000000,"state":"active","ping":89},{"user_id":536,"name":"MrActionJaxon","steam_id":76561198093549908,"connected_time":3009000000000,"state":"active","ping":51},{"user_id":585,"name":"lker","steam_id":76561197976975075,"connected_time":143000000000,"state":"active","ping":57},{"user_id":558,"name":"JJDrowsy","steam_id":76561198274501963,"connected_time":1304000000000,"state":"active","ping":72},{"user_id":567,"name":"golia","steam_id":76561198000264266,"connected_time":1016000000000,"state":"active","ping":89},{"user_id":584,"name":"Green Icicle","steam_id":76561198069624529,"connected_time":160000000000,"state":"active","ping":105},{"user_id":541,"name":"Ballista","steam_id":76561197983182562,"connected_time":2799000000000,"state":"active","ping":58},{"user_id":575,"name":"Sinner117","steam_id":76561198839796550,"connected_time":530000000000,"state":"active","ping":89},{"user_id":552,"name":"caRat","steam_id":76561198859267372,"connected_time":1558000000000,"state":"active","ping":76},{"user_id":580,"name":"sky.to16","steam_id":76561199211313763,"connected_time":421000000000,"state":"active","ping":91},{"user_id":544,"name":"Saldaña","steam_id":76561198214473001,"connected_time":2173000000000,"state":"active","ping":71},{"user_id":473,"name":"SniperSteve10","steam_id":76561198025629647,"connected_time":7434000000000,"state":"active","ping":57},{"user_id":583,"name":"Mysteryred12","steam_id":76561199206772814,"connected_time":167000000000,"state":"active","ping":125},{"user_id":561,"name":"MoontheLoon","steam_id":76561197970630870,"connected_time":1176000000000,"state":"active","ping":56},{"user_id":573,"name":"BrainlezBrainiac","steam_id":76561199193942805,"connected_time":796000000000,"state":"active","ping":66},{"user_id":574,"name":"Foomfa","steam_id":76561198007033616,"connected_time":631000000000,"state":"active","ping":63},{"user_id":564,"name":"Skiff","steam_id":76561197992576911,"connected_time":1121000000000,"state":"active","ping":93},{"user_id":586,"name":"RaT","steam_id":76561198383498049,"connected_time":141000000000,"state":"active","ping":75},{"user_id":510,"name":"Bullwinkle J. Moose","steam_id":76561198075977196,"connected_time":5222000000000,"state":"active","ping":57},{"user_id":578,"name":"DerpyNinja31","steam_id":76561198128976409,"connected_time":457000000000,"state":"active","ping":61},{"user_id":569,"name":"doubledanage","steam_id":76561198418629356,"connected_time":1001000000000,"state":"active","ping":46},{"user_id":577,"name":"MeatwadMeatwad","steam_id":76561198202194160,"connected_time":502000000000,"state":"active","ping":92}]},{"server_id":108,"name":"Uncletopia | Dallas | 2 | All Maps","name_short":"dal-2","host":"dal-1.us.uncletopia.com","port":27025,"enabled":true,"region":"us-central","cc":"us","latitude":32.779167,"longitude":-96.80889,"reserved":0,"last_update":"0001-01-01T00:00:00Z","name_a2s":"Uncletopia | Dallas | 2 | All Maps","protocol":17,"map":"pl_thundermountain","folder":"tf","game":"Team Fortress","app_id":440,"player_count":24,"max_players":24,"Bots":0,"server_type":"Dedicated","server_os":"Linux","password":true,"vac":true,"version":"7757534","steam_id":85568392924469988,"keywords":["nocrits","nodmgspread","payload","uncletopia"],"game_id":440,"stv_port":27026,"stv_name":"Uncletopia | Dallas | 2 | All Maps | STV","players":[{"user_id":387,"name":"Rat Smacker","steam_id":76561199090197628,"connected_time":5570000000000,"state":"active","ping":63},{"user_id":432,"name":"a bucket of chicken","steam_id":76561198023710042,"connected_time":1305000000000,"state":"active","ping":46},{"user_id":418,"name":"MaximumAce","steam_id":76561198359596849,"connected_time":2745000000000,"state":"active","ping":66},{"user_id":408,"name":"Mason","steam_id":76561199057309626,"connected_time":3498000000000,"state":"active","ping":100},{"user_id":406,"name":"SPREAD CHRISTMAS CHEER AND JOY","steam_id":76561198800386026,"connected_time":3793000000000,"state":"active","ping":94},{"user_id":439,"name":"Polygunner","steam_id":76561199165741650,"connected_time":534000000000,"state":"active","ping":103},{"user_id":405,"name":"[LINUX] Konunkier","steam_id":76561198093538786,"connected_time":3986000000000,"state":"active","ping":47},{"user_id":415,"name":"???","steam_id":76561198200155343,"connected_time":2977000000000,"state":"active","ping":42},{"user_id":380,"name":"Uncle","steam_id":76561197988647705,"connected_time":5892000000000,"state":"active","ping":83},{"user_id":386,"name":"Anon","steam_id":76561198109740776,"connected_time":5630000000000,"state":"active","ping":99},{"user_id":437,"name":"kingwren","steam_id":76561198151382116,"connected_time":788000000000,"state":"active","ping":87},{"user_id":364,"name":"FG7","steam_id":76561198381197197,"connected_time":7446000000000,"state":"active","ping":99},{"user_id":416,"name":"1=2","steam_id":76561198027238792,"connected_time":2939000000000,"state":"active","ping":66},{"user_id":414,"name":"Squidward","steam_id":76561198189429665,"connected_time":3091000000000,"state":"active","ping":72},{"user_id":440,"name":"Weird","steam_id":76561199082362722,"connected_time":299000000000,"state":"active","ping":132},{"user_id":417,"name":"Not a Can","steam_id":76561198064264767,"connected_time":2773000000000,"state":"active","ping":73},{"user_id":422,"name":"Mega Madness","steam_id":76561198204862037,"connected_time":2618000000000,"state":"active","ping":63},{"user_id":423,"name":"Goofy Goober","steam_id":76561198065361279,"connected_time":2608000000000,"state":"active","ping":116},{"user_id":438,"name":"Sriracha","steam_id":76561198114781841,"connected_time":687000000000,"state":"active","ping":59},{"user_id":323,"name":"TheConchinator","steam_id":76561199388149092,"connected_time":11207000000000,"state":"active","ping":89},{"user_id":427,"name":"damiankiller1243","steam_id":76561198868885090,"connected_time":1982000000000,"state":"active","ping":71},{"user_id":434,"name":"Butter Beyond The Binary","steam_id":76561198128408544,"connected_time":1291000000000,"state":"active","ping":65},{"user_id":326,"name":"theancientnut","steam_id":76561199396708880,"connected_time":11135000000000,"state":"active","ping":85},{"user_id":436,"name":"sockman","steam_id":76561198306826566,"connected_time":1231000000000,"state":"active","ping":88}]},{"server_id":5,"name":"Uncletopia | Frankfurt | 1 | All Maps","name_short":"frk-1","host":"frk-1.de.uncletopia.com","port":27015,"enabled":true,"region":"eu","cc":"de","latitude":50.110924,"longitude":8.682127,"reserved":0,"last_update":"0001-01-01T00:00:00Z","name_a2s":"Uncletopia | Frankfurt | 1 | All Maps","protocol":17,"map":"cp_dustbowl","folder":"tf","game":"Team Fortress","app_id":440,"player_count":0,"max_players":24,"Bots":0,"server_type":"Dedicated","server_os":"Linux","password":true,"vac":true,"version":"7757534","steam_id":85568392924469989,"keywords":["cp","nocrits","nodmgspread","uncletopia"],"game_id":440,"stv_port":27016,"stv_name":"Uncletopia | Frankfurt | 1 | All Maps | STV","players":null},{"server_id":110,"name":"Uncletopia | Frankfurt | 2 | All Maps","name_short":"frk-2","host":"frk-1.de.uncletopia.com","port":27025,"enabled":true,"region":"eu","cc":"de","latitude":50.110924,"longitude":8.682127,"reserved":0,"last_update":"0001-01-01T00:00:00Z","name_a2s":"Uncletopia | Frankfurt | 2 | All Maps","protocol":17,"map":"pl_snowycoast","folder":"tf","game":"Team Fortress","app_id":440,"player_count":0,"max_players":24,"Bots":0,"server_type":"Dedicated","server_os":"Linux","password":true,"vac":true,"version":"7757534","steam_id":85568392924469990,"keywords":["nocrits","nodmgspread","payload","uncletopia"],"game_id":440,"stv_port":27026,"stv_name":"Uncletopia | Frankfurt | 2 | All Maps | STV","players":null},{"server_id":308,"name":"Uncletopia | Frankfurt | 3 | All Maps","name_short":"frk-3","host":"frk-1.de.uncletopia.com","port":27035,"enabled":true,"region":"eu","cc":"de","latitude":50.110924,"longitude":8.682127,"reserved":0,"last_update":"0001-01-01T00:00:00Z","name_a2s":"Uncletopia | Frankfurt | 3 | All Maps","protocol":17,"map":"pl_upward","folder":"tf","game":"Team Fortress","app_id":440,"player_count":2,"max_players":24,"Bots":0,"server_type":"Dedicated","server_os":"Linux","password":true,"vac":true,"version":"7757534","steam_id":85568392924504274,"keywords":["nocrits","nodmgspread","payload","uncletopia"],"game_id":440,"stv_port":27036,"stv_name":"Uncletopia | Frankfurt | 3 | All Maps | STV","players":[{"user_id":648,"name":"fried","steam_id":76561198307522022,"connected_time":394000000000,"state":"active","ping":44},{"user_id":649,"name":"lvl 1 sentry","steam_id":76561198268638706,"connected_time":270000000000,"state":"active","ping":207}]},{"server_id":309,"name":"Uncletopia | Frankfurt | 4 | All Maps","name_short":"frk-4","host":"frk-1.de.uncletopia.com","port":27045,"enabled":true,"region":"eu","cc":"de","latitude":50.110924,"longitude":8.682127,"reserved":0,"last_update":"0001-01-01T00:00:00Z","name_a2s":"Uncletopia | Frankfurt | 4 | All Maps","protocol":17,"map":"cp_steel","folder":"tf","game":"Team Fortress","app_id":440,"player_count":20,"max_players":24,"Bots":0,"server_type":"Dedicated","server_os":"Linux","password":true,"vac":true,"version":"7757534","steam_id":85568392924504275,"keywords":["cp","nocrits","nodmgspread","uncletopia"],"game_id":440,"stv_port":27046,"stv_name":"Uncletopia | Frankfurt | 4 | All Maps | STV","players":[{"user_id":932,"name":"Jude","steam_id":76561198976155630,"connected_time":810000000000,"state":"active","ping":75},{"user_id":865,"name":"Plop_","steam_id":76561198112567921,"connected_time":4793000000000,"state":"active","ping":45},{"user_id":889,"name":"peni$","steam_id":76561197993672814,"connected_time":3702000000000,"state":"active","ping":77},{"user_id":872,"name":"ivanmixo","steam_id":76561198160213989,"connected_time":4503000000000,"state":"active","ping":61},{"user_id":916,"name":"minor molester","steam_id":76561199414716848,"connected_time":1736000000000,"state":"active","ping":60},{"user_id":943,"name":"b","steam_id":76561198074160877,"connected_time":217000000000,"state":"active","ping":70},{"user_id":944,"name":"DSSD","steam_id":76561197975128756,"connected_time":204000000000,"state":"active","ping":64},{"user_id":945,"name":"AMD","steam_id":76561199114981461,"connected_time":170000000000,"state":"active","ping":152},{"user_id":918,"name":"Call Me Meme","steam_id":76561198342092670,"connected_time":1638000000000,"state":"active","ping":76},{"user_id":946,"name":":\u003e","steam_id":76561198349324196,"connected_time":148000000000,"state":"active","ping":186},{"user_id":914,"name":"SuntanPikachu","steam_id":76561198121242476,"connected_time":2015000000000,"state":"active","ping":76},{"user_id":905,"name":"Tsuruko","steam_id":76561198063618114,"connected_time":2533000000000,"state":"active","ping":60},{"user_id":919,"name":"Vezage","steam_id":76561198064916164,"connected_time":1603000000000,"state":"active","ping":68},{"user_id":941,"name":"snowii","steam_id":76561198836246326,"connected_time":322000000000,"state":"active","ping":58},{"user_id":920,"name":"jones","steam_id":76561198044434971,"connected_time":1576000000000,"state":"active","ping":60},{"user_id":908,"name":"Comissar Grivus","steam_id":76561198888900874,"connected_time":2502000000000,"state":"active","ping":80},{"user_id":923,"name":"stół z powyłamywanymi nogami","steam_id":76561198095134889,"connected_time":1350000000000,"state":"active","ping":73},{"user_id":937,"name":"The Ghost","steam_id":76561198024610779,"connected_time":370000000000,"state":"active","ping":70},{"user_id":924,"name":"Hannü","steam_id":76561197969886128,"connected_time":1336000000000,"state":"active","ping":69},{"user_id":926,"name":"Zinney","steam_id":76561198170997706,"connected_time":1327000000000,"state":"active","ping":45}]},{"server_id":310,"name":"Uncletopia | Frankfurt | 5 | All Maps","name_short":"frk-5","host":"frk-1.de.uncletopia.com","port":27055,"enabled":true,"region":"eu","cc":"de","latitude":50.110924,"longitude":8.682127,"reserved":0,"last_update":"0001-01-01T00:00:00Z","name_a2s":"Uncletopia | Frankfurt | 5 | All Maps","protocol":17,"map":"cp_sunshine","folder":"tf","game":"Team Fortress","app_id":440,"player_count":0,"max_players":24,"Bots":0,"server_type":"Dedicated","server_os":"Linux","password":true,"vac":true,"version":"7757534","steam_id":85568392924504277,"keywords":["cp","nocrits","nodmgspread","uncletopia"],"game_id":440,"stv_port":27056,"stv_name":"Uncletopia | Frankfurt | 5 | All Maps | STV","players":null},{"server_id":311,"name":"Uncletopia | Frankfurt | 6 | All Maps","name_short":"frk-6","host":"frk-1.de.uncletopia.com","port":27065,"enabled":true,"region":"eu","cc":"de","latitude":50.110924,"longitude":8.682127,"reserved":0,"last_update":"0001-01-01T00:00:00Z","name_a2s":"Uncletopia | Frankfurt | 6 | All Maps","protocol":17,"map":"pl_frontier_final","folder":"tf","game":"Team Fortress","app_id":440,"player_count":0,"max_players":24,"Bots":0,"server_type":"Dedicated","server_os":"Linux","password":true,"vac":true,"version":"7757534","steam_id":85568392924504278,"keywords":["nocrits","nodmgspread","payload","uncletopia"],"game_id":440,"stv_port":27066,"stv_name":"Uncletopia | Frankfurt | 6 | All Maps | STV","players":null},{"server_id":23,"name":"Uncletopia | Frankfurt | 7 | Stopwatch Beta","name_short":"frk-7","host":"frk-1.de.uncletopia.com","port":27075,"enabled":true,"region":"eu","cc":"de","latitude":50.110924,"longitude":8.682127,"reserved":0,"last_update":"0001-01-01T00:00:00Z","name_a2s":"Uncletopia | Frankfurt | 7 | Stopwatch Beta","protocol":17,"map":"workshop/koth_ashville_final.ugc2130459942","folder":"tf","game":"Team Fortress","app_id":440,"player_count":0,"max_players":24,"Bots":0,"server_type":"Dedicated","server_os":"Linux","password":true,"vac":true,"version":"7757534","steam_id":85568392924742827,"keywords":["cp","nocrits","nodmgspread","uncletopia"],"game_id":440,"stv_port":27076,"stv_name":"Uncletopia | Frankfurt | 7 | Stopwatch Beta | STV","players":null},{"server_id":24,"name":"Uncletopia | Frankfurt | 8 | Community","name_short":"frk-8","host":"frk-1.de.uncletopia.com","port":27085,"enabled":true,"region":"eu","cc":"de","latitude":50.110924,"longitude":8.682127,"reserved":0,"last_update":"0001-01-01T00:00:00Z","name_a2s":"Uncletopia | Frankfurt | 8 | Community","protocol":17,"map":"workshop/koth_ashville_final.ugc2130459942","folder":"tf","game":"Team Fortress","app_id":440,"player_count":0,"max_players":24,"Bots":0,"server_type":"Dedicated","server_os":"Linux","password":true,"vac":true,"version":"7757534","steam_id":85568392924742828,"keywords":["cp","nocrits","nodmgspread","uncletopia"],"game_id":440,"stv_port":27086,"stv_name":"Uncletopia | Frankfurt | 8 | Community | STV","players":null},{"server_id":202,"name":"Uncletopia | Hong Kong | 1 | All Maps","name_short":"hgk-1","host":"hgk-1.hk.uncletopia.com","port":27015,"enabled":true,"region":"asia","cc":"hk","latitude":22.302711,"longitude":114.177216,"reserved":0,"last_update":"0001-01-01T00:00:00Z","name_a2s":"Uncletopia | Hong Kong | 1 | All Maps","protocol":17,"map":"pl_badwater","folder":"tf","game":"Team Fortress","app_id":440,"player_count":24,"max_players":24,"Bots":0,"server_type":"Dedicated","server_os":"Linux","password":true,"vac":true,"version":"7757534","steam_id":85568392924494504,"keywords":["nocrits","nodmgspread","payload","uncletopia"],"game_id":440,"stv_port":27016,"stv_name":"Uncletopia | Hong Kong | 1 | All Maps | STV","players":[{"user_id":69,"name":"tuxy","steam_id":76561198996816684,"connected_time":192000000000,"state":"active","ping":69},{"user_id":13,"name":"善良の墨","steam_id":76561199102754539,"connected_time":4561000000000,"state":"active","ping":87},{"user_id":55,"name":"Ivan Dickevich Rektanov","steam_id":76561198201473205,"connected_time":1878000000000,"state":"active","ping":99},{"user_id":38,"name":"Mysterious_Network","steam_id":76561199445957166,"connected_time":3212000000000,"state":"active","ping":88},{"user_id":20,"name":"Talkk More","steam_id":76561198305424433,"connected_time":4027000000000,"state":"active","ping":97},{"user_id":21,"name":"worndelight","steam_id":76561199056960214,"connected_time":3858000000000,"state":"active","ping":139},{"user_id":64,"name":"uptriste","steam_id":76561198158666692,"connected_time":886000000000,"state":"active","ping":37},{"user_id":19,"name":"P","steam_id":76561198304514505,"connected_time":4205000000000,"state":"active","ping":78},{"user_id":57,"name":"whippyman","steam_id":76561198137069257,"connected_time":1352000000000,"state":"active","ping":117},{"user_id":24,"name":"Mars","steam_id":76561198846610729,"connected_time":3710000000000,"state":"active","ping":109},{"user_id":47,"name":"irylfaith","steam_id":76561199071455481,"connected_time":2363000000000,"state":"active","ping":109},{"user_id":66,"name":"Milk❤ (uncle dan unbanned me)","steam_id":76561198163911560,"connected_time":791000000000,"state":"active","ping":179},{"user_id":50,"name":"corpse_cadaver","steam_id":76561199225360457,"connected_time":2194000000000,"state":"active","ping":72},{"user_id":56,"name":"work delirium","steam_id":76561197994194946,"connected_time":1857000000000,"state":"active","ping":103},{"user_id":68,"name":"ina","steam_id":76561198400698408,"connected_time":358000000000,"state":"active","ping":91},{"user_id":51,"name":"vutueminh888","steam_id":76561199383966662,"connected_time":2132000000000,"state":"active","ping":69},{"user_id":67,"name":"frenchhhhhhhhhhhhhhh","steam_id":76561198242827110,"connected_time":633000000000,"state":"active","ping":62},{"user_id":43,"name":"Windmill","steam_id":76561199230997986,"connected_time":2978000000000,"state":"active","ping":83},{"user_id":59,"name":"zero2hour[F2P]","steam_id":76561198073502754,"connected_time":1283000000000,"state":"active","ping":104},{"user_id":53,"name":"Lym0n","steam_id":76561199192420260,"connected_time":2040000000000,"state":"active","ping":113},{"user_id":60,"name":"brizzard","steam_id":76561198048438653,"connected_time":1194000000000,"state":"active","ping":57},{"user_id":61,"name":"MongGoyo63","steam_id":76561198349540834,"connected_time":1171000000000,"state":"active","ping":97},{"user_id":62,"name":"Nice","steam_id":76561199180653046,"connected_time":1154000000000,"state":"active","ping":131},{"user_id":63,"name":"✧BaKa BAzooKA✧(◕▿◕ )","steam_id":76561198061628689,"connected_time":1121000000000,"state":"active","ping":53}]},{"server_id":1,"name":"Uncletopia | Los Angeles | 1 | All Maps","name_short":"lax-1","host":"lax-1.us.uncletopia.com","port":27015,"enabled":true,"region":"us-west","cc":"us","latitude":33.94279,"longitude":-118.41004,"reserved":0,"last_update":"0001-01-01T00:00:00Z","name_a2s":"Uncletopia | Los Angeles | 1 | All Maps","protocol":17,"map":"koth_viaduct","folder":"tf","game":"Team Fortress","app_id":440,"player_count":0,"max_players":24,"Bots":0,"server_type":"Dedicated","server_os":"Linux","password":true,"vac":true,"version":"7757534","steam_id":85568392924469991,"keywords":["cp","nocrits","nodmgspread","uncletopia"],"game_id":440,"stv_port":27016,"stv_name":"Uncletopia | Los Angeles | 1 | All Maps | STV","players":null},{"server_id":112,"name":"Uncletopia | Los Angeles | 2 | All Maps","name_short":"lax-2","host":"lax-1.us.uncletopia.com","port":27025,"enabled":true,"region":"us-west","cc":"us","latitude":33.94279,"longitude":-118.41004,"reserved":0,"last_update":"0001-01-01T00:00:00Z","name_a2s":"Uncletopia | Los Angeles | 2 | All Maps","protocol":17,"map":"pl_upward","folder":"tf","game":"Team Fortress","app_id":440,"player_count":24,"max_players":24,"Bots":0,"server_type":"Dedicated","server_os":"Linux","password":true,"vac":true,"version":"7757534","steam_id":85568392924469992,"keywords":["nocrits","nodmgspread","payload","uncletopia"],"game_id":440,"stv_port":27026,"stv_name":"Uncletopia | Los Angeles | 2 | All Maps | STV","players":[{"user_id":658,"name":"hpesoJ*","steam_id":76561198031341893,"connected_time":145000000000,"state":"active","ping":102},{"user_id":611,"name":"Solaire","steam_id":76561198035762837,"connected_time":3766000000000,"state":"active","ping":121},{"user_id":652,"name":"The Caretaker","steam_id":76561198125241411,"connected_time":478000000000,"state":"active","ping":77},{"user_id":645,"name":"Spud","steam_id":76561198878000618,"connected_time":1212000000000,"state":"active","ping":44},{"user_id":641,"name":"Hector Salamanca","steam_id":76561198093836635,"connected_time":1377000000000,"state":"active","ping":54},{"user_id":602,"name":"stoned jester","steam_id":76561198079609974,"connected_time":3966000000000,"state":"active","ping":58},{"user_id":659,"name":"TeCon","steam_id":76561198049127236,"connected_time":144000000000,"state":"active","ping":54},{"user_id":628,"name":"Fred","steam_id":76561197983870604,"connected_time":2300000000000,"state":"active","ping":51},{"user_id":656,"name":"MORE BOUNCE TO THE OUNCE","steam_id":76561198243399336,"connected_time":376000000000,"state":"active","ping":66},{"user_id":648,"name":"fishe enjoyer","steam_id":76561199045901994,"connected_time":684000000000,"state":"active","ping":57},{"user_id":647,"name":"kr1tsurf3r","steam_id":76561198076402476,"connected_time":849000000000,"state":"active","ping":69},{"user_id":625,"name":"Super Mega Buster #savetf2","steam_id":76561198160316069,"connected_time":2699000000000,"state":"active","ping":74},{"user_id":657,"name":"UGLYBUGLY","steam_id":76561198095312764,"connected_time":349000000000,"state":"active","ping":105},{"user_id":621,"name":"John Wick's puppy","steam_id":76561198064662875,"connected_time":2952000000000,"state":"active","ping":56},{"user_id":631,"name":"SHADOW (he/him)","steam_id":76561198207768148,"connected_time":2288000000000,"state":"active","ping":69},{"user_id":637,"name":"Cuck_it","steam_id":76561198287432299,"connected_time":2122000000000,"state":"active","ping":105},{"user_id":646,"name":"The Announcer's Feet","steam_id":76561199443456893,"connected_time":1172000000000,"state":"active","ping":76},{"user_id":634,"name":"Shia Surprise","steam_id":76561198081945804,"connected_time":2238000000000,"state":"active","ping":105},{"user_id":650,"name":"Newt","steam_id":76561198842909288,"connected_time":493000000000,"state":"active","ping":87},{"user_id":651,"name":"poop_lord69","steam_id":76561199455732510,"connected_time":493000000000,"state":"active","ping":114},{"user_id":643,"name":"Kopenich","steam_id":76561198066205245,"connected_time":1251000000000,"state":"active","ping":53},{"user_id":638,"name":"chunkysquare","steam_id":76561199076468383,"connected_time":1851000000000,"state":"active","ping":57},{"user_id":624,"name":"Ashes!","steam_id":76561197998475441,"connected_time":2793000000000,"state":"active","ping":123},{"user_id":540,"name":"GamerPizza","steam_id":76561198140520550,"connected_time":8250000000000,"state":"active","ping":85}]},{"server_id":324,"name":"Uncletopia | Los Angeles | 3 | All Maps","name_short":"lax-3","host":"lax-1.us.uncletopia.com","port":27035,"enabled":true,"region":"us-west","cc":"us","latitude":33.94279,"longitude":-118.41004,"reserved":0,"last_update":"0001-01-01T00:00:00Z","name_a2s":"Uncletopia | Los Angeles | 3 | All Maps","protocol":17,"map":"koth_viaduct","folder":"tf","game":"Team Fortress","app_id":440,"player_count":0,"max_players":24,"Bots":0,"server_type":"Dedicated","server_os":"Linux","password":true,"vac":true,"version":"7757534","steam_id":85568392924510198,"keywords":["cp","nocrits","nodmgspread","uncletopia"],"game_id":440,"stv_port":27036,"stv_name":"Uncletopia | Los Angeles | 3 | All Maps | STV","players":null},{"server_id":25,"name":"Uncletopia | Los Angeles | 4 | Stopwatch Beta","name_short":"lax-4","host":"lax-1.us.uncletopia.com","port":27045,"enabled":true,"region":"us-west","cc":"us","latitude":33.94279,"longitude":-118.41004,"reserved":0,"last_update":"0001-01-01T00:00:00Z","name_a2s":"Uncletopia | Los Angeles | 4 | Stopwatch Beta","protocol":17,"map":"koth_viaduct","folder":"tf","game":"Team Fortress","app_id":440,"player_count":0,"max_players":24,"Bots":0,"server_type":"Dedicated","server_os":"Linux","password":true,"vac":true,"version":"7757534","steam_id":85568392924510199,"keywords":["cp","nocrits","nodmgspread","uncletopia"],"game_id":440,"stv_port":27046,"stv_name":"Uncletopia | Los Angeles | 4 | Stopwatch Beta | STV","players":null},{"server_id":11,"name":"Uncletopia | London | 1 | All Maps","name_short":"lon-1","host":"lon-1.uk.uncletopia.com","port":27015,"enabled":true,"region":"eu","cc":"gb","latitude":51.509865,"longitude":-0.118092,"reserved":0,"last_update":"0001-01-01T00:00:00Z","name_a2s":"Uncletopia | London | 1 | All Maps","protocol":17,"map":"koth_king","folder":"tf","game":"Team Fortress","app_id":440,"player_count":0,"max_players":24,"Bots":0,"server_type":"Dedicated","server_os":"Linux","password":true,"vac":true,"version":"7757534","steam_id":85568392924367362,"keywords":["cp","nocrits","nodmgspread","uncletopia"],"game_id":440,"stv_port":27016,"stv_name":"Uncletopia | London | 1 | All Maps | STV","players":null},{"server_id":114,"name":"Uncletopia | London | 2 | All Maps","name_short":"lon-2","host":"lon-1.uk.uncletopia.com","port":27025,"enabled":true,"region":"eu","cc":"gb","latitude":51.509865,"longitude":-0.118092,"reserved":0,"last_update":"0001-01-01T00:00:00Z","name_a2s":"Uncletopia | London | 2 | All Maps","protocol":17,"map":"pl_badwater","folder":"tf","game":"Team Fortress","app_id":440,"player_count":7,"max_players":24,"Bots":0,"server_type":"Dedicated","server_os":"Linux","password":true,"vac":true,"version":"7757534","steam_id":85568392924470941,"keywords":["nocrits","nodmgspread","payload","uncletopia"],"game_id":440,"stv_port":27026,"stv_name":"Uncletopia | London | 2 | All Maps | STV","players":[{"user_id":750,"name":"Jmen","steam_id":76561198000501096,"connected_time":576000000000,"state":"active","ping":59},{"user_id":745,"name":"2011 Seat León","steam_id":76561197994310420,"connected_time":1088000000000,"state":"active","ping":90},{"user_id":751,"name":"Julia","steam_id":76561199277727142,"connected_time":549000000000,"state":"active","ping":126},{"user_id":757,"name":"Tapet","steam_id":76561197998808674,"connected_time":91000000000,"state":"active","ping":71},{"user_id":752,"name":"feeling suffer","steam_id":76561198049622646,"connected_time":509000000000,"state":"active","ping":104},{"user_id":746,"name":"RUNITBAKCTURBO7","steam_id":76561198148472700,"connected_time":1084000000000,"state":"active","ping":99},{"user_id":747,"name":"HASASYIN786","steam_id":76561198258747476,"connected_time":1058000000000,"state":"active","ping":45}]},{"server_id":320,"name":"Uncletopia | London | 3 | All Maps","name_short":"lon-3","host":"lon-1.uk.uncletopia.com","port":27035,"enabled":true,"region":"eu","cc":"gb","latitude":51.509865,"longitude":-0.118092,"reserved":0,"last_update":"0001-01-01T00:00:00Z","name_a2s":"Uncletopia | London | 3 | All Maps","protocol":17,"map":"cp_process_final","folder":"tf","game":"Team Fortress","app_id":440,"player_count":0,"max_players":24,"Bots":0,"server_type":"Dedicated","server_os":"Linux","password":true,"vac":true,"version":"7757534","steam_id":85568392924510192,"keywords":["cp","nocrits","nodmgspread","uncletopia"],"game_id":440,"stv_port":27036,"stv_name":"Uncletopia | London | 3 | All Maps | STV","players":null},{"server_id":321,"name":"Uncletopia | London | 4 | All Maps","name_short":"lon-4","host":"lon-1.uk.uncletopia.com","port":27045,"enabled":true,"region":"eu","cc":"gb","latitude":51.509865,"longitude":-0.118092,"reserved":0,"last_update":"0001-01-01T00:00:00Z","name_a2s":"Uncletopia | London | 4 | All Maps","protocol":17,"map":"koth_highpass","folder":"tf","game":"Team Fortress","app_id":440,"player_count":0,"max_players":24,"Bots":0,"server_type":"Dedicated","server_os":"Linux","password":true,"vac":true,"version":"7757534","steam_id":85568392924510193,"keywords":["cp","nocrits","nodmgspread","uncletopia"],"game_id":440,"stv_port":27046,"stv_name":"Uncletopia | London | 4 | All Maps | STV","players":null},{"server_id":21,"name":"Uncletopia | London | 5 | All Maps","name_short":"lon-5","host":"lon-1.uk.uncletopia.com","port":27055,"enabled":true,"region":"eu","cc":"gb","latitude":51.509865,"longitude":-0.118092,"reserved":0,"last_update":"0001-01-01T00:00:00Z","name_a2s":"Uncletopia | London | 5 | All Maps","protocol":17,"map":"koth_suijin","folder":"tf","game":"Team Fortress","app_id":440,"player_count":0,"max_players":24,"Bots":0,"server_type":"Dedicated","server_os":"Linux","password":true,"vac":true,"version":"7757534","steam_id":85568392924742829,"keywords":["cp","nocrits","nodmgspread","uncletopia"],"game_id":440,"stv_port":27056,"stv_name":"Uncletopia | London | 5 | All Maps | STV","players":null},{"server_id":22,"name":"Uncletopia | London | 6 | All Maps","name_short":"lon-6","host":"lon-1.uk.uncletopia.com","port":27065,"enabled":true,"region":"eu","cc":"gb","latitude":51.509865,"longitude":-0.118092,"reserved":0,"last_update":"0001-01-01T00:00:00Z","name_a2s":"Uncletopia | London | 6 | All Maps","protocol":17,"map":"pl_upward","folder":"tf","game":"Team Fortress","app_id":440,"player_count":24,"max_players":24,"Bots":0,"server_type":"Dedicated","server_os":"Linux","password":true,"vac":true,"version":"7757534","steam_id":85568392924742830,"keywords":["nocrits","nodmgspread","payload","uncletopia"],"game_id":440,"stv_port":27066,"stv_name":"Uncletopia | London | 6 | All Maps | STV","players":[{"user_id":441,"name":"frosty","steam_id":76561198832112629,"connected_time":3552000000000,"state":"active","ping":84},{"user_id":465,"name":"Hamst123","steam_id":76561198957312452,"connected_time":1046000000000,"state":"active","ping":64},{"user_id":402,"name":"rat performance","steam_id":76561198065854668,"connected_time":7064000000000,"state":"active","ping":43},{"user_id":466,"name":"Why Always","steam_id":76561198121220262,"connected_time":1038000000000,"state":"active","ping":71},{"user_id":452,"name":"Sgreff","steam_id":76561198036304365,"connected_time":3010000000000,"state":"active","ping":42},{"user_id":409,"name":"dangdut koplo vs chutney soca","steam_id":76561198051852765,"connected_time":6286000000000,"state":"active","ping":73},{"user_id":448,"name":"TokyoJade","steam_id":76561198136297393,"connected_time":3170000000000,"state":"active","ping":147},{"user_id":445,"name":"IggyYT","steam_id":76561198317980567,"connected_time":3460000000000,"state":"active","ping":157},{"user_id":449,"name":"Dee","steam_id":76561198257836694,"connected_time":3123000000000,"state":"active","ping":37},{"user_id":435,"name":"cinny","steam_id":76561198094560834,"connected_time":3771000000000,"state":"active","ping":73},{"user_id":450,"name":"xd Clover","steam_id":76561198038905361,"connected_time":3122000000000,"state":"active","ping":117},{"user_id":468,"name":"TaiDni","steam_id":76561198087750392,"connected_time":925000000000,"state":"active","ping":55},{"user_id":456,"name":"Johnny Cockroach","steam_id":76561198049648277,"connected_time":2320000000000,"state":"active","ping":104},{"user_id":442,"name":"Bromoneto","steam_id":76561198876695014,"connected_time":3540000000000,"state":"active","ping":102},{"user_id":453,"name":"Carol Olston","steam_id":76561198080257273,"connected_time":2990000000000,"state":"active","ping":43},{"user_id":438,"name":"Just TF2 Things","steam_id":76561198531978435,"connected_time":3666000000000,"state":"active","ping":67},{"user_id":457,"name":"lkx","steam_id":76561198048250715,"connected_time":2314000000000,"state":"active","ping":63},{"user_id":395,"name":"ACG_Dubsy","steam_id":76561198797308565,"connected_time":7189000000000,"state":"active","ping":55},{"user_id":384,"name":"lv.1 crook","steam_id":76561198195857751,"connected_time":8163000000000,"state":"active","ping":71},{"user_id":446,"name":"LSKi","steam_id":76561198215470228,"connected_time":3331000000000,"state":"active","ping":61},{"user_id":459,"name":"SuperBob103","steam_id":76561199175360012,"connected_time":2146000000000,"state":"active","ping":53},{"user_id":440,"name":"(LGBTQ)Piritramit","steam_id":76561198061626168,"connected_time":3578000000000,"state":"active","ping":54},{"user_id":455,"name":"NukePigg","steam_id":76561198131324143,"connected_time":2943000000000,"state":"active","ping":45},{"user_id":447,"name":"Mani Fredde","steam_id":76561199233979726,"connected_time":3245000000000,"state":"active","ping":85}]},{"server_id":40,"name":"Uncletopia | London | 7 | No Payload","name_short":"lon-7","host":"lon-1.uk.uncletopia.com","port":27075,"enabled":true,"region":"eu","cc":"gb","latitude":51.509865,"longitude":-0.118092,"reserved":0,"last_update":"0001-01-01T00:00:00Z","name_a2s":"Uncletopia | London | 7 | No Payload","protocol":17,"map":"cp_badlands","folder":"tf","game":"Team Fortress","app_id":440,"player_count":0,"max_players":24,"Bots":0,"server_type":"Dedicated","server_os":"Linux","password":true,"vac":true,"version":"7757534","steam_id":85568392924964314,"keywords":["cp","nocrits","nodmgspread","uncletopia"],"game_id":440,"stv_port":27076,"stv_name":"Uncletopia | London | 7 | No Payload | STV","players":null},{"server_id":41,"name":"Uncletopia | London | 8 | Community","name_short":"lon-8","host":"lon-1.uk.uncletopia.com","port":27085,"enabled":true,"region":"eu","cc":"gb","latitude":51.509865,"longitude":-0.118092,"reserved":0,"last_update":"0001-01-01T00:00:00Z","name_a2s":"Uncletopia | London | 8 | Community","protocol":17,"map":"workshop/koth_ashville_final.ugc2130459942","folder":"tf","game":"Team Fortress","app_id":440,"player_count":0,"max_players":24,"Bots":0,"server_type":"Dedicated","server_os":"Linux","password":true,"vac":true,"version":"7757534","steam_id":85568392924964315,"keywords":["cp","nocrits","nodmgspread","uncletopia"],"game_id":440,"stv_port":27086,"stv_name":"Uncletopia | London | 8 | Community | STV","players":null},{"server_id":300,"name":"Uncletopia | Montréal | 1 | All Maps","name_short":"mtl-1","host":"mtl-1.ca.uncletopia.com","port":27015,"enabled":true,"region":"us-east","cc":"ca","latitude":45.50889,"longitude":-73.56167,"reserved":0,"last_update":"0001-01-01T00:00:00Z","name_a2s":"Uncletopia | Montréal | 1 | All Maps","protocol":17,"map":"koth_cascade","folder":"tf","game":"Team Fortress","app_id":440,"player_count":0,"max_players":24,"Bots":0,"server_type":"Dedicated","server_os":"Linux","password":true,"vac":true,"version":"7757534","steam_id":85568392924500087,"keywords":["cp","nocrits","nodmgspread","uncletopia"],"game_id":440,"stv_port":27016,"stv_name":"Uncletopia | Montréal | 1 | All Maps | STV","players":null},{"server_id":301,"name":"Uncletopia | Montréal | 2 | All Maps","name_short":"mtl-2","host":"mtl-1.ca.uncletopia.com","port":27025,"enabled":true,"region":"us-east","cc":"ca","latitude":45.50889,"longitude":-73.56167,"reserved":0,"last_update":"0001-01-01T00:00:00Z","name_a2s":"Uncletopia | Montréal | 2 | All Maps","protocol":17,"map":"koth_lakeside_final","folder":"tf","game":"Team Fortress","app_id":440,"player_count":0,"max_players":24,"Bots":0,"server_type":"Dedicated","server_os":"Linux","password":true,"vac":true,"version":"7757534","steam_id":85568392924500088,"keywords":["cp","nocrits","nodmgspread","uncletopia"],"game_id":440,"stv_port":27026,"stv_name":"Uncletopia | Montréal | 2 | All Maps | STV","players":null},{"server_id":302,"name":"Uncletopia | Montréal | 3 | All Maps","name_short":"mtl-3","host":"mtl-1.ca.uncletopia.com","port":27035,"enabled":true,"region":"us-east","cc":"ca","latitude":45.50889,"longitude":-73.56167,"reserved":0,"last_update":"0001-01-01T00:00:00Z","name_a2s":"Uncletopia | Montréal | 3 | All Maps","protocol":17,"map":"pl_swiftwater_final1","folder":"tf","game":"Team Fortress","app_id":440,"player_count":21,"max_players":24,"Bots":0,"server_type":"Dedicated","server_os":"Linux","password":true,"vac":true,"version":"7757534","steam_id":85568392924500089,"keywords":["nocrits","nodmgspread","payload","uncletopia"],"game_id":440,"stv_port":27036,"stv_name":"Uncletopia | Montréal | 3 | All Maps | STV","players":[{"user_id":47,"name":"Sodemo","steam_id":76561198074987146,"connected_time":3843000000000,"state":"active","ping":73},{"user_id":83,"name":"GuyGoom","steam_id":76561198254522178,"connected_time":490000000000,"state":"active","ping":72},{"user_id":90,"name":"AntiFreezePyro","steam_id":76561199229652704,"connected_time":163000000000,"state":"active","ping":123},{"user_id":75,"name":"Uncle Majic the Hip Hop Magicia","steam_id":76561198107924303,"connected_time":1350000000000,"state":"active","ping":56},{"user_id":71,"name":"Bait","steam_id":76561198336489647,"connected_time":1587000000000,"state":"active","ping":55},{"user_id":70,"name":"Nady","steam_id":76561198383096917,"connected_time":1598000000000,"state":"active","ping":69},{"user_id":81,"name":"Average Evil Magma Pea Enjoyer","steam_id":76561198201058206,"connected_time":544000000000,"state":"active","ping":105},{"user_id":84,"name":"puppygirl gaming","steam_id":76561198044363630,"connected_time":458000000000,"state":"active","ping":52},{"user_id":40,"name":"uhooter","steam_id":76561198007829078,"connected_time":4149000000000,"state":"active","ping":43},{"user_id":73,"name":"susquis","steam_id":76561199220869794,"connected_time":1561000000000,"state":"active","ping":71},{"user_id":82,"name":"bad demoknight","steam_id":76561199195784827,"connected_time":539000000000,"state":"active","ping":112},{"user_id":85,"name":"Butters495","steam_id":76561197998689042,"connected_time":455000000000,"state":"active","ping":77},{"user_id":86,"name":"pontiv","steam_id":76561197995384565,"connected_time":453000000000,"state":"active","ping":36},{"user_id":87,"name":"MechanizedCanine","steam_id":76561198103815371,"connected_time":379000000000,"state":"active","ping":88},{"user_id":88,"name":"the.land.of.avalon","steam_id":76561198245431668,"connected_time":342000000000,"state":"active","ping":72},{"user_id":91,"name":"THIRDPIERCE","steam_id":76561198405366314,"connected_time":82000000000,"state":"active","ping":94},{"user_id":92,"name":"Huge","steam_id":76561199030987614,"connected_time":51000000000,"state":"active","ping":100},{"user_id":74,"name":"Superbearhero","steam_id":76561198252350708,"connected_time":1388000000000,"state":"active","ping":77},{"user_id":93,"name":"lestagio","steam_id":76561199040214135,"connected_time":38000000000,"state":"active","ping":98},{"user_id":94,"name":"Thai Cobra-Snake","steam_id":76561198128928443,"connected_time":37000000000,"state":"active","ping":55},{"user_id":95,"name":"haha funy pp man","steam_id":76561198116862395,"connected_time":3000000000,"state":"spawning","ping":103}]},{"server_id":303,"name":"Uncletopia | Montréal | 4 | No Payload","name_short":"mtl-4","host":"mtl-1.ca.uncletopia.com","port":27045,"enabled":true,"region":"us-east","cc":"ca","latitude":45.50889,"longitude":-73.56167,"reserved":0,"last_update":"0001-01-01T00:00:00Z","name_a2s":"Uncletopia | Montréal | 4 | No Payload","protocol":17,"map":"koth_harvest_final","folder":"tf","game":"Team Fortress","app_id":440,"player_count":0,"max_players":24,"Bots":0,"server_type":"Dedicated","server_os":"Linux","password":true,"vac":true,"version":"7757534","steam_id":85568392924500090,"keywords":["cp","nocrits","nodmgspread","uncletopia"],"game_id":440,"stv_port":27046,"stv_name":"Uncletopia | Montréal | 4 | No Payload | STV","players":null},{"server_id":13,"name":"Uncletopia | New York City | 1 | All Maps","name_short":"nyc-1","host":"nyc-1.us.uncletopia.com","port":27015,"enabled":true,"region":"us-east","cc":"us","latitude":40.73061,"longitude":-73.93524,"reserved":0,"last_update":"0001-01-01T00:00:00Z","name_a2s":"Uncletopia | New York City | 1 | All Maps","protocol":17,"map":"pl_frontier_final","folder":"tf","game":"Team Fortress","app_id":440,"player_count":24,"max_players":24,"Bots":0,"server_type":"Dedicated","server_os":"Linux","password":true,"vac":true,"version":"7757534","steam_id":85568392924469993,"keywords":["nocrits","nodmgspread","payload","uncletopia"],"game_id":440,"stv_port":27016,"stv_name":"Uncletopia | New York City | 1 | All Maps | STV","players":[{"user_id":438,"name":"xXBigWingmanFanXx","steam_id":76561198067904392,"connected_time":438000000000,"state":"active","ping":57},{"user_id":358,"name":"ClericsRose","steam_id":76561198011013806,"connected_time":5480000000000,"state":"active","ping":71},{"user_id":446,"name":"crapitup","steam_id":76561198088994377,"connected_time":206000000000,"state":"active","ping":76},{"user_id":439,"name":"Dr. Feelgood (Ph.D, MD)","steam_id":76561198040611061,"connected_time":433000000000,"state":"active","ping":51},{"user_id":320,"name":"ed cook","steam_id":76561198043987486,"connected_time":7957000000000,"state":"active","ping":43},{"user_id":368,"name":"nvm_","steam_id":76561198843128678,"connected_time":4564000000000,"state":"active","ping":66},{"user_id":314,"name":"Stink","steam_id":76561198232646232,"connected_time":8312000000000,"state":"active","ping":63},{"user_id":440,"name":"Banjo","steam_id":76561198004652853,"connected_time":400000000000,"state":"active","ping":120},{"user_id":335,"name":"FrumpyGoldsmith","steam_id":76561199036534127,"connected_time":7245000000000,"state":"active","ping":76},{"user_id":379,"name":"math","steam_id":76561198056105936,"connected_time":3292000000000,"state":"active","ping":69},{"user_id":382,"name":"he_who_grills","steam_id":76561198039626676,"connected_time":2713000000000,"state":"active","ping":53},{"user_id":276,"name":"the rhode island toe sniffer","steam_id":76561199134895220,"connected_time":10347000000000,"state":"active","ping":61},{"user_id":381,"name":"healthy boundaries","steam_id":76561198025760608,"connected_time":2735000000000,"state":"active","ping":47},{"user_id":419,"name":"Amphetamine Gun","steam_id":76561199029189825,"connected_time":1116000000000,"state":"active","ping":64},{"user_id":442,"name":"Michael Scarn","steam_id":76561198035740143,"connected_time":329000000000,"state":"active","ping":85},{"user_id":319,"name":"kairOs.fk","steam_id":76561197972421260,"connected_time":8080000000000,"state":"active","ping":43},{"user_id":408,"name":"ArcanianArcher","steam_id":76561198088445076,"connected_time":1481000000000,"state":"active","ping":63},{"user_id":441,"name":"Toasty Gyro","steam_id":76561198001026643,"connected_time":336000000000,"state":"active","ping":70},{"user_id":317,"name":"you are loved","steam_id":76561198108524571,"connected_time":8209000000000,"state":"active","ping":61},{"user_id":443,"name":"mae","steam_id":76561198425739511,"connected_time":329000000000,"state":"active","ping":53},{"user_id":444,"name":"Lord Scrubling","steam_id":76561198263744445,"connected_time":324000000000,"state":"active","ping":77},{"user_id":445,"name":"pathways","steam_id":76561198054832333,"connected_time":287000000000,"state":"active","ping":86},{"user_id":385,"name":"Nyx-Nul","steam_id":76561198026943694,"connected_time":2683000000000,"state":"active","ping":82},{"user_id":409,"name":"PzVIIIMaus","steam_id":76561198346559365,"connected_time":1480000000000,"state":"active","ping":64}]},{"server_id":14,"name":"Uncletopia | New York City | 2 | All Maps","name_short":"nyc-2","host":"nyc-1.us.uncletopia.com","port":27025,"enabled":true,"region":"us-east","cc":"us","latitude":40.73061,"longitude":-73.93524,"reserved":0,"last_update":"0001-01-01T00:00:00Z","name_a2s":"Uncletopia | New York City | 2 | All Maps","protocol":17,"map":"koth_highpass","folder":"tf","game":"Team Fortress","app_id":440,"player_count":24,"max_players":24,"Bots":0,"server_type":"Dedicated","server_os":"Linux","password":true,"vac":true,"version":"7757534","steam_id":85568392924469994,"keywords":["cp","nocrits","nodmgspread","uncletopia"],"game_id":440,"stv_port":27026,"stv_name":"Uncletopia | New York City | 2 | All Maps | STV","players":[{"user_id":320,"name":"St. Bobson Q Dugnutt III Esq Sr","steam_id":76561197993459985,"connected_time":4236000000000,"state":"active","ping":59},{"user_id":346,"name":"p00l","steam_id":76561198060142652,"connected_time":1437000000000,"state":"active","ping":46},{"user_id":361,"name":"bruhmajorL69","steam_id":76561198870063561,"connected_time":560000000000,"state":"active","ping":57},{"user_id":297,"name":"what","steam_id":76561198082336619,"connected_time":6482000000000,"state":"active","ping":60},{"user_id":298,"name":"Nico","steam_id":76561198125701869,"connected_time":6481000000000,"state":"active","ping":56},{"user_id":355,"name":"dairy","steam_id":76561198117033273,"connected_time":846000000000,"state":"active","ping":121},{"user_id":342,"name":"MLB","steam_id":76561198036435156,"connected_time":1869000000000,"state":"active","ping":38},{"user_id":347,"name":"SubwayFootlong","steam_id":76561198830193917,"connected_time":1433000000000,"state":"active","ping":146},{"user_id":330,"name":"Fawful's Minion","steam_id":76561198090120779,"connected_time":3454000000000,"state":"active","ping":155},{"user_id":314,"name":"pelicAn","steam_id":76561197963422599,"connected_time":4322000000000,"state":"active","ping":52},{"user_id":362,"name":"Wahooka","steam_id":76561197962240925,"connected_time":193000000000,"state":"active","ping":45},{"user_id":349,"name":"LunarrD","steam_id":76561198811220107,"connected_time":1414000000000,"state":"active","ping":71},{"user_id":316,"name":"DefenderOfChodes","steam_id":76561198018803214,"connected_time":4305000000000,"state":"active","ping":70},{"user_id":345,"name":"Chewbacca","steam_id":76561198041927925,"connected_time":1445000000000,"state":"active","ping":47},{"user_id":359,"name":"IMPACT CPU","steam_id":76561198001344879,"connected_time":666000000000,"state":"active","ping":60},{"user_id":360,"name":"Strezlin the Sergal","steam_id":76561198067770526,"connected_time":628000000000,"state":"active","ping":73},{"user_id":336,"name":"ndvr","steam_id":76561199379200102,"connected_time":3035000000000,"state":"active","ping":54},{"user_id":350,"name":"[CCP] Key XI 習近平","steam_id":76561198825658971,"connected_time":1279000000000,"state":"active","ping":111},{"user_id":322,"name":"Defiant Statement.","steam_id":76561199101373436,"connected_time":3783000000000,"state":"active","ping":69},{"user_id":317,"name":"Brotalium","steam_id":76561198055439054,"connected_time":4299000000000,"state":"active","ping":68},{"user_id":351,"name":"HollowBrute66","steam_id":76561198164933000,"connected_time":1266000000000,"state":"active","ping":84},{"user_id":357,"name":"guyinatophat51","steam_id":76561198180230694,"connected_time":756000000000,"state":"active","ping":83},{"user_id":354,"name":"StarWither","steam_id":76561198383264295,"connected_time":857000000000,"state":"active","ping":120},{"user_id":328,"name":"dlk","steam_id":76561198086660302,"connected_time":3671000000000,"state":"active","ping":119}]},{"server_id":15,"name":"Uncletopia | New York City | 3 | Stopwatch Beta","name_short":"nyc-3","host":"nyc-1.us.uncletopia.com","port":27035,"enabled":true,"region":"us-east","cc":"us","latitude":40.73061,"longitude":-73.93524,"reserved":0,"last_update":"0001-01-01T00:00:00Z","name_a2s":"Uncletopia | New York City | 3 | Stopwatch Beta","protocol":17,"map":"workshop/pl_vigil_rc9.ugc1266210012","folder":"tf","game":"Team Fortress","app_id":440,"player_count":0,"max_players":24,"Bots":0,"server_type":"Dedicated","server_os":"Linux","password":true,"vac":true,"version":"7757534","steam_id":85568392924742820,"keywords":["nocrits","nodmgspread","payload","uncletopia"],"game_id":440,"stv_port":27036,"stv_name":"Uncletopia | New York City | 3 | Stopwatch Beta | STV","players":null},{"server_id":16,"name":"Uncletopia | New York City | 4 | Community","name_short":"nyc-4","host":"nyc-1.us.uncletopia.com","port":27045,"enabled":true,"region":"us-east","cc":"us","latitude":40.73061,"longitude":-73.93524,"reserved":0,"last_update":"0001-01-01T00:00:00Z","name_a2s":"Uncletopia | New York City | 4 | Community","protocol":17,"map":"workshop/koth_product_final.ugc454272353","folder":"tf","game":"Team Fortress","app_id":440,"player_count":0,"max_players":24,"Bots":0,"server_type":"Dedicated","server_os":"Linux","password":true,"vac":true,"version":"7757534","steam_id":85568392924742821,"keywords":["cp","nocrits","nodmgspread","uncletopia"],"game_id":440,"stv_port":27046,"stv_name":"Uncletopia | New York City | 4 | Community | STV","players":null},{"server_id":142,"name":"Uncletopia | São Paulo | 1 | All Maps","name_short":"sao-1","host":"sao-1.br.uncletopia.com","port":27015,"enabled":true,"region":"sa","cc":"br","latitude":-23.533773,"longitude":-46.62529,"reserved":0,"last_update":"0001-01-01T00:00:00Z","name_a2s":"Uncletopia | São Paulo | 1 | All Maps","protocol":17,"map":"pl_badwater","folder":"tf","game":"Team Fortress","app_id":440,"player_count":24,"max_players":24,"Bots":0,"server_type":"Dedicated","server_os":"Linux","password":true,"vac":true,"version":"7757534","steam_id":85568392924469996,"keywords":["nocrits","nodmgspread","payload","uncletopia"],"game_id":440,"stv_port":27016,"stv_name":"Uncletopia | São Paulo | 1 | All Maps | STV","players":[{"user_id":30,"name":"piroka da Gkay","steam_id":76561198171349369,"connected_time":12737000000000,"state":"active","ping":45},{"user_id":195,"name":"Emperor Reinhard","steam_id":76561198181006839,"connected_time":1158000000000,"state":"active","ping":59},{"user_id":188,"name":"nmy","steam_id":76561198091544397,"connected_time":2053000000000,"state":"active","ping":43},{"user_id":198,"name":".fnord","steam_id":76561198119754613,"connected_time":955000000000,"state":"active","ping":48},{"user_id":196,"name":"keshik","steam_id":76561198867928520,"connected_time":1126000000000,"state":"active","ping":50},{"user_id":209,"name":"antedeguemon","steam_id":76561198287410577,"connected_time":122000000000,"state":"active","ping":75},{"user_id":197,"name":"nin nin","steam_id":76561198055445565,"connected_time":1109000000000,"state":"active","ping":120},{"user_id":123,"name":"(F2P)YellowEyePatch","steam_id":76561199108111310,"connected_time":6096000000000,"state":"active","ping":50},{"user_id":199,"name":"Zoom!","steam_id":76561198289562649,"connected_time":932000000000,"state":"active","ping":46},{"user_id":189,"name":"kumahero","steam_id":76561198049798444,"connected_time":2048000000000,"state":"active","ping":45},{"user_id":194,"name":"abner trovao","steam_id":76561198415484497,"connected_time":1283000000000,"state":"active","ping":58},{"user_id":126,"name":"Vi-create","steam_id":76561198277032656,"connected_time":5932000000000,"state":"active","ping":44},{"user_id":161,"name":"losxi","steam_id":76561199008613807,"connected_time":3362000000000,"state":"active","ping":46},{"user_id":206,"name":"Norte","steam_id":76561199243038667,"connected_time":498000000000,"state":"active","ping":54},{"user_id":204,"name":"Fimose Nuclear","steam_id":76561198874985577,"connected_time":799000000000,"state":"active","ping":92},{"user_id":200,"name":"Darkshot75kf","steam_id":76561198149453976,"connected_time":915000000000,"state":"active","ping":44},{"user_id":166,"name":"rafx","steam_id":76561198083321227,"connected_time":3072000000000,"state":"active","ping":65},{"user_id":201,"name":"joaopaulocastroufal","steam_id":76561199061992266,"connected_time":870000000000,"state":"active","ping":85},{"user_id":207,"name":"Pudding","steam_id":76561198426734034,"connected_time":381000000000,"state":"active","ping":94},{"user_id":208,"name":"p31x1nh0 \u003c*(((\u003e\u003c","steam_id":76561198049967350,"connected_time":276000000000,"state":"active","ping":52},{"user_id":186,"name":"Cenobita","steam_id":76561198239499656,"connected_time":2145000000000,"state":"active","ping":53},{"user_id":187,"name":"meg ✥","steam_id":76561198100502907,"connected_time":2144000000000,"state":"active","ping":46},{"user_id":190,"name":"jão","steam_id":76561198069735762,"connected_time":2039000000000,"state":"active","ping":46},{"user_id":191,"name":"k.'","steam_id":76561198068789311,"connected_time":2017000000000,"state":"active","ping":45}]},{"server_id":143,"name":"Uncletopia | São Paulo | 2 | All Maps","name_short":"sao-2","host":"sao-2.br.uncletopia.com","port":27015,"enabled":true,"region":"sa","cc":"br","latitude":-23.533773,"longitude":-46.62529,"reserved":0,"last_update":"0001-01-01T00:00:00Z","name_a2s":"Uncletopia | São Paulo | 2 | All Maps","protocol":17,"map":"koth_viaduct","folder":"tf","game":"Team Fortress","app_id":440,"player_count":0,"max_players":24,"Bots":0,"server_type":"Dedicated","server_os":"Linux","password":true,"vac":true,"version":"7757534","steam_id":85568392924485349,"keywords":["cp","nocrits","nodmgspread","uncletopia"],"game_id":440,"stv_port":27016,"stv_name":"Uncletopia | São Paulo | 2 | All Maps | STV","players":null},{"server_id":7,"name":"Uncletopia | Seattle | 1 | All Maps","name_short":"sea-1","host":"sea-1.us.uncletopia.com","port":27015,"enabled":true,"region":"us-west","cc":"us","latitude":47.608013,"longitude":-122.33517,"reserved":0,"last_update":"0001-01-01T00:00:00Z","name_a2s":"Uncletopia | Seattle | 1 | All Maps","protocol":17,"map":"pl_coal_event","folder":"tf","game":"Team Fortress","app_id":440,"player_count":24,"max_players":24,"Bots":0,"server_type":"Dedicated","server_os":"Linux","password":true,"vac":true,"version":"7757534","steam_id":85568392924469997,"keywords":["nocrits","nodmgspread","payload","uncletopia"],"game_id":440,"stv_port":27016,"stv_name":"Uncletopia | Seattle | 1 | All Maps | STV","players":[{"user_id":368,"name":"Ediot","steam_id":76561199349494096,"connected_time":4763000000000,"state":"active","ping":151},{"user_id":401,"name":"Rude Dog","steam_id":76561197980385816,"connected_time":1555000000000,"state":"active","ping":48},{"user_id":396,"name":"Aardappel","steam_id":76561198030894676,"connected_time":2228000000000,"state":"active","ping":74},{"user_id":279,"name":"Sweatpants","steam_id":76561198097188001,"connected_time":13383000000000,"state":"active","ping":57},{"user_id":377,"name":"......","steam_id":76561198067612741,"connected_time":3827000000000,"state":"active","ping":43},{"user_id":408,"name":"Jamendithas","steam_id":76561198119537716,"connected_time":1355000000000,"state":"active","ping":123},{"user_id":413,"name":"Alexx","steam_id":76561198258332607,"connected_time":468000000000,"state":"active","ping":108},{"user_id":354,"name":"chompmastr","steam_id":76561199121805899,"connected_time":5911000000000,"state":"active","ping":61},{"user_id":371,"name":"Dog","steam_id":76561197979056451,"connected_time":4713000000000,"state":"active","ping":44},{"user_id":364,"name":"self sufficient kitten","steam_id":76561197960592612,"connected_time":4991000000000,"state":"active","ping":45},{"user_id":332,"name":"rat gets the cheese","steam_id":76561198031234032,"connected_time":6725000000000,"state":"active","ping":97},{"user_id":391,"name":"Mignyanne :3","steam_id":76561198048754056,"connected_time":2972000000000,"state":"active","ping":71},{"user_id":418,"name":"surrealist neophyte","steam_id":76561198325306660,"connected_time":58000000000,"state":"active","ping":55},{"user_id":410,"name":"dougrocks421","steam_id":76561198165063918,"connected_time":1217000000000,"state":"active","ping":31},{"user_id":415,"name":"William P. Ennis","steam_id":76561198073464877,"connected_time":193000000000,"state":"active","ping":90},{"user_id":393,"name":"Daz","steam_id":76561198041431938,"connected_time":2669000000000,"state":"active","ping":122},{"user_id":402,"name":"jungus","steam_id":76561198129862008,"connected_time":1542000000000,"state":"active","ping":75},{"user_id":405,"name":"Julien","steam_id":76561199389584938,"connected_time":1525000000000,"state":"active","ping":33},{"user_id":404,"name":"Number28","steam_id":76561198315018819,"connected_time":1531000000000,"state":"active","ping":74},{"user_id":392,"name":"Ddot","steam_id":76561198082846392,"connected_time":2799000000000,"state":"active","ping":46},{"user_id":362,"name":"ChuChu","steam_id":76561199443647976,"connected_time":5037000000000,"state":"active","ping":102},{"user_id":419,"name":"hosewater","steam_id":76561198023383126,"connected_time":49000000000,"state":"active","ping":53},{"user_id":417,"name":"BUNGUS","steam_id":76561198068879291,"connected_time":140000000000,"state":"active","ping":174},{"user_id":385,"name":"Birdman743","steam_id":76561198799636748,"connected_time":3348000000000,"state":"active","ping":61}]},{"server_id":119,"name":"Uncletopia | Seattle | 2 | All Maps","name_short":"sea-2","host":"sea-1.us.uncletopia.com","port":27025,"enabled":true,"region":"us-west","cc":"us","latitude":47.608013,"longitude":-122.33517,"reserved":0,"last_update":"0001-01-01T00:00:00Z","name_a2s":"Uncletopia | Seattle | 2 | All Maps","protocol":17,"map":"koth_highpass","folder":"tf","game":"Team Fortress","app_id":440,"player_count":0,"max_players":24,"Bots":0,"server_type":"Dedicated","server_os":"Linux","password":true,"vac":true,"version":"7757534","steam_id":85568392924469998,"keywords":["cp","nocrits","nodmgspread","uncletopia"],"game_id":440,"stv_port":27026,"stv_name":"Uncletopia | Seattle | 2 | All Maps | STV","players":null},{"server_id":406,"name":"Uncletopia | Seattle | 3 | Stopwatch Beta","name_short":"sea-3","host":"sea-1.us.uncletopia.com","port":27035,"enabled":true,"region":"us-west","cc":"us","latitude":47.608013,"longitude":-122.33517,"reserved":0,"last_update":"0001-01-01T00:00:00Z","name_a2s":"Uncletopia | Seattle | 3 | Stopwatch Beta","protocol":17,"map":"cp_granary","folder":"tf","game":"Team Fortress","app_id":440,"player_count":6,"max_players":24,"Bots":0,"server_type":"Dedicated","server_os":"Linux","password":true,"vac":true,"version":"7757534","steam_id":85568392924515217,"keywords":["cp","nocrits","nodmgspread","uncletopia"],"game_id":440,"stv_port":27036,"stv_name":"Uncletopia | Seattle | 3 | Stopwatch Beta | STV","players":[{"user_id":32,"name":"lemony","steam_id":76561199158847498,"connected_time":1220000000000,"state":"active","ping":71},{"user_id":43,"name":"overgrown teakettle","steam_id":76561198059041027,"connected_time":538000000000,"state":"active","ping":56},{"user_id":31,"name":"veemdya yaymign :)","steam_id":76561199175434022,"connected_time":1404000000000,"state":"active","ping":78},{"user_id":42,"name":"Feel the bern","steam_id":76561198078824519,"connected_time":623000000000,"state":"active","ping":91},{"user_id":34,"name":"cofferhead","steam_id":76561199191108449,"connected_time":1042000000000,"state":"active","ping":83},{"user_id":49,"name":"trackpad gaming | f2p","steam_id":76561198840414371,"connected_time":295000000000,"state":"active","ping":88}]},{"server_id":17,"name":"Uncletopia | San Francisco | 1 | All Maps","name_short":"sfo-1","host":"sfo-1.us.uncletopia.com","port":27015,"enabled":true,"region":"us-west","cc":"us","latitude":37.77397,"longitude":-122.4313,"reserved":0,"last_update":"0001-01-01T00:00:00Z","name_a2s":"Uncletopia | San Francisco | 1 | All Maps","protocol":17,"map":"pl_badwater","folder":"tf","game":"Team Fortress","app_id":440,"player_count":20,"max_players":24,"Bots":0,"server_type":"Dedicated","server_os":"Linux","password":true,"vac":true,"version":"7757534","steam_id":85568392924469999,"keywords":["nocrits","nodmgspread","payload","uncletopia"],"game_id":440,"stv_port":27016,"stv_name":"Uncletopia | San Francisco | 1 | All Maps | STV","players":[{"user_id":242,"name":"❤Graphite Muncher❤","steam_id":76561199200969139,"connected_time":56000000000,"state":"active","ping":122},{"user_id":180,"name":"Wilhelmktx","steam_id":76561198158102295,"connected_time":4696000000000,"state":"active","ping":120},{"user_id":243,"name":"jturner1nm","steam_id":76561198344493652,"connected_time":18000000000,"state":"active","ping":122},{"user_id":202,"name":"Cassandra (She/her)","steam_id":76561198094123940,"connected_time":3091000000000,"state":"active","ping":116},{"user_id":244,"name":"noraneko","steam_id":76561198025418738,"connected_time":10000000000,"state":"spawning","ping":64},{"user_id":203,"name":"NotAWeeb","steam_id":76561198165530739,"connected_time":3091000000000,"state":"active","ping":41},{"user_id":245,"name":"Garry","steam_id":76561198070584586,"connected_time":7000000000,"state":"spawning","ping":93},{"user_id":218,"name":"Syrup","steam_id":76561198335677073,"connected_time":2016000000000,"state":"active","ping":55},{"user_id":237,"name":"Zenire","steam_id":76561199087298510,"connected_time":674000000000,"state":"active","ping":74},{"user_id":241,"name":"Dali","steam_id":76561198077593486,"connected_time":239000000000,"state":"active","ping":72},{"user_id":238,"name":"macaroli","steam_id":76561198969523979,"connected_time":674000000000,"state":"active","ping":55},{"user_id":221,"name":"dal.","steam_id":76561198049238840,"connected_time":1926000000000,"state":"active","ping":71},{"user_id":207,"name":"MarshallMellows","steam_id":76561198231561020,"connected_time":2950000000000,"state":"active","ping":59},{"user_id":181,"name":"Razz","steam_id":76561198158027533,"connected_time":4690000000000,"state":"active","ping":107},{"user_id":235,"name":"TothBrush","steam_id":76561198028254471,"connected_time":844000000000,"state":"active","ping":63},{"user_id":239,"name":"CaptainGold1","steam_id":76561198104967772,"connected_time":670000000000,"state":"active","ping":75},{"user_id":199,"name":"Treader","steam_id":76561198096555885,"connected_time":3150000000000,"state":"active","ping":113},{"user_id":229,"name":"Anthid","steam_id":76561198074493797,"connected_time":1214000000000,"state":"active","ping":60},{"user_id":228,"name":"VicLoL","steam_id":76561198045580784,"connected_time":1247000000000,"state":"active","ping":68},{"user_id":240,"name":"MantisTobboggan","steam_id":76561197969447887,"connected_time":658000000000,"state":"active","ping":80}]},{"server_id":18,"name":"Uncletopia | San Francisco | 2 | All Maps","name_short":"sfo-2","host":"sfo-1.us.uncletopia.com","port":27025,"enabled":true,"region":"us-west","cc":"us","latitude":37.77397,"longitude":-122.4313,"reserved":0,"last_update":"0001-01-01T00:00:00Z","name_a2s":"Uncletopia | San Francisco | 2 | All Maps","protocol":17,"map":"koth_viaduct","folder":"tf","game":"Team Fortress","app_id":440,"player_count":0,"max_players":24,"Bots":0,"server_type":"Dedicated","server_os":"Linux","password":true,"vac":true,"version":"7757534","steam_id":85568392924470000,"keywords":["cp","nocrits","nodmgspread","uncletopia"],"game_id":440,"stv_port":27026,"stv_name":"Uncletopia | San Francisco | 2 | All Maps | STV","players":null},{"server_id":19,"name":"Uncletopia | San Francisco | 3 | Stopwatch Beta","name_short":"sfo-3","host":"sfo-1.us.uncletopia.com","port":27035,"enabled":true,"region":"us-west","cc":"us","latitude":37.77397,"longitude":-122.4313,"reserved":0,"last_update":"0001-01-01T00:00:00Z","name_a2s":"Uncletopia | San Francisco | 3 | Stopwatch Beta","protocol":17,"map":"koth_viaduct","folder":"tf","game":"Team Fortress","app_id":440,"player_count":0,"max_players":24,"Bots":0,"server_type":"Dedicated","server_os":"Linux","password":true,"vac":true,"version":"7757534","steam_id":85568392924742824,"keywords":["cp","nocrits","nodmgspread","uncletopia"],"game_id":440,"stv_port":27036,"stv_name":"Uncletopia | San Francisco | 3 | Stopwatch Beta | STV","players":null},{"server_id":20,"name":"Uncletopia | San Francisco | 4 | Community","name_short":"sfo-4","host":"sfo-1.us.uncletopia.com","port":27045,"enabled":true,"region":"us-west","cc":"us","latitude":37.77397,"longitude":-122.4313,"reserved":0,"last_update":"0001-01-01T00:00:00Z","name_a2s":"Uncletopia | San Francisco | 4 | Community","protocol":17,"map":"workshop/koth_bagel_rc5.ugc2514036946","folder":"tf","game":"Team Fortress","app_id":440,"player_count":0,"max_players":24,"Bots":0,"server_type":"Dedicated","server_os":"Linux","password":true,"vac":true,"version":"7757534","steam_id":85568392924742826,"keywords":["cp","nocrits","nodmgspread","uncletopia"],"game_id":440,"stv_port":27046,"stv_name":"Uncletopia | San Francisco | 4 | Community | STV","players":null},{"server_id":141,"name":"Uncletopia | Sydney | 1 | All Maps","name_short":"syd-1","host":"syd-1.au.uncletopia.com","port":27015,"enabled":true,"region":"au","cc":"au","latitude":-33.865143,"longitude":151.2099,"reserved":0,"last_update":"0001-01-01T00:00:00Z","name_a2s":"Uncletopia | Sydney | 1 | All Maps","protocol":17,"map":"cp_altitude","folder":"tf","game":"Team Fortress","app_id":440,"player_count":24,"max_players":24,"Bots":0,"server_type":"Dedicated","server_os":"Linux","password":true,"vac":true,"version":"7757534","steam_id":85568392924470001,"keywords":["cp","nocrits","nodmgspread","uncletopia"],"game_id":440,"stv_port":27016,"stv_name":"Uncletopia | Sydney | 1 | All Maps | STV","players":[{"user_id":145,"name":"drunkspy22","steam_id":76561198042198744,"connected_time":990000000000,"state":"active","ping":44},{"user_id":142,"name":"Moist","steam_id":76561198110566656,"connected_time":1051000000000,"state":"active","ping":60},{"user_id":154,"name":"doctor morbin' (real)","steam_id":76561199365241695,"connected_time":32000000000,"state":"active","ping":123},{"user_id":122,"name":"lem","steam_id":76561199119233603,"connected_time":2632000000000,"state":"active","ping":64},{"user_id":65,"name":"Manbake","steam_id":76561198043455984,"connected_time":6717000000000,"state":"active","ping":55},{"user_id":110,"name":"Tнûи∂уяѕ∂","steam_id":76561197992346511,"connected_time":3470000000000,"state":"active","ping":51},{"user_id":143,"name":"nfdl","steam_id":76561198340730741,"connected_time":1050000000000,"state":"active","ping":60},{"user_id":141,"name":"Reedy","steam_id":76561198155994395,"connected_time":1059000000000,"state":"active","ping":71},{"user_id":123,"name":"Cyborgcupine","steam_id":76561198257389366,"connected_time":2598000000000,"state":"active","ping":72},{"user_id":152,"name":"Adolf-Rizzler","steam_id":76561198884774033,"connected_time":736000000000,"state":"active","ping":52},{"user_id":144,"name":"chom15","steam_id":76561198836003115,"connected_time":1048000000000,"state":"active","ping":62},{"user_id":137,"name":"AcidOxidant","steam_id":76561198053504029,"connected_time":1354000000000,"state":"active","ping":56},{"user_id":97,"name":"nojnosbod11","steam_id":76561199176012151,"connected_time":4301000000000,"state":"active","ping":68},{"user_id":138,"name":"Hertog van Damme","steam_id":76561198152470958,"connected_time":1245000000000,"state":"active","ping":71},{"user_id":131,"name":"hobo","steam_id":76561199046481213,"connected_time":1839000000000,"state":"active","ping":63},{"user_id":36,"name":"Fatass Yoshi","steam_id":76561198033784848,"connected_time":7384000000000,"state":"active","ping":59},{"user_id":140,"name":"Enchanted Cat","steam_id":76561198866538028,"connected_time":1224000000000,"state":"active","ping":85},{"user_id":106,"name":"A Snapping Turtle","steam_id":76561198060037470,"connected_time":3859000000000,"state":"active","ping":88},{"user_id":146,"name":"Probably not a terrorist","steam_id":76561199257116847,"connected_time":976000000000,"state":"active","ping":62},{"user_id":112,"name":"snooty123","steam_id":76561199055258276,"connected_time":3281000000000,"state":"active","ping":57},{"user_id":155,"name":"internetkittenz13","steam_id":76561198881042979,"connected_time":20000000000,"state":"active","ping":69},{"user_id":153,"name":"NUTS","steam_id":76561198023513281,"connected_time":284000000000,"state":"active","ping":58},{"user_id":149,"name":"nischal","steam_id":76561198321180079,"connected_time":831000000000,"state":"active","ping":58},{"user_id":111,"name":"Squishy","steam_id":76561198985769205,"connected_time":3470000000000,"state":"active","ping":56}]},{"server_id":123,"name":"Uncletopia | Sydney | 2 | All Maps","name_short":"syd-2","host":"syd-1.au.uncletopia.com","port":27025,"enabled":true,"region":"au","cc":"au","latitude":-33.865143,"longitude":151.2099,"reserved":0,"last_update":"0001-01-01T00:00:00Z","name_a2s":"Uncletopia | Sydney | 2 | All Maps","protocol":17,"map":"koth_highpass","folder":"tf","game":"Team Fortress","app_id":440,"player_count":0,"max_players":24,"Bots":0,"server_type":"Dedicated","server_os":"Linux","password":true,"vac":true,"version":"7757534","steam_id":85568392924470002,"keywords":["cp","nocrits","nodmgspread","uncletopia"],"game_id":440,"stv_port":27026,"stv_name":"Uncletopia | Sydney | 2 | All Maps | STV","players":null},{"server_id":395,"name":"Uncletopia | Sydney | 3 | All Maps","name_short":"syd-3","host":"syd-1.au.uncletopia.com","port":27035,"enabled":true,"region":"au","cc":"au","latitude":-33.865143,"longitude":151.2099,"reserved":0,"last_update":"0001-01-01T00:00:00Z","name_a2s":"Uncletopia | Sydney | 3 | All Maps","protocol":17,"map":"pl_borneo","folder":"tf","game":"Team Fortress","app_id":440,"player_count":0,"max_players":24,"Bots":0,"server_type":"Dedicated","server_os":"Linux","password":true,"vac":true,"version":"7757534","steam_id":85568392925194467,"keywords":["nocrits","nodmgspread","payload","uncletopia"],"game_id":440,"stv_port":27036,"stv_name":"Uncletopia | Sydney | 3 | All Maps | STV","players":null},{"server_id":396,"name":"Uncletopia | Sydney | 4 | All Maps","name_short":"syd-4","host":"syd-1.au.uncletopia.com","port":27045,"enabled":true,"region":"au","cc":"au","latitude":-33.865143,"longitude":151.2099,"reserved":0,"last_update":"0001-01-01T00:00:00Z","name_a2s":"Uncletopia | Sydney | 4 | All Maps","protocol":17,"map":"pl_pier","folder":"tf","game":"Team Fortress","app_id":440,"player_count":0,"max_players":24,"Bots":0,"server_type":"Dedicated","server_os":"Linux","password":true,"vac":true,"version":"7757534","steam_id":85568392925397958,"keywords":["nocrits","nodmgspread","payload","uncletopia"],"game_id":440,"stv_port":27046,"stv_name":"Uncletopia | Sydney | 4 | All Maps | STV","players":null},{"server_id":58,"name":"Uncletopia | Sydney | 5 | Stopwatch Beta","name_short":"syd-5","host":"syd-1.au.uncletopia.com","port":27055,"enabled":true,"region":"au","cc":"au","latitude":-33.865143,"longitude":151.2099,"reserved":0,"last_update":"0001-01-01T00:00:00Z","name_a2s":"Uncletopia | Sydney | 5 | Stopwatch Beta","protocol":17,"map":"pl_barnblitz","folder":"tf","game":"Team Fortress","app_id":440,"player_count":0,"max_players":24,"Bots":0,"server_type":"Dedicated","server_os":"Linux","password":true,"vac":true,"version":"7757534","steam_id":85568392925397959,"keywords":["nocrits","nodmgspread","payload","uncletopia"],"game_id":440,"stv_port":27056,"stv_name":"Uncletopia | Sydney | 5 | Stopwatch Beta | STV","players":null},{"server_id":59,"name":"Uncletopia | Sydney | 6 | Community","name_short":"syd-6","host":"syd-1.au.uncletopia.com","port":27065,"enabled":true,"region":"au","cc":"au","latitude":-33.865143,"longitude":151.2099,"reserved":0,"last_update":"0001-01-01T00:00:00Z","name_a2s":"Uncletopia | Sydney | 6 | Community","protocol":17,"map":"cp_mountainlab","folder":"tf","game":"Team Fortress","app_id":440,"player_count":0,"max_players":24,"Bots":0,"server_type":"Dedicated","server_os":"Linux","password":true,"vac":true,"version":"7757534","steam_id":85568392925397960,"keywords":["cp","nocrits","nodmgspread","uncletopia"],"game_id":440,"stv_port":27066,"stv_name":"Uncletopia | Sydney | 6 | Community | STV","players":null},{"server_id":49,"name":"Uncletopia | Warsaw | 1 | All Maps","name_short":"waw-1","host":"waw-1.pl.uncletopia.com","port":27015,"enabled":true,"region":"eu","cc":"pl","latitude":52.2297,"longitude":21.017532,"reserved":0,"last_update":"0001-01-01T00:00:00Z","name_a2s":"","protocol":0,"map":"","folder":"","game":"","app_id":0,"player_count":0,"max_players":0,"Bots":0,"server_type":"","server_os":"","password":false,"vac":false,"version":"","steam_id":0,"keywords":null,"game_id":0,"stv_port":0,"stv_name":"","players":null},{"server_id":50,"name":"Uncletopia | Warsaw | 2 | All Maps","name_short":"waw-2","host":"waw-1.pl.uncletopia.com","port":27025,"enabled":true,"region":"eu","cc":"pl","latitude":52.2297,"longitude":21.017532,"reserved":0,"last_update":"0001-01-01T00:00:00Z","name_a2s":"Uncletopia | Warsaw | 2 | All Maps","protocol":17,"map":"koth_cascade","folder":"tf","game":"Team Fortress","app_id":440,"player_count":0,"max_players":24,"Bots":0,"server_type":"Dedicated","server_os":"Linux","password":true,"vac":true,"version":"7757534","steam_id":85568392925397851,"keywords":["cp","nocrits","nodmgspread","uncletopia"],"game_id":440,"stv_port":27026,"stv_name":"Uncletopia | Warsaw | 2 | All Maps | STV","players":null},{"server_id":51,"name":"Uncletopia | Warsaw | 3 | All Maps","name_short":"waw-3","host":"waw-1.pl.uncletopia.com","port":27035,"enabled":true,"region":"eu","cc":"pl","latitude":52.2297,"longitude":21.017532,"reserved":0,"last_update":"0001-01-01T00:00:00Z","name_a2s":"Uncletopia | Warsaw | 3 | All Maps","protocol":17,"map":"pl_upward","folder":"tf","game":"Team Fortress","app_id":440,"player_count":0,"max_players":24,"Bots":0,"server_type":"Dedicated","server_os":"Linux","password":true,"vac":true,"version":"7757534","steam_id":85568392925397852,"keywords":["nocrits","nodmgspread","payload","uncletopia"],"game_id":440,"stv_port":27036,"stv_name":"Uncletopia | Warsaw | 3 | All Maps | STV","players":null},{"server_id":52,"name":"Uncletopia | Warsaw | 4 | All Maps","name_short":"waw-4","host":"waw-1.pl.uncletopia.com","port":27045,"enabled":true,"region":"eu","cc":"pl","latitude":52.2297,"longitude":21.017532,"reserved":0,"last_update":"0001-01-01T00:00:00Z","name_a2s":"Uncletopia | Warsaw | 4 | All Maps","protocol":17,"map":"koth_highpass","folder":"tf","game":"Team Fortress","app_id":440,"player_count":0,"max_players":24,"Bots":0,"server_type":"Dedicated","server_os":"Linux","password":true,"vac":true,"version":"7757534","steam_id":85568392925397853,"keywords":["cp","nocrits","nodmgspread","uncletopia"],"game_id":440,"stv_port":27046,"stv_name":"Uncletopia | Warsaw | 4 | All Maps | STV","players":null},{"server_id":53,"name":"Uncletopia | Warsaw | 5 | Stopwatch Beta","name_short":"waw-5","host":"waw-1.pl.uncletopia.com","port":27055,"enabled":true,"region":"eu","cc":"pl","latitude":52.2297,"longitude":21.017532,"reserved":0,"last_update":"0001-01-01T00:00:00Z","name_a2s":"Uncletopia | Warsaw | 5 | Stopwatch Beta","protocol":17,"map":"workshop/koth_product_final.ugc454272353","folder":"tf","game":"Team Fortress","app_id":440,"player_count":0,"max_players":24,"Bots":0,"server_type":"Dedicated","server_os":"Linux","password":true,"vac":true,"version":"7757534","steam_id":85568392925397854,"keywords":["cp","nocrits","nodmgspread","uncletopia"],"game_id":440,"stv_port":27056,"stv_name":"Uncletopia | Warsaw | 5 | Stopwatch Beta | STV","players":null},{"server_id":54,"name":"Uncletopia | Warsaw | 6 | Community","name_short":"waw-6","host":"waw-1.pl.uncletopia.com","port":27065,"enabled":true,"region":"eu","cc":"pl","latitude":52.2297,"longitude":21.017532,"reserved":0,"last_update":"0001-01-01T00:00:00Z","name_a2s":"Uncletopia | Warsaw | 6 | Community","protocol":17,"map":"workshop/pl_vigil_rc9.ugc1266210012","folder":"tf","game":"Team Fortress","app_id":440,"player_count":0,"max_players":24,"Bots":0,"server_type":"Dedicated","server_os":"Linux","password":true,"vac":true,"version":"7757534","steam_id":85568392925397856,"keywords":["nocrits","nodmgspread","payload","uncletopia"],"game_id":440,"stv_port":27066,"stv_name":"Uncletopia | Warsaw | 6 | Community | STV","players":null}]}