{"status":true,"message":"","result":[{"server_id":9,"name":"Uncletopia | Atlanta | 1 | All Maps","name_short":"atl-1","host":"atl-1.us.uncletopia.com","port":27015,"enabled":true,"region":"us-east","cc":"us","latitude":33.753746,"longitude":-84.38633,"reserved":0,"last_update":"0001-01-01T00:00:00Z","name_a2s":"Uncletopia | Atlanta | 1 | All Maps","protocol":17,"map":"cp_dustbowl","folder":"tf","game":"Team Fortress","app_id":440,"player_count":0,"max_players":24,"Bots":0,"server_type":"Dedicated","server_os":"Linux","password":true,"vac":true,"version":"7757534","steam_id":85568392924469982,"keywords":["cp","nocrits","nodmgspread","uncletopia"],"game_id":440,"stv_port":27016,"stv_name":"Uncletopia | Atlanta | 1 | All Maps | STV","players":null},{"server_id":400,"name":"Uncletopia | Atlanta | 3 | Stopwatch Beta","name_short":"atl-3","host":"atl-1.us.uncletopia.com","port":27035,"enabled":true,"region":"us-east","cc":"us","latitude":33.753746,"longitude":-84.38633,"reserved":0,"last_update":"0001-01-01T00:00:00Z","name_a2s":"Uncletopia | Atlanta | 3 | Stopwatch Beta","protocol":17,"map":"pl_upward","folder":"tf","game":"Team Fortress","app_id":440,"player_count":0,"max_players":24,"Bots":0,"server_type":"Dedicated","server_os":"Linux","password":true,"vac":true,"version":"7757534","steam_id":85568392924515187,"keywords":["nocrits","nodmgspread","payload","uncletopia"],"game_id":440,"stv_port":27036,"stv_name":"Uncletopia | Atlanta | 3 | Stopwatch Beta | STV","players":null},{"server_id":401,"name":"Uncletopia | Atlanta | 4 | No Payload","name_short":"atl-4","host":"atl-1.us.uncletopia.com","port":27045,"enabled":true,"region":"us-east","cc":"us","latitude":33.753746,"longitude":-84.38633,"reserved":0,"last_update":"0001-01-01T00:00:00Z","name_a2s":"Uncletopia | Atlanta | 4 | No Payload","protocol":17,"map":"pl_pier","folder":"tf","game":"Team Fortress","app_id":440,"player_count":0,"max_players":24,"Bots":0,"server_type":"Dedicated","server_os":"Linux","password":true,"vac":true,"version":"7723704","steam_id":85568392924515188,"keywords":["nocrits","nodmgspread","payload","uncletopia"],"game_id":440,"stv_port":27046,"stv_name":"Uncletopia | Atlanta | 4 | No Payload | STV","players":null},{"server_id":2,"name":"Uncletopia | Chicago | 1 | All Maps","name_short":"chi-1","host":"chi-1.us.uncletopia.com","port":27015,"enabled":true,"region":"us-central","cc":"us","latitude":41.881832,"longitude":-87.62318,"reserved":0,"last_update":"0001-01-01T00:00:00Z","name_a2s":"Uncletopia | Chicago | 1 | All Maps","protocol":17,"map":"cp_process_final","folder":"tf","game":"Team Fortress","app_id":440,"player_count":24,"max_players":24,"Bots":0,"server_type":"Dedicated","server_os":"Linux","password":true,"vac":true,"version":"7757534","steam_id":85568392924469984,"keywords":["cp","nocrits","nodmgspread","uncletopia"],"game_id":440,"stv_port":27016,"stv_name":"Uncletopia | Chicago | 1 | All Maps | STV","players":[{"user_id":56,"name":"badboy6996","steam_id":76561197969386201,"connected_time":6016000000000,"state":"active","ping":52},{"user_id":82,"name":"Abbashea","steam_id":76561199182136969,"connected_time":4174000000000,"state":"active","ping":87},{"user_id":67,"name":"Mae","steam_id":76561198085815757,"connected_time":5670000000000,"state":"active","ping":71},{"user_id":29,"name":"仙女头子于谦","steam_id":76561199031075505,"connected_time":8203000000000,"state":"active","ping":171},{"user_id":114,"name":"Astrocircuit","steam_id":76561198014437544,"connected_time":103000000000,"state":"active","ping":56},{"user_id":44,"name":"skull","steam_id":76561198821775083,"connected_time":7153000000000,"state":"active","ping":70},{"user_id":89,"name":"shaderoses","steam_id":76561198070800500,"connected_time":3710000000000,"state":"active","ping":73},{"user_id":112,"name":"Motreir","steam_id":76561198151717946,"connected_time":183000000000,"state":"active","ping":75},{"user_id":42,"name":"GREG","steam_id":76561198073021168,"connected_time":7401000000000,"state":"active","ping":66},{"user_id":58,"name":"IKISSYOURWIFEWTONGUE #WEWRESTLE","steam_id":76561198144766439,"connected_time":5927000000000,"state":"active","ping":44},{"user_id":105,"name":"Pixler544","steam_id":76561198240575132,"connected_time":858000000000,"state":"active","ping":90},{"user_id":59,"name":"chicken wit dah eggrow","steam_id":76561198115458307,"connected_time":5927000000000,"state":"active","ping":105},{"user_id":76,"name":"richard clock","steam_id":76561198048455671,"connected_time":4302000000000,"state":"active","ping":60},{"user_id":51,"name":"mio","steam_id":76561198239286750,"connected_time":6453000000000,"state":"active","ping":69},{"user_id":106,"name":"kametro4","steam_id":76561198835430429,"connected_time":748000000000,"state":"active","ping":75},{"user_id":93,"name":"mechiimi ★","steam_id":76561198321627268,"connected_time":3024000000000,"state":"active","ping":131},{"user_id":94,"name":"tsaide","steam_id":76561198384120999,"connected_time":2502000000000,"state":"active","ping":75},{"user_id":95,"name":"superbee","steam_id":76561199008964468,"connected_time":2076000000000,"state":"active","ping":86},{"user_id":73,"name":"uncle kringle gaming","steam_id":76561198063024859,"connected_time":4906000000000,"state":"active","ping":83},{"user_id":108,"name":"kayaas","steam_id":76561198108685037,"connected_time":743000000000,"state":"active","ping":67},{"user_id":109,"name":"Boxxed","steam_id":76561198255787237,"connected_time":741000000000,"state":"active","ping":76},{"user_id":111,"name":"Eins","steam_id":76561199030343810,"connected_time":358000000000,"state":"active","ping":57},{"user_id":100,"name":"Femboyuwu","steam_id":76561199042734489,"connected_time":1180000000000,"state":"active","ping":110},{"user_id":54,"name":"yomommasabitch","steam_id":76561198323217150,"connected_time":6087000000000,"state":"active","ping":60}]},{"server_id":106,"name":"Uncletopia | Chicago | 2 | All Maps","name_short":"chi-2","host":"chi-1.us.uncletopia.com","port":27025,"enabled":true,"region":"us-central","cc":"us","latitude":41.881832,"longitude":-87.62318,"reserved":0,"last_update":"0001-01-01T00:00:00Z","name_a2s":"Uncletopia | Chicago | 2 | All Maps","protocol":17,"map":"koth_cascade","folder":"tf","game":"Team Fortress","app_id":440,"player_count":0,"max_players":24,"Bots":0,"server_type":"Dedicated","server_os":"Linux","password":true,"vac":true,"version":"7757534","steam_id":85568392924469985,"keywords":["cp","nocrits","nodmgspread","uncletopia"],"game_id":440,"stv_port":27026,"stv_name":"Uncletopia | Chicago | 2 | All Maps | STV","players":null},{"server_id":402,"name":"Uncletopia | Chicago | 3 | All Maps","name_short":"chi-3","host":"chi-1.us.uncletopia.com","port":27035,"enabled":true,"region":"us-central","cc":"us","latitude":41.881832,"longitude":-87.62318,"reserved":0,"last_update":"0001-01-01T00:00:00Z","name_a2s":"Uncletopia | Chicago | 3 | All Maps","protocol":17,"map":"cp_sunshine","folder":"tf","game":"Team Fortress","app_id":440,"player_count":0,"max_players":24,"Bots":0,"server_type":"Dedicated","server_os":"Linux","password":true,"vac":true,"version":"7757534","steam_id":85568392924515191,"keywords":["cp","nocrits","nodmgspread","uncletopia"],"game_id":440,"stv_port":27036,"stv_name":"Uncletopia | Chicago | 3 | All Maps | STV","players":null},{"server_id":403,"name":"Uncletopia | Chicago | 4 | All Maps","name_short":"chi-4","host":"chi-1.us.uncletopia.com","port":27045,"enabled":true,"region":"us-central","cc":"us","latitude":41.881832,"longitude":-87.62318,"reserved":0,"last_update":"0001-01-01T00:00:00Z","name_a2s":"Uncletopia | Chicago | 4 | All Maps","protocol":17,"map":"cp_altitude","folder":"tf","game":"Team Fortress","app_id":440,"player_count":0,"max_players":24,"Bots":0,"server_type":"Dedicated","server_os":"Linux","password":true,"vac":true,"version":"7757534","steam_id":85568392924515193,"keywords":["cp","nocrits","nodmgspread","uncletopia"],"game_id":440,"stv_port":27046,"stv_name":"Uncletopia | Chicago | 4 | All Maps | STV","players":null},{"server_id":36,"name":"Uncletopia | Chicago | 5 | All Maps","name_short":"chi-5","host":"chi-2.us.uncletopia.com","port":27015,"enabled":true,"region":"us-central","cc":"us","latitude":41.881832,"longitude":-87.62318,"reserved":0,"last_update":"0001-01-01T00:00:00Z","name_a2s":"Uncletopia | Chicago | 5 | All Maps","protocol":17,"map":"cp_well","folder":"tf","game":"Team Fortress","app_id":440,"player_count":24,"max_players":24,"Bots":0,"server_type":"Dedicated","server_os":"Linux","password":true,"vac":true,"version":"7757534","steam_id":85568392924866362,"keywords":["cp","nocrits","nodmgspread","uncletopia"],"game_id":440,"stv_port":27016,"stv_name":"Uncletopia | Chicago | 5 | All Maps | STV","players":[{"user_id":82,"name":"Zeora","steam_id":76561198799145251,"connected_time":1369000000000,"state":"active","ping":68},{"user_id":91,"name":"Boasta' Berry","steam_id":76561198029015179,"connected_time":405000000000,"state":"active","ping":116},{"user_id":58,"name":"tavi","steam_id":76561198050192689,"connected_time":2471000000000,"state":"active","ping":97},{"user_id":96,"name":"exer","steam_id":76561197973093864,"connected_time":179000000000,"state":"active","ping":58},{"user_id":94,"name":"Skiptrace","steam_id":76561198014786202,"connected_time":333000000000,"state":"active","ping":75},{"user_id":98,"name":"Orange Sylveon","steam_id":76561198179305695,"connected_time":96000000000,"state":"active","ping":79},{"user_id":99,"name":"Chris","steam_id":76561197970315094,"connected_time":69000000000,"state":"active","ping":50},{"user_id":77,"name":"when that knee surgery is today","steam_id":76561198992371280,"connected_time":1642000000000,"state":"active","ping":102},{"user_id":100,"name":"Chase McCain","steam_id":76561198314538469,"connected_time":21000000000,"state":"active","ping":106},{"user_id":101,"name":"Black Mesa Security","steam_id":76561198161608111,"connected_time":17000000000,"state":"active","ping":82},{"user_id":89,"name":"floofy","steam_id":76561198389769098,"connected_time":439000000000,"state":"active","ping":76},{"user_id":16,"name":"Phil Collins","steam_id":76561198068868644,"connected_time":5945000000000,"state":"active","ping":106},{"user_id":87,"name":"Birdhorse Of Course","steam_id":76561198038997485,"connected_time":545000000000,"state":"active","ping":69},{"user_id":70,"name":"gotLuck","steam_id":76561197969201332,"connected_time":1907000000000,"state":"active","ping":86},{"user_id":84,"name":"gen","steam_id":76561199118569153,"connected_time":755000000000,"state":"active","ping":56},{"user_id":86,"name":"jimbo","steam_id":76561198046059770,"connected_time":602000000000,"state":"active","ping":70},{"user_id":66,"name":"Gnome (wanted felon)","steam_id":76561199229771413,"connected_time":2039000000000,"state":"active","ping":87},{"user_id":78,"name":"squid were","steam_id":76561198237025688,"connected_time":1637000000000,"state":"active","ping":48},{"user_id":76,"name":"Mury","steam_id":76561198069743049,"connected_time":1685000000000,"state":"active","ping":80},{"user_id":59,"name":"Impractical0","steam_id":76561198868974373,"connected_time":2460000000000,"state":"active","ping":95},{"user_id":90,"name":"Inquisitribble","steam_id":76561198022402409,"connected_time":424000000000,"state":"active","ping":46},{"user_id":37,"name":"Backside540","steam_id":76561197960602545,"connected_time":4880000000000,"state":"active","ping":84},{"user_id":64,"name":"Ragnoratsu","steam_id":76561198189688723,"connected_time":2231000000000,"state":"active","ping":44},{"user_id":95,"name":"BIG sad","steam_id":76561199006342781,"connected_time":311000000000,"state":"active","ping":75}]},{"server_id":37,"name":"Uncletopia | Chicago | 6 | All Maps","name_short":"chi-6","host":"chi-2.us.uncletopia.com","port":27025,"enabled":true,"region":"us-central","cc":"us","latitude":41.881832,"longitude":-87.62318,"reserved":0,"last_update":"0001-01-01T00:00:00Z","name_a2s":"Uncletopia | Chicago | 6 | All Maps","protocol":17,"map":"cp_mountainlab","folder":"tf","game":"Team Fortress","app_id":440,"player_count":0,"max_players":24,"Bots":0,"server_type":"Dedicated","server_os":"Linux","password":true,"vac":true,"version":"7757534","steam_id":85568392924866363,"keywords":["cp","nocrits","nodmgspread","uncletopia"],"game_id":440,"stv_port":27026,"stv_name":"Uncletopia | Chicago | 6 | All Maps | STV","players":null},{"server_id":38,"name":"Uncletopia | Chicago | 7 | Stopwatch Beta","name_short":"chi-7","host":"chi-2.us.uncletopia.com","port":27035,"enabled":true,"region":"us-central","cc":"us","latitude":41.881832,"longitude":-87.62318,"reserved":0,"last_update":"0001-01-01T00:00:00Z","name_a2s":"Uncletopia | Chicago | 7 | Stopwatch Beta","protocol":17,"map":"koth_highpass","folder":"tf","game":"Team Fortress","app_id":440,"player_count":12,"max_players":24,"Bots":0,"server_type":"Dedicated","server_os":"Linux","password":true,"vac":true,"version":"7757534","steam_id":85568392924866364,"keywords":["cp","nocrits","nodmgspread","uncletopia"],"game_id":440,"stv_port":27036,"stv_name":"Uncletopia | Chicago | 7 | Stopwatch Beta | STV","players":[{"user_id":47,"name":"Rippy Ol' Pal","steam_id":76561199382261355,"connected_time":423000000000,"state":"active","ping":42},{"user_id":39,"name":"Boober","steam_id":76561198957779037,"connected_time":841000000000,"state":"active","ping":261},{"user_id":30,"name":"condom shard #27","steam_id":76561198060342804,"connected_time":1342000000000,"state":"active","ping":69},{"user_id":45,"name":"Sweetie","steam_id":76561198806688369,"connected_time":625000000000,"state":"active","ping":88},{"user_id":48,"name":"Luxcraz","steam_id":76561198035278349,"connected_time":293000000000,"state":"active","ping":55},{"user_id":43,"name":"Rock Paper Scizzors \"God\"","steam_id":76561199176919819,"connected_time":667000000000,"state":"active","ping":165},{"user_id":49,"name":"SpartanOne22","steam_id":76561199006361788,"connected_time":259000000000,"state":"active","ping":68},{"user_id":51,"name":"Barbatruc","steam_id":76561198119019916,"connected_time":69000000000,"state":"active","ping":155},{"user_id":19,"name":"Bobdude","steam_id":76561198075956967,"connected_time":2404000000000,"state":"active","ping":112},{"user_id":37,"name":"foober","steam_id":76561198260369834,"connected_time":1002000000000,"state":"active","ping":166},{"user_id":33,"name":"foozle","steam_id":76561198019003018,"connected_time":1126000000000,"state":"active","ping":71},{"user_id":23,"name":"Dark Saturday","steam_id":76561198152056777,"connected_time":2200000000000,"state":"active","ping":75}]},{"server_id":39,"name":"Uncletopia | Chicago | 8 | Community","name_short":"chi-8","host":"chi-2.us.uncletopia.com","port":27045,"enabled":true,"region":"us-central","cc":"us","latitude":41.881832,"longitude":-87.62318,"reserved":0,"last_update":"0001-01-01T00:00:00Z","name_a2s":"Uncletopia | Chicago | 8 | Community","protocol":17,"map":"pl_pier","folder":"tf","game":"Team Fortress","app_id":440,"player_count":0,"max_players":24,"Bots":0,"server_type":"Dedicated","server_os":"Linux","password":true,"vac":true,"version":"7757534","steam_id":85568392924866365,"keywords":["nocrits","nodmgspread","payload","uncletopia"],"game_id":440,"stv_port":27046,"stv_name":"Uncletopia | Chicago | 8 | Community | STV","players":null},{"server_id":8,"name":"Uncletopia | Dallas | 1 | All Maps","name_short":"dal-1","host":"dal-1.us.uncletopia.com","port":27015,"enabled":true,"region":"us-central","cc":"us","latitude":32.779167,"longitude":-96.80889,"reserved":0,"last_update":"0001-01-01T00:00:00Z","name_a2s":"Uncletopia | Dallas | 1 | All Maps","protocol":17,"map":"cp_mossrock","folder":"tf","game":"Team Fortress","app_id":440,"player_count":8,"max_players":24,"Bots":0,"server_type":"Dedicated","server_os":"Linux","password":true,"vac":true,"version":"7757534","steam_id":85568392924469986,"keywords":["cp","nocrits","nodmgspread","uncletopia"],"game_id":440,"stv_port":27016,"stv_name":"Uncletopia | Dallas | 1 | All Maps | STV","players":[{"user_id":6,"name":"cheeseburger shootout","steam_id":76561198328675913,"connected_time":2107000000000,"state":"active","ping":115},{"user_id":16,"name":"Bones Malone","steam_id":76561199104956310,"connected_time":148000000000,"state":"active","ping":44},{"user_id":8,"name":"manbearswineflu","steam_id":76561198083945137,"connected_time":2042000000000,"state":"active","ping":80},{"user_id":11,"name":"huckleberry","steam_id":76561197987025017,"connected_time":1034000000000,"state":"active","ping":67},{"user_id":12,"name":"INFINITE","steam_id":76561197971285557,"connected_time":303000000000,"state":"active","ping":77},{"user_id":13,"name":"rawrski","steam_id":76561197972464020,"connected_time":284000000000,"state":"active","ping":88},{"user_id":17,"name":"Compress Dong","steam_id":76561198018950826,"connected_time":12000000000,"state":"spawning","ping":78},{"user_id":15,"name":"Maranata","steam_id":76561198830158092,"connected_time":232000000000,"state":"active","ping":73}]},{"server_id":108,"name":"Uncletopia | Dallas | 2 | All Maps","name_short":"dal-2","host":"dal-1.us.uncletopia.com","port":27025,"enabled":true,"region":"us-central","cc":"us","latitude":32.779167,"longitude":-96.80889,"reserved":0,"last_update":"0001-01-01T00:00:00Z","name_a2s":"Uncletopia | Dallas | 2 | All Maps","protocol":17,"map":"koth_highpass","folder":"tf","game":"Team Fortress","app_id":440,"player_count":0,"max_players":24,"Bots":0,"server_type":"Dedicated","server_os":"Linux","password":true,"vac":true,"version":"7757534","steam_id":85568392924469988,"keywords":["cp","nocrits","nodmgspread","uncletopia"],"game_id":440,"stv_port":27026,"stv_name":"Uncletopia | Dallas | 2 | All Maps | STV","players":null},{"server_id":5,"name":"Uncletopia | Frankfurt | 1 | All Maps","name_short":"frk-1","host":"frk-1.de.uncletopia.com","port":27015,"enabled":true,"region":"eu","cc":"de","latitude":50.110924,"longitude":8.682127,"reserved":0,"last_update":"0001-01-01T00:00:00Z","name_a2s":"Uncletopia | Frankfurt | 1 | All Maps","protocol":17,"map":"pl_pier","folder":"tf","game":"Team Fortress","app_id":440,"player_count":24,"max_players":24,"Bots":0,"server_type":"Dedicated","server_os":"Linux","password":true,"vac":true,"version":"7757534","steam_id":85568392924469989,"keywords":["nocrits","nodmgspread","payload","uncletopia"],"game_id":440,"stv_port":27016,"stv_name":"Uncletopia | Frankfurt | 1 | All Maps | STV","players":[{"user_id":247,"name":"LarsInABox","steam_id":76561198028329262,"connected_time":3036000000000,"state":"active","ping":69},{"user_id":260,"name":"poorchel","steam_id":76561198056905953,"connected_time":1751000000000,"state":"active","ping":130},{"user_id":285,"name":"Bob Sacamano","steam_id":76561198085610701,"connected_time":209000000000,"state":"active","ping":93},{"user_id":261,"name":"Hannü","steam_id":76561197969886128,"connected_time":1738000000000,"state":"active","ping":66},{"user_id":289,"name":"kbbq","steam_id":76561198346638308,"connected_time":107000000000,"state":"active","ping":57},{"user_id":262,"name":"Arkainiel Silver","steam_id":76561198188302519,"connected_time":1726000000000,"state":"active","ping":56},{"user_id":281,"name":"DemoPanMan69","steam_id":76561199030759504,"connected_time":520000000000,"state":"active","ping":73},{"user_id":258,"name":"dr.cumfart","steam_id":76561198045330758,"connected_time":1829000000000,"state":"active","ping":130},{"user_id":249,"name":"Kick gibus-engineers","steam_id":76561198046368451,"connected_time":2198000000000,"state":"active","ping":99},{"user_id":263,"name":"Farmercy","steam_id":76561198000038039,"connected_time":1724000000000,"state":"active","ping":52},{"user_id":272,"name":"Mr Lemon","steam_id":76561198054685254,"connected_time":1633000000000,"state":"active","ping":75},{"user_id":240,"name":"Cippo95","steam_id":76561198255311582,"connected_time":3853000000000,"state":"active","ping":62},{"user_id":246,"name":"jason","steam_id":76561198060780111,"connected_time":3040000000000,"state":"active","ping":80},{"user_id":232,"name":"ghost","steam_id":76561198189940229,"connected_time":3894000000000,"state":"active","ping":48},{"user_id":211,"name":"hud_saytext_time 0","steam_id":76561198010327228,"connected_time":5207000000000,"state":"active","ping":62},{"user_id":282,"name":"bANji","steam_id":76561198108898161,"connected_time":506000000000,"state":"active","ping":36},{"user_id":169,"name":"EdSuedi","steam_id":76561199387956486,"connected_time":7943000000000,"state":"active","ping":56},{"user_id":259,"name":"Gyro Zeppeli","steam_id":76561198143600606,"connected_time":1828000000000,"state":"active","ping":63},{"user_id":287,"name":"NatP","steam_id":76561198012083811,"connected_time":190000000000,"state":"active","ping":79},{"user_id":250,"name":"Bones","steam_id":76561198065081225,"connected_time":1949000000000,"state":"active","ping":59},{"user_id":170,"name":"Serton♝","steam_id":76561198011061126,"connected_time":7711000000000,"state":"active","ping":91},{"user_id":288,"name":"a black bishop from chess","steam_id":76561199226943577,"connected_time":141000000000,"state":"active","ping":81},{"user_id":284,"name":"◄ Eppp","steam_id":76561198054316872,"connected_time":489000000000,"state":"active","ping":66},{"user_id":204,"name":"I was good before.","steam_id":76561198187045217,"connected_time":6172000000000,"state":"active","ping":79}]},{"server_id":110,"name":"Uncletopia | Frankfurt | 2 | All Maps","name_short":"frk-2","host":"frk-1.de.uncletopia.com","port":27025,"enabled":true,"region":"eu","cc":"de","latitude":50.110924,"longitude":8.682127,"reserved":0,"last_update":"0001-01-01T00:00:00Z","name_a2s":"Uncletopia | Frankfurt | 2 | All Maps","protocol":17,"map":"pl_borneo","folder":"tf","game":"Team Fortress","app_id":440,"player_count":24,"max_players":24,"Bots":0,"server_type":"Dedicated","server_os":"Linux","password":true,"vac":true,"version":"7757534","steam_id":85568392924469990,"keywords":["nocrits","nodmgspread","payload","uncletopia"],"game_id":440,"stv_port":27026,"stv_name":"Uncletopia | Frankfurt | 2 | All Maps | STV","players":[{"user_id":143,"name":"Chambersite","steam_id":76561198197022399,"connected_time":712000000000,"state":"active","ping":84},{"user_id":142,"name":"Na'vi Misato (by popular demand","steam_id":76561198130860698,"connected_time":799000000000,"state":"active","ping":59},{"user_id":108,"name":"Tonne","steam_id":76561197970856766,"connected_time":3726000000000,"state":"active","ping":54},{"user_id":140,"name":"remove trains","steam_id":76561199433578516,"connected_time":953000000000,"state":"active","ping":78},{"user_id":49,"name":"Dolcelatte","steam_id":76561198038501770,"connected_time":8072000000000,"state":"active","ping":59},{"user_id":90,"name":"bleak autumn night","steam_id":76561198142183478,"connected_time":4759000000000,"state":"active","ping":78},{"user_id":132,"name":"p!ke","steam_id":76561198416081952,"connected_time":1718000000000,"state":"active","ping":59},{"user_id":54,"name":"Melon","steam_id":76561198150893860,"connected_time":8033000000000,"state":"active","ping":60},{"user_id":128,"name":"xenia","steam_id":76561198062107879,"connected_time":1933000000000,"state":"active","ping":74},{"user_id":101,"name":"Ennard777","steam_id":76561198965409493,"connected_time":4000000000000,"state":"active","ping":92},{"user_id":123,"name":"XeniasPimp","steam_id":76561198126398022,"connected_time":2523000000000,"state":"active","ping":73},{"user_id":119,"name":"Mihai","steam_id":76561199181038346,"connected_time":2945000000000,"state":"active","ping":76},{"user_id":115,"name":"VEH-DEH-VEH","steam_id":76561198010978989,"connected_time":3248000000000,"state":"active","ping":65},{"user_id":137,"name":".orange","steam_id":76561198051778789,"connected_time":1100000000000,"state":"active","ping":81},{"user_id":70,"name":"wads","steam_id":76561198175406562,"connected_time":6257000000000,"state":"active","ping":61},{"user_id":116,"name":"Udinese Dion","steam_id":76561198067931573,"connected_time":3234000000000,"state":"active","ping":45},{"user_id":141,"name":"Heura","steam_id":76561198328304087,"connected_time":851000000000,"state":"active","ping":84},{"user_id":122,"name":"estrogen deliver","steam_id":76561198190259726,"connected_time":2754000000000,"state":"active","ping":80},{"user_id":139,"name":"Pagliacci","steam_id":76561198076572288,"connected_time":965000000000,"state":"active","ping":95},{"user_id":125,"name":"Vic maher","steam_id":76561198097523768,"connected_time":2390000000000,"state":"active","ping":62},{"user_id":78,"name":"Gordon Birdman","steam_id":76561198013382324,"connected_time":5665000000000,"state":"active","ping":60},{"user_id":133,"name":"Banana","steam_id":76561198155118706,"connected_time":1692000000000,"state":"active","ping":104},{"user_id":41,"name":"T_G_G","steam_id":76561199114568070,"connected_time":9003000000000,"state":"active","ping":138},{"user_id":106,"name":"cazador","steam_id":76561198123096922,"connected_time":3865000000000,"state":"active","ping":101}]},{"server_id":308,"name":"Uncletopia | Frankfurt | 3 | All Maps","name_short":"frk-3","host":"frk-1.de.uncletopia.com","port":27035,"enabled":true,"region":"eu","cc":"de","latitude":50.110924,"longitude":8.682127,"reserved":0,"last_update":"0001-01-01T00:00:00Z","name_a2s":"Uncletopia | Frankfurt | 3 | All Maps","protocol":17,"map":"cp_steel","folder":"tf","game":"Team Fortress","app_id":440,"player_count":24,"max_players":24,"Bots":0,"server_type":"Dedicated","server_os":"Linux","password":true,"vac":true,"version":"7757534","steam_id":85568392924504274,"keywords":["cp","nocrits","nodmgspread","uncletopia"],"game_id":440,"stv_port":27036,"stv_name":"Uncletopia | Frankfurt | 3 | All Maps | STV","players":[{"user_id":373,"name":"Star in a pond","steam_id":76561198205501279,"connected_time":73000000000,"state":"spawning","ping":131},{"user_id":315,"name":"Skitz™ゴゴゴ","steam_id":76561198049899210,"connected_time":2972000000000,"state":"active","ping":86},{"user_id":368,"name":"LAYNOSTAYKO","steam_id":76561198218557183,"connected_time":300000000000,"state":"active","ping":88},{"user_id":349,"name":"Papa sniper","steam_id":76561198941117244,"connected_time":1485000000000,"state":"active","ping":104},{"user_id":370,"name":"GogsCrunchyNuts","steam_id":76561198150599213,"connected_time":185000000000,"state":"active","ping":107},{"user_id":350,"name":"disposablesuperbread","steam_id":76561199074703607,"connected_time":1475000000000,"state":"active","ping":70},{"user_id":319,"name":"CEO of Pen Island","steam_id":76561198037212191,"connected_time":2879000000000,"state":"active","ping":86},{"user_id":347,"name":"Digio","steam_id":76561199065101964,"connected_time":1563000000000,"state":"active","ping":89},{"user_id":371,"name":"chr","steam_id":76561198073016365,"connected_time":184000000000,"state":"active","ping":87},{"user_id":269,"name":"-makina","steam_id":76561198273042780,"connected_time":6100000000000,"state":"active","ping":60},{"user_id":372,"name":"Nifi","steam_id":76561198102682566,"connected_time":168000000000,"state":"active","ping":60},{"user_id":341,"name":"G(RIZZ)LY","steam_id":76561197973234203,"connected_time":1974000000000,"state":"active","ping":75},{"user_id":358,"name":"Megasecret","steam_id":76561198055378025,"connected_time":1079000000000,"state":"active","ping":86},{"user_id":364,"name":"The Weakest Brazilian Male","steam_id":76561198273215396,"connected_time":687000000000,"state":"active","ping":57},{"user_id":365,"name":"Delcup","steam_id":76561199006338376,"connected_time":686000000000,"state":"active","ping":123},{"user_id":374,"name":"alvinulv","steam_id":76561198024487177,"connected_time":59000000000,"state":"active","ping":68},{"user_id":321,"name":"Warrez the Emu","steam_id":76561198080840887,"connected_time":2876000000000,"state":"active","ping":77},{"user_id":337,"name":"Arcweld","steam_id":76561198816060720,"connected_time":2184000000000,"state":"active","ping":81},{"user_id":375,"name":"TF2EASY.COM rfrei","steam_id":76561199136383063,"connected_time":49000000000,"state":"spawning","ping":255},{"user_id":331,"name":"Kinas","steam_id":76561198084438097,"connected_time":2398000000000,"state":"active","ping":110},{"user_id":376,"name":"Teffg","steam_id":76561198274386094,"connected_time":23000000000,"state":"active","ping":95},{"user_id":366,"name":"Bosnian Ketamine Mafia","steam_id":76561198163571788,"connected_time":630000000000,"state":"active","ping":81},{"user_id":283,"name":"big hoops","steam_id":76561198004703799,"connected_time":5626000000000,"state":"active","ping":45},{"user_id":335,"name":"Hooggers","steam_id":76561198120447741,"connected_time":2240000000000,"state":"active","ping":97}]},{"server_id":309,"name":"Uncletopia | Frankfurt | 4 | All Maps","name_short":"frk-4","host":"frk-1.de.uncletopia.com","port":27045,"enabled":true,"region":"eu","cc":"de","latitude":50.110924,"longitude":8.682127,"reserved":0,"last_update":"0001-01-01T00:00:00Z","name_a2s":"Uncletopia | Frankfurt | 4 | All Maps","protocol":17,"map":"pl_snowycoast","folder":"tf","game":"Team Fortress","app_id":440,"player_count":24,"max_players":24,"Bots":0,"server_type":"Dedicated","server_os":"Linux","password":true,"vac":true,"version":"7757534","steam_id":85568392924504275,"keywords":["nocrits","nodmgspread","payload","uncletopia"],"game_id":440,"stv_port":27046,"stv_name":"Uncletopia | Frankfurt | 4 | All Maps | STV","players":[{"user_id":201,"name":"Mapus Lepoldus","steam_id":76561198067705233,"connected_time":113000000000,"state":"active","ping":69},{"user_id":165,"name":"Crunchy","steam_id":76561198184973203,"connected_time":2971000000000,"state":"active","ping":65},{"user_id":196,"name":"Motley_","steam_id":76561198116057976,"connected_time":292000000000,"state":"active","ping":45},{"user_id":194,"name":"Cookoo","steam_id":76561197999127438,"connected_time":318000000000,"state":"active","ping":84},{"user_id":142,"name":"Germanium_Ge","steam_id":76561198130561775,"connected_time":4957000000000,"state":"active","ping":54},{"user_id":147,"name":"Cumbustible Punda #SaveTF2","steam_id":76561197974274677,"connected_time":4609000000000,"state":"active","ping":53},{"user_id":179,"name":"murderwow","steam_id":76561198024566944,"connected_time":1584000000000,"state":"active","ping":102},{"user_id":159,"name":"Blo","steam_id":76561198161651469,"connected_time":3219000000000,"state":"active","ping":58},{"user_id":86,"name":"LAMC","steam_id":76561199066888917,"connected_time":8537000000000,"state":"active","ping":66},{"user_id":195,"name":"pepper","steam_id":76561198059782462,"connected_time":303000000000,"state":"active","ping":51},{"user_id":164,"name":"Pastoss","steam_id":76561198379098260,"connected_time":2989000000000,"state":"active","ping":56},{"user_id":153,"name":"SgtRookie","steam_id":76561198030230427,"connected_time":3987000000000,"state":"active","ping":97},{"user_id":182,"name":"EGirlGang","steam_id":76561198257435792,"connected_time":1512000000000,"state":"active","ping":76},{"user_id":160,"name":"Zepta","steam_id":76561199001659666,"connected_time":3067000000000,"state":"active","ping":98},{"user_id":183,"name":"Lord of the Lockerroom","steam_id":76561198080619697,"connected_time":1504000000000,"state":"active","ping":93},{"user_id":27,"name":"GuSkand","steam_id":76561198043775605,"connected_time":12304000000000,"state":"active","ping":73},{"user_id":104,"name":"S.Scary","steam_id":76561198248602386,"connected_time":7240000000000,"state":"active","ping":62},{"user_id":197,"name":"My meme now","steam_id":76561199244327387,"connected_time":269000000000,"state":"active","ping":69},{"user_id":192,"name":"invasion","steam_id":76561198235739036,"connected_time":879000000000,"state":"active","ping":80},{"user_id":198,"name":"Rexzuz","steam_id":76561198106148347,"connected_time":264000000000,"state":"active","ping":84},{"user_id":186,"name":"Miedzan","steam_id":76561198405250516,"connected_time":1463000000000,"state":"active","ping":65},{"user_id":188,"name":"Extraordinary Absence of Pootis","steam_id":76561198020270981,"connected_time":1436000000000,"state":"active","ping":144},{"user_id":116,"name":"yyny","steam_id":76561198066287297,"connected_time":6615000000000,"state":"active","ping":55},{"user_id":176,"name":"Dictatorial Karelian","steam_id":76561198196736457,"connected_time":1693000000000,"state":"active","ping":74}]},{"server_id":310,"name":"Uncletopia | Frankfurt | 5 | All Maps","name_short":"frk-5","host":"frk-1.de.uncletopia.com","port":27055,"enabled":true,"region":"eu","cc":"de","latitude":50.110924,"longitude":8.682127,"reserved":0,"last_update":"0001-01-01T00:00:00Z","name_a2s":"Uncletopia | Frankfurt | 5 | All Maps","protocol":17,"map":"koth_lakeside_final","folder":"tf","game":"Team Fortress","app_id":440,"player_count":0,"max_players":24,"Bots":0,"server_type":"Dedicated","server_os":"Linux","password":true,"vac":true,"version":"7757534","steam_id":85568392924504277,"keywords":["cp","nocrits","nodmgspread","uncletopia"],"game_id":440,"stv_port":27056,"stv_name":"Uncletopia | Frankfurt | 5 | All Maps | STV","players":null},{"server_id":311,"name":"Uncletopia | Frankfurt | 6 | All Maps","name_short":"frk-6","host":"frk-1.de.uncletopia.com","port":27065,"enabled":true,"region":"eu","cc":"de","latitude":50.110924,"longitude":8.682127,"reserved":0,"last_update":"0001-01-01T00:00:00Z","name_a2s":"Uncletopia | Frankfurt | 6 | All Maps","protocol":17,"map":"pl_snowycoast","folder":"tf","game":"Team Fortress","app_id":440,"player_count":24,"max_players":24,"Bots":0,"server_type":"Dedicated","server_os":"Linux","password":true,"vac":true,"version":"7757534","steam_id":85568392924504278,"keywords":["nocrits","nodmgspread","payload","uncletopia"],"game_id":440,"stv_port":27066,"stv_name":"Uncletopia | Frankfurt | 6 | All Maps | STV","players":[{"user_id":61,"name":"blue","steam_id":76561198216200092,"connected_time":1213000000000,"state":"active","ping":62},{"user_id":17,"name":"Average meme enjoyer","steam_id":76561199087566663,"connected_time":2815000000000,"state":"active","ping":89},{"user_id":50,"name":"skibidi bop yes yes yes","steam_id":76561198306177608,"connected_time":1678000000000,"state":"active","ping":71},{"user_id":13,"name":"Kati","steam_id":76561198007231088,"connected_time":3088000000000,"state":"active","ping":67},{"user_id":55,"name":"Ben UFO","steam_id":76561198001648348,"connected_time":1386000000000,"state":"active","ping":73},{"user_id":65,"name":"cop killer","steam_id":76561198039966198,"connected_time":956000000000,"state":"active","ping":65},{"user_id":43,"name":"Billy Genie","steam_id":76561198061724014,"connected_time":2061000000000,"state":"active","ping":48},{"user_id":66,"name":"barosans FR","steam_id":76561198038109099,"connected_time":895000000000,"state":"active","ping":48},{"user_id":44,"name":"NaN","steam_id":76561198071098413,"connected_time":2007000000000,"state":"active","ping":53},{"user_id":46,"name":"big noob","steam_id":76561198281332748,"connected_time":1843000000000,"state":"active","ping":65},{"user_id":26,"name":"komantoN^-","steam_id":76561198017929662,"connected_time":2605000000000,"state":"active","ping":54},{"user_id":27,"name":"Raboute","steam_id":76561198040814507,"connected_time":2596000000000,"state":"active","ping":50},{"user_id":63,"name":"Pain","steam_id":76561198106997949,"connected_time":1185000000000,"state":"active","ping":73},{"user_id":29,"name":"Xie Xil Ling","steam_id":76561198053394831,"connected_time":2592000000000,"state":"active","ping":66},{"user_id":45,"name":"penisfinger","steam_id":76561198103904286,"connected_time":1982000000000,"state":"active","ping":75},{"user_id":31,"name":"zinq","steam_id":76561199240709445,"connected_time":2542000000000,"state":"active","ping":69},{"user_id":68,"name":"Hoff","steam_id":76561198138540938,"connected_time":644000000000,"state":"active","ping":77},{"user_id":59,"name":"Alegz","steam_id":76561198287810139,"connected_time":1355000000000,"state":"active","ping":50},{"user_id":36,"name":"Crimea a bridge","steam_id":76561198030898371,"connected_time":2485000000000,"state":"active","ping":82},{"user_id":37,"name":"Arturias","steam_id":76561198188720263,"connected_time":2476000000000,"state":"active","ping":58},{"user_id":38,"name":"₭ä̷łĐɆ₦","steam_id":76561198166352975,"connected_time":2474000000000,"state":"active","ping":55},{"user_id":39,"name":"Furno","steam_id":76561197999723047,"connected_time":2473000000000,"state":"active","ping":49},{"user_id":52,"name":"n-ski","steam_id":76561198020550849,"connected_time":1666000000000,"state":"active","ping":83},{"user_id":53,"name":"Dunya","steam_id":76561198041371314,"connected_time":1636000000000,"state":"active","ping":130}]},{"server_id":23,"name":"Uncletopia | Frankfurt | 7 | Stopwatch Beta","name_short":"frk-7","host":"frk-1.de.uncletopia.com","port":27075,"enabled":true,"region":"eu","cc":"de","latitude":50.110924,"longitude":8.682127,"reserved":0,"last_update":"0001-01-01T00:00:00Z","name_a2s":"Uncletopia | Frankfurt | 7 | Stopwatch Beta","protocol":17,"map":"workshop/koth_ramjam_rc1.ugc459778887","folder":"tf","game":"Team Fortress","app_id":440,"player_count":0,"max_players":24,"Bots":0,"server_type":"Dedicated","server_os":"Linux","password":true,"vac":true,"version":"7757534","steam_id":85568392924742827,"keywords":["cp","nocrits","nodmgspread","uncletopia"],"game_id":440,"stv_port":27076,"stv_name":"Uncletopia | Frankfurt | 7 | Stopwatch Beta | STV","players":null},{"server_id":24,"name":"Uncletopia | Frankfurt | 8 | Community","name_short":"frk-8","host":"frk-1.de.uncletopia.com","port":27085,"enabled":true,"region":"eu","cc":"de","latitude":50.110924,"longitude":8.682127,"reserved":0,"last_update":"0001-01-01T00:00:00Z","name_a2s":"Uncletopia | Frankfurt | 8 | Community","protocol":17,"map":"workshop/koth_ashville_final.ugc2130459942","folder":"tf","game":"Team Fortress","app_id":440,"player_count":20,"max_players":24,"Bots":0,"server_type":"Dedicated","server_os":"Linux","password":true,"vac":true,"version":"7757534","steam_id":85568392924742828,"keywords":["cp","nocrits","nodmgspread","uncletopia"],"game_id":440,"stv_port":27086,"stv_name":"Uncletopia | Frankfurt | 8 | Community | STV","players":[{"user_id":291,"name":"kay","steam_id":76561198845973327,"connected_time":63000000000,"state":"active","ping":54},{"user_id":268,"name":"Paulbraker","steam_id":76561198150162470,"connected_time":1930000000000,"state":"active","ping":77},{"user_id":288,"name":"kotamine","steam_id":76561198068907991,"connected_time":182000000000,"state":"active","ping":64},{"user_id":292,"name":"Mr. Hunts","steam_id":76561197981910397,"connected_time":45000000000,"state":"active","ping":64},{"user_id":272,"name":"20Buckets","steam_id":76561199401737371,"connected_time":1297000000000,"state":"active","ping":68},{"user_id":270,"name":"gojoel","steam_id":76561198251181946,"connected_time":1517000000000,"state":"active","ping":56},{"user_id":286,"name":"Femboy Lilli","steam_id":76561198090146457,"connected_time":463000000000,"state":"active","ping":53},{"user_id":274,"name":"テイルス","steam_id":76561198022403271,"connected_time":1269000000000,"state":"active","ping":45},{"user_id":289,"name":"!?","steam_id":76561198420531228,"connected_time":173000000000,"state":"active","ping":58},{"user_id":290,"name":"Gerald","steam_id":76561198042608016,"connected_time":133000000000,"state":"active","ping":61},{"user_id":281,"name":"Nara","steam_id":76561198350118395,"connected_time":843000000000,"state":"active","ping":153},{"user_id":293,"name":"JC","steam_id":76561198029213352,"connected_time":26000000000,"state":"active","ping":59},{"user_id":235,"name":"Sleetler","steam_id":76561198021646640,"connected_time":4074000000000,"state":"active","ping":65},{"user_id":294,"name":"cruise missile","steam_id":76561198076084824,"connected_time":23000000000,"state":"active","ping":68},{"user_id":246,"name":"cloud","steam_id":76561198179768931,"connected_time":3630000000000,"state":"active","ping":59},{"user_id":167,"name":"Fuzz","steam_id":76561198837586838,"connected_time":8149000000000,"state":"active","ping":68},{"user_id":284,"name":"DOMINOS","steam_id":76561198334591211,"connected_time":536000000000,"state":"active","ping":61},{"user_id":282,"name":"pilszmati","steam_id":76561199200267341,"connected_time":786000000000,"state":"active","ping":69},{"user_id":248,"name":"gpupdate","steam_id":76561198154677956,"connected_time":3537000000000,"state":"active","ping":70},{"user_id":280,"name":"Guy with squares as username","steam_id":76561198269524918,"connected_time":1001000000000,"state":"active","ping":61}]},{"server_id":202,"name":"Uncletopia | Hong Kong | 1 | All Maps","name_short":"hgk-1","host":"hgk-1.hk.uncletopia.com","port":27015,"enabled":true,"region":"asia","cc":"hk","latitude":22.302711,"longitude":114.177216,"reserved":0,"last_update":"0001-01-01T00:00:00Z","name_a2s":"Uncletopia | Hong Kong | 1 | All Maps","protocol":17,"map":"cp_mercenarypark","folder":"tf","game":"Team Fortress","app_id":440,"player_count":22,"max_players":24,"Bots":0,"server_type":"Dedicated","server_os":"Linux","password":true,"vac":true,"version":"7757534","steam_id":85568392924494504,"keywords":["cp","nocrits","nodmgspread","uncletopia"],"game_id":440,"stv_port":27016,"stv_name":"Uncletopia | Hong Kong | 1 | All Maps | STV","players":[{"user_id":731,"name":"7","steam_id":76561199204645978,"connected_time":122000000000,"state":"active","ping":64},{"user_id":602,"name":"ey","steam_id":76561198413116920,"connected_time":7675000000000,"state":"active","ping":75},{"user_id":709,"name":"calebisjk","steam_id":76561198380010286,"connected_time":2367000000000,"state":"active","ping":55},{"user_id":720,"name":"Likes","steam_id":76561198012769267,"connected_time":1126000000000,"state":"active","ping":77},{"user_id":706,"name":"Reji [Ü]","steam_id":76561198152273360,"connected_time":3147000000000,"state":"active","ping":130},{"user_id":573,"name":"쿠키","steam_id":76561197997220367,"connected_time":8281000000000,"state":"active","ping":55},{"user_id":710,"name":"Talkk More","steam_id":76561198305424433,"connected_time":2232000000000,"state":"active","ping":76},{"user_id":721,"name":"nick","steam_id":76561198400698408,"connected_time":1069000000000,"state":"active","ping":91},{"user_id":722,"name":"Ratboi7Street","steam_id":76561199222913157,"connected_time":1049000000000,"state":"active","ping":77},{"user_id":699,"name":"Kurtie","steam_id":76561198144737876,"connected_time":3429000000000,"state":"active","ping":68},{"user_id":714,"name":"one of the players","steam_id":76561198442507642,"connected_time":1766000000000,"state":"active","ping":88},{"user_id":730,"name":"8091573212","steam_id":76561198968776439,"connected_time":423000000000,"state":"active","ping":79},{"user_id":704,"name":"Steve","steam_id":76561198429235506,"connected_time":3193000000000,"state":"active","ping":74},{"user_id":531,"name":"Vortex Morez","steam_id":76561198833527091,"connected_time":10855000000000,"state":"active","ping":101},{"user_id":726,"name":"ccripplegamigng blw.tf","steam_id":76561199224830107,"connected_time":905000000000,"state":"active","ping":130},{"user_id":564,"name":"sloth of the fragment clan","steam_id":76561198214192048,"connected_time":9136000000000,"state":"active","ping":103},{"user_id":679,"name":"\"SKS\"","steam_id":76561198187995386,"connected_time":3868000000000,"state":"active","ping":87},{"user_id":708,"name":"Waltuh (CEO of Chicanery)","steam_id":76561199257300024,"connected_time":2985000000000,"state":"active","ping":73},{"user_id":702,"name":"17","steam_id":76561198241530712,"connected_time":3394000000000,"state":"active","ping":59},{"user_id":625,"name":"let cook","steam_id":76561198055553140,"connected_time":5809000000000,"state":"active","ping":77},{"user_id":728,"name":"Marika","steam_id":76561198212649929,"connected_time":671000000000,"state":"active","ping":73},{"user_id":613,"name":"AmaiToxic","steam_id":76561199122491157,"connected_time":6676000000000,"state":"active","ping":129}]},{"server_id":1,"name":"Uncletopia | Los Angeles | 1 | All Maps","name_short":"lax-1","host":"lax-1.us.uncletopia.com","port":27015,"enabled":true,"region":"us-west","cc":"us","latitude":33.94279,"longitude":-118.41004,"reserved":0,"last_update":"0001-01-01T00:00:00Z","name_a2s":"Uncletopia | Los Angeles | 1 | All Maps","protocol":17,"map":"cp_snakewater_final1","folder":"tf","game":"Team Fortress","app_id":440,"player_count":0,"max_players":24,"Bots":0,"server_type":"Dedicated","server_os":"Linux","password":true,"vac":true,"version":"7757534","steam_id":85568392924469991,"keywords":["cp","nocrits","nodmgspread","uncletopia"],"game_id":440,"stv_port":27016,"stv_name":"Uncletopia | Los Angeles | 1 | All Maps | STV","players":null},{"server_id":112,"name":"Uncletopia | Los Angeles | 2 | All Maps","name_short":"lax-2","host":"lax-1.us.uncletopia.com","port":27025,"enabled":true,"region":"us-west","cc":"us","latitude":33.94279,"longitude":-118.41004,"reserved":0,"last_update":"0001-01-01T00:00:00Z","name_a2s":"Uncletopia | Los Angeles | 2 | All Maps","protocol":17,"map":"cp_mountainlab","folder":"tf","game":"Team Fortress","app_id":440,"player_count":0,"max_players":24,"Bots":0,"server_type":"Dedicated","server_os":"Linux","password":true,"vac":true,"version":"7757534","steam_id":85568392924469992,"keywords":["cp","nocrits","nodmgspread","uncletopia"],"game_id":440,"stv_port":27026,"stv_name":"Uncletopia | Los Angeles | 2 | All Maps | STV","players":null},{"server_id":324,"name":"Uncletopia | Los Angeles | 3 | All Maps","name_short":"lax-3","host":"lax-1.us.uncletopia.com","port":27035,"enabled":true,"region":"us-west","cc":"us","latitude":33.94279,"longitude":-118.41004,"reserved":0,"last_update":"0001-01-01T00:00:00Z","name_a2s":"Uncletopia | Los Angeles | 3 | All Maps","protocol":17,"map":"cp_snakewater_final1","folder":"tf","game":"Team Fortress","app_id":440,"player_count":0,"max_players":24,"Bots":0,"server_type":"Dedicated","server_os":"Linux","password":true,"vac":true,"version":"7757534","steam_id":85568392924510198,"keywords":["cp","nocrits","nodmgspread","uncletopia"],"game_id":440,"stv_port":27036,"stv_name":"Uncletopia | Los Angeles | 3 | All Maps | STV","players":null},{"server_id":25,"name":"Uncletopia | Los Angeles | 4 | Stopwatch Beta","name_short":"lax-4","host":"lax-1.us.uncletopia.com","port":27045,"enabled":true,"region":"us-west","cc":"us","latitude":33.94279,"longitude":-118.41004,"reserved":0,"last_update":"0001-01-01T00:00:00Z","name_a2s":"Uncletopia | Los Angeles | 4 | Stopwatch Beta","protocol":17,"map":"koth_viaduct","folder":"tf","game":"Team Fortress","app_id":440,"player_count":0,"max_players":24,"Bots":0,"server_type":"Dedicated","server_os":"Linux","password":true,"vac":true,"version":"7757534","steam_id":85568392924510199,"keywords":["cp","nocrits","nodmgspread","uncletopia"],"game_id":440,"stv_port":27046,"stv_name":"Uncletopia | Los Angeles | 4 | Stopwatch Beta | STV","players":null},{"server_id":11,"name":"Uncletopia | London | 1 | All Maps","name_short":"lon-1","host":"lon-1.uk.uncletopia.com","port":27015,"enabled":true,"region":"eu","cc":"gb","latitude":51.509865,"longitude":-0.118092,"reserved":0,"last_update":"0001-01-01T00:00:00Z","name_a2s":"Uncletopia | London | 1 | All Maps","protocol":17,"map":"pl_upward","folder":"tf","game":"Team Fortress","app_id":440,"player_count":24,"max_players":24,"Bots":0,"server_type":"Dedicated","server_os":"Linux","password":true,"vac":true,"version":"7757534","steam_id":85568392924367362,"keywords":["nocrits","nodmgspread","payload","uncletopia"],"game_id":440,"stv_port":27016,"stv_name":"Uncletopia | London | 1 | All Maps | STV","players":[{"user_id":151,"name":"john fortress","steam_id":76561198013237629,"connected_time":5757000000000,"state":"active","ping":99},{"user_id":162,"name":"Dominus..","steam_id":76561199065917088,"connected_time":4891000000000,"state":"active","ping":59},{"user_id":214,"name":"Kitten","steam_id":76561198019027657,"connected_time":996000000000,"state":"active","ping":81},{"user_id":156,"name":"Christmas Ham","steam_id":76561198119601623,"connected_time":5504000000000,"state":"active","ping":51},{"user_id":138,"name":"UltimateAura","steam_id":76561198338361324,"connected_time":6236000000000,"state":"active","ping":42},{"user_id":197,"name":"Bat in a thousand","steam_id":76561198320506848,"connected_time":2261000000000,"state":"active","ping":32},{"user_id":176,"name":"Gio'sMonkey","steam_id":76561198892432223,"connected_time":3084000000000,"state":"active","ping":102},{"user_id":177,"name":"Bob","steam_id":76561198211772015,"connected_time":3073000000000,"state":"active","ping":100},{"user_id":195,"name":"homeinvasion$","steam_id":76561199111905021,"connected_time":2310000000000,"state":"active","ping":114},{"user_id":217,"name":"Maurice","steam_id":76561198044045120,"connected_time":824000000000,"state":"active","ping":37},{"user_id":213,"name":"Gurr","steam_id":76561198802006368,"connected_time":996000000000,"state":"active","ping":72},{"user_id":220,"name":"COFFEE","steam_id":76561198869355986,"connected_time":163000000000,"state":"active","ping":83},{"user_id":219,"name":"EEEEEH","steam_id":76561198126717413,"connected_time":796000000000,"state":"active","ping":83},{"user_id":179,"name":"sexo","steam_id":76561199088284199,"connected_time":3060000000000,"state":"active","ping":66},{"user_id":221,"name":"archy","steam_id":76561198180596135,"connected_time":137000000000,"state":"active","ping":47},{"user_id":190,"name":"Kris","steam_id":76561198240638652,"connected_time":2712000000000,"state":"active","ping":45},{"user_id":208,"name":"I will pocket enemy spies","steam_id":76561198042774930,"connected_time":1603000000000,"state":"active","ping":67},{"user_id":215,"name":"Duke Fishlord","steam_id":76561198079928327,"connected_time":930000000000,"state":"active","ping":70},{"user_id":205,"name":"Rai_to","steam_id":76561199013720618,"connected_time":1773000000000,"state":"active","ping":91},{"user_id":157,"name":"gxoul","steam_id":76561199091006994,"connected_time":5469000000000,"state":"active","ping":88},{"user_id":200,"name":"LukeLeal","steam_id":76561198049822995,"connected_time":2163000000000,"state":"active","ping":177},{"user_id":203,"name":"Rasmusson [29th ID]","steam_id":76561198191451713,"connected_time":2092000000000,"state":"active","ping":99},{"user_id":171,"name":"MEDiUM","steam_id":76561198112328561,"connected_time":3846000000000,"state":"active","ping":85},{"user_id":174,"name":"Greenmaker","steam_id":76561198060466591,"connected_time":3121000000000,"state":"active","ping":93}]},{"server_id":114,"name":"Uncletopia | London | 2 | All Maps","name_short":"lon-2","host":"lon-1.uk.uncletopia.com","port":27025,"enabled":true,"region":"eu","cc":"gb","latitude":51.509865,"longitude":-0.118092,"reserved":0,"last_update":"0001-01-01T00:00:00Z","name_a2s":"Uncletopia | London | 2 | All Maps","protocol":17,"map":"pl_borneo","folder":"tf","game":"Team Fortress","app_id":440,"player_count":24,"max_players":24,"Bots":0,"server_type":"Dedicated","server_os":"Linux","password":true,"vac":true,"version":"7757534","steam_id":85568392924470941,"keywords":["nocrits","nodmgspread","payload","uncletopia"],"game_id":440,"stv_port":27026,"stv_name":"Uncletopia | London | 2 | All Maps | STV","players":[{"user_id":322,"name":"LOBZIK","steam_id":76561198114830120,"connected_time":6845000000000,"state":"active","ping":79},{"user_id":379,"name":"す LightFlight し","steam_id":76561198079007530,"connected_time":2080000000000,"state":"active","ping":54},{"user_id":391,"name":"Clamor_","steam_id":76561198104368295,"connected_time":1362000000000,"state":"active","ping":89},{"user_id":387,"name":"Joseph Stalin","steam_id":76561198033199746,"connected_time":1801000000000,"state":"active","ping":54},{"user_id":402,"name":"Carrot","steam_id":76561198119340863,"connected_time":270000000000,"state":"active","ping":41},{"user_id":324,"name":"S0LDaTo","steam_id":76561198269413360,"connected_time":6824000000000,"state":"active","ping":80},{"user_id":401,"name":"=PB=","steam_id":76561197999146612,"connected_time":407000000000,"state":"active","ping":41},{"user_id":384,"name":"Sippie","steam_id":76561198130393388,"connected_time":2027000000000,"state":"active","ping":64},{"user_id":326,"name":"Man O' Steel","steam_id":76561198108612758,"connected_time":6815000000000,"state":"active","ping":61},{"user_id":327,"name":"sv_MrGibbs","steam_id":76561198114071972,"connected_time":6813000000000,"state":"active","ping":43},{"user_id":374,"name":"AWP Bodyshot :) ❤","steam_id":76561198029928533,"connected_time":3224000000000,"state":"active","ping":60},{"user_id":348,"name":"Bulyto","steam_id":76561198043205202,"connected_time":5232000000000,"state":"active","ping":70},{"user_id":399,"name":"Grizz","steam_id":76561198171010107,"connected_time":559000000000,"state":"active","ping":58},{"user_id":404,"name":"[O\u0026O]YaboiDucki","steam_id":76561198195976589,"connected_time":1000000000,"state":"spawning","ping":70},{"user_id":378,"name":"DropShot","steam_id":76561198042476724,"connected_time":2314000000000,"state":"active","ping":81},{"user_id":400,"name":"Zerzark","steam_id":76561198070118903,"connected_time":559000000000,"state":"active","ping":55},{"user_id":392,"name":"Zetself","steam_id":76561198085251568,"connected_time":1216000000000,"state":"active","ping":57},{"user_id":330,"name":"Prinz Eugen","steam_id":76561198129154766,"connected_time":6791000000000,"state":"active","ping":63},{"user_id":277,"name":"Gaius","steam_id":76561198188174963,"connected_time":9030000000000,"state":"active","ping":45},{"user_id":403,"name":"Gjsöekakeurhdkfisgjchjateyvxsr","steam_id":76561198220571256,"connected_time":92000000000,"state":"active","ping":73},{"user_id":396,"name":"sigma","steam_id":76561198135746029,"connected_time":630000000000,"state":"active","ping":57},{"user_id":386,"name":"kryhu","steam_id":76561198293327713,"connected_time":1826000000000,"state":"active","ping":74},{"user_id":395,"name":"Záporák","steam_id":76561198207175503,"connected_time":643000000000,"state":"active","ping":68},{"user_id":389,"name":"S'all good, man","steam_id":76561198363882056,"connected_time":1653000000000,"state":"active","ping":59}]},{"server_id":320,"name":"Uncletopia | London | 3 | All Maps","name_short":"lon-3","host":"lon-1.uk.uncletopia.com","port":27035,"enabled":true,"region":"eu","cc":"gb","latitude":51.509865,"longitude":-0.118092,"reserved":0,"last_update":"0001-01-01T00:00:00Z","name_a2s":"Uncletopia | London | 3 | All Maps","protocol":17,"map":"pl_swiftwater_final1","folder":"tf","game":"Team Fortress","app_id":440,"player_count":24,"max_players":24,"Bots":0,"server_type":"Dedicated","server_os":"Linux","password":true,"vac":true,"version":"7757534","steam_id":85568392924510192,"keywords":["nocrits","nodmgspread","payload","uncletopia"],"game_id":440,"stv_port":27036,"stv_name":"Uncletopia | London | 3 | All Maps | STV","players":[{"user_id":75,"name":"Sauce™","steam_id":76561198155094400,"connected_time":1698000000000,"state":"active","ping":61},{"user_id":18,"name":"Yony","steam_id":76561199070569941,"connected_time":4520000000000,"state":"active","ping":70},{"user_id":62,"name":"a wheelbarrow (real)","steam_id":76561198220124617,"connected_time":3053000000000,"state":"active","ping":63},{"user_id":21,"name":"Parapluie","steam_id":76561197971640301,"connected_time":4449000000000,"state":"active","ping":42},{"user_id":74,"name":"Jappy","steam_id":76561198112444032,"connected_time":1771000000000,"state":"active","ping":42},{"user_id":77,"name":"PrivatePengu","steam_id":76561198100112667,"connected_time":1113000000000,"state":"active","ping":56},{"user_id":78,"name":"Lambda","steam_id":76561198108011349,"connected_time":1110000000000,"state":"active","ping":99},{"user_id":72,"name":"Ma͡xim͜us","steam_id":76561197970986094,"connected_time":1973000000000,"state":"active","ping":59},{"user_id":27,"name":"Stoneley","steam_id":76561199182443625,"connected_time":4156000000000,"state":"active","ping":59},{"user_id":95,"name":"whatever","steam_id":76561198095943461,"connected_time":167000000000,"state":"active","ping":70},{"user_id":96,"name":"Repays","steam_id":76561198082993000,"connected_time":0,"state":"connecting","ping":0},{"user_id":30,"name":"SupremeMug","steam_id":76561198267577251,"connected_time":4101000000000,"state":"active","ping":84},{"user_id":94,"name":"Hotgamerdad","steam_id":76561198085940613,"connected_time":378000000000,"state":"active","ping":61},{"user_id":92,"name":"preteen girl hardcore","steam_id":76561199065328117,"connected_time":741000000000,"state":"active","ping":74},{"user_id":93,"name":"Flame","steam_id":76561198068386087,"connected_time":484000000000,"state":"active","ping":67},{"user_id":69,"name":"video game enjoyer","steam_id":76561198045505082,"connected_time":2031000000000,"state":"active","ping":88},{"user_id":88,"name":"Dominixk","steam_id":76561198995512625,"connected_time":922000000000,"state":"active","ping":70},{"user_id":39,"name":"Cricket Girl!","steam_id":76561198838054669,"connected_time":4034000000000,"state":"active","ping":119},{"user_id":76,"name":"Hector","steam_id":76561198028618586,"connected_time":1374000000000,"state":"active","ping":63},{"user_id":67,"name":"yeldad","steam_id":76561198447264153,"connected_time":2203000000000,"state":"active","ping":122},{"user_id":86,"name":"After8","steam_id":76561198090750865,"connected_time":980000000000,"state":"active","ping":74},{"user_id":89,"name":"Shady_Platypus","steam_id":76561198254482486,"connected_time":909000000000,"state":"active","ping":64},{"user_id":91,"name":"MARCEL","steam_id":76561198083122029,"connected_time":819000000000,"state":"active","ping":82},{"user_id":73,"name":"StabbyKnife","steam_id":76561198094010004,"connected_time":1871000000000,"state":"active","ping":90}]},{"server_id":321,"name":"Uncletopia | London | 4 | All Maps","name_short":"lon-4","host":"lon-1.uk.uncletopia.com","port":27045,"enabled":true,"region":"eu","cc":"gb","latitude":51.509865,"longitude":-0.118092,"reserved":0,"last_update":"0001-01-01T00:00:00Z","name_a2s":"Uncletopia | London | 4 | All Maps","protocol":17,"map":"koth_cascade","folder":"tf","game":"Team Fortress","app_id":440,"player_count":24,"max_players":24,"Bots":0,"server_type":"Dedicated","server_os":"Linux","password":true,"vac":true,"version":"7757534","steam_id":85568392924510193,"keywords":["cp","nocrits","nodmgspread","uncletopia"],"game_id":440,"stv_port":27046,"stv_name":"Uncletopia | London | 4 | All Maps | STV","players":[{"user_id":37,"name":"beurgeur","steam_id":76561198872426314,"connected_time":872000000000,"state":"active","ping":37},{"user_id":26,"name":"Nomad994","steam_id":76561198051908201,"connected_time":1019000000000,"state":"active","ping":85},{"user_id":22,"name":"mt","steam_id":76561197961319303,"connected_time":1127000000000,"state":"active","ping":59},{"user_id":57,"name":"Burny Bob","steam_id":76561198073513081,"connected_time":486000000000,"state":"active","ping":61},{"user_id":56,"name":"sam-","steam_id":76561198013770973,"connected_time":547000000000,"state":"active","ping":71},{"user_id":29,"name":"Dedeil","steam_id":76561198254839532,"connected_time":966000000000,"state":"active","ping":53},{"user_id":51,"name":"Patafoin","steam_id":76561198142395913,"connected_time":697000000000,"state":"active","ping":68},{"user_id":32,"name":"Pingutaro","steam_id":76561198112803718,"connected_time":932000000000,"state":"active","ping":52},{"user_id":33,"name":"UptownFall","steam_id":76561198356707725,"connected_time":929000000000,"state":"active","ping":45},{"user_id":34,"name":"Zeko","steam_id":76561198876834737,"connected_time":928000000000,"state":"active","ping":220},{"user_id":35,"name":"Yung Pussy Baker","steam_id":76561198353865337,"connected_time":926000000000,"state":"active","ping":46},{"user_id":36,"name":"Explosive_kink","steam_id":76561198998702838,"connected_time":921000000000,"state":"active","ping":52},{"user_id":53,"name":"Neo Testament","steam_id":76561199049633351,"connected_time":661000000000,"state":"active","ping":80},{"user_id":40,"name":"⩩✞ _SneKerz ⩩✞","steam_id":76561198141259011,"connected_time":815000000000,"state":"active","ping":74},{"user_id":41,"name":"Toscorp","steam_id":76561198353760522,"connected_time":811000000000,"state":"active","ping":65},{"user_id":42,"name":"Just_Tommy","steam_id":76561199229233472,"connected_time":797000000000,"state":"active","ping":72},{"user_id":43,"name":"rat performance","steam_id":76561198065854668,"connected_time":791000000000,"state":"active","ping":49},{"user_id":55,"name":"El`Capitano Flex","steam_id":76561198061813730,"connected_time":587000000000,"state":"active","ping":69},{"user_id":45,"name":"Sirpiggy","steam_id":76561198294985303,"connected_time":768000000000,"state":"active","ping":159},{"user_id":59,"name":"nynon","steam_id":76561197998432126,"connected_time":344000000000,"state":"active","ping":98},{"user_id":47,"name":"mishka.*","steam_id":76561198040003628,"connected_time":757000000000,"state":"active","ping":76},{"user_id":58,"name":"entity with brain damage","steam_id":76561199042470246,"connected_time":386000000000,"state":"active","ping":65},{"user_id":50,"name":"the real lancer from deltarune","steam_id":76561199078505144,"connected_time":743000000000,"state":"active","ping":94},{"user_id":54,"name":"lolmurphyy","steam_id":76561198143068715,"connected_time":653000000000,"state":"active","ping":44}]},{"server_id":21,"name":"Uncletopia | London | 5 | All Maps","name_short":"lon-5","host":"lon-1.uk.uncletopia.com","port":27055,"enabled":true,"region":"eu","cc":"gb","latitude":51.509865,"longitude":-0.118092,"reserved":0,"last_update":"0001-01-01T00:00:00Z","name_a2s":"Uncletopia | London | 5 | All Maps","protocol":17,"map":"koth_harvest_final","folder":"tf","game":"Team Fortress","app_id":440,"player_count":23,"max_players":24,"Bots":0,"server_type":"Dedicated","server_os":"Linux","password":true,"vac":true,"version":"7757534","steam_id":85568392924742829,"keywords":["cp","nocrits","nodmgspread","uncletopia"],"game_id":440,"stv_port":27056,"stv_name":"Uncletopia | London | 5 | All Maps | STV","players":[{"user_id":233,"name":"Fat Pigeon","steam_id":76561198817940142,"connected_time":9829000000000,"state":"active","ping":46},{"user_id":407,"name":"Hetmanych","steam_id":76561198870926865,"connected_time":414000000000,"state":"active","ping":37},{"user_id":397,"name":"Fit Crow mark","steam_id":76561198309246388,"connected_time":811000000000,"state":"active","ping":58},{"user_id":400,"name":"Blacksheep","steam_id":76561198019621063,"connected_time":667000000000,"state":"active","ping":46},{"user_id":320,"name":"Innocent Bystander","steam_id":76561198259885007,"connected_time":3473000000000,"state":"active","ping":55},{"user_id":319,"name":"BierBuikBarry","steam_id":76561198345790498,"connected_time":3535000000000,"state":"active","ping":61},{"user_id":391,"name":"Dakeyras","steam_id":76561198057069564,"connected_time":835000000000,"state":"active","ping":103},{"user_id":403,"name":"ןsickoן⁧⁧ןmodeן","steam_id":76561198106904383,"connected_time":495000000000,"state":"active","ping":73},{"user_id":395,"name":"Johan","steam_id":76561197999517316,"connected_time":824000000000,"state":"active","ping":75},{"user_id":398,"name":"SolidSalt","steam_id":76561198334789026,"connected_time":811000000000,"state":"active","ping":43},{"user_id":409,"name":"Alum","steam_id":76561198160316443,"connected_time":186000000000,"state":"active","ping":66},{"user_id":345,"name":"FaceShackle","steam_id":76561198038371397,"connected_time":2550000000000,"state":"active","ping":50},{"user_id":331,"name":"L.M.","steam_id":76561198836754631,"connected_time":3101000000000,"state":"active","ping":45},{"user_id":405,"name":"Mi Manchi","steam_id":76561198171573129,"connected_time":481000000000,"state":"active","ping":74},{"user_id":372,"name":"Bonus","steam_id":76561198880666601,"connected_time":1211000000000,"state":"active","ping":39},{"user_id":323,"name":"Leszy","steam_id":76561198372172135,"connected_time":3389000000000,"state":"active","ping":71},{"user_id":203,"name":"_zipfile","steam_id":76561198066133808,"connected_time":11843000000000,"state":"active","ping":73},{"user_id":373,"name":"Max","steam_id":76561198029412126,"connected_time":1208000000000,"state":"active","ping":70},{"user_id":326,"name":"FJADL","steam_id":76561198237008214,"connected_time":3268000000000,"state":"active","ping":69},{"user_id":263,"name":"Flare","steam_id":76561198039098320,"connected_time":6672000000000,"state":"active","ping":59},{"user_id":249,"name":"X-tis","steam_id":76561198043837480,"connected_time":8282000000000,"state":"active","ping":68},{"user_id":380,"name":"Giovine Killjoy","steam_id":76561198059375315,"connected_time":1079000000000,"state":"active","ping":80},{"user_id":330,"name":"static","steam_id":76561198836825741,"connected_time":3161000000000,"state":"active","ping":45}]},{"server_id":22,"name":"Uncletopia | London | 6 | All Maps","name_short":"lon-6","host":"lon-1.uk.uncletopia.com","port":27065,"enabled":true,"region":"eu","cc":"gb","latitude":51.509865,"longitude":-0.118092,"reserved":0,"last_update":"0001-01-01T00:00:00Z","name_a2s":"Uncletopia | London | 6 | All Maps","protocol":17,"map":"pl_badwater","folder":"tf","game":"Team Fortress","app_id":440,"player_count":24,"max_players":24,"Bots":0,"server_type":"Dedicated","server_os":"Linux","password":true,"vac":true,"version":"7757534","steam_id":85568392924742830,"keywords":["nocrits","nodmgspread","payload","uncletopia"],"game_id":440,"stv_port":27066,"stv_name":"Uncletopia | London | 6 | All Maps | STV","players":[{"user_id":45,"name":"D4SBOT","steam_id":76561198313297337,"connected_time":911000000000,"state":"active","ping":90},{"user_id":48,"name":"lord-carlos","steam_id":76561198025150761,"connected_time":516000000000,"state":"active","ping":60},{"user_id":49,"name":"Futa Lover","steam_id":76561198056775795,"connected_time":512000000000,"state":"active","ping":236},{"user_id":43,"name":"zinzyk","steam_id":76561198128011822,"connected_time":1195000000000,"state":"active","ping":72},{"user_id":18,"name":"Ghilly","steam_id":76561198800993575,"connected_time":1945000000000,"state":"active","ping":45},{"user_id":19,"name":"butt","steam_id":76561199088579207,"connected_time":1933000000000,"state":"active","ping":164},{"user_id":20,"name":"lazoboy","steam_id":76561199074095198,"connected_time":1928000000000,"state":"active","ping":119},{"user_id":21,"name":"ChaserFogFi","steam_id":76561199119836596,"connected_time":1758000000000,"state":"active","ping":65},{"user_id":37,"name":"❖ RazzorBee","steam_id":76561198092493838,"connected_time":1393000000000,"state":"active","ping":111},{"user_id":23,"name":"Simoh The Swoob","steam_id":76561198058078322,"connected_time":1693000000000,"state":"active","ping":87},{"user_id":24,"name":"Miku","steam_id":76561198041717890,"connected_time":1663000000000,"state":"active","ping":91},{"user_id":25,"name":"lisivi","steam_id":76561198365503306,"connected_time":1650000000000,"state":"active","ping":58},{"user_id":26,"name":"Boerica","steam_id":76561198205616573,"connected_time":1581000000000,"state":"active","ping":59},{"user_id":42,"name":"ion","steam_id":76561198390406243,"connected_time":1300000000000,"state":"active","ping":123},{"user_id":36,"name":"vi","steam_id":76561198303147966,"connected_time":1432000000000,"state":"active","ping":45},{"user_id":29,"name":"isterkvarn","steam_id":76561198080064844,"connected_time":1556000000000,"state":"active","ping":77},{"user_id":30,"name":"R!not","steam_id":76561197986328786,"connected_time":1553000000000,"state":"active","ping":43},{"user_id":31,"name":"When Life gives you Lemons","steam_id":76561198318290663,"connected_time":1550000000000,"state":"active","ping":59},{"user_id":41,"name":"kallerannar","steam_id":76561199095701143,"connected_time":1321000000000,"state":"active","ping":81},{"user_id":38,"name":"『Dorarhim』","steam_id":76561198220232352,"connected_time":1377000000000,"state":"active","ping":46},{"user_id":34,"name":"DaddyVonEvil","steam_id":76561198079610355,"connected_time":1528000000000,"state":"active","ping":58},{"user_id":46,"name":"ttv/justgvbe","steam_id":76561199193230375,"connected_time":700000000000,"state":"active","ping":96},{"user_id":39,"name":"Haghehog","steam_id":76561198075729793,"connected_time":1357000000000,"state":"active","ping":130},{"user_id":40,"name":"Spoodie","steam_id":76561198981267180,"connected_time":1349000000000,"state":"active","ping":88}]},{"server_id":40,"name":"Uncletopia | London | 7 | No Payload","name_short":"lon-7","host":"lon-1.uk.uncletopia.com","port":27075,"enabled":true,"region":"eu","cc":"gb","latitude":51.509865,"longitude":-0.118092,"reserved":0,"last_update":"0001-01-01T00:00:00Z","name_a2s":"Uncletopia | London | 7 | No Payload","protocol":17,"map":"cp_dustbowl","folder":"tf","game":"Team Fortress","app_id":440,"player_count":19,"max_players":24,"Bots":0,"server_type":"Dedicated","server_os":"Linux","password":true,"vac":true,"version":"7757534","steam_id":85568392924964314,"keywords":["cp","nocrits","nodmgspread","uncletopia"],"game_id":440,"stv_port":27076,"stv_name":"Uncletopia | London | 7 | No Payload | STV","players":[{"user_id":260,"name":"ゆず potato bear","steam_id":76561198031286581,"connected_time":42000000000,"state":"active","ping":48},{"user_id":228,"name":"Seuzon","steam_id":76561198416448649,"connected_time":2717000000000,"state":"active","ping":78},{"user_id":243,"name":"The Rape Plan","steam_id":76561198826343966,"connected_time":1656000000000,"state":"active","ping":127},{"user_id":225,"name":"hellbound","steam_id":76561198160562773,"connected_time":2825000000000,"state":"active","ping":75},{"user_id":259,"name":"Schlumi","steam_id":76561197985385129,"connected_time":106000000000,"state":"active","ping":278},{"user_id":257,"name":"Egtu","steam_id":76561198013757235,"connected_time":623000000000,"state":"active","ping":70},{"user_id":227,"name":"astralscr","steam_id":76561199090360946,"connected_time":2743000000000,"state":"active","ping":56},{"user_id":212,"name":"Nin","steam_id":76561198227246584,"connected_time":3254000000000,"state":"active","ping":60},{"user_id":249,"name":"Allereinan","steam_id":76561198342239906,"connected_time":1192000000000,"state":"active","ping":96},{"user_id":241,"name":"Minimi","steam_id":76561198873850443,"connected_time":1688000000000,"state":"active","ping":45},{"user_id":258,"name":"Welder","steam_id":76561198355300561,"connected_time":258000000000,"state":"active","ping":63},{"user_id":240,"name":"Greencoffee","steam_id":76561198842090589,"connected_time":1699000000000,"state":"active","ping":65},{"user_id":235,"name":"the joy of recycling","steam_id":76561198138509827,"connected_time":2380000000000,"state":"active","ping":91},{"user_id":200,"name":"KarvaPerse","steam_id":76561198141907704,"connected_time":4052000000000,"state":"active","ping":116},{"user_id":236,"name":"mesoni","steam_id":76561199141290973,"connected_time":2365000000000,"state":"active","ping":92},{"user_id":252,"name":"Mayor Wank from Wanker Town","steam_id":76561197998253588,"connected_time":1144000000000,"state":"active","ping":54},{"user_id":242,"name":"Pinkchup","steam_id":76561198106802803,"connected_time":1683000000000,"state":"active","ping":76},{"user_id":232,"name":"htraB","steam_id":76561198043122677,"connected_time":2615000000000,"state":"active","ping":63},{"user_id":245,"name":"porridge","steam_id":76561198044585737,"connected_time":1642000000000,"state":"active","ping":45}]},{"server_id":41,"name":"Uncletopia | London | 8 | Community","name_short":"lon-8","host":"lon-1.uk.uncletopia.com","port":27085,"enabled":true,"region":"eu","cc":"gb","latitude":51.509865,"longitude":-0.118092,"reserved":0,"last_update":"0001-01-01T00:00:00Z","name_a2s":"Uncletopia | London | 8 | Community","protocol":17,"map":"workshop/pl_fifthcurve_rc1.ugc648227046","folder":"tf","game":"Team Fortress","app_id":440,"player_count":0,"max_players":24,"Bots":0,"server_type":"Dedicated","server_os":"Linux","password":true,"vac":true,"version":"7757534","steam_id":85568392924964315,"keywords":["nocrits","nodmgspread","payload","uncletopia"],"game_id":440,"stv_port":27086,"stv_name":"Uncletopia | London | 8 | Community | STV","players":null},{"server_id":300,"name":"Uncletopia | Montréal | 1 | All Maps","name_short":"mtl-1","host":"mtl-1.ca.uncletopia.com","port":27015,"enabled":true,"region":"us-east","cc":"ca","latitude":45.50889,"longitude":-73.56167,"reserved":0,"last_update":"0001-01-01T00:00:00Z","name_a2s":"Uncletopia | Montréal | 1 | All Maps","protocol":17,"map":"koth_cascade","folder":"tf","game":"Team Fortress","app_id":440,"player_count":0,"max_players":24,"Bots":0,"server_type":"Dedicated","server_os":"Linux","password":true,"vac":true,"version":"7757534","steam_id":85568392924500087,"keywords":["cp","nocrits","nodmgspread","uncletopia"],"game_id":440,"stv_port":27016,"stv_name":"Uncletopia | Montréal | 1 | All Maps | STV","players":null},{"server_id":301,"name":"Uncletopia | Montréal | 2 | All Maps","name_short":"mtl-2","host":"mtl-1.ca.uncletopia.com","port":27025,"enabled":true,"region":"us-east","cc":"ca","latitude":45.50889,"longitude":-73.56167,"reserved":0,"last_update":"0001-01-01T00:00:00Z","name_a2s":"Uncletopia | Montréal | 2 | All Maps","protocol":17,"map":"pl_borneo","folder":"tf","game":"Team Fortress","app_id":440,"player_count":0,"max_players":24,"Bots":0,"server_type":"Dedicated","server_os":"Linux","password":true,"vac":true,"version":"7757534","steam_id":85568392924500088,"keywords":["nocrits","nodmgspread","payload","uncletopia"],"game_id":440,"stv_port":27026,"stv_name":"Uncletopia | Montréal | 2 | All Maps | STV","players":null},{"server_id":302,"name":"Uncletopia | Montréal | 3 | All Maps","name_short":"mtl-3","host":"mtl-1.ca.uncletopia.com","port":27035,"enabled":true,"region":"us-east","cc":"ca","latitude":45.50889,"longitude":-73.56167,"reserved":0,"last_update":"0001-01-01T00:00:00Z","name_a2s":"Uncletopia | Montréal | 3 | All Maps","protocol":17,"map":"cp_sunshine","folder":"tf","game":"Team Fortress","app_id":440,"player_count":0,"max_players":24,"Bots":0,"server_type":"Dedicated","server_os":"Linux","password":true,"vac":true,"version":"7757534","steam_id":85568392924500089,"keywords":["cp","nocrits","nodmgspread","uncletopia"],"game_id":440,"stv_port":27036,"stv_name":"Uncletopia | Montréal | 3 | All Maps | STV","players":null},{"server_id":303,"name":"Uncletopia | Montréal | 4 | No Payload","name_short":"mtl-4","host":"mtl-1.ca.uncletopia.com","port":27045,"enabled":true,"region":"us-east","cc":"ca","latitude":45.50889,"longitude":-73.56167,"reserved":0,"last_update":"0001-01-01T00:00:00Z","name_a2s":"Uncletopia | Montréal | 4 | No Payload","protocol":17,"map":"koth_lakeside_final","folder":"tf","game":"Team Fortress","app_id":440,"player_count":0,"max_players":24,"Bots":0,"server_type":"Dedicated","server_os":"Linux","password":true,"vac":true,"version":"7757534","steam_id":85568392924500090,"keywords":["cp","nocrits","nodmgspread","uncletopia"],"game_id":440,"stv_port":27046,"stv_name":"Uncletopia | Montréal | 4 | No Payload | STV","players":null},{"server_id":13,"name":"Uncletopia | New York City | 1 | All Maps","name_short":"nyc-1","host":"nyc-1.us.uncletopia.com","port":27015,"enabled":true,"region":"us-east","cc":"us","latitude":40.73061,"longitude":-73.93524,"reserved":0,"last_update":"0001-01-01T00:00:00Z","name_a2s":"Uncletopia | New York City | 1 | All Maps","protocol":17,"map":"cp_altitude","folder":"tf","game":"Team Fortress","app_id":440,"player_count":0,"max_players":24,"Bots":0,"server_type":"Dedicated","server_os":"Linux","password":true,"vac":true,"version":"7757534","steam_id":85568392924469993,"keywords":["cp","nocrits","nodmgspread","uncletopia"],"game_id":440,"stv_port":27016,"stv_name":"Uncletopia | New York City | 1 | All Maps | STV","players":null},{"server_id":14,"name":"Uncletopia | New York City | 2 | All Maps","name_short":"nyc-2","host":"nyc-1.us.uncletopia.com","port":27025,"enabled":true,"region":"us-east","cc":"us","latitude":40.73061,"longitude":-73.93524,"reserved":0,"last_update":"0001-01-01T00:00:00Z","name_a2s":"Uncletopia | New York City | 2 | All Maps","protocol":17,"map":"koth_viaduct","folder":"tf","game":"Team Fortress","app_id":440,"player_count":0,"max_players":24,"Bots":0,"server_type":"Dedicated","server_os":"Linux","password":true,"vac":true,"version":"7757534","steam_id":85568392924469994,"keywords":["cp","nocrits","nodmgspread","uncletopia"],"game_id":440,"stv_port":27026,"stv_name":"Uncletopia | New York City | 2 | All Maps | STV","players":null},{"server_id":15,"name":"Uncletopia | New York City | 3 | Stopwatch Beta","name_short":"nyc-3","host":"nyc-1.us.uncletopia.com","port":27035,"enabled":true,"region":"us-east","cc":"us","latitude":40.73061,"longitude":-73.93524,"reserved":0,"last_update":"0001-01-01T00:00:00Z","name_a2s":"Uncletopia | New York City | 3 | Stopwatch Beta","protocol":17,"map":"koth_lakeside_final","folder":"tf","game":"Team Fortress","app_id":440,"player_count":0,"max_players":24,"Bots":0,"server_type":"Dedicated","server_os":"Linux","password":true,"vac":true,"version":"7757534","steam_id":85568392924742820,"keywords":["cp","nocrits","nodmgspread","uncletopia"],"game_id":440,"stv_port":27036,"stv_name":"Uncletopia | New York City | 3 | Stopwatch Beta | STV","players":null},{"server_id":16,"name":"Uncletopia | New York City | 4 | Community","name_short":"nyc-4","host":"nyc-1.us.uncletopia.com","port":27045,"enabled":true,"region":"us-east","cc":"us","latitude":40.73061,"longitude":-73.93524,"reserved":0,"last_update":"0001-01-01T00:00:00Z","name_a2s":"Uncletopia | New York City | 4 | Community","protocol":17,"map":"workshop/koth_bagel_rc5.ugc2514036946","folder":"tf","game":"Team Fortress","app_id":440,"player_count":0,"max_players":24,"Bots":0,"server_type":"Dedicated","server_os":"Linux","password":true,"vac":true,"version":"7757534","steam_id":85568392924742821,"keywords":["cp","nocrits","nodmgspread","uncletopia"],"game_id":440,"stv_port":27046,"stv_name":"Uncletopia | New York City | 4 | Community | STV","players":null},{"server_id":142,"name":"Uncletopia | São Paulo | 1 | All Maps","name_short":"sao-1","host":"sao-1.br.uncletopia.com","port":27015,"enabled":true,"region":"sa","cc":"br","latitude":-23.533773,"longitude":-46.62529,"reserved":0,"last_update":"0001-01-01T00:00:00Z","name_a2s":"Uncletopia | São Paulo | 1 | All Maps","protocol":17,"map":"pl_badwater","folder":"tf","game":"Team Fortress","app_id":440,"player_count":0,"max_players":24,"Bots":0,"server_type":"Dedicated","server_os":"Linux","password":true,"vac":true,"version":"7757534","steam_id":85568392924469996,"keywords":["nocrits","nodmgspread","payload","uncletopia"],"game_id":440,"stv_port":27016,"stv_name":"Uncletopia | São Paulo | 1 | All Maps | STV","players":null},{"server_id":143,"name":"Uncletopia | São Paulo | 2 | All Maps","name_short":"sao-2","host":"sao-2.br.uncletopia.com","port":27015,"enabled":true,"region":"sa","cc":"br","latitude":-23.533773,"longitude":-46.62529,"reserved":0,"last_update":"0001-01-01T00:00:00Z","name_a2s":"Uncletopia | São Paulo | 2 | All Maps","protocol":17,"map":"koth_cascade","folder":"tf","game":"Team Fortress","app_id":440,"player_count":0,"max_players":24,"Bots":0,"server_type":"Dedicated","server_os":"Linux","password":true,"vac":true,"version":"7757534","steam_id":85568392924485349,"keywords":["cp","nocrits","nodmgspread","uncletopia"],"game_id":440,"stv_port":27016,"stv_name":"Uncletopia | São Paulo | 2 | All Maps | STV","players":null},{"server_id":7,"name":"Uncletopia | Seattle | 1 | All Maps","name_short":"sea-1","host":"sea-1.us.uncletopia.com","port":27015,"enabled":true,"region":"us-west","cc":"us","latitude":47.608013,"longitude":-122.33517,"reserved":0,"last_update":"0001-01-01T00:00:00Z","name_a2s":"Uncletopia | Seattle | 1 | All Maps","protocol":17,"map":"pl_barnblitz","folder":"tf","game":"Team Fortress","app_id":440,"player_count":0,"max_players":24,"Bots":0,"server_type":"Dedicated","server_os":"Linux","password":true,"vac":true,"version":"7757534","steam_id":85568392924469997,"keywords":["nocrits","nodmgspread","payload","uncletopia"],"game_id":440,"stv_port":27016,"stv_name":"Uncletopia | Seattle | 1 | All Maps | STV","players":null},{"server_id":119,"name":"Uncletopia | Seattle | 2 | All Maps","name_short":"sea-2","host":"sea-1.us.uncletopia.com","port":27025,"enabled":true,"region":"us-west","cc":"us","latitude":47.608013,"longitude":-122.33517,"reserved":0,"last_update":"0001-01-01T00:00:00Z","name_a2s":"Uncletopia | Seattle | 2 | All Maps","protocol":17,"map":"cp_process_final","folder":"tf","game":"Team Fortress","app_id":440,"player_count":0,"max_players":24,"Bots":0,"server_type":"Dedicated","server_os":"Linux","password":true,"vac":true,"version":"7757534","steam_id":85568392924469998,"keywords":["cp","nocrits","nodmgspread","uncletopia"],"game_id":440,"stv_port":27026,"stv_name":"Uncletopia | Seattle | 2 | All Maps | STV","players":null},{"server_id":406,"name":"Uncletopia | Seattle | 3 | Stopwatch Beta","name_short":"sea-3","host":"sea-1.us.uncletopia.com","port":27035,"enabled":true,"region":"us-west","cc":"us","latitude":47.608013,"longitude":-122.33517,"reserved":0,"last_update":"0001-01-01T00:00:00Z","name_a2s":"Uncletopia | Seattle | 3 | Stopwatch Beta","protocol":17,"map":"cp_sunshine","folder":"tf","game":"Team Fortress","app_id":440,"player_count":0,"max_players":24,"Bots":0,"server_type":"Dedicated","server_os":"Linux","password":true,"vac":true,"version":"7757534","steam_id":85568392924515217,"keywords":["cp","nocrits","nodmgspread","uncletopia"],"game_id":440,"stv_port":27036,"stv_name":"Uncletopia | Seattle | 3 | Stopwatch Beta | STV","players":null},{"server_id":17,"name":"Uncletopia | San Francisco | 1 | All Maps","name_short":"sfo-1","host":"sfo-1.us.uncletopia.com","port":27015,"enabled":true,"region":"us-west","cc":"us","latitude":37.77397,"longitude":-122.4313,"reserved":0,"last_update":"0001-01-01T00:00:00Z","name_a2s":"Uncletopia | San Francisco | 1 | All Maps","protocol":17,"map":"pl_pier","folder":"tf","game":"Team Fortress","app_id":440,"player_count":0,"max_players":24,"Bots":0,"server_type":"Dedicated","server_os":"Linux","password":true,"vac":true,"version":"7757534","steam_id":85568392924469999,"keywords":["nocrits","nodmgspread","payload","uncletopia"],"game_id":440,"stv_port":27016,"stv_name":"Uncletopia | San Francisco | 1 | All Maps | STV","players":null},{"server_id":18,"name":"Uncletopia | San Francisco | 2 | All Maps","name_short":"sfo-2","host":"sfo-1.us.uncletopia.com","port":27025,"enabled":true,"region":"us-west","cc":"us","latitude":37.77397,"longitude":-122.4313,"reserved":0,"last_update":"0001-01-01T00:00:00Z","name_a2s":"Uncletopia | San Francisco | 2 | All Maps","protocol":17,"map":"cp_mountainlab","folder":"tf","game":"Team Fortress","app_id":440,"player_count":0,"max_players":24,"Bots":0,"server_type":"Dedicated","server_os":"Linux","password":true,"vac":true,"version":"7757534","steam_id":85568392924470000,"keywords":["cp","nocrits","nodmgspread","uncletopia"],"game_id":440,"stv_port":27026,"stv_name":"Uncletopia | San Francisco | 2 | All Maps | STV","players":null},{"server_id":19,"name":"Uncletopia | San Francisco | 3 | Stopwatch Beta","name_short":"sfo-3","host":"sfo-1.us.uncletopia.com","port":27035,"enabled":true,"region":"us-west","cc":"us","latitude":37.77397,"longitude":-122.4313,"reserved":0,"last_update":"0001-01-01T00:00:00Z","name_a2s":"Uncletopia | San Francisco | 3 | Stopwatch Beta","protocol":17,"map":"koth_viaduct","folder":"tf","game":"Team Fortress","app_id":440,"player_count":0,"max_players":24,"Bots":0,"server_type":"Dedicated","server_os":"Linux","password":true,"vac":true,"version":"7757534","steam_id":85568392924742824,"keywords":["cp","nocrits","nodmgspread","uncletopia"],"game_id":440,"stv_port":27036,"stv_name":"Uncletopia | San Francisco | 3 | Stopwatch Beta | STV","players":null},{"server_id":20,"name":"Uncletopia | San Francisco | 4 | Community","name_short":"sfo-4","host":"sfo-1.us.uncletopia.com","port":27045,"enabled":true,"region":"us-west","cc":"us","latitude":37.77397,"longitude":-122.4313,"reserved":0,"last_update":"0001-01-01T00:00:00Z","name_a2s":"Uncletopia | San Francisco | 4 | Community","protocol":17,"map":"workshop/pl_barnblitz_pro7.ugc582280235","folder":"tf","game":"Team Fortress","app_id":440,"player_count":24,"max_players":24,"Bots":0,"server_type":"Dedicated","server_os":"Linux","password":true,"vac":true,"version":"7757534","steam_id":85568392924742826,"keywords":["nocrits","nodmgspread","payload","uncletopia"],"game_id":440,"stv_port":27046,"stv_name":"Uncletopia | San Francisco | 4 | Community | STV","players":[{"user_id":51,"name":"Hydra","steam_id":76561198053290948,"connected_time":1158000000000,"state":"active","ping":84},{"user_id":42,"name":"Lily Thorn","steam_id":76561198305488625,"connected_time":2033000000000,"state":"active","ping":83},{"user_id":39,"name":"resh420","steam_id":76561198066619792,"connected_time":2145000000000,"state":"active","ping":77},{"user_id":46,"name":"urine trouble","steam_id":76561199013266640,"connected_time":1245000000000,"state":"active","ping":110},{"user_id":7,"name":"Laszlo","steam_id":76561198141198352,"connected_time":3189000000000,"state":"active","ping":92},{"user_id":21,"name":"gaming is for girls","steam_id":76561198240344950,"connected_time":3038000000000,"state":"active","ping":63},{"user_id":58,"name":"Fred","steam_id":76561197983870604,"connected_time":150000000000,"state":"active","ping":66},{"user_id":43,"name":"The Great Eagle Scourge of 1822","steam_id":76561198325086209,"connected_time":1705000000000,"state":"active","ping":63},{"user_id":52,"name":"GoofBall","steam_id":76561198047092585,"connected_time":1151000000000,"state":"active","ping":134},{"user_id":59,"name":"AlaNo","steam_id":76561198133099582,"connected_time":144000000000,"state":"active","ping":53},{"user_id":49,"name":"Large Charles","steam_id":76561197999663001,"connected_time":1211000000000,"state":"active","ping":70},{"user_id":56,"name":"Relatable (Local Pyro Learner)","steam_id":76561198441669772,"connected_time":836000000000,"state":"active","ping":132},{"user_id":16,"name":"D0VE","steam_id":76561198151618566,"connected_time":3151000000000,"state":"active","ping":73},{"user_id":31,"name":"healsluut935","steam_id":76561199235316419,"connected_time":2634000000000,"state":"active","ping":101},{"user_id":53,"name":"[Deep] ExorKing","steam_id":76561198089731303,"connected_time":1137000000000,"state":"active","ping":119},{"user_id":19,"name":"Dusk (little)","steam_id":76561198088681558,"connected_time":3080000000000,"state":"active","ping":64},{"user_id":40,"name":"CMDR Osowiec","steam_id":76561198267752855,"connected_time":2125000000000,"state":"active","ping":73},{"user_id":22,"name":"jimmyfortnite2014","steam_id":76561198987713830,"connected_time":3008000000000,"state":"active","ping":176},{"user_id":27,"name":"ender","steam_id":76561198092159728,"connected_time":2793000000000,"state":"active","ping":77},{"user_id":28,"name":"SuaveFrenchman","steam_id":76561198043762683,"connected_time":2764000000000,"state":"active","ping":45},{"user_id":57,"name":"T","steam_id":76561198065709361,"connected_time":639000000000,"state":"active","ping":70},{"user_id":35,"name":"Zetta","steam_id":76561198045710113,"connected_time":2536000000000,"state":"active","ping":84},{"user_id":36,"name":"stockhack","steam_id":76561198050220225,"connected_time":2404000000000,"state":"active","ping":119},{"user_id":41,"name":"The Gremlin","steam_id":76561198419066993,"connected_time":2082000000000,"state":"active","ping":85}]},{"server_id":141,"name":"Uncletopia | Sydney | 1 | All Maps","name_short":"syd-1","host":"syd-1.au.uncletopia.com","port":27015,"enabled":true,"region":"au","cc":"au","latitude":-33.865143,"longitude":151.2099,"reserved":0,"last_update":"0001-01-01T00:00:00Z","name_a2s":"Uncletopia | Sydney | 1 | All Maps","protocol":17,"map":"pl_frontier_final","folder":"tf","game":"Team Fortress","app_id":440,"player_count":0,"max_players":24,"Bots":0,"server_type":"Dedicated","server_os":"Linux","password":true,"vac":true,"version":"7757534","steam_id":85568392924470001,"keywords":["nocrits","nodmgspread","payload","uncletopia"],"game_id":440,"stv_port":27016,"stv_name":"Uncletopia | Sydney | 1 | All Maps | STV","players":null},{"server_id":123,"name":"Uncletopia | Sydney | 2 | All Maps","name_short":"syd-2","host":"syd-1.au.uncletopia.com","port":27025,"enabled":true,"region":"au","cc":"au","latitude":-33.865143,"longitude":151.2099,"reserved":0,"last_update":"0001-01-01T00:00:00Z","name_a2s":"Uncletopia | Sydney | 2 | All Maps","protocol":17,"map":"pl_upward","folder":"tf","game":"Team Fortress","app_id":440,"player_count":22,"max_players":24,"Bots":0,"server_type":"Dedicated","server_os":"Linux","password":true,"vac":true,"version":"7757534","steam_id":85568392924470002,"keywords":["nocrits","nodmgspread","payload","uncletopia"],"game_id":440,"stv_port":27026,"stv_name":"Uncletopia | Sydney | 2 | All Maps | STV","players":[{"user_id":447,"name":"Lincoln2603","steam_id":76561198170236666,"connected_time":6056000000000,"state":"active","ping":36},{"user_id":529,"name":"Stab Calloway","steam_id":76561198027827983,"connected_time":397000000000,"state":"active","ping":42},{"user_id":511,"name":"Saker","steam_id":76561198044795783,"connected_time":2133000000000,"state":"active","ping":49},{"user_id":533,"name":"zed","steam_id":76561198321373101,"connected_time":195000000000,"state":"active","ping":44},{"user_id":491,"name":"ChickenHatMan","steam_id":76561198119527347,"connected_time":3133000000000,"state":"active","ping":62},{"user_id":503,"name":"Donny","steam_id":76561198059389066,"connected_time":2478000000000,"state":"active","ping":81},{"user_id":534,"name":"e mom","steam_id":76561198046098016,"connected_time":134000000000,"state":"active","ping":32},{"user_id":457,"name":"Hardcase","steam_id":76561198124442611,"connected_time":4910000000000,"state":"active","ping":82},{"user_id":458,"name":"Hooray!","steam_id":76561198066726621,"connected_time":4883000000000,"state":"active","ping":53},{"user_id":538,"name":"TTG","steam_id":76561198398928715,"connected_time":42000000000,"state":"active","ping":51},{"user_id":477,"name":"Chevauchée","steam_id":76561198031293430,"connected_time":4448000000000,"state":"active","ping":89},{"user_id":459,"name":"old chunk of coal","steam_id":76561197990537324,"connected_time":4838000000000,"state":"active","ping":103},{"user_id":505,"name":"wackel","steam_id":76561198091003826,"connected_time":2442000000000,"state":"active","ping":59},{"user_id":532,"name":"Branko","steam_id":76561199262196710,"connected_time":309000000000,"state":"active","ping":35},{"user_id":462,"name":"aerO.","steam_id":76561197988828263,"connected_time":4826000000000,"state":"active","ping":66},{"user_id":512,"name":"Nanda","steam_id":76561198328483364,"connected_time":2030000000000,"state":"active","ping":152},{"user_id":507,"name":"Bumcat","steam_id":76561198184803962,"connected_time":2398000000000,"state":"active","ping":87},{"user_id":465,"name":"synthemesc","steam_id":76561198046712125,"connected_time":4803000000000,"state":"active","ping":69},{"user_id":497,"name":"Mr.Deathclaw","steam_id":76561198025419320,"connected_time":2710000000000,"state":"active","ping":45},{"user_id":536,"name":"Critstopher","steam_id":76561198009792846,"connected_time":111000000000,"state":"active","ping":45},{"user_id":537,"name":"ramunade_09","steam_id":76561199149076612,"connected_time":91000000000,"state":"active","ping":485},{"user_id":487,"name":"BuddhaNet","steam_id":76561198415157096,"connected_time":3276000000000,"state":"active","ping":63}]},{"server_id":395,"name":"Uncletopia | Sydney | 3 | All Maps","name_short":"syd-3","host":"syd-1.au.uncletopia.com","port":27035,"enabled":true,"region":"au","cc":"au","latitude":-33.865143,"longitude":151.2099,"reserved":0,"last_update":"0001-01-01T00:00:00Z","name_a2s":"Uncletopia | Sydney | 3 | All Maps","protocol":17,"map":"koth_viaduct","folder":"tf","game":"Team Fortress","app_id":440,"player_count":4,"max_players":24,"Bots":0,"server_type":"Dedicated","server_os":"Linux","password":true,"vac":true,"version":"7757534","steam_id":85568392925194467,"keywords":["cp","nocrits","nodmgspread","uncletopia"],"game_id":440,"stv_port":27036,"stv_name":"Uncletopia | Sydney | 3 | All Maps | STV","players":[{"user_id":72,"name":"hawkystormo","steam_id":76561198401001419,"connected_time":328000000000,"state":"active","ping":56},{"user_id":69,"name":"Birdman","steam_id":76561198004626561,"connected_time":2158000000000,"state":"active","ping":70},{"user_id":71,"name":"Putramandela","steam_id":76561199373932400,"connected_time":403000000000,"state":"active","ping":151},{"user_id":73,"name":"Roxas","steam_id":76561199352354433,"connected_time":80000000000,"state":"active","ping":179}]},{"server_id":396,"name":"Uncletopia | Sydney | 4 | All Maps","name_short":"syd-4","host":"syd-1.au.uncletopia.com","port":27045,"enabled":true,"region":"au","cc":"au","latitude":-33.865143,"longitude":151.2099,"reserved":0,"last_update":"0001-01-01T00:00:00Z","name_a2s":"Uncletopia | Sydney | 4 | All Maps","protocol":17,"map":"koth_highpass","folder":"tf","game":"Team Fortress","app_id":440,"player_count":0,"max_players":24,"Bots":0,"server_type":"Dedicated","server_os":"Linux","password":true,"vac":true,"version":"7757534","steam_id":85568392925397958,"keywords":["cp","nocrits","nodmgspread","uncletopia"],"game_id":440,"stv_port":27046,"stv_name":"Uncletopia | Sydney | 4 | All Maps | STV","players":null},{"server_id":58,"name":"Uncletopia | Sydney | 5 | Stopwatch Beta","name_short":"syd-5","host":"syd-1.au.uncletopia.com","port":27055,"enabled":true,"region":"au","cc":"au","latitude":-33.865143,"longitude":151.2099,"reserved":0,"last_update":"0001-01-01T00:00:00Z","name_a2s":"Uncletopia | Sydney | 5 | Stopwatch Beta","protocol":17,"map":"workshop/koth_ashville_final.ugc2130459942","folder":"tf","game":"Team Fortress","app_id":440,"player_count":0,"max_players":24,"Bots":0,"server_type":"Dedicated","server_os":"Linux","password":true,"vac":true,"version":"7757534","steam_id":85568392925397959,"keywords":["cp","nocrits","nodmgspread","uncletopia"],"game_id":440,"stv_port":27056,"stv_name":"Uncletopia | Sydney | 5 | Stopwatch Beta | STV","players":null},{"server_id":59,"name":"Uncletopia | Sydney | 6 | Community","name_short":"syd-6","host":"syd-1.au.uncletopia.com","port":27065,"enabled":true,"region":"au","cc":"au","latitude":-33.865143,"longitude":151.2099,"reserved":0,"last_update":"0001-01-01T00:00:00Z","name_a2s":"Uncletopia | Sydney | 6 | Community","protocol":17,"map":"workshop/koth_ashville_final.ugc2130459942","folder":"tf","game":"Team Fortress","app_id":440,"player_count":0,"max_players":24,"Bots":0,"server_type":"Dedicated","server_os":"Linux","password":true,"vac":true,"version":"7757534","steam_id":85568392925397960,"keywords":["cp","nocrits","nodmgspread","uncletopia"],"game_id":440,"stv_port":27066,"stv_name":"Uncletopia | Sydney | 6 | Community | STV","players":null},{"server_id":49,"name":"Uncletopia | Warsaw | 1 | All Maps","name_short":"waw-1","host":"waw-1.pl.uncletopia.com","port":27015,"enabled":true,"region":"eu","cc":"pl","latitude":52.2297,"longitude":21.017532,"reserved":0,"last_update":"0001-01-01T00:00:00Z","name_a2s":"","protocol":0,"map":"","folder":"","game":"","app_id":0,"player_count":0,"max_players":0,"Bots":0,"server_type":"","server_os":"","password":false,"vac":false,"version":"","steam_id":0,"keywords":null,"game_id":0,"stv_port":0,"stv_name":"","players":null},{"server_id":50,"name":"Uncletopia | Warsaw | 2 | All Maps","name_short":"waw-2","host":"waw-1.pl.uncletopia.com","port":27025,"enabled":true,"region":"eu","cc":"pl","latitude":52.2297,"longitude":21.017532,"reserved":0,"last_update":"0001-01-01T00:00:00Z","name_a2s":"Uncletopia | Warsaw | 2 | All Maps","protocol":17,"map":"cp_snakewater_final1","folder":"tf","game":"Team Fortress","app_id":440,"player_count":0,"max_players":24,"Bots":0,"server_type":"Dedicated","server_os":"Linux","password":true,"vac":true,"version":"7757534","steam_id":85568392925397851,"keywords":["cp","nocrits","nodmgspread","uncletopia"],"game_id":440,"stv_port":27026,"stv_name":"Uncletopia | Warsaw | 2 | All Maps | STV","players":null},{"server_id":51,"name":"Uncletopia | Warsaw | 3 | All Maps","name_short":"waw-3","host":"waw-1.pl.uncletopia.com","port":27035,"enabled":true,"region":"eu","cc":"pl","latitude":52.2297,"longitude":21.017532,"reserved":0,"last_update":"0001-01-01T00:00:00Z","name_a2s":"Uncletopia | Warsaw | 3 | All Maps","protocol":17,"map":"pl_barnblitz","folder":"tf","game":"Team Fortress","app_id":440,"player_count":0,"max_players":24,"Bots":0,"server_type":"Dedicated","server_os":"Linux","password":true,"vac":true,"version":"7757534","steam_id":85568392925397852,"keywords":["nocrits","nodmgspread","payload","uncletopia"],"game_id":440,"stv_port":27036,"stv_name":"Uncletopia | Warsaw | 3 | All Maps | STV","players":null},{"server_id":52,"name":"Uncletopia | Warsaw | 4 | All Maps","name_short":"waw-4","host":"waw-1.pl.uncletopia.com","port":27045,"enabled":true,"region":"eu","cc":"pl","latitude":52.2297,"longitude":21.017532,"reserved":0,"last_update":"0001-01-01T00:00:00Z","name_a2s":"Uncletopia | Warsaw | 4 | All Maps","protocol":17,"map":"pl_borneo","folder":"tf","game":"Team Fortress","app_id":440,"player_count":0,"max_players":24,"Bots":0,"server_type":"Dedicated","server_os":"Linux","password":true,"vac":true,"version":"7757534","steam_id":85568392925397853,"keywords":["nocrits","nodmgspread","payload","uncletopia"],"game_id":440,"stv_port":27046,"stv_name":"Uncletopia | Warsaw | 4 | All Maps | STV","players":null},{"server_id":53,"name":"Uncletopia | Warsaw | 5 | Stopwatch Beta","name_short":"waw-5","host":"waw-1.pl.uncletopia.com","port":27055,"enabled":true,"region":"eu","cc":"pl","latitude":52.2297,"longitude":21.017532,"reserved":0,"last_update":"0001-01-01T00:00:00Z","name_a2s":"Uncletopia | Warsaw | 5 | Stopwatch Beta","protocol":17,"map":"pl_upward","folder":"tf","game":"Team Fortress","app_id":440,"player_count":0,"max_players":24,"Bots":0,"server_type":"Dedicated","server_os":"Linux","password":true,"vac":true,"version":"7757534","steam_id":85568392925397854,"keywords":["nocrits","nodmgspread","payload","uncletopia"],"game_id":440,"stv_port":27056,"stv_name":"Uncletopia | Warsaw | 5 | Stopwatch Beta | STV","players":null},{"server_id":54,"name":"Uncletopia | Warsaw | 6 | Community","name_short":"waw-6","host":"waw-1.pl.uncletopia.com","port":27065,"enabled":true,"region":"eu","cc":"pl","latitude":52.2297,"longitude":21.017532,"reserved":0,"last_update":"0001-01-01T00:00:00Z","name_a2s":"Uncletopia | Warsaw | 6 | Community","protocol":17,"map":"workshop/koth_bagel_rc5.ugc2514036946","folder":"tf","game":"Team Fortress","app_id":440,"player_count":0,"max_players":24,"Bots":0,"server_type":"Dedicated","server_os":"Linux","password":true,"vac":true,"version":"7757534","steam_id":85568392925397856,"keywords":["cp","nocrits","nodmgspread","uncletopia"],"game_id":440,"stv_port":27066,"stv_name":"Uncletopia | Warsaw | 6 | Community | STV","players":null}]}