{"status":true,"message":"","result":[{"server_id":9,"name":"Uncletopia | Atlanta | 1 | All Maps","name_short":"atl-1","host":"atl-1.us.uncletopia.com","port":27015,"enabled":true,"region":"us-east","cc":"us","latitude":33.753746,"longitude":-84.38633,"reserved":0,"last_update":"0001-01-01T00:00:00Z","name_a2s":"Uncletopia | Atlanta | 1 | All Maps","protocol":17,"map":"pl_upward","folder":"tf","game":"Team Fortress","app_id":440,"player_count":0,"max_players":24,"Bots":0,"server_type":"Dedicated","server_os":"Linux","password":true,"vac":true,"version":"7723704","steam_id":85568392924469982,"keywords":["nocrits","nodmgspread","payload","uncletopia"],"game_id":440,"stv_port":27016,"stv_name":"Uncletopia | Atlanta | 1 | All Maps | STV","players":null},{"server_id":400,"name":"Uncletopia | Atlanta | 3 | All Maps","name_short":"atl-3","host":"atl-1.us.uncletopia.com","port":27035,"enabled":true,"region":"us-east","cc":"us","latitude":33.753746,"longitude":-84.38633,"reserved":0,"last_update":"0001-01-01T00:00:00Z","name_a2s":"Uncletopia | Atlanta | 3 | All Maps","protocol":17,"map":"cp_sunshine","folder":"tf","game":"Team Fortress","app_id":440,"player_count":0,"max_players":24,"Bots":0,"server_type":"Dedicated","server_os":"Linux","password":true,"vac":true,"version":"7723704","steam_id":85568392924515187,"keywords":["cp","nocrits","nodmgspread","uncletopia"],"game_id":440,"stv_port":27036,"stv_name":"Uncletopia | Atlanta | 3 | All Maps | STV","players":null},{"server_id":401,"name":"Uncletopia | Atlanta | 4 | No Payload","name_short":"atl-4","host":"atl-1.us.uncletopia.com","port":27045,"enabled":true,"region":"us-east","cc":"us","latitude":33.753746,"longitude":-84.38633,"reserved":0,"last_update":"0001-01-01T00:00:00Z","name_a2s":"Uncletopia | Atlanta | 4 | No Payload","protocol":17,"map":"cp_sunshine","folder":"tf","game":"Team Fortress","app_id":440,"player_count":0,"max_players":24,"Bots":0,"server_type":"Dedicated","server_os":"Linux","password":true,"vac":true,"version":"7723704","steam_id":85568392924515188,"keywords":["cp","nocrits","nodmgspread","uncletopia"],"game_id":440,"stv_port":27046,"stv_name":"Uncletopia | Atlanta | 4 | No Payload | STV","players":null},{"server_id":2,"name":"Uncletopia | Chicago | 1 | All Maps","name_short":"chi-1","host":"chi-1.us.uncletopia.com","port":27015,"enabled":true,"region":"us-central","cc":"us","latitude":41.881832,"longitude":-87.62318,"reserved":0,"last_update":"0001-01-01T00:00:00Z","name_a2s":"Uncletopia | Chicago | 1 | All Maps","protocol":17,"map":"pl_pier","folder":"tf","game":"Team Fortress","app_id":440,"player_count":16,"max_players":24,"Bots":0,"server_type":"Dedicated","server_os":"Linux","password":true,"vac":true,"version":"7723704","steam_id":85568392924469984,"keywords":["nocrits","nodmgspread","payload","uncletopia"],"game_id":440,"stv_port":27016,"stv_name":"Uncletopia | Chicago | 1 | All Maps | STV","players":[{"user_id":3,"name":"ÒwÓ","steam_id":76561197997304387,"connected_time":3154000000000,"state":"active","ping":59},{"user_id":4,"name":"Purple Minion","steam_id":76561199029189825,"connected_time":1945000000000,"state":"active","ping":62},{"user_id":5,"name":"Mooksie","steam_id":76561198073074064,"connected_time":1291000000000,"state":"active","ping":68},{"user_id":6,"name":"Regi","steam_id":76561198271508598,"connected_time":1255000000000,"state":"active","ping":54},{"user_id":7,"name":"Hallmark Christmas Movie","steam_id":76561198141041287,"connected_time":1058000000000,"state":"active","ping":88},{"user_id":8,"name":"bdkaine1","steam_id":76561198133545467,"connected_time":1033000000000,"state":"active","ping":61},{"user_id":9,"name":"Ranger Spade","steam_id":76561198134552955,"connected_time":1018000000000,"state":"active","ping":71},{"user_id":13,"name":"gogurt_slurper","steam_id":76561198799733662,"connected_time":547000000000,"state":"active","ping":70},{"user_id":11,"name":"Ungy","steam_id":76561198193609513,"connected_time":756000000000,"state":"active","ping":94},{"user_id":12,"name":"stale bread boi","steam_id":76561198879238698,"connected_time":596000000000,"state":"active","ping":70},{"user_id":18,"name":"DeltaTroopa","steam_id":76561197969922298,"connected_time":218000000000,"state":"active","ping":69},{"user_id":16,"name":"Sickmind33","steam_id":76561198036248611,"connected_time":492000000000,"state":"active","ping":53},{"user_id":19,"name":"Your Italian Grandma","steam_id":76561199393520372,"connected_time":210000000000,"state":"active","ping":77},{"user_id":20,"name":"dingus","steam_id":76561198190077399,"connected_time":174000000000,"state":"active","ping":57},{"user_id":21,"name":"Rice2MeetYou","steam_id":76561198025504965,"connected_time":13000000000,"state":"spawning","ping":60},{"user_id":22,"name":"Nolittle","steam_id":76561198239584280,"connected_time":13000000000,"state":"spawning","ping":118}]},{"server_id":106,"name":"Uncletopia | Chicago | 2 | All Maps","name_short":"chi-2","host":"chi-1.us.uncletopia.com","port":27025,"enabled":true,"region":"us-central","cc":"us","latitude":41.881832,"longitude":-87.62318,"reserved":0,"last_update":"0001-01-01T00:00:00Z","name_a2s":"Uncletopia | Chicago | 2 | All Maps","protocol":17,"map":"cp_mountainlab","folder":"tf","game":"Team Fortress","app_id":440,"player_count":0,"max_players":24,"Bots":0,"server_type":"Dedicated","server_os":"Linux","password":true,"vac":true,"version":"7723704","steam_id":85568392924469985,"keywords":["cp","nocrits","nodmgspread","uncletopia"],"game_id":440,"stv_port":27026,"stv_name":"Uncletopia | Chicago | 2 | All Maps | STV","players":null},{"server_id":402,"name":"Uncletopia | Chicago | 3 | All Maps","name_short":"chi-3","host":"chi-1.us.uncletopia.com","port":27035,"enabled":true,"region":"us-central","cc":"us","latitude":41.881832,"longitude":-87.62318,"reserved":0,"last_update":"0001-01-01T00:00:00Z","name_a2s":"Uncletopia | Chicago | 3 | All Maps","protocol":17,"map":"pl_snowycoast","folder":"tf","game":"Team Fortress","app_id":440,"player_count":0,"max_players":24,"Bots":0,"server_type":"Dedicated","server_os":"Linux","password":true,"vac":true,"version":"7723704","steam_id":85568392924515191,"keywords":["nocrits","nodmgspread","payload","uncletopia"],"game_id":440,"stv_port":27036,"stv_name":"Uncletopia | Chicago | 3 | All Maps | STV","players":null},{"server_id":403,"name":"Uncletopia | Chicago | 4 | All Maps","name_short":"chi-4","host":"chi-1.us.uncletopia.com","port":27045,"enabled":true,"region":"us-central","cc":"us","latitude":41.881832,"longitude":-87.62318,"reserved":0,"last_update":"0001-01-01T00:00:00Z","name_a2s":"Uncletopia | Chicago | 4 | All Maps","protocol":17,"map":"pl_borneo","folder":"tf","game":"Team Fortress","app_id":440,"player_count":24,"max_players":24,"Bots":0,"server_type":"Dedicated","server_os":"Linux","password":true,"vac":true,"version":"7723704","steam_id":85568392924515193,"keywords":["nocrits","nodmgspread","payload","uncletopia"],"game_id":440,"stv_port":27046,"stv_name":"Uncletopia | Chicago | 4 | All Maps | STV","players":[{"user_id":94,"name":"Von","steam_id":76561198279848751,"connected_time":498000000000,"state":"active","ping":80},{"user_id":80,"name":"Wilhelmktx","steam_id":76561198158102295,"connected_time":1950000000000,"state":"active","ping":45},{"user_id":37,"name":"็","steam_id":76561198039763676,"connected_time":5567000000000,"state":"active","ping":61},{"user_id":89,"name":"Myte","steam_id":76561198892604337,"connected_time":711000000000,"state":"active","ping":71},{"user_id":57,"name":"The Caretaker","steam_id":76561198125241411,"connected_time":4027000000000,"state":"active","ping":115},{"user_id":90,"name":"Henry Mitchell Cakebread","steam_id":76561198269073721,"connected_time":708000000000,"state":"active","ping":46},{"user_id":84,"name":"Detective Parks","steam_id":76561198153415500,"connected_time":1392000000000,"state":"active","ping":71},{"user_id":95,"name":"Mustafa","steam_id":76561198269260949,"connected_time":431000000000,"state":"active","ping":93},{"user_id":66,"name":"newboi (F2P)","steam_id":76561199273882768,"connected_time":3007000000000,"state":"active","ping":64},{"user_id":60,"name":"ansoonii","steam_id":76561198092494136,"connected_time":3882000000000,"state":"active","ping":66},{"user_id":83,"name":"Quentin","steam_id":76561198032941413,"connected_time":1441000000000,"state":"active","ping":66},{"user_id":92,"name":"steve from minecraft","steam_id":76561199095655318,"connected_time":683000000000,"state":"active","ping":86},{"user_id":93,"name":"upside down cat","steam_id":76561198028288349,"connected_time":680000000000,"state":"active","ping":84},{"user_id":87,"name":"serendipity","steam_id":76561198095087127,"connected_time":771000000000,"state":"active","ping":74},{"user_id":69,"name":"Jacasola","steam_id":76561198055460402,"connected_time":2780000000000,"state":"active","ping":99},{"user_id":65,"name":"ccog","steam_id":76561198009314845,"connected_time":3024000000000,"state":"active","ping":100},{"user_id":29,"name":"sprunk","steam_id":76561198061768122,"connected_time":5967000000000,"state":"active","ping":69},{"user_id":96,"name":"TacoDragon","steam_id":76561198215345581,"connected_time":425000000000,"state":"active","ping":150},{"user_id":32,"name":"Kangroe","steam_id":76561198346844814,"connected_time":5937000000000,"state":"active","ping":74},{"user_id":79,"name":"Sprinklingmydoughnut","steam_id":76561198168009092,"connected_time":2051000000000,"state":"active","ping":87},{"user_id":97,"name":"basil","steam_id":76561198075758026,"connected_time":318000000000,"state":"active","ping":93},{"user_id":85,"name":"UWBW","steam_id":76561198007524241,"connected_time":1338000000000,"state":"active","ping":62},{"user_id":86,"name":"dvora2088CZ","steam_id":76561198161633204,"connected_time":1316000000000,"state":"active","ping":166},{"user_id":88,"name":"a_person_159","steam_id":76561199024416326,"connected_time":771000000000,"state":"active","ping":60}]},{"server_id":36,"name":"Uncletopia | Chicago | 5 | All Maps","name_short":"chi-5","host":"chi-2.us.uncletopia.com","port":27015,"enabled":true,"region":"us-central","cc":"us","latitude":41.881832,"longitude":-87.62318,"reserved":0,"last_update":"0001-01-01T00:00:00Z","name_a2s":"Uncletopia | Chicago | 5 | All Maps","protocol":17,"map":"koth_cascade","folder":"tf","game":"Team Fortress","app_id":440,"player_count":0,"max_players":24,"Bots":0,"server_type":"Dedicated","server_os":"Linux","password":true,"vac":true,"version":"7723704","steam_id":85568392924866362,"keywords":["cp","nocrits","nodmgspread","uncletopia"],"game_id":440,"stv_port":27016,"stv_name":"Uncletopia | Chicago | 5 | All Maps | STV","players":null},{"server_id":37,"name":"Uncletopia | Chicago | 6 | All Maps","name_short":"chi-6","host":"chi-2.us.uncletopia.com","port":27025,"enabled":true,"region":"us-central","cc":"us","latitude":41.881832,"longitude":-87.62318,"reserved":0,"last_update":"0001-01-01T00:00:00Z","name_a2s":"Uncletopia | Chicago | 6 | All Maps","protocol":17,"map":"cp_altitude","folder":"tf","game":"Team Fortress","app_id":440,"player_count":0,"max_players":24,"Bots":0,"server_type":"Dedicated","server_os":"Linux","password":true,"vac":true,"version":"7723704","steam_id":85568392924866363,"keywords":["cp","nocrits","nodmgspread","uncletopia"],"game_id":440,"stv_port":27026,"stv_name":"Uncletopia | Chicago | 6 | All Maps | STV","players":null},{"server_id":38,"name":"Uncletopia | Chicago | 7 | Stopwatch (test)","name_short":"chi-7","host":"chi-2.us.uncletopia.com","port":27035,"enabled":true,"region":"us-central","cc":"us","latitude":41.881832,"longitude":-87.62318,"reserved":0,"last_update":"0001-01-01T00:00:00Z","name_a2s":"Uncletopia | Chicago | 7 | Stopwatch (test)","protocol":17,"map":"pl_upward","folder":"tf","game":"Team Fortress","app_id":440,"player_count":0,"max_players":24,"Bots":0,"server_type":"Dedicated","server_os":"Linux","password":true,"vac":true,"version":"7723704","steam_id":85568392924866364,"keywords":["nocrits","nodmgspread","payload","uncletopia"],"game_id":440,"stv_port":27036,"stv_name":"Uncletopia | Chicago | 7 | Stopwatch (test) | STV","players":null},{"server_id":39,"name":"Uncletopia | Chicago | 8 | Community","name_short":"chi-8","host":"chi-2.us.uncletopia.com","port":27045,"enabled":true,"region":"us-central","cc":"us","latitude":41.881832,"longitude":-87.62318,"reserved":0,"last_update":"0001-01-01T00:00:00Z","name_a2s":"Uncletopia | Chicago | 8 | Community","protocol":17,"map":"pl_frontier_final","folder":"tf","game":"Team Fortress","app_id":440,"player_count":0,"max_players":24,"Bots":0,"server_type":"Dedicated","server_os":"Linux","password":true,"vac":true,"version":"7723704","steam_id":85568392924866365,"keywords":["nocrits","nodmgspread","payload","uncletopia"],"game_id":440,"stv_port":27046,"stv_name":"Uncletopia | Chicago | 8 | Community | STV","players":null},{"server_id":8,"name":"Uncletopia | Dallas | 1 | All Maps","name_short":"dal-1","host":"dal-1.us.uncletopia.com","port":27015,"enabled":true,"region":"us-central","cc":"us","latitude":32.779167,"longitude":-96.80889,"reserved":0,"last_update":"0001-01-01T00:00:00Z","name_a2s":"Uncletopia | Dallas | 1 | All Maps","protocol":17,"map":"pl_swiftwater_final1","folder":"tf","game":"Team Fortress","app_id":440,"player_count":0,"max_players":24,"Bots":0,"server_type":"Dedicated","server_os":"Linux","password":true,"vac":true,"version":"7723704","steam_id":85568392924469986,"keywords":["nocrits","nodmgspread","payload","uncletopia"],"game_id":440,"stv_port":27016,"stv_name":"Uncletopia | Dallas | 1 | All Maps | STV","players":null},{"server_id":108,"name":"Uncletopia | Dallas | 2 | All Maps","name_short":"dal-2","host":"dal-1.us.uncletopia.com","port":27025,"enabled":true,"region":"us-central","cc":"us","latitude":32.779167,"longitude":-96.80889,"reserved":0,"last_update":"0001-01-01T00:00:00Z","name_a2s":"Uncletopia | Dallas | 2 | All Maps","protocol":17,"map":"cp_snakewater_final1","folder":"tf","game":"Team Fortress","app_id":440,"player_count":0,"max_players":24,"Bots":0,"server_type":"Dedicated","server_os":"Linux","password":true,"vac":true,"version":"7723704","steam_id":85568392924469988,"keywords":["cp","nocrits","nodmgspread","uncletopia"],"game_id":440,"stv_port":27026,"stv_name":"Uncletopia | Dallas | 2 | All Maps | STV","players":null},{"server_id":5,"name":"Uncletopia | Frankfurt | 1 | All Maps","name_short":"frk-1","host":"frk-1.de.uncletopia.com","port":27015,"enabled":true,"region":"eu","cc":"de","latitude":50.110924,"longitude":8.682127,"reserved":0,"last_update":"0001-01-01T00:00:00Z","name_a2s":"Uncletopia | Frankfurt | 1 | All Maps","protocol":17,"map":"pl_badwater","folder":"tf","game":"Team Fortress","app_id":440,"player_count":15,"max_players":24,"Bots":0,"server_type":"Dedicated","server_os":"Linux","password":true,"vac":true,"version":"7723704","steam_id":85568392924469989,"keywords":["nocrits","nodmgspread","payload","uncletopia"],"game_id":440,"stv_port":27016,"stv_name":"Uncletopia | Frankfurt | 1 | All Maps | STV","players":[{"user_id":17,"name":"Lunchables Mini Hotdogs","steam_id":76561198447700397,"connected_time":3942000000000,"state":"active","ping":52},{"user_id":50,"name":"XxSaturnxX ☞ﾟヮﾟ☞","steam_id":76561199074095198,"connected_time":31000000000,"state":"spawning","ping":125},{"user_id":28,"name":"a mild inconvenience","steam_id":76561199087055541,"connected_time":1442000000000,"state":"active","ping":101},{"user_id":46,"name":"anairat","steam_id":76561198863788240,"connected_time":226000000000,"state":"active","ping":78},{"user_id":23,"name":"Rabbit_Unknown12","steam_id":76561199229247163,"connected_time":2233000000000,"state":"active","ping":99},{"user_id":24,"name":"Luke SpyWalker","steam_id":76561198008643276,"connected_time":2204000000000,"state":"active","ping":59},{"user_id":48,"name":"Freecell4370","steam_id":76561198077483524,"connected_time":195000000000,"state":"active","ping":53},{"user_id":49,"name":"ViktorSVK","steam_id":76561198984379721,"connected_time":130000000000,"state":"active","ping":52},{"user_id":36,"name":"lacurio","steam_id":76561198059701776,"connected_time":519000000000,"state":"active","ping":53},{"user_id":40,"name":"Karsapaali","steam_id":76561198322322739,"connected_time":429000000000,"state":"active","ping":91},{"user_id":41,"name":"yasser","steam_id":76561198103973320,"connected_time":426000000000,"state":"active","ping":106},{"user_id":45,"name":"Pain in a Box","steam_id":76561197990777173,"connected_time":277000000000,"state":"active","ping":64},{"user_id":43,"name":"ThotDestroyer","steam_id":76561198097515734,"connected_time":347000000000,"state":"active","ping":57},{"user_id":44,"name":"Adm","steam_id":76561198851857522,"connected_time":325000000000,"state":"active","ping":58},{"user_id":47,"name":"Lukero","steam_id":76561198301594341,"connected_time":218000000000,"state":"active","ping":55}]},{"server_id":110,"name":"Uncletopia | Frankfurt | 2 | All Maps","name_short":"frk-2","host":"frk-1.de.uncletopia.com","port":27025,"enabled":true,"region":"eu","cc":"de","latitude":50.110924,"longitude":8.682127,"reserved":0,"last_update":"0001-01-01T00:00:00Z","name_a2s":"Uncletopia | Frankfurt | 2 | All Maps","protocol":17,"map":"pl_barnblitz","folder":"tf","game":"Team Fortress","app_id":440,"player_count":24,"max_players":24,"Bots":0,"server_type":"Dedicated","server_os":"Linux","password":true,"vac":true,"version":"7723704","steam_id":85568392924469990,"keywords":["nocrits","nodmgspread","payload","uncletopia"],"game_id":440,"stv_port":27026,"stv_name":"Uncletopia | Frankfurt | 2 | All Maps | STV","players":[{"user_id":241,"name":"rp2","steam_id":76561199011469281,"connected_time":85000000000,"state":"active","ping":65},{"user_id":227,"name":"cazador","steam_id":76561198123096922,"connected_time":683000000000,"state":"active","ping":97},{"user_id":206,"name":"johnskying2011","steam_id":76561198445810164,"connected_time":1186000000000,"state":"active","ping":66},{"user_id":212,"name":"Grim Reaper","steam_id":76561198440139041,"connected_time":893000000000,"state":"active","ping":62},{"user_id":235,"name":"DeleteTrickster","steam_id":76561198397120242,"connected_time":542000000000,"state":"active","ping":83},{"user_id":215,"name":"jorogumo","steam_id":76561198838277022,"connected_time":797000000000,"state":"active","ping":71},{"user_id":216,"name":"john fortress","steam_id":76561198202668788,"connected_time":783000000000,"state":"active","ping":61},{"user_id":240,"name":"Exxon","steam_id":76561198997885594,"connected_time":256000000000,"state":"active","ping":54},{"user_id":218,"name":"i5","steam_id":76561198212702751,"connected_time":761000000000,"state":"active","ping":80},{"user_id":219,"name":"Blue is ez","steam_id":76561198081239400,"connected_time":745000000000,"state":"active","ping":54},{"user_id":220,"name":"Deranged Rat","steam_id":76561198028759242,"connected_time":731000000000,"state":"active","ping":55},{"user_id":221,"name":"The Funny Cat-Heaby","steam_id":76561198439978112,"connected_time":713000000000,"state":"active","ping":103},{"user_id":222,"name":"Quaker Yotes","steam_id":76561198083068263,"connected_time":711000000000,"state":"active","ping":88},{"user_id":223,"name":"surferman29.a","steam_id":76561198358484218,"connected_time":709000000000,"state":"active","ping":90},{"user_id":225,"name":"azzy","steam_id":76561198061293740,"connected_time":698000000000,"state":"active","ping":88},{"user_id":226,"name":"Miles","steam_id":76561198044377714,"connected_time":689000000000,"state":"active","ping":68},{"user_id":183,"name":"Dolcelatte","steam_id":76561198038501770,"connected_time":2636000000000,"state":"active","ping":57},{"user_id":228,"name":"Venus⚢","steam_id":76561198018602969,"connected_time":682000000000,"state":"active","ping":74},{"user_id":229,"name":"Gobbin","steam_id":76561198404460220,"connected_time":674000000000,"state":"active","ping":80},{"user_id":198,"name":"A Jolly SlaughterHouse","steam_id":76561198396338904,"connected_time":1804000000000,"state":"active","ping":83},{"user_id":237,"name":"Bizon","steam_id":76561199012863275,"connected_time":469000000000,"state":"active","ping":75},{"user_id":234,"name":"fénix","steam_id":76561198083199151,"connected_time":554000000000,"state":"active","ping":60},{"user_id":236,"name":":3","steam_id":76561198117784431,"connected_time":537000000000,"state":"active","ping":79},{"user_id":238,"name":"Yelowchy","steam_id":76561198199416121,"connected_time":451000000000,"state":"active","ping":120}]},{"server_id":308,"name":"Uncletopia | Frankfurt | 3 | All Maps","name_short":"frk-3","host":"frk-1.de.uncletopia.com","port":27035,"enabled":true,"region":"eu","cc":"de","latitude":50.110924,"longitude":8.682127,"reserved":0,"last_update":"0001-01-01T00:00:00Z","name_a2s":"Uncletopia | Frankfurt | 3 | All Maps","protocol":17,"map":"cp_altitude","folder":"tf","game":"Team Fortress","app_id":440,"player_count":17,"max_players":24,"Bots":0,"server_type":"Dedicated","server_os":"Linux","password":true,"vac":true,"version":"7723704","steam_id":85568392924504274,"keywords":["cp","nocrits","nodmgspread","uncletopia"],"game_id":440,"stv_port":27036,"stv_name":"Uncletopia | Frankfurt | 3 | All Maps | STV","players":[{"user_id":151,"name":"Leibeigener","steam_id":76561199275478305,"connected_time":1270000000000,"state":"active","ping":45},{"user_id":162,"name":"DJ_Pommes","steam_id":76561198100620102,"connected_time":780000000000,"state":"active","ping":42},{"user_id":168,"name":"Mrpg","steam_id":76561198183722103,"connected_time":216000000000,"state":"active","ping":70},{"user_id":141,"name":"Mussolini","steam_id":76561198218384865,"connected_time":1796000000000,"state":"active","ping":85},{"user_id":174,"name":"Frustrated Femboy \u003ew\u003c","steam_id":76561199085624224,"connected_time":41000000000,"state":"active","ping":78},{"user_id":166,"name":"wickEd_","steam_id":76561198048068999,"connected_time":280000000000,"state":"active","ping":138},{"user_id":169,"name":"Red Heavy","steam_id":76561199075020247,"connected_time":213000000000,"state":"active","ping":61},{"user_id":134,"name":"Помощничек","steam_id":76561198066977580,"connected_time":2535000000000,"state":"active","ping":91},{"user_id":137,"name":"Viperense","steam_id":76561198036206811,"connected_time":2355000000000,"state":"active","ping":79},{"user_id":150,"name":"Jovy Kujoh","steam_id":76561198410598772,"connected_time":1288000000000,"state":"active","ping":45},{"user_id":170,"name":"Turbo Unge","steam_id":76561199067700855,"connected_time":209000000000,"state":"active","ping":118},{"user_id":172,"name":"Gooster","steam_id":76561198255311543,"connected_time":97000000000,"state":"active","ping":153},{"user_id":164,"name":"Hikikomori","steam_id":76561198092506991,"connected_time":633000000000,"state":"active","ping":95},{"user_id":173,"name":"Gromov","steam_id":76561198407644131,"connected_time":95000000000,"state":"active","ping":66},{"user_id":159,"name":"AdgaroS","steam_id":76561198969373800,"connected_time":810000000000,"state":"active","ping":64},{"user_id":102,"name":"Binky","steam_id":76561198116681081,"connected_time":4275000000000,"state":"active","ping":105},{"user_id":165,"name":"Devil hater","steam_id":76561198110470565,"connected_time":554000000000,"state":"active","ping":99}]},{"server_id":309,"name":"Uncletopia | Frankfurt | 4 | All Maps","name_short":"frk-4","host":"frk-1.de.uncletopia.com","port":27045,"enabled":true,"region":"eu","cc":"de","latitude":50.110924,"longitude":8.682127,"reserved":0,"last_update":"0001-01-01T00:00:00Z","name_a2s":"Uncletopia | Frankfurt | 4 | All Maps","protocol":17,"map":"cp_altitude","folder":"tf","game":"Team Fortress","app_id":440,"player_count":0,"max_players":24,"Bots":0,"server_type":"Dedicated","server_os":"Linux","password":true,"vac":true,"version":"7723704","steam_id":85568392924504275,"keywords":["cp","nocrits","nodmgspread","uncletopia"],"game_id":440,"stv_port":27046,"stv_name":"Uncletopia | Frankfurt | 4 | All Maps | STV","players":null},{"server_id":310,"name":"Uncletopia | Frankfurt | 5 | All Maps","name_short":"frk-5","host":"frk-1.de.uncletopia.com","port":27055,"enabled":true,"region":"eu","cc":"de","latitude":50.110924,"longitude":8.682127,"reserved":0,"last_update":"0001-01-01T00:00:00Z","name_a2s":"Uncletopia | Frankfurt | 5 | All Maps","protocol":17,"map":"pl_swiftwater_final1","folder":"tf","game":"Team Fortress","app_id":440,"player_count":21,"max_players":24,"Bots":0,"server_type":"Dedicated","server_os":"Linux","password":true,"vac":true,"version":"7723704","steam_id":85568392924504277,"keywords":["nocrits","nodmgspread","payload","uncletopia"],"game_id":440,"stv_port":27056,"stv_name":"Uncletopia | Frankfurt | 5 | All Maps | STV","players":[{"user_id":63,"name":"[1stBdC]SARG Quintal","steam_id":76561198171396362,"connected_time":34000000000,"state":"spawning","ping":112},{"user_id":42,"name":"Smissmin","steam_id":76561198005342133,"connected_time":853000000000,"state":"active","ping":58},{"user_id":59,"name":"DoobieDoo","steam_id":76561198120326248,"connected_time":637000000000,"state":"active","ping":118},{"user_id":56,"name":"LinGoat","steam_id":76561199011232468,"connected_time":743000000000,"state":"active","ping":35},{"user_id":24,"name":"don salieri on the marciapaisis","steam_id":76561198937657351,"connected_time":1227000000000,"state":"active","ping":85},{"user_id":17,"name":"Him","steam_id":76561198086400484,"connected_time":2176000000000,"state":"active","ping":58},{"user_id":25,"name":"F1-M","steam_id":76561198198409875,"connected_time":1203000000000,"state":"active","ping":121},{"user_id":26,"name":"sam-","steam_id":76561198013770973,"connected_time":1176000000000,"state":"active","ping":75},{"user_id":20,"name":"Joemamasaur","steam_id":76561198094430039,"connected_time":1883000000000,"state":"active","ping":64},{"user_id":21,"name":"xenomorphe29","steam_id":76561198254596983,"connected_time":1860000000000,"state":"active","ping":67},{"user_id":58,"name":"Varro_Sicarius","steam_id":76561198062130113,"connected_time":677000000000,"state":"active","ping":78},{"user_id":61,"name":"disposablesuperbread","steam_id":76561199074703607,"connected_time":309000000000,"state":"active","ping":63},{"user_id":62,"name":"Célério","steam_id":76561198088253576,"connected_time":182000000000,"state":"active","ping":51},{"user_id":32,"name":"HatManZ1","steam_id":76561199177173758,"connected_time":895000000000,"state":"active","ping":166},{"user_id":49,"name":"Fbafroguy","steam_id":76561199113010473,"connected_time":821000000000,"state":"active","ping":58},{"user_id":57,"name":"hushhx","steam_id":76561198216200092,"connected_time":735000000000,"state":"active","ping":63},{"user_id":35,"name":"Hot Beverage Enjoyer","steam_id":76561198060638325,"connected_time":873000000000,"state":"active","ping":42},{"user_id":44,"name":"Sniddies","steam_id":76561198208740557,"connected_time":846000000000,"state":"active","ping":49},{"user_id":46,"name":"massa","steam_id":76561198439516039,"connected_time":839000000000,"state":"active","ping":73},{"user_id":43,"name":"Ongestealth","steam_id":76561198044188720,"connected_time":850000000000,"state":"active","ping":60},{"user_id":40,"name":"adi","steam_id":76561199089289211,"connected_time":859000000000,"state":"active","ping":103}]},{"server_id":311,"name":"Uncletopia | Frankfurt | 6 | All Maps","name_short":"frk-6","host":"frk-1.de.uncletopia.com","port":27065,"enabled":true,"region":"eu","cc":"de","latitude":50.110924,"longitude":8.682127,"reserved":0,"last_update":"0001-01-01T00:00:00Z","name_a2s":"Uncletopia | Frankfurt | 6 | All Maps","protocol":17,"map":"koth_lakeside_final","folder":"tf","game":"Team Fortress","app_id":440,"player_count":2,"max_players":24,"Bots":0,"server_type":"Dedicated","server_os":"Linux","password":true,"vac":true,"version":"7723704","steam_id":85568392924504278,"keywords":["cp","nocrits","nodmgspread","uncletopia"],"game_id":440,"stv_port":27066,"stv_name":"Uncletopia | Frankfurt | 6 | All Maps | STV","players":[{"user_id":9,"name":"Oversecus","steam_id":76561198310494035,"connected_time":740000000000,"state":"active","ping":65},{"user_id":10,"name":"Birb","steam_id":76561198355901021,"connected_time":682000000000,"state":"active","ping":59}]},{"server_id":23,"name":"Uncletopia | Frankfurt | 7 | No Payload","name_short":"frk-7","host":"frk-1.de.uncletopia.com","port":27075,"enabled":true,"region":"eu","cc":"de","latitude":50.110924,"longitude":8.682127,"reserved":0,"last_update":"0001-01-01T00:00:00Z","name_a2s":"Uncletopia | Frankfurt | 7 | No Payload","protocol":17,"map":"ctf_doublecross","folder":"tf","game":"Team Fortress","app_id":440,"player_count":0,"max_players":24,"Bots":0,"server_type":"Dedicated","server_os":"Linux","password":true,"vac":true,"version":"7723704","steam_id":85568392924742827,"keywords":["ctf","nocrits","nodmgspread","uncletopia"],"game_id":440,"stv_port":27076,"stv_name":"Uncletopia | Frankfurt | 7 | No Payload | STV","players":null},{"server_id":24,"name":"Uncletopia | Frankfurt | 8 | Community","name_short":"frk-8","host":"frk-1.de.uncletopia.com","port":27085,"enabled":true,"region":"eu","cc":"de","latitude":50.110924,"longitude":8.682127,"reserved":0,"last_update":"0001-01-01T00:00:00Z","name_a2s":"Uncletopia | Frankfurt | 8 | Community","protocol":17,"map":"workshop/koth_slaughter_rc1.ugc1712845210","folder":"tf","game":"Team Fortress","app_id":440,"player_count":0,"max_players":24,"Bots":0,"server_type":"Dedicated","server_os":"Linux","password":true,"vac":true,"version":"7723704","steam_id":85568392924742828,"keywords":["cp","nocrits","nodmgspread","uncletopia"],"game_id":440,"stv_port":27086,"stv_name":"Uncletopia | Frankfurt | 8 | Community | STV","players":null},{"server_id":202,"name":"Uncletopia | Hong Kong | 1 | All Maps","name_short":"hgk-1","host":"hgk-1.hk.uncletopia.com","port":27015,"enabled":true,"region":"asia","cc":"hk","latitude":22.302711,"longitude":114.177216,"reserved":0,"last_update":"0001-01-01T00:00:00Z","name_a2s":"Uncletopia | Hong Kong | 1 | All Maps","protocol":17,"map":"cp_dustbowl","folder":"tf","game":"Team Fortress","app_id":440,"player_count":24,"max_players":24,"Bots":0,"server_type":"Dedicated","server_os":"Linux","password":true,"vac":true,"version":"7723704","steam_id":85568392924494504,"keywords":["cp","nocrits","nodmgspread","uncletopia"],"game_id":440,"stv_port":27016,"stv_name":"Uncletopia | Hong Kong | 1 | All Maps | STV","players":[{"user_id":424,"name":"blue mountain coffee","steam_id":76561198823374287,"connected_time":1719000000000,"state":"active","ping":70},{"user_id":389,"name":"it chrmis time","steam_id":76561198055553140,"connected_time":5650000000000,"state":"active","ping":75},{"user_id":440,"name":"araner","steam_id":76561199012678702,"connected_time":451000000000,"state":"active","ping":79},{"user_id":432,"name":"Sev","steam_id":76561198864660173,"connected_time":1676000000000,"state":"active","ping":107},{"user_id":437,"name":"IDontLaunder","steam_id":76561199103223706,"connected_time":1419000000000,"state":"active","ping":177},{"user_id":395,"name":"yhn","steam_id":76561198413116920,"connected_time":5135000000000,"state":"active","ping":86},{"user_id":439,"name":"Talkk More","steam_id":76561198305424433,"connected_time":548000000000,"state":"active","ping":100},{"user_id":426,"name":"bookman","steam_id":76561198989168133,"connected_time":1710000000000,"state":"active","ping":86},{"user_id":429,"name":"V","steam_id":76561198261975237,"connected_time":1706000000000,"state":"active","ping":101},{"user_id":422,"name":"hotel","steam_id":76561198306834480,"connected_time":1739000000000,"state":"active","ping":75},{"user_id":400,"name":"hpeed","steam_id":76561198808595586,"connected_time":3791000000000,"state":"active","ping":78},{"user_id":414,"name":"Batbob","steam_id":76561198999413123,"connected_time":2522000000000,"state":"active","ping":63},{"user_id":436,"name":"aeross","steam_id":76561198834445483,"connected_time":1437000000000,"state":"active","ping":64},{"user_id":434,"name":"Pillboi","steam_id":76561198011172886,"connected_time":1615000000000,"state":"active","ping":42},{"user_id":401,"name":"Cheesey","steam_id":76561198975684137,"connected_time":3735000000000,"state":"active","ping":84},{"user_id":409,"name":"nick","steam_id":76561198400698408,"connected_time":2745000000000,"state":"active","ping":91},{"user_id":337,"name":"Nimbus","steam_id":76561198877713016,"connected_time":9572000000000,"state":"active","ping":90},{"user_id":430,"name":"Bertengkar","steam_id":76561198213031155,"connected_time":1705000000000,"state":"active","ping":96},{"user_id":369,"name":"Banana Milk","steam_id":76561198005156257,"connected_time":6978000000000,"state":"active","ping":125},{"user_id":404,"name":"マグナス","steam_id":76561198208990721,"connected_time":3363000000000,"state":"active","ping":80},{"user_id":376,"name":"Medi","steam_id":76561198447470800,"connected_time":5823000000000,"state":"active","ping":80},{"user_id":380,"name":"Buttman","steam_id":76561198044693388,"connected_time":5787000000000,"state":"active","ping":48},{"user_id":383,"name":"3wfFbdrjEze5d2G","steam_id":76561198435900451,"connected_time":5779000000000,"state":"active","ping":72},{"user_id":412,"name":"unchi","steam_id":76561197969873415,"connected_time":2627000000000,"state":"active","ping":102}]},{"server_id":1,"name":"Uncletopia | Los Angeles | 1 | All Maps","name_short":"lax-1","host":"lax-1.us.uncletopia.com","port":27015,"enabled":true,"region":"us-west","cc":"us","latitude":33.94279,"longitude":-118.41004,"reserved":0,"last_update":"0001-01-01T00:00:00Z","name_a2s":"Uncletopia | Los Angeles | 1 | All Maps","protocol":17,"map":"pl_swiftwater_final1","folder":"tf","game":"Team Fortress","app_id":440,"player_count":0,"max_players":24,"Bots":0,"server_type":"Dedicated","server_os":"Linux","password":true,"vac":true,"version":"7723704","steam_id":85568392924469991,"keywords":["nocrits","nodmgspread","payload","uncletopia"],"game_id":440,"stv_port":27016,"stv_name":"Uncletopia | Los Angeles | 1 | All Maps | STV","players":null},{"server_id":112,"name":"Uncletopia | Los Angeles | 2 | All Maps","name_short":"lax-2","host":"lax-1.us.uncletopia.com","port":27025,"enabled":true,"region":"us-west","cc":"us","latitude":33.94279,"longitude":-118.41004,"reserved":0,"last_update":"0001-01-01T00:00:00Z","name_a2s":"Uncletopia | Los Angeles | 2 | All Maps","protocol":17,"map":"pl_snowycoast","folder":"tf","game":"Team Fortress","app_id":440,"player_count":0,"max_players":24,"Bots":0,"server_type":"Dedicated","server_os":"Linux","password":true,"vac":true,"version":"7723704","steam_id":85568392924469992,"keywords":["nocrits","nodmgspread","payload","uncletopia"],"game_id":440,"stv_port":27026,"stv_name":"Uncletopia | Los Angeles | 2 | All Maps | STV","players":null},{"server_id":324,"name":"Uncletopia | Los Angeles | 3 | All Maps","name_short":"lax-3","host":"lax-1.us.uncletopia.com","port":27035,"enabled":true,"region":"us-west","cc":"us","latitude":33.94279,"longitude":-118.41004,"reserved":0,"last_update":"0001-01-01T00:00:00Z","name_a2s":"Uncletopia | Los Angeles | 3 | All Maps","protocol":17,"map":"koth_highpass","folder":"tf","game":"Team Fortress","app_id":440,"player_count":0,"max_players":24,"Bots":0,"server_type":"Dedicated","server_os":"Linux","password":true,"vac":true,"version":"7723704","steam_id":85568392924510198,"keywords":["cp","nocrits","nodmgspread","uncletopia"],"game_id":440,"stv_port":27036,"stv_name":"Uncletopia | Los Angeles | 3 | All Maps | STV","players":null},{"server_id":25,"name":"Uncletopia | Los Angeles | 4 | No Payload","name_short":"lax-4","host":"lax-1.us.uncletopia.com","port":27045,"enabled":true,"region":"us-west","cc":"us","latitude":33.94279,"longitude":-118.41004,"reserved":0,"last_update":"0001-01-01T00:00:00Z","name_a2s":"Uncletopia | Los Angeles | 4 | No Payload","protocol":17,"map":"cp_standin_final","folder":"tf","game":"Team Fortress","app_id":440,"player_count":0,"max_players":24,"Bots":0,"server_type":"Dedicated","server_os":"Linux","password":true,"vac":true,"version":"7723704","steam_id":85568392924510199,"keywords":["cp","nocrits","nodmgspread","uncletopia"],"game_id":440,"stv_port":27046,"stv_name":"Uncletopia | Los Angeles | 4 | No Payload | STV","players":null},{"server_id":11,"name":"Uncletopia | London | 1 | All Maps","name_short":"lon-1","host":"lon-1.uk.uncletopia.com","port":27015,"enabled":true,"region":"eu","cc":"gb","latitude":51.509865,"longitude":-0.118092,"reserved":0,"last_update":"0001-01-01T00:00:00Z","name_a2s":"Uncletopia | London | 1 | All Maps","protocol":17,"map":"pl_goldrush","folder":"tf","game":"Team Fortress","app_id":440,"player_count":23,"max_players":24,"Bots":0,"server_type":"Dedicated","server_os":"Linux","password":true,"vac":true,"version":"7723704","steam_id":85568392924367362,"keywords":["nocrits","nodmgspread","payload","uncletopia"],"game_id":440,"stv_port":27016,"stv_name":"Uncletopia | London | 1 | All Maps | STV","players":[{"user_id":92,"name":"Uncle Lame","steam_id":76561198089003514,"connected_time":220000000000,"state":"active","ping":51},{"user_id":14,"name":"Kyeel_Smeel","steam_id":76561199164471622,"connected_time":3679000000000,"state":"active","ping":64},{"user_id":93,"name":"Accident","steam_id":76561198115160396,"connected_time":177000000000,"state":"active","ping":72},{"user_id":54,"name":"♥ Cirno ♥","steam_id":76561198834982738,"connected_time":2241000000000,"state":"active","ping":60},{"user_id":81,"name":"mista white","steam_id":76561199387233667,"connected_time":960000000000,"state":"active","ping":39},{"user_id":19,"name":"Linakas","steam_id":76561198299757435,"connected_time":3381000000000,"state":"active","ping":78},{"user_id":87,"name":"Fred","steam_id":76561198107137362,"connected_time":741000000000,"state":"active","ping":47},{"user_id":66,"name":"Hermitcrack","steam_id":76561198149216441,"connected_time":1422000000000,"state":"active","ping":75},{"user_id":77,"name":"Piteras","steam_id":76561198858532207,"connected_time":1125000000000,"state":"active","ping":81},{"user_id":50,"name":"Rambi","steam_id":76561199058078505,"connected_time":2356000000000,"state":"active","ping":179},{"user_id":88,"name":"Dr. WAH","steam_id":76561198297778149,"connected_time":720000000000,"state":"active","ping":76},{"user_id":69,"name":"﷽","steam_id":76561198440978751,"connected_time":1343000000000,"state":"active","ping":101},{"user_id":85,"name":"Poodle","steam_id":76561198015483504,"connected_time":818000000000,"state":"active","ping":83},{"user_id":56,"name":"SpilledMilk","steam_id":76561198174123971,"connected_time":2203000000000,"state":"active","ping":60},{"user_id":94,"name":"inspecteurluci | FR","steam_id":76561199393612414,"connected_time":149000000000,"state":"active","ping":53},{"user_id":71,"name":"Hkitchen","steam_id":76561198194779526,"connected_time":1312000000000,"state":"active","ping":38},{"user_id":45,"name":"pl_plohajavoda","steam_id":76561198300211898,"connected_time":2643000000000,"state":"active","ping":95},{"user_id":95,"name":"Redmailbox","steam_id":76561198042930322,"connected_time":60000000000,"state":"active","ping":61},{"user_id":86,"name":"WrongFlyer","steam_id":76561198196657609,"connected_time":794000000000,"state":"active","ping":43},{"user_id":90,"name":"-rikeOo-","steam_id":76561198303995379,"connected_time":683000000000,"state":"active","ping":77},{"user_id":42,"name":"Ork","steam_id":76561197968575924,"connected_time":2768000000000,"state":"active","ping":52},{"user_id":82,"name":"Jeg","steam_id":76561198405291408,"connected_time":949000000000,"state":"active","ping":73},{"user_id":83,"name":"Vince","steam_id":76561199103000131,"connected_time":946000000000,"state":"active","ping":44}]},{"server_id":114,"name":"Uncletopia | London | 2 | All Maps","name_short":"lon-2","host":"lon-1.uk.uncletopia.com","port":27025,"enabled":true,"region":"eu","cc":"gb","latitude":51.509865,"longitude":-0.118092,"reserved":0,"last_update":"0001-01-01T00:00:00Z","name_a2s":"Uncletopia | London | 2 | All Maps","protocol":17,"map":"koth_highpass","folder":"tf","game":"Team Fortress","app_id":440,"player_count":0,"max_players":24,"Bots":0,"server_type":"Dedicated","server_os":"Linux","password":true,"vac":true,"version":"7723704","steam_id":85568392924470941,"keywords":["cp","nocrits","nodmgspread","uncletopia"],"game_id":440,"stv_port":27026,"stv_name":"Uncletopia | London | 2 | All Maps | STV","players":null},{"server_id":320,"name":"Uncletopia | London | 3 | All Maps","name_short":"lon-3","host":"lon-1.uk.uncletopia.com","port":27035,"enabled":true,"region":"eu","cc":"gb","latitude":51.509865,"longitude":-0.118092,"reserved":0,"last_update":"0001-01-01T00:00:00Z","name_a2s":"Uncletopia | London | 3 | All Maps","protocol":17,"map":"cp_snakewater_final1","folder":"tf","game":"Team Fortress","app_id":440,"player_count":23,"max_players":24,"Bots":0,"server_type":"Dedicated","server_os":"Linux","password":true,"vac":true,"version":"7723704","steam_id":85568392924510192,"keywords":["cp","nocrits","nodmgspread","uncletopia"],"game_id":440,"stv_port":27036,"stv_name":"Uncletopia | London | 3 | All Maps | STV","players":[{"user_id":65,"name":"WHUSSKEY","steam_id":76561198137827441,"connected_time":5425000000000,"state":"active","ping":70},{"user_id":123,"name":"1 month Big Earner challenge","steam_id":76561198799097492,"connected_time":1604000000000,"state":"active","ping":44},{"user_id":121,"name":"ＴrendyＬemon","steam_id":76561198158957324,"connected_time":2191000000000,"state":"active","ping":50},{"user_id":149,"name":"goofy goober","steam_id":76561198013237629,"connected_time":189000000000,"state":"active","ping":85},{"user_id":150,"name":"gatherer","steam_id":76561198378235611,"connected_time":113000000000,"state":"active","ping":82},{"user_id":111,"name":"kryhu","steam_id":76561198293327713,"connected_time":3024000000000,"state":"active","ping":77},{"user_id":138,"name":"Sandvich Gaming","steam_id":76561199079493666,"connected_time":770000000000,"state":"active","ping":84},{"user_id":124,"name":"Cobb Salads","steam_id":76561197971140507,"connected_time":1593000000000,"state":"active","ping":90},{"user_id":122,"name":"Kahvi","steam_id":76561198723244199,"connected_time":2131000000000,"state":"active","ping":76},{"user_id":142,"name":"LeG gui","steam_id":76561198299132346,"connected_time":505000000000,"state":"active","ping":47},{"user_id":81,"name":"jt7","steam_id":76561198073655162,"connected_time":4617000000000,"state":"active","ping":73},{"user_id":97,"name":"dorak","steam_id":76561198818037965,"connected_time":3298000000000,"state":"active","ping":105},{"user_id":151,"name":"恵みん","steam_id":76561198335087051,"connected_time":79000000000,"state":"spawning","ping":93},{"user_id":96,"name":"teona","steam_id":76561198008107656,"connected_time":3382000000000,"state":"active","ping":45},{"user_id":132,"name":"Pete Sandals","steam_id":76561198126710244,"connected_time":1240000000000,"state":"active","ping":52},{"user_id":152,"name":"Jugemu","steam_id":76561197998461069,"connected_time":72000000000,"state":"spawning","ping":319},{"user_id":147,"name":"jeff","steam_id":76561198272815746,"connected_time":259000000000,"state":"active","ping":53},{"user_id":148,"name":"Lag","steam_id":76561198159360376,"connected_time":257000000000,"state":"active","ping":50},{"user_id":134,"name":"♂ Dungeon Master ♂","steam_id":76561198106441033,"connected_time":1048000000000,"state":"active","ping":89},{"user_id":130,"name":"Virgil","steam_id":76561198248786778,"connected_time":1372000000000,"state":"active","ping":107},{"user_id":143,"name":"( ]KROAN[ )","steam_id":76561198022840710,"connected_time":465000000000,"state":"active","ping":82},{"user_id":153,"name":"Demodestroier","steam_id":76561198958081327,"connected_time":6000000000,"state":"spawning","ping":62},{"user_id":87,"name":"Ged","steam_id":76561198079288943,"connected_time":4431000000000,"state":"active","ping":130}]},{"server_id":321,"name":"Uncletopia | London | 4 | All Maps","name_short":"lon-4","host":"lon-1.uk.uncletopia.com","port":27045,"enabled":true,"region":"eu","cc":"gb","latitude":51.509865,"longitude":-0.118092,"reserved":0,"last_update":"0001-01-01T00:00:00Z","name_a2s":"Uncletopia | London | 4 | All Maps","protocol":17,"map":"koth_highpass","folder":"tf","game":"Team Fortress","app_id":440,"player_count":0,"max_players":24,"Bots":0,"server_type":"Dedicated","server_os":"Linux","password":true,"vac":true,"version":"7723704","steam_id":85568392924510193,"keywords":["cp","nocrits","nodmgspread","uncletopia"],"game_id":440,"stv_port":27046,"stv_name":"Uncletopia | London | 4 | All Maps | STV","players":null},{"server_id":21,"name":"Uncletopia | London | 5 | All Maps","name_short":"lon-5","host":"lon-1.uk.uncletopia.com","port":27055,"enabled":true,"region":"eu","cc":"gb","latitude":51.509865,"longitude":-0.118092,"reserved":0,"last_update":"0001-01-01T00:00:00Z","name_a2s":"Uncletopia | London | 5 | All Maps","protocol":17,"map":"koth_lakeside_final","folder":"tf","game":"Team Fortress","app_id":440,"player_count":0,"max_players":24,"Bots":0,"server_type":"Dedicated","server_os":"Linux","password":true,"vac":true,"version":"7723704","steam_id":85568392924742829,"keywords":["cp","nocrits","nodmgspread","uncletopia"],"game_id":440,"stv_port":27056,"stv_name":"Uncletopia | London | 5 | All Maps | STV","players":null},{"server_id":22,"name":"Uncletopia | London | 6 | All Maps","name_short":"lon-6","host":"lon-1.uk.uncletopia.com","port":27065,"enabled":true,"region":"eu","cc":"gb","latitude":51.509865,"longitude":-0.118092,"reserved":0,"last_update":"0001-01-01T00:00:00Z","name_a2s":"Uncletopia | London | 6 | All Maps","protocol":17,"map":"cp_altitude","folder":"tf","game":"Team Fortress","app_id":440,"player_count":0,"max_players":24,"Bots":0,"server_type":"Dedicated","server_os":"Linux","password":true,"vac":true,"version":"7723704","steam_id":85568392924742830,"keywords":["cp","nocrits","nodmgspread","uncletopia"],"game_id":440,"stv_port":27066,"stv_name":"Uncletopia | London | 6 | All Maps | STV","players":null},{"server_id":40,"name":"Uncletopia | London | 7 | No Payload","name_short":"lon-7","host":"lon-1.uk.uncletopia.com","port":27075,"enabled":true,"region":"eu","cc":"gb","latitude":51.509865,"longitude":-0.118092,"reserved":0,"last_update":"0001-01-01T00:00:00Z","name_a2s":"Uncletopia | London | 7 | No Payload","protocol":17,"map":"koth_cascade","folder":"tf","game":"Team Fortress","app_id":440,"player_count":0,"max_players":24,"Bots":0,"server_type":"Dedicated","server_os":"Linux","password":true,"vac":true,"version":"7723704","steam_id":85568392924964314,"keywords":["cp","nocrits","nodmgspread","uncletopia"],"game_id":440,"stv_port":27076,"stv_name":"Uncletopia | London | 7 | No Payload | STV","players":null},{"server_id":41,"name":"Uncletopia | London | 8 | Community","name_short":"lon-8","host":"lon-1.uk.uncletopia.com","port":27085,"enabled":true,"region":"eu","cc":"gb","latitude":51.509865,"longitude":-0.118092,"reserved":0,"last_update":"0001-01-01T00:00:00Z","name_a2s":"Uncletopia | London | 8 | Community","protocol":17,"map":"workshop/cp_villa_b19.ugc2113052569","folder":"tf","game":"Team Fortress","app_id":440,"player_count":0,"max_players":24,"Bots":0,"server_type":"Dedicated","server_os":"Linux","password":true,"vac":true,"version":"7723704","steam_id":85568392924964315,"keywords":["cp","nocrits","nodmgspread","uncletopia"],"game_id":440,"stv_port":27086,"stv_name":"Uncletopia | London | 8 | Community | STV","players":null},{"server_id":300,"name":"Uncletopia | Montréal | 1 | All Maps","name_short":"mtl-1","host":"mtl-1.ca.uncletopia.com","port":27015,"enabled":true,"region":"us-east","cc":"ca","latitude":45.50889,"longitude":-73.56167,"reserved":0,"last_update":"0001-01-01T00:00:00Z","name_a2s":"Uncletopia | Montréal | 1 | All Maps","protocol":17,"map":"pl_snowycoast","folder":"tf","game":"Team Fortress","app_id":440,"player_count":0,"max_players":24,"Bots":0,"server_type":"Dedicated","server_os":"Linux","password":true,"vac":true,"version":"7723704","steam_id":85568392924500087,"keywords":["nocrits","nodmgspread","payload","uncletopia"],"game_id":440,"stv_port":27016,"stv_name":"Uncletopia | Montréal | 1 | All Maps | STV","players":null},{"server_id":301,"name":"Uncletopia | Montréal | 2 | All Maps","name_short":"mtl-2","host":"mtl-1.ca.uncletopia.com","port":27025,"enabled":true,"region":"us-east","cc":"ca","latitude":45.50889,"longitude":-73.56167,"reserved":0,"last_update":"0001-01-01T00:00:00Z","name_a2s":"Uncletopia | Montréal | 2 | All Maps","protocol":17,"map":"cp_sunshine","folder":"tf","game":"Team Fortress","app_id":440,"player_count":0,"max_players":24,"Bots":0,"server_type":"Dedicated","server_os":"Linux","password":true,"vac":true,"version":"7723704","steam_id":85568392924500088,"keywords":["cp","nocrits","nodmgspread","uncletopia"],"game_id":440,"stv_port":27026,"stv_name":"Uncletopia | Montréal | 2 | All Maps | STV","players":null},{"server_id":302,"name":"Uncletopia | Montréal | 3 | All Maps","name_short":"mtl-3","host":"mtl-1.ca.uncletopia.com","port":27035,"enabled":true,"region":"us-east","cc":"ca","latitude":45.50889,"longitude":-73.56167,"reserved":0,"last_update":"0001-01-01T00:00:00Z","name_a2s":"Uncletopia | Montréal | 3 | All Maps","protocol":17,"map":"cp_dustbowl","folder":"tf","game":"Team Fortress","app_id":440,"player_count":0,"max_players":24,"Bots":0,"server_type":"Dedicated","server_os":"Linux","password":true,"vac":true,"version":"7723704","steam_id":85568392924500089,"keywords":["cp","nocrits","nodmgspread","uncletopia"],"game_id":440,"stv_port":27036,"stv_name":"Uncletopia | Montréal | 3 | All Maps | STV","players":null},{"server_id":303,"name":"Uncletopia | Montréal | 4 | No Payload","name_short":"mtl-4","host":"mtl-1.ca.uncletopia.com","port":27045,"enabled":true,"region":"us-east","cc":"ca","latitude":45.50889,"longitude":-73.56167,"reserved":0,"last_update":"0001-01-01T00:00:00Z","name_a2s":"Uncletopia | Montréal | 4 | No Payload","protocol":17,"map":"cp_process_final","folder":"tf","game":"Team Fortress","app_id":440,"player_count":0,"max_players":24,"Bots":0,"server_type":"Dedicated","server_os":"Linux","password":true,"vac":true,"version":"7723704","steam_id":85568392924500090,"keywords":["cp","nocrits","nodmgspread","uncletopia"],"game_id":440,"stv_port":27046,"stv_name":"Uncletopia | Montréal | 4 | No Payload | STV","players":null},{"server_id":13,"name":"Uncletopia | New York City | 1 | All Maps","name_short":"nyc-1","host":"nyc-1.us.uncletopia.com","port":27015,"enabled":true,"region":"us-east","cc":"us","latitude":40.73061,"longitude":-73.93524,"reserved":0,"last_update":"0001-01-01T00:00:00Z","name_a2s":"Uncletopia | New York City | 1 | All Maps","protocol":17,"map":"cp_snakewater_final1","folder":"tf","game":"Team Fortress","app_id":440,"player_count":0,"max_players":24,"Bots":0,"server_type":"Dedicated","server_os":"Linux","password":true,"vac":true,"version":"7723704","steam_id":85568392924469993,"keywords":["cp","nocrits","nodmgspread","uncletopia"],"game_id":440,"stv_port":27016,"stv_name":"Uncletopia | New York City | 1 | All Maps | STV","players":null},{"server_id":14,"name":"Uncletopia | New York City | 2 | All Maps","name_short":"nyc-2","host":"nyc-1.us.uncletopia.com","port":27025,"enabled":true,"region":"us-east","cc":"us","latitude":40.73061,"longitude":-73.93524,"reserved":0,"last_update":"0001-01-01T00:00:00Z","name_a2s":"Uncletopia | New York City | 2 | All Maps","protocol":17,"map":"cp_dustbowl","folder":"tf","game":"Team Fortress","app_id":440,"player_count":0,"max_players":24,"Bots":0,"server_type":"Dedicated","server_os":"Linux","password":true,"vac":true,"version":"7723704","steam_id":85568392924469994,"keywords":["cp","nocrits","nodmgspread","uncletopia"],"game_id":440,"stv_port":27026,"stv_name":"Uncletopia | New York City | 2 | All Maps | STV","players":null},{"server_id":15,"name":"Uncletopia | New York City | 3 | All Maps","name_short":"nyc-3","host":"nyc-1.us.uncletopia.com","port":27035,"enabled":true,"region":"us-east","cc":"us","latitude":40.73061,"longitude":-73.93524,"reserved":0,"last_update":"0001-01-01T00:00:00Z","name_a2s":"Uncletopia | New York City | 3 | All Maps","protocol":17,"map":"pl_frontier_final","folder":"tf","game":"Team Fortress","app_id":440,"player_count":0,"max_players":24,"Bots":0,"server_type":"Dedicated","server_os":"Linux","password":true,"vac":true,"version":"7723704","steam_id":85568392924742820,"keywords":["nocrits","nodmgspread","payload","uncletopia"],"game_id":440,"stv_port":27036,"stv_name":"Uncletopia | New York City | 3 | All Maps | STV","players":null},{"server_id":16,"name":"Uncletopia | New York City | 4 | Community","name_short":"nyc-4","host":"nyc-1.us.uncletopia.com","port":27045,"enabled":true,"region":"us-east","cc":"us","latitude":40.73061,"longitude":-73.93524,"reserved":0,"last_update":"0001-01-01T00:00:00Z","name_a2s":"Uncletopia | New York City | 4 | Community","protocol":17,"map":"cp_process_final","folder":"tf","game":"Team Fortress","app_id":440,"player_count":0,"max_players":24,"Bots":0,"server_type":"Dedicated","server_os":"Linux","password":true,"vac":true,"version":"7723704","steam_id":85568392924742821,"keywords":["cp","nocrits","nodmgspread","uncletopia"],"game_id":440,"stv_port":27046,"stv_name":"Uncletopia | New York City | 4 | Community | STV","players":null},{"server_id":142,"name":"Uncletopia | São Paulo | 1 | All Maps","name_short":"sao-1","host":"sao-1.br.uncletopia.com","port":27015,"enabled":true,"region":"sa","cc":"br","latitude":-23.533773,"longitude":-46.62529,"reserved":0,"last_update":"0001-01-01T00:00:00Z","name_a2s":"Uncletopia | São Paulo | 1 | All Maps","protocol":17,"map":"koth_cascade","folder":"tf","game":"Team Fortress","app_id":440,"player_count":0,"max_players":24,"Bots":0,"server_type":"Dedicated","server_os":"Linux","password":true,"vac":true,"version":"7723704","steam_id":85568392924469996,"keywords":["cp","nocrits","nodmgspread","uncletopia"],"game_id":440,"stv_port":27016,"stv_name":"Uncletopia | São Paulo | 1 | All Maps | STV","players":null},{"server_id":143,"name":"Uncletopia | São Paulo | 2 | All Maps","name_short":"sao-2","host":"sao-2.br.uncletopia.com","port":27015,"enabled":true,"region":"sa","cc":"br","latitude":-23.533773,"longitude":-46.62529,"reserved":0,"last_update":"0001-01-01T00:00:00Z","name_a2s":"Uncletopia | São Paulo | 2 | All Maps","protocol":17,"map":"pl_barnblitz","folder":"tf","game":"Team Fortress","app_id":440,"player_count":5,"max_players":24,"Bots":0,"server_type":"Dedicated","server_os":"Linux","password":true,"vac":true,"version":"7723704","steam_id":85568392924485349,"keywords":["nocrits","nodmgspread","payload","uncletopia"],"game_id":440,"stv_port":27016,"stv_name":"Uncletopia | São Paulo | 2 | All Maps | STV","players":[{"user_id":3,"name":"Vic Rattlehead","steam_id":76561199232899925,"connected_time":1481000000000,"state":"active","ping":54},{"user_id":4,"name":"Space bar ©","steam_id":76561199405318831,"connected_time":1114000000000,"state":"active","ping":203},{"user_id":5,"name":"❤nott❤","steam_id":76561198289358663,"connected_time":833000000000,"state":"active","ping":40},{"user_id":6,"name":"Blepy","steam_id":76561198199455773,"connected_time":628000000000,"state":"active","ping":75},{"user_id":7,"name":"CJAIME01345","steam_id":76561199091599141,"connected_time":489000000000,"state":"active","ping":85}]},{"server_id":7,"name":"Uncletopia | Seattle | 1 | All Maps","name_short":"sea-1","host":"sea-1.us.uncletopia.com","port":27015,"enabled":true,"region":"us-west","cc":"us","latitude":47.608013,"longitude":-122.33517,"reserved":0,"last_update":"0001-01-01T00:00:00Z","name_a2s":"Uncletopia | Seattle | 1 | All Maps","protocol":17,"map":"pl_snowycoast","folder":"tf","game":"Team Fortress","app_id":440,"player_count":0,"max_players":24,"Bots":0,"server_type":"Dedicated","server_os":"Linux","password":true,"vac":true,"version":"7723704","steam_id":85568392924469997,"keywords":["nocrits","nodmgspread","payload","uncletopia"],"game_id":440,"stv_port":27016,"stv_name":"Uncletopia | Seattle | 1 | All Maps | STV","players":null},{"server_id":119,"name":"Uncletopia | Seattle | 2 | All Maps","name_short":"sea-2","host":"sea-1.us.uncletopia.com","port":27025,"enabled":true,"region":"us-west","cc":"us","latitude":47.608013,"longitude":-122.33517,"reserved":0,"last_update":"0001-01-01T00:00:00Z","name_a2s":"Uncletopia | Seattle | 2 | All Maps","protocol":17,"map":"cp_mountainlab","folder":"tf","game":"Team Fortress","app_id":440,"player_count":0,"max_players":24,"Bots":0,"server_type":"Dedicated","server_os":"Linux","password":true,"vac":true,"version":"7723704","steam_id":85568392924469998,"keywords":["cp","nocrits","nodmgspread","uncletopia"],"game_id":440,"stv_port":27026,"stv_name":"Uncletopia | Seattle | 2 | All Maps | STV","players":null},{"server_id":17,"name":"Uncletopia | San Francisco | 1 | All Maps","name_short":"sfo-1","host":"sfo-1.us.uncletopia.com","port":27015,"enabled":true,"region":"us-west","cc":"us","latitude":37.77397,"longitude":-122.4313,"reserved":0,"last_update":"0001-01-01T00:00:00Z","name_a2s":"Uncletopia | San Francisco | 1 | All Maps","protocol":17,"map":"pl_swiftwater_final1","folder":"tf","game":"Team Fortress","app_id":440,"player_count":0,"max_players":24,"Bots":0,"server_type":"Dedicated","server_os":"Linux","password":true,"vac":true,"version":"7723704","steam_id":85568392924469999,"keywords":["nocrits","nodmgspread","payload","uncletopia"],"game_id":440,"stv_port":27016,"stv_name":"Uncletopia | San Francisco | 1 | All Maps | STV","players":null},{"server_id":18,"name":"Uncletopia | San Francisco | 2 | All Maps","name_short":"sfo-2","host":"sfo-1.us.uncletopia.com","port":27025,"enabled":true,"region":"us-west","cc":"us","latitude":37.77397,"longitude":-122.4313,"reserved":0,"last_update":"0001-01-01T00:00:00Z","name_a2s":"Uncletopia | San Francisco | 2 | All Maps","protocol":17,"map":"pl_snowycoast","folder":"tf","game":"Team Fortress","app_id":440,"player_count":0,"max_players":24,"Bots":0,"server_type":"Dedicated","server_os":"Linux","password":true,"vac":true,"version":"7723704","steam_id":85568392924470000,"keywords":["nocrits","nodmgspread","payload","uncletopia"],"game_id":440,"stv_port":27026,"stv_name":"Uncletopia | San Francisco | 2 | All Maps | STV","players":null},{"server_id":19,"name":"Uncletopia | San Francisco | 3 | No Payload","name_short":"sfo-3","host":"sfo-1.us.uncletopia.com","port":27035,"enabled":true,"region":"us-west","cc":"us","latitude":37.77397,"longitude":-122.4313,"reserved":0,"last_update":"0001-01-01T00:00:00Z","name_a2s":"Uncletopia | San Francisco | 3 | No Payload","protocol":17,"map":"plr_hightower","folder":"tf","game":"Team Fortress","app_id":440,"player_count":0,"max_players":24,"Bots":0,"server_type":"Dedicated","server_os":"Linux","password":true,"vac":true,"version":"7723704","steam_id":85568392924742824,"keywords":["nocrits","nodmgspread","payload","uncletopia"],"game_id":440,"stv_port":27036,"stv_name":"Uncletopia | San Francisco | 3 | No Payload | STV","players":null},{"server_id":20,"name":"Uncletopia | San Francisco | 4 | Community","name_short":"sfo-4","host":"sfo-1.us.uncletopia.com","port":27045,"enabled":true,"region":"us-west","cc":"us","latitude":37.77397,"longitude":-122.4313,"reserved":0,"last_update":"0001-01-01T00:00:00Z","name_a2s":"Uncletopia | San Francisco | 4 | Community","protocol":17,"map":"pl_frontier_final","folder":"tf","game":"Team Fortress","app_id":440,"player_count":0,"max_players":24,"Bots":0,"server_type":"Dedicated","server_os":"Linux","password":true,"vac":true,"version":"7723704","steam_id":85568392924742826,"keywords":["nocrits","nodmgspread","payload","uncletopia"],"game_id":440,"stv_port":27046,"stv_name":"Uncletopia | San Francisco | 4 | Community | STV","players":null},{"server_id":141,"name":"Uncletopia | Sydney | 1 | All Maps","name_short":"syd-1","host":"syd-1.au.uncletopia.com","port":27015,"enabled":true,"region":"au","cc":"au","latitude":-33.865143,"longitude":151.2099,"reserved":0,"last_update":"0001-01-01T00:00:00Z","name_a2s":"Uncletopia | Sydney | 1 | All Maps","protocol":17,"map":"cp_dustbowl","folder":"tf","game":"Team Fortress","app_id":440,"player_count":23,"max_players":24,"Bots":0,"server_type":"Dedicated","server_os":"Linux","password":true,"vac":true,"version":"7723704","steam_id":85568392924470001,"keywords":["cp","nocrits","nodmgspread","uncletopia"],"game_id":440,"stv_port":27016,"stv_name":"Uncletopia | Sydney | 1 | All Maps | STV","players":[{"user_id":457,"name":"jcoll444","steam_id":76561198143025380,"connected_time":996000000000,"state":"active","ping":54},{"user_id":418,"name":"Captain Canadia","steam_id":76561198167967735,"connected_time":3368000000000,"state":"active","ping":50},{"user_id":458,"name":"Jad","steam_id":76561198453862581,"connected_time":956000000000,"state":"active","ping":81},{"user_id":430,"name":"burfdae boi","steam_id":76561199000827969,"connected_time":2861000000000,"state":"active","ping":40},{"user_id":466,"name":"SlenderFox","steam_id":76561198044002401,"connected_time":714000000000,"state":"active","ping":57},{"user_id":453,"name":"Distracted Chibi","steam_id":76561198033546650,"connected_time":1229000000000,"state":"active","ping":38},{"user_id":477,"name":"JOBMATCH","steam_id":76561198044343775,"connected_time":105000000000,"state":"active","ping":38},{"user_id":445,"name":"rio","steam_id":76561198008646807,"connected_time":2208000000000,"state":"active","ping":89},{"user_id":288,"name":"Brett","steam_id":76561199061514656,"connected_time":14704000000000,"state":"active","ping":65},{"user_id":442,"name":"Soru","steam_id":76561198010844786,"connected_time":2251000000000,"state":"active","ping":60},{"user_id":449,"name":"Dr Rags","steam_id":76561198179481430,"connected_time":1865000000000,"state":"active","ping":104},{"user_id":474,"name":"La Brinth","steam_id":76561198086751156,"connected_time":553000000000,"state":"active","ping":58},{"user_id":456,"name":"Lateralus","steam_id":76561198007865860,"connected_time":1055000000000,"state":"active","ping":111},{"user_id":465,"name":"Psycho Pyro","steam_id":76561198062187870,"connected_time":726000000000,"state":"active","ping":45},{"user_id":461,"name":"Xristaveli","steam_id":76561198075149906,"connected_time":867000000000,"state":"active","ping":59},{"user_id":480,"name":"DR. ROBERT EINSTEIN IV","steam_id":76561198084686835,"connected_time":1000000000,"state":"spawning","ping":33},{"user_id":420,"name":"Mail Bomb Victim","steam_id":76561198284533039,"connected_time":3340000000000,"state":"active","ping":47},{"user_id":470,"name":"Smae ⎊ ⎊","steam_id":76561198161497327,"connected_time":621000000000,"state":"active","ping":64},{"user_id":446,"name":"♥ Sharpy \u003e v \u003c","steam_id":76561198091613743,"connected_time":2203000000000,"state":"active","ping":96},{"user_id":473,"name":"enoeht","steam_id":76561198054187483,"connected_time":611000000000,"state":"active","ping":60},{"user_id":472,"name":"dagger","steam_id":76561198068130633,"connected_time":616000000000,"state":"active","ping":54},{"user_id":476,"name":"hawk","steam_id":76561198135164277,"connected_time":214000000000,"state":"active","ping":59},{"user_id":410,"name":"Jiffy360","steam_id":76561198149550772,"connected_time":4457000000000,"state":"active","ping":92}]},{"server_id":123,"name":"Uncletopia | Sydney | 2 | All Maps","name_short":"syd-2","host":"syd-1.au.uncletopia.com","port":27025,"enabled":true,"region":"au","cc":"au","latitude":-33.865143,"longitude":151.2099,"reserved":0,"last_update":"0001-01-01T00:00:00Z","name_a2s":"Uncletopia | Sydney | 2 | All Maps","protocol":17,"map":"koth_cascade","folder":"tf","game":"Team Fortress","app_id":440,"player_count":0,"max_players":24,"Bots":0,"server_type":"Dedicated","server_os":"Linux","password":true,"vac":true,"version":"7723704","steam_id":85568392924470002,"keywords":["cp","nocrits","nodmgspread","uncletopia"],"game_id":440,"stv_port":27026,"stv_name":"Uncletopia | Sydney | 2 | All Maps | STV","players":null},{"server_id":395,"name":"Uncletopia | Sydney | 3 | All Maps","name_short":"syd-3","host":"syd-1.au.uncletopia.com","port":27035,"enabled":true,"region":"au","cc":"au","latitude":-33.865143,"longitude":151.2099,"reserved":0,"last_update":"0001-01-01T00:00:00Z","name_a2s":"Uncletopia | Sydney | 3 | All Maps","protocol":17,"map":"pl_barnblitz","folder":"tf","game":"Team Fortress","app_id":440,"player_count":0,"max_players":24,"Bots":0,"server_type":"Dedicated","server_os":"Linux","password":true,"vac":true,"version":"7723704","steam_id":85568392925194467,"keywords":["nocrits","nodmgspread","payload","uncletopia"],"game_id":440,"stv_port":27036,"stv_name":"Uncletopia | Sydney | 3 | All Maps | STV","players":null},{"server_id":396,"name":"Uncletopia | Sydney | 4 | All Maps","name_short":"syd-4","host":"syd-1.au.uncletopia.com","port":27045,"enabled":true,"region":"au","cc":"au","latitude":-33.865143,"longitude":151.2099,"reserved":0,"last_update":"0001-01-01T00:00:00Z","name_a2s":"Uncletopia | Sydney | 4 | All Maps","protocol":17,"map":"pl_pier","folder":"tf","game":"Team Fortress","app_id":440,"player_count":0,"max_players":24,"Bots":0,"server_type":"Dedicated","server_os":"Linux","password":true,"vac":true,"version":"7723704","steam_id":85568392925397958,"keywords":["nocrits","nodmgspread","payload","uncletopia"],"game_id":440,"stv_port":27046,"stv_name":"Uncletopia | Sydney | 4 | All Maps | STV","players":null},{"server_id":58,"name":"Uncletopia | Sydney | 5 | No Payload","name_short":"syd-5","host":"syd-1.au.uncletopia.com","port":27055,"enabled":true,"region":"au","cc":"au","latitude":-33.865143,"longitude":151.2099,"reserved":0,"last_update":"0001-01-01T00:00:00Z","name_a2s":"Uncletopia | Sydney | 5 | No Payload","protocol":17,"map":"cp_powerhouse","folder":"tf","game":"Team Fortress","app_id":440,"player_count":2,"max_players":24,"Bots":0,"server_type":"Dedicated","server_os":"Linux","password":true,"vac":true,"version":"7723704","steam_id":85568392925397959,"keywords":["cp","nocrits","nodmgspread","uncletopia"],"game_id":440,"stv_port":27056,"stv_name":"Uncletopia | Sydney | 5 | No Payload | STV","players":[{"user_id":15,"name":"AzureFox","steam_id":76561198108179408,"connected_time":6582000000000,"state":"active","ping":97},{"user_id":19,"name":"Branko","steam_id":76561199262196710,"connected_time":5993000000000,"state":"active","ping":41}]},{"server_id":59,"name":"Uncletopia | Sydney | 6 | Community","name_short":"syd-6","host":"syd-1.au.uncletopia.com","port":27065,"enabled":true,"region":"au","cc":"au","latitude":-33.865143,"longitude":151.2099,"reserved":0,"last_update":"0001-01-01T00:00:00Z","name_a2s":"Uncletopia | Sydney | 6 | Community","protocol":17,"map":"workshop/koth_ramjam_v2_b2.ugc2865676487","folder":"tf","game":"Team Fortress","app_id":440,"player_count":0,"max_players":24,"Bots":0,"server_type":"Dedicated","server_os":"Linux","password":true,"vac":true,"version":"7723704","steam_id":85568392925397960,"keywords":["cp","nocrits","nodmgspread","uncletopia"],"game_id":440,"stv_port":27066,"stv_name":"Uncletopia | Sydney | 6 | Community | STV","players":null},{"server_id":49,"name":"Uncletopia | Warsaw | 1 | All Maps","name_short":"waw-1","host":"waw-1.pl.uncletopia.com","port":27015,"enabled":true,"region":"eu","cc":"pl","latitude":52.2297,"longitude":21.017532,"reserved":0,"last_update":"0001-01-01T00:00:00Z","name_a2s":"Uncletopia | Warsaw | 1 | All Maps","protocol":17,"map":"koth_highpass","folder":"tf","game":"Team Fortress","app_id":440,"player_count":0,"max_players":24,"Bots":0,"server_type":"Dedicated","server_os":"Linux","password":true,"vac":true,"version":"7723704","steam_id":85568392925397850,"keywords":["cp","nocrits","nodmgspread","uncletopia"],"game_id":440,"stv_port":27016,"stv_name":"Uncletopia | Warsaw | 1 | All Maps | STV","players":null},{"server_id":50,"name":"Uncletopia | Warsaw | 2 | All Maps","name_short":"waw-2","host":"waw-1.pl.uncletopia.com","port":27025,"enabled":true,"region":"eu","cc":"pl","latitude":52.2297,"longitude":21.017532,"reserved":0,"last_update":"0001-01-01T00:00:00Z","name_a2s":"Uncletopia | Warsaw | 2 | All Maps","protocol":17,"map":"pl_snowycoast","folder":"tf","game":"Team Fortress","app_id":440,"player_count":0,"max_players":24,"Bots":0,"server_type":"Dedicated","server_os":"Linux","password":true,"vac":true,"version":"7723704","steam_id":85568392925397851,"keywords":["nocrits","nodmgspread","payload","uncletopia"],"game_id":440,"stv_port":27026,"stv_name":"Uncletopia | Warsaw | 2 | All Maps | STV","players":null},{"server_id":51,"name":"Uncletopia | Warsaw | 3 | All Maps","name_short":"waw-3","host":"waw-1.pl.uncletopia.com","port":27035,"enabled":true,"region":"eu","cc":"pl","latitude":52.2297,"longitude":21.017532,"reserved":0,"last_update":"0001-01-01T00:00:00Z","name_a2s":"Uncletopia | Warsaw | 3 | All Maps","protocol":17,"map":"koth_lakeside_final","folder":"tf","game":"Team Fortress","app_id":440,"player_count":0,"max_players":24,"Bots":0,"server_type":"Dedicated","server_os":"Linux","password":true,"vac":true,"version":"7723704","steam_id":85568392925397852,"keywords":["cp","nocrits","nodmgspread","uncletopia"],"game_id":440,"stv_port":27036,"stv_name":"Uncletopia | Warsaw | 3 | All Maps | STV","players":null},{"server_id":52,"name":"Uncletopia | Warsaw | 4 | All Maps","name_short":"waw-4","host":"waw-1.pl.uncletopia.com","port":27045,"enabled":true,"region":"eu","cc":"pl","latitude":52.2297,"longitude":21.017532,"reserved":0,"last_update":"0001-01-01T00:00:00Z","name_a2s":"Uncletopia | Warsaw | 4 | All Maps","protocol":17,"map":"cp_snakewater_final1","folder":"tf","game":"Team Fortress","app_id":440,"player_count":0,"max_players":24,"Bots":0,"server_type":"Dedicated","server_os":"Linux","password":true,"vac":true,"version":"7723704","steam_id":85568392925397853,"keywords":["cp","nocrits","nodmgspread","uncletopia"],"game_id":440,"stv_port":27046,"stv_name":"Uncletopia | Warsaw | 4 | All Maps | STV","players":null},{"server_id":53,"name":"Uncletopia | Warsaw | 5 | No Payload","name_short":"waw-5","host":"waw-1.pl.uncletopia.com","port":27055,"enabled":true,"region":"eu","cc":"pl","latitude":52.2297,"longitude":21.017532,"reserved":0,"last_update":"0001-01-01T00:00:00Z","name_a2s":"Uncletopia | Warsaw | 5 | No Payload","protocol":17,"map":"koth_highpass","folder":"tf","game":"Team Fortress","app_id":440,"player_count":0,"max_players":24,"Bots":0,"server_type":"Dedicated","server_os":"Linux","password":true,"vac":true,"version":"7723704","steam_id":85568392925397854,"keywords":["cp","nocrits","nodmgspread","uncletopia"],"game_id":440,"stv_port":27056,"stv_name":"Uncletopia | Warsaw | 5 | No Payload | STV","players":null},{"server_id":54,"name":"Uncletopia | Warsaw | 6 | Community","name_short":"waw-6","host":"waw-1.pl.uncletopia.com","port":27065,"enabled":true,"region":"eu","cc":"pl","latitude":52.2297,"longitude":21.017532,"reserved":0,"last_update":"0001-01-01T00:00:00Z","name_a2s":"Uncletopia | Warsaw | 6 | Community","protocol":17,"map":"koth_viaduct","folder":"tf","game":"Team Fortress","app_id":440,"player_count":0,"max_players":24,"Bots":0,"server_type":"Dedicated","server_os":"Linux","password":true,"vac":true,"version":"7723704","steam_id":85568392925397856,"keywords":["cp","nocrits","nodmgspread","uncletopia"],"game_id":440,"stv_port":27066,"stv_name":"Uncletopia | Warsaw | 6 | Community | STV","players":null}]}