{"status":true,"message":"","result":[{"server_id":9,"name":"Uncletopia | Atlanta | 1 | All Maps","name_short":"atl-1","host":"atl-1.us.uncletopia.com","port":27015,"enabled":true,"region":"us-east","cc":"us","latitude":33.753746,"longitude":-84.38633,"reserved":0,"last_update":"0001-01-01T00:00:00Z","name_a2s":"Uncletopia | Atlanta | 1 | All Maps","protocol":17,"map":"koth_harvest_final","folder":"tf","game":"Team Fortress","app_id":440,"player_count":24,"max_players":24,"Bots":0,"server_type":"Dedicated","server_os":"Linux","password":true,"vac":true,"version":"7882260","steam_id":85568392924469982,"keywords":["cp","nocrits","nodmgspread","uncletopia"],"game_id":440,"stv_port":27016,"stv_name":"Uncletopia | Atlanta | 1 | All Maps | STV","players":[{"user_id":291,"name":"The Loveable CHI.I.BI.","steam_id":76561198039262228,"connected_time":267000000000,"state":"active","ping":46},{"user_id":287,"name":"INeverFold","steam_id":76561198285482224,"connected_time":292000000000,"state":"active","ping":54},{"user_id":288,"name":"map tr_walkway_rc2","steam_id":76561198273411260,"connected_time":290000000000,"state":"active","ping":60},{"user_id":280,"name":"Ramin Jamin","steam_id":76561198086516541,"connected_time":1091000000000,"state":"active","ping":75},{"user_id":282,"name":"Feel that? That's True...","steam_id":76561198982810452,"connected_time":701000000000,"state":"active","ping":82},{"user_id":276,"name":"FheeseWurger Insouptitty","steam_id":76561198130772096,"connected_time":1819000000000,"state":"active","ping":57},{"user_id":292,"name":"metalfan666|bday tmrw|","steam_id":76561198386344068,"connected_time":250000000000,"state":"active","ping":75},{"user_id":293,"name":"Spanerhed7","steam_id":76561198002721123,"connected_time":196000000000,"state":"active","ping":144},{"user_id":283,"name":"Le4n!!!","steam_id":76561198045522596,"connected_time":674000000000,"state":"active","ping":68},{"user_id":286,"name":"BIG HOG","steam_id":76561198079923652,"connected_time":353000000000,"state":"active","ping":65},{"user_id":265,"name":"Duckywinner","steam_id":76561198254828139,"connected_time":2049000000000,"state":"active","ping":61},{"user_id":266,"name":"Ninty","steam_id":76561199364725776,"connected_time":2046000000000,"state":"active","ping":69},{"user_id":46,"name":"meow'd for your sins","steam_id":76561198092135570,"connected_time":14435000000000,"state":"active","ping":60},{"user_id":281,"name":"‚úø","steam_id":76561198138444785,"connected_time":951000000000,"state":"active","ping":72},{"user_id":263,"name":"Solar","steam_id":76561198070121486,"connected_time":2063000000000,"state":"active","ping":65},{"user_id":268,"name":"yoklaty","steam_id":76561199020932212,"connected_time":2030000000000,"state":"active","ping":164},{"user_id":279,"name":"creeeeeee","steam_id":76561198392539722,"connected_time":1360000000000,"state":"active","ping":92},{"user_id":290,"name":"Daniel Craig Fan","steam_id":76561198053467923,"connected_time":288000000000,"state":"active","ping":77},{"user_id":275,"name":"smoking on 100crits 2fort pack","steam_id":76561198079416036,"connected_time":1868000000000,"state":"active","ping":80},{"user_id":184,"name":"emily","steam_id":76561198148132163,"connected_time":4711000000000,"state":"active","ping":70},{"user_id":187,"name":"Wheat Box","steam_id":76561198203443358,"connected_time":4409000000000,"state":"active","ping":81},{"user_id":231,"name":"King Baldski","steam_id":76561198359568400,"connected_time":2557000000000,"state":"active","ping":136},{"user_id":131,"name":"map tr_ctap_practice","steam_id":76561198249206656,"connected_time":8514000000000,"state":"active","ping":86},{"user_id":261,"name":"jstn","steam_id":76561198845283665,"connected_time":2117000000000,"state":"active","ping":58}]},{"server_id":104,"name":"Uncletopia | Atlanta | 2 | All Maps","name_short":"atl-2","host":"atl-1.us.uncletopia.com","port":27025,"enabled":true,"region":"us-east","cc":"us","latitude":33.753746,"longitude":-84.38633,"reserved":0,"last_update":"0001-01-01T00:00:00Z","name_a2s":"Uncletopia | Atlanta | 2 | All Maps","protocol":17,"map":"koth_highpass","folder":"tf","game":"Team Fortress","app_id":440,"player_count":0,"max_players":24,"Bots":0,"server_type":"Dedicated","server_os":"Linux","password":true,"vac":true,"version":"7882260","steam_id":85568392924469983,"keywords":["cp","nocrits","nodmgspread","uncletopia"],"game_id":440,"stv_port":27026,"stv_name":"Uncletopia | Atlanta | 2 | All Maps | STV","players":null},{"server_id":400,"name":"Uncletopia | Atlanta | 3 | Community","name_short":"atl-3","host":"atl-1.us.uncletopia.com","port":27035,"enabled":true,"region":"us-east","cc":"us","latitude":33.753746,"longitude":-84.38633,"reserved":0,"last_update":"0001-01-01T00:00:00Z","name_a2s":"Uncletopia | Atlanta | 3 | Community","protocol":17,"map":"workshop/cp_logjam_rc12.ugc454812035","folder":"tf","game":"Team Fortress","app_id":440,"player_count":0,"max_players":24,"Bots":0,"server_type":"Dedicated","server_os":"Linux","password":true,"vac":true,"version":"7882260","steam_id":85568392924515187,"keywords":["cp","nocrits","nodmgspread","uncletopia"],"game_id":440,"stv_port":27036,"stv_name":"Uncletopia | Atlanta | 3 | Community | STV","players":null},{"server_id":401,"name":"Uncletopia | Atlanta | 4 | No Payload","name_short":"atl-4","host":"atl-1.us.uncletopia.com","port":27045,"enabled":true,"region":"us-east","cc":"us","latitude":33.753746,"longitude":-84.38633,"reserved":0,"last_update":"0001-01-01T00:00:00Z","name_a2s":"","protocol":0,"map":"","folder":"","game":"","app_id":0,"player_count":0,"max_players":0,"Bots":0,"server_type":"","server_os":"","password":false,"vac":false,"version":"","steam_id":0,"keywords":null,"game_id":0,"stv_port":0,"stv_name":"","players":null},{"server_id":2,"name":"Uncletopia | Chicago | 1 | All Maps","name_short":"chi-1","host":"chi-1.us.uncletopia.com","port":27015,"enabled":true,"region":"us-central","cc":"us","latitude":41.881832,"longitude":-87.62318,"reserved":0,"last_update":"0001-01-01T00:00:00Z","name_a2s":"Uncletopia | Chicago | 1 | All Maps","protocol":17,"map":"cp_mercenarypark","folder":"tf","game":"Team Fortress","app_id":440,"player_count":23,"max_players":24,"Bots":0,"server_type":"Dedicated","server_os":"Linux","password":true,"vac":true,"version":"7882260","steam_id":85568392924469984,"keywords":["cp","nocrits","nodmgspread","uncletopia"],"game_id":440,"stv_port":27016,"stv_name":"Uncletopia | Chicago | 1 | All Maps | STV","players":[{"user_id":374,"name":"sandvich demolisher","steam_id":76561198192343263,"connected_time":2047000000000,"state":"active","ping":130},{"user_id":319,"name":"his flatulence","steam_id":76561198799404824,"connected_time":6249000000000,"state":"active","ping":63},{"user_id":390,"name":"battle clown","steam_id":76561198045788371,"connected_time":662000000000,"state":"active","ping":66},{"user_id":389,"name":"Kito","steam_id":76561198394383213,"connected_time":912000000000,"state":"active","ping":96},{"user_id":391,"name":"LooseCannonSandvich","steam_id":76561198065190456,"connected_time":524000000000,"state":"active","ping":54},{"user_id":376,"name":"Gnarly Shark Bite","steam_id":76561198004058342,"connected_time":1755000000000,"state":"active","ping":70},{"user_id":369,"name":"Also Known As Assteeth","steam_id":76561198049837377,"connected_time":2562000000000,"state":"active","ping":47},{"user_id":358,"name":"0","steam_id":76561198046055673,"connected_time":3336000000000,"state":"active","ping":75},{"user_id":355,"name":"The Eyeball Man","steam_id":76561198013534207,"connected_time":3748000000000,"state":"active","ping":65},{"user_id":384,"name":"Yato","steam_id":76561198084100335,"connected_time":1330000000000,"state":"active","ping":84},{"user_id":361,"name":"dubspol","steam_id":76561198114845137,"connected_time":3141000000000,"state":"active","ping":63},{"user_id":398,"name":"nickell88","steam_id":76561198061661797,"connected_time":1000000000,"state":"spawning","ping":43},{"user_id":397,"name":"opal","steam_id":76561198964638272,"connected_time":145000000000,"state":"active","ping":89},{"user_id":324,"name":"ewp","steam_id":76561199148289271,"connected_time":6092000000000,"state":"active","ping":104},{"user_id":347,"name":"Acehay14","steam_id":76561198052373291,"connected_time":4118000000000,"state":"active","ping":69},{"user_id":395,"name":"dave","steam_id":76561198052431073,"connected_time":460000000000,"state":"active","ping":60},{"user_id":381,"name":"kat","steam_id":76561198121070295,"connected_time":1640000000000,"state":"active","ping":86},{"user_id":388,"name":"MR HANKY","steam_id":76561198938434440,"connected_time":982000000000,"state":"active","ping":87},{"user_id":242,"name":"177013","steam_id":76561198072303290,"connected_time":12304000000000,"state":"active","ping":62},{"user_id":386,"name":"snooopay","steam_id":76561198132873984,"connected_time":1004000000000,"state":"active","ping":73},{"user_id":370,"name":"Snom","steam_id":76561198333827920,"connected_time":2337000000000,"state":"active","ping":97},{"user_id":328,"name":"LavishLad","steam_id":76561199117799002,"connected_time":6005000000000,"state":"active","ping":87},{"user_id":396,"name":"Pablo Escobear","steam_id":76561198063250819,"connected_time":378000000000,"state":"active","ping":45}]},{"server_id":106,"name":"Uncletopia | Chicago | 2 | All Maps","name_short":"chi-2","host":"chi-1.us.uncletopia.com","port":27025,"enabled":true,"region":"us-central","cc":"us","latitude":41.881832,"longitude":-87.62318,"reserved":0,"last_update":"0001-01-01T00:00:00Z","name_a2s":"Uncletopia | Chicago | 2 | All Maps","protocol":17,"map":"cp_gravelpit","folder":"tf","game":"Team Fortress","app_id":440,"player_count":23,"max_players":24,"Bots":0,"server_type":"Dedicated","server_os":"Linux","password":true,"vac":true,"version":"7882260","steam_id":85568392924469985,"keywords":["cp","nocrits","nodmgspread","uncletopia"],"game_id":440,"stv_port":27026,"stv_name":"Uncletopia | Chicago | 2 | All Maps | STV","players":[{"user_id":167,"name":"bobbymcbobington","steam_id":76561199089411172,"connected_time":468000000000,"state":"active","ping":116},{"user_id":168,"name":"Bong Rips 4 Jesus","steam_id":76561198062678615,"connected_time":394000000000,"state":"active","ping":74},{"user_id":132,"name":"coolkid","steam_id":76561198072600034,"connected_time":2289000000000,"state":"active","ping":197},{"user_id":130,"name":"tasty","steam_id":76561198083839061,"connected_time":2552000000000,"state":"active","ping":75},{"user_id":162,"name":"potpurrycatcurry","steam_id":76561198349409715,"connected_time":751000000000,"state":"active","ping":72},{"user_id":169,"name":"LightBulbGlue #SaveTF2","steam_id":76561198329573529,"connected_time":388000000000,"state":"active","ping":62},{"user_id":134,"name":"MankTKO","steam_id":76561198189421005,"connected_time":2276000000000,"state":"active","ping":54},{"user_id":135,"name":"Mr.Bady","steam_id":76561199094651706,"connected_time":2272000000000,"state":"active","ping":74},{"user_id":123,"name":"AstroVulpes","steam_id":76561198384277161,"connected_time":2795000000000,"state":"active","ping":151},{"user_id":158,"name":"Jack The Racc","steam_id":76561198044762365,"connected_time":777000000000,"state":"active","ping":97},{"user_id":159,"name":"WAT","steam_id":76561198941203517,"connected_time":763000000000,"state":"active","ping":158},{"user_id":165,"name":"Oni","steam_id":76561198112066584,"connected_time":528000000000,"state":"active","ping":60},{"user_id":166,"name":"feliser","steam_id":76561198084336096,"connected_time":528000000000,"state":"active","ping":53},{"user_id":143,"name":"RarestGuide","steam_id":76561198050338923,"connected_time":2034000000000,"state":"active","ping":69},{"user_id":128,"name":"‚òÜNebula-Belt‚òÜ","steam_id":76561198151250806,"connected_time":2733000000000,"state":"active","ping":71},{"user_id":136,"name":"How my blood boils","steam_id":76561199195104977,"connected_time":2255000000000,"state":"active","ping":75},{"user_id":137,"name":"MattJettskie","steam_id":76561199229493583,"connected_time":2249000000000,"state":"active","ping":94},{"user_id":164,"name":"Mailer","steam_id":76561198062690074,"connected_time":551000000000,"state":"active","ping":134},{"user_id":151,"name":"Wamazin","steam_id":76561198272958709,"connected_time":1001000000000,"state":"active","ping":77},{"user_id":62,"name":"Moomin","steam_id":76561198072726213,"connected_time":7441000000000,"state":"active","ping":103},{"user_id":172,"name":"WALKING GOPRO","steam_id":76561198186928885,"connected_time":218000000000,"state":"active","ping":69},{"user_id":175,"name":"yoodle doodle","steam_id":76561198054897884,"connected_time":104000000000,"state":"active","ping":71},{"user_id":141,"name":"pharmacist","steam_id":76561198274424248,"connected_time":2110000000000,"state":"active","ping":191}]},{"server_id":402,"name":"Uncletopia | Chicago | 3 | All Maps","name_short":"chi-3","host":"chi-1.us.uncletopia.com","port":27035,"enabled":true,"region":"us-central","cc":"us","latitude":41.881832,"longitude":-87.62318,"reserved":0,"last_update":"0001-01-01T00:00:00Z","name_a2s":"Uncletopia | Chicago | 3 | All Maps","protocol":17,"map":"pl_swiftwater_final1","folder":"tf","game":"Team Fortress","app_id":440,"player_count":23,"max_players":24,"Bots":0,"server_type":"Dedicated","server_os":"Linux","password":true,"vac":true,"version":"7882260","steam_id":85568392924515191,"keywords":["nocrits","nodmgspread","payload","uncletopia"],"game_id":440,"stv_port":27036,"stv_name":"Uncletopia | Chicago | 3 | All Maps | STV","players":[{"user_id":242,"name":"Rafl","steam_id":76561198055222756,"connected_time":3572000000000,"state":"active","ping":72},{"user_id":264,"name":"BonesJohnson","steam_id":76561198799169951,"connected_time":1450000000000,"state":"active","ping":142},{"user_id":251,"name":"Mr_Hoogie","steam_id":76561198999931266,"connected_time":1938000000000,"state":"active","ping":49},{"user_id":267,"name":"Token","steam_id":76561198067814426,"connected_time":1263000000000,"state":"active","ping":82},{"user_id":258,"name":"Deltaco","steam_id":76561198094572694,"connected_time":1809000000000,"state":"active","ping":113},{"user_id":269,"name":"kohaku gaming","steam_id":76561198071600385,"connected_time":838000000000,"state":"active","ping":84},{"user_id":270,"name":"crayonnipple","steam_id":76561198070253331,"connected_time":837000000000,"state":"active","ping":71},{"user_id":272,"name":"QwQ#savetf2","steam_id":76561198432226673,"connected_time":785000000000,"state":"active","ping":114},{"user_id":265,"name":"Knooper","steam_id":76561198096149824,"connected_time":1432000000000,"state":"active","ping":108},{"user_id":203,"name":"Elroy Spark - DJ- Roro","steam_id":76561198071776428,"connected_time":5732000000000,"state":"active","ping":110},{"user_id":273,"name":"drooskie","steam_id":76561198036083886,"connected_time":746000000000,"state":"active","ping":74},{"user_id":247,"name":"Ludography","steam_id":76561198046354069,"connected_time":2876000000000,"state":"active","ping":79},{"user_id":278,"name":"shpadoinkle","steam_id":76561198044909073,"connected_time":314000000000,"state":"active","ping":115},{"user_id":257,"name":"Stud with a 12 incher","steam_id":76561198018322096,"connected_time":1854000000000,"state":"active","ping":143},{"user_id":277,"name":"Pete The \"Plummer\"","steam_id":76561199097450685,"connected_time":441000000000,"state":"active","ping":95},{"user_id":259,"name":"Dr. Anonymous","steam_id":76561198061654197,"connected_time":1789000000000,"state":"active","ping":80},{"user_id":274,"name":"Cornelius","steam_id":76561198123447388,"connected_time":693000000000,"state":"active","ping":41},{"user_id":266,"name":"cool safe name","steam_id":76561198237827742,"connected_time":1403000000000,"state":"active","ping":66},{"user_id":271,"name":"Cy4nideCutie","steam_id":76561198126686695,"connected_time":823000000000,"state":"active","ping":74},{"user_id":250,"name":"MMMPHH","steam_id":76561199224120496,"connected_time":1979000000000,"state":"active","ping":69},{"user_id":260,"name":"e doctor","steam_id":76561198081851446,"connected_time":1784000000000,"state":"active","ping":45},{"user_id":212,"name":"DiscoTraveler","steam_id":76561199240168088,"connected_time":5596000000000,"state":"active","ping":60},{"user_id":248,"name":"worst tf2 player ever","steam_id":76561198330205913,"connected_time":2769000000000,"state":"active","ping":82}]},{"server_id":403,"name":"Uncletopia | Chicago | 4 | All Maps","name_short":"chi-4","host":"chi-1.us.uncletopia.com","port":27045,"enabled":true,"region":"us-central","cc":"us","latitude":41.881832,"longitude":-87.62318,"reserved":0,"last_update":"0001-01-01T00:00:00Z","name_a2s":"Uncletopia | Chicago | 4 | All Maps","protocol":17,"map":"pl_pier","folder":"tf","game":"Team Fortress","app_id":440,"player_count":24,"max_players":24,"Bots":0,"server_type":"Dedicated","server_os":"Linux","password":true,"vac":true,"version":"7882260","steam_id":85568392924515193,"keywords":["nocrits","nodmgspread","payload","uncletopia"],"game_id":440,"stv_port":27046,"stv_name":"Uncletopia | Chicago | 4 | All Maps | STV","players":[{"user_id":405,"name":"Kamin","steam_id":76561198255299559,"connected_time":1322000000000,"state":"active","ping":81},{"user_id":406,"name":"Grungy Bungee","steam_id":76561199105386998,"connected_time":1319000000000,"state":"active","ping":70},{"user_id":398,"name":"Blargian Snagglebeast","steam_id":76561198115831507,"connected_time":2159000000000,"state":"active","ping":50},{"user_id":338,"name":"goose","steam_id":76561198367551668,"connected_time":6837000000000,"state":"active","ping":48},{"user_id":394,"name":"Big Russ","steam_id":76561198122943559,"connected_time":2643000000000,"state":"active","ping":59},{"user_id":379,"name":"KennytheHedgehog","steam_id":76561198094607721,"connected_time":3796000000000,"state":"active","ping":74},{"user_id":407,"name":"WALL-E","steam_id":76561198154701370,"connected_time":1304000000000,"state":"active","ping":86},{"user_id":395,"name":"gabaghoulio","steam_id":76561198013650292,"connected_time":2637000000000,"state":"active","ping":112},{"user_id":381,"name":"Doctor Bear  ï ‚Ä¢·¥•‚Ä¢ î","steam_id":76561197968103161,"connected_time":3660000000000,"state":"active","ping":63},{"user_id":342,"name":"Whoa","steam_id":76561197970353496,"connected_time":6283000000000,"state":"active","ping":75},{"user_id":404,"name":"Lovedaddy","steam_id":76561198006569710,"connected_time":1487000000000,"state":"active","ping":82},{"user_id":427,"name":"cold spaghetti","steam_id":76561198983037944,"connected_time":84000000000,"state":"active","ping":68},{"user_id":419,"name":"Drapph","steam_id":76561199384213314,"connected_time":637000000000,"state":"active","ping":62},{"user_id":402,"name":"SCATTER","steam_id":76561198405168492,"connected_time":1968000000000,"state":"active","ping":84},{"user_id":426,"name":"ItsRoy","steam_id":76561198119525485,"connected_time":229000000000,"state":"active","ping":55},{"user_id":411,"name":"MonchyCronchy","steam_id":76561199071770590,"connected_time":1211000000000,"state":"active","ping":76},{"user_id":421,"name":"3/9","steam_id":76561198166827208,"connected_time":632000000000,"state":"active","ping":102},{"user_id":418,"name":"Daehypeels","steam_id":76561198268981599,"connected_time":662000000000,"state":"active","ping":66},{"user_id":385,"name":"rikoDLC","steam_id":76561197999187973,"connected_time":3603000000000,"state":"active","ping":95},{"user_id":413,"name":"RandyPickleshoes","steam_id":76561198064139260,"connected_time":1025000000000,"state":"active","ping":71},{"user_id":415,"name":"Scorpianswag","steam_id":76561198260651036,"connected_time":885000000000,"state":"active","ping":90},{"user_id":403,"name":"Worm God","steam_id":76561198087339875,"connected_time":1668000000000,"state":"active","ping":114},{"user_id":425,"name":"Nigel Powers","steam_id":76561198107382571,"connected_time":441000000000,"state":"active","ping":131},{"user_id":321,"name":"Spazz","steam_id":76561198036167494,"connected_time":8456000000000,"state":"active","ping":37}]},{"server_id":36,"name":"Uncletopia | Chicago | 5 | All Maps","name_short":"chi-5","host":"chi-2.us.uncletopia.com","port":27015,"enabled":true,"region":"us-central","cc":"us","latitude":41.881832,"longitude":-87.62318,"reserved":0,"last_update":"0001-01-01T00:00:00Z","name_a2s":"Uncletopia | Chicago | 5 | All Maps","protocol":17,"map":"koth_lakeside_final","folder":"tf","game":"Team Fortress","app_id":440,"player_count":24,"max_players":24,"Bots":0,"server_type":"Dedicated","server_os":"Linux","password":true,"vac":true,"version":"7882260","steam_id":85568392924866362,"keywords":["cp","nocrits","nodmgspread","uncletopia"],"game_id":440,"stv_port":27016,"stv_name":"Uncletopia | Chicago | 5 | All Maps | STV","players":[{"user_id":29,"name":"[DEEP] Danmar33","steam_id":76561198056453091,"connected_time":401000000000,"state":"active","ping":45},{"user_id":24,"name":"Draven","steam_id":76561198074776388,"connected_time":546000000000,"state":"active","ping":79},{"user_id":26,"name":"Blitzy","steam_id":76561198149472890,"connected_time":474000000000,"state":"active","ping":71},{"user_id":27,"name":"Tideflat","steam_id":76561198179850851,"connected_time":468000000000,"state":"active","ping":120},{"user_id":23,"name":"üÖúüÖîüÖîüÖöüÖ¢üÖ£üÖî\ufffd\ufffd\ufffd","steam_id":76561197999748343,"connected_time":731000000000,"state":"active","ping":60},{"user_id":25,"name":"THEQUIRKA (ALL CAPS ARC)","steam_id":76561198968058652,"connected_time":519000000000,"state":"active","ping":97},{"user_id":36,"name":"Malmart_Employee","steam_id":76561198320388704,"connected_time":250000000000,"state":"active","ping":105},{"user_id":49,"name":"the statue of liberty","steam_id":76561199103261584,"connected_time":98000000000,"state":"active","ping":142},{"user_id":19,"name":"African Despot","steam_id":76561198169966346,"connected_time":988000000000,"state":"active","ping":74},{"user_id":53,"name":"Pagan min","steam_id":76561198065181538,"connected_time":43000000000,"state":"active","ping":57},{"user_id":31,"name":"bachphong760","steam_id":76561199433780443,"connected_time":313000000000,"state":"active","ping":92},{"user_id":32,"name":"Zixzs","steam_id":76561198055504126,"connected_time":311000000000,"state":"active","ping":64},{"user_id":33,"name":"Shield12","steam_id":76561198857193675,"connected_time":289000000000,"state":"active","ping":53},{"user_id":34,"name":"cakgamin","steam_id":76561199088909749,"connected_time":276000000000,"state":"active","ping":61},{"user_id":35,"name":"Yeets3er","steam_id":76561199137127757,"connected_time":275000000000,"state":"active","ping":169},{"user_id":50,"name":"team fortress two heavy (real)","steam_id":76561199474619310,"connected_time":82000000000,"state":"active","ping":138},{"user_id":38,"name":"Kronk","steam_id":76561198063092125,"connected_time":189000000000,"state":"active","ping":69},{"user_id":42,"name":"Eosson","steam_id":76561198108642113,"connected_time":153000000000,"state":"active","ping":63},{"user_id":43,"name":"St. Bobson Q Dugnutt III Esq Sr","steam_id":76561197993459985,"connected_time":149000000000,"state":"active","ping":80},{"user_id":52,"name":"The butt ticklin' bandit","steam_id":76561199116882319,"connected_time":75000000000,"state":"active","ping":136},{"user_id":45,"name":"Mkwhackertracker","steam_id":76561198128343704,"connected_time":123000000000,"state":"active","ping":70},{"user_id":46,"name":"catrinaisahuman","steam_id":76561198281355729,"connected_time":119000000000,"state":"active","ping":61},{"user_id":48,"name":"Margo_Rae","steam_id":76561198035046430,"connected_time":114000000000,"state":"active","ping":88},{"user_id":54,"name":"pootis gaming yt","steam_id":76561199042605574,"connected_time":18000000000,"state":"active","ping":115}]},{"server_id":37,"name":"Uncletopia | Chicago | 6 | All Maps","name_short":"chi-6","host":"chi-2.us.uncletopia.com","port":27025,"enabled":true,"region":"us-central","cc":"us","latitude":41.881832,"longitude":-87.62318,"reserved":0,"last_update":"0001-01-01T00:00:00Z","name_a2s":"Uncletopia | Chicago | 6 | All Maps","protocol":17,"map":"koth_cascade","folder":"tf","game":"Team Fortress","app_id":440,"player_count":0,"max_players":24,"Bots":0,"server_type":"Dedicated","server_os":"Linux","password":true,"vac":true,"version":"7882260","steam_id":85568392924866363,"keywords":["cp","nocrits","nodmgspread","uncletopia"],"game_id":440,"stv_port":27026,"stv_name":"Uncletopia | Chicago | 6 | All Maps | STV","players":null},{"server_id":38,"name":"Uncletopia | Chicago | 7 | Stopwatch Beta","name_short":"chi-7","host":"chi-2.us.uncletopia.com","port":27035,"enabled":true,"region":"us-central","cc":"us","latitude":41.881832,"longitude":-87.62318,"reserved":0,"last_update":"0001-01-01T00:00:00Z","name_a2s":"Uncletopia | Chicago | 7 | Stopwatch Beta","protocol":17,"map":"pl_borneo","folder":"tf","game":"Team Fortress","app_id":440,"player_count":0,"max_players":24,"Bots":0,"server_type":"Dedicated","server_os":"Linux","password":true,"vac":true,"version":"7882260","steam_id":85568392924866364,"keywords":["nocrits","nodmgspread","payload","uncletopia"],"game_id":440,"stv_port":27036,"stv_name":"Uncletopia | Chicago | 7 | Stopwatch Beta | STV","players":null},{"server_id":39,"name":"Uncletopia | Chicago | 8 | Community","name_short":"chi-8","host":"chi-2.us.uncletopia.com","port":27045,"enabled":true,"region":"us-central","cc":"us","latitude":41.881832,"longitude":-87.62318,"reserved":0,"last_update":"0001-01-01T00:00:00Z","name_a2s":"Uncletopia | Chicago | 8 | Community","protocol":17,"map":"cp_snakewater_final1","folder":"tf","game":"Team Fortress","app_id":440,"player_count":0,"max_players":24,"Bots":0,"server_type":"Dedicated","server_os":"Linux","password":true,"vac":true,"version":"7882260","steam_id":85568392924866365,"keywords":["cp","nocrits","nodmgspread","uncletopia"],"game_id":440,"stv_port":27046,"stv_name":"Uncletopia | Chicago | 8 | Community | STV","players":null},{"server_id":8,"name":"Uncletopia | Dallas | 1 | All Maps","name_short":"dal-1","host":"dal-1.us.uncletopia.com","port":27015,"enabled":true,"region":"us-central","cc":"us","latitude":32.779167,"longitude":-96.80889,"reserved":0,"last_update":"0001-01-01T00:00:00Z","name_a2s":"Uncletopia | Dallas | 1 | All Maps","protocol":17,"map":"pl_snowycoast","folder":"tf","game":"Team Fortress","app_id":440,"player_count":24,"max_players":24,"Bots":0,"server_type":"Dedicated","server_os":"Linux","password":true,"vac":true,"version":"7882260","steam_id":85568392924469986,"keywords":["nocrits","nodmgspread","payload","uncletopia"],"game_id":440,"stv_port":27016,"stv_name":"Uncletopia | Dallas | 1 | All Maps | STV","players":[{"user_id":183,"name":"robotman5","steam_id":76561197996783330,"connected_time":1173000000000,"state":"active","ping":115},{"user_id":181,"name":"Ê≠ª","steam_id":76561198127525888,"connected_time":1192000000000,"state":"active","ping":47},{"user_id":172,"name":"what da dog doin","steam_id":76561198090573639,"connected_time":1608000000000,"state":"active","ping":82},{"user_id":189,"name":"Primal","steam_id":76561197983118203,"connected_time":323000000000,"state":"active","ping":95},{"user_id":136,"name":"sky walker","steam_id":76561198937717599,"connected_time":4532000000000,"state":"active","ping":38},{"user_id":184,"name":"Sir Coreden","steam_id":76561198008430589,"connected_time":909000000000,"state":"active","ping":86},{"user_id":153,"name":"deb","steam_id":76561198414336279,"connected_time":3420000000000,"state":"active","ping":60},{"user_id":158,"name":"ThePizzaMaster3","steam_id":76561199137307151,"connected_time":2986000000000,"state":"active","ping":72},{"user_id":17,"name":"Atlas (Skylar)","steam_id":76561198041531774,"connected_time":10802000000000,"state":"active","ping":70},{"user_id":190,"name":"Ko - „Åì - ÏΩî","steam_id":76561198035726982,"connected_time":301000000000,"state":"active","ping":69},{"user_id":188,"name":"‚ú©BONGO‚ú©","steam_id":76561198018040930,"connected_time":361000000000,"state":"active","ping":35},{"user_id":182,"name":"Yoru","steam_id":76561198119698950,"connected_time":1189000000000,"state":"active","ping":120},{"user_id":175,"name":"Holp","steam_id":76561199019186848,"connected_time":1495000000000,"state":"active","ping":91},{"user_id":191,"name":"Arrluk","steam_id":76561198396679452,"connected_time":113000000000,"state":"active","ping":70},{"user_id":192,"name":"Xeno808","steam_id":76561198103758081,"connected_time":69000000000,"state":"active","ping":39},{"user_id":185,"name":"Wigl","steam_id":76561198019324464,"connected_time":882000000000,"state":"active","ping":86},{"user_id":176,"name":"Emgee","steam_id":76561198096429333,"connected_time":1492000000000,"state":"active","ping":68},{"user_id":161,"name":"Anonymous Redneck","steam_id":76561198006140954,"connected_time":2672000000000,"state":"active","ping":95},{"user_id":168,"name":"Stillkill","steam_id":76561198065069057,"connected_time":1791000000000,"state":"active","ping":44},{"user_id":147,"name":"Moonflower ‚ú¶","steam_id":76561198191782483,"connected_time":3901000000000,"state":"active","ping":53},{"user_id":179,"name":"SuperFresh","steam_id":76561198200723198,"connected_time":1228000000000,"state":"active","ping":65},{"user_id":174,"name":"Schum","steam_id":76561198149634242,"connected_time":1593000000000,"state":"active","ping":93},{"user_id":187,"name":"Pombley","steam_id":76561198141227263,"connected_time":377000000000,"state":"active","ping":63},{"user_id":180,"name":"Sammich Slinger","steam_id":76561198007644532,"connected_time":1221000000000,"state":"active","ping":68}]},{"server_id":108,"name":"Uncletopia | Dallas | 2 | All Maps","name_short":"dal-2","host":"dal-1.us.uncletopia.com","port":27025,"enabled":true,"region":"us-central","cc":"us","latitude":32.779167,"longitude":-96.80889,"reserved":0,"last_update":"0001-01-01T00:00:00Z","name_a2s":"Uncletopia | Dallas | 2 | All Maps","protocol":17,"map":"koth_lakeside_final","folder":"tf","game":"Team Fortress","app_id":440,"player_count":0,"max_players":24,"Bots":0,"server_type":"Dedicated","server_os":"Linux","password":true,"vac":true,"version":"7882260","steam_id":85568392924469988,"keywords":["cp","nocrits","nodmgspread","uncletopia"],"game_id":440,"stv_port":27026,"stv_name":"Uncletopia | Dallas | 2 | All Maps | STV","players":null},{"server_id":5,"name":"Uncletopia | Frankfurt | 1 | All Maps","name_short":"frk-1","host":"frk-1.de.uncletopia.com","port":27015,"enabled":true,"region":"eu","cc":"de","latitude":50.110924,"longitude":8.682127,"reserved":0,"last_update":"0001-01-01T00:00:00Z","name_a2s":"Uncletopia | Frankfurt | 1 | All Maps","protocol":17,"map":"pl_borneo","folder":"tf","game":"Team Fortress","app_id":440,"player_count":24,"max_players":24,"Bots":0,"server_type":"Dedicated","server_os":"Linux","password":true,"vac":true,"version":"7882260","steam_id":85568392924469989,"keywords":["nocrits","nodmgspread","payload","uncletopia"],"game_id":440,"stv_port":27016,"stv_name":"Uncletopia | Frankfurt | 1 | All Maps | STV","players":[{"user_id":616,"name":"[O\u0026O]YaboiDucki","steam_id":76561198195976589,"connected_time":1857000000000,"state":"active","ping":70},{"user_id":621,"name":"Seeker","steam_id":76561198873052772,"connected_time":1415000000000,"state":"active","ping":69},{"user_id":601,"name":"alice","steam_id":76561198269200388,"connected_time":3568000000000,"state":"active","ping":75},{"user_id":640,"name":"V·¥Ä ü·¥ÄÍú∞·¥Ä Ä","steam_id":76561198069723799,"connected_time":290000000000,"state":"active","ping":53},{"user_id":646,"name":"flr","steam_id":76561198249327786,"connected_time":62000000000,"state":"active","ping":64},{"user_id":624,"name":"s a i","steam_id":76561197970379754,"connected_time":857000000000,"state":"active","ping":48},{"user_id":615,"name":"screenshot2020-25-09","steam_id":76561198255275650,"connected_time":2278000000000,"state":"active","ping":61},{"user_id":619,"name":"bunglar","steam_id":76561198027374166,"connected_time":1497000000000,"state":"active","ping":50},{"user_id":625,"name":"RedFog","steam_id":76561198284713081,"connected_time":853000000000,"state":"active","ping":43},{"user_id":554,"name":"powej","steam_id":76561198056381418,"connected_time":5119000000000,"state":"active","ping":52},{"user_id":620,"name":"aaaaa aa aaa","steam_id":76561198377289568,"connected_time":1478000000000,"state":"active","ping":62},{"user_id":641,"name":"BranchosGem","steam_id":76561199091240203,"connected_time":195000000000,"state":"active","ping":46},{"user_id":639,"name":"svantezch","steam_id":76561198373831657,"connected_time":386000000000,"state":"active","ping":74},{"user_id":602,"name":"L1RG0","steam_id":76561198329274068,"connected_time":3564000000000,"state":"active","ping":62},{"user_id":643,"name":"Neymar da Silva Santos Jr","steam_id":76561198078939696,"connected_time":182000000000,"state":"active","ping":79},{"user_id":645,"name":"Spell Montassier","steam_id":76561198406319751,"connected_time":153000000000,"state":"active","ping":52},{"user_id":644,"name":"M/S Jeeztonia","steam_id":76561198123592400,"connected_time":175000000000,"state":"active","ping":87},{"user_id":569,"name":"zvekan","steam_id":76561198381101196,"connected_time":4736000000000,"state":"active","ping":57},{"user_id":647,"name":"Cosmonaut","steam_id":76561198239514504,"connected_time":17000000000,"state":"spawning","ping":50},{"user_id":648,"name":"Underground - Hard Rock R1700G","steam_id":76561198215986979,"connected_time":2000000000,"state":"spawning","ping":58},{"user_id":631,"name":"Accident","steam_id":76561198115160396,"connected_time":811000000000,"state":"active","ping":71},{"user_id":634,"name":"The Green Uncle","steam_id":76561198257163156,"connected_time":704000000000,"state":"active","ping":61},{"user_id":636,"name":"Akis—è–Ω","steam_id":76561198078706435,"connected_time":497000000000,"state":"active","ping":78},{"user_id":637,"name":"soofoul","steam_id":76561198285862099,"connected_time":496000000000,"state":"active","ping":44}]},{"server_id":110,"name":"Uncletopia | Frankfurt | 2 | All Maps","name_short":"frk-2","host":"frk-1.de.uncletopia.com","port":27025,"enabled":true,"region":"eu","cc":"de","latitude":50.110924,"longitude":8.682127,"reserved":0,"last_update":"0001-01-01T00:00:00Z","name_a2s":"Uncletopia | Frankfurt | 2 | All Maps","protocol":17,"map":"pl_badwater","folder":"tf","game":"Team Fortress","app_id":440,"player_count":24,"max_players":24,"Bots":0,"server_type":"Dedicated","server_os":"Linux","password":true,"vac":true,"version":"7882260","steam_id":85568392924469990,"keywords":["nocrits","nodmgspread","payload","uncletopia"],"game_id":440,"stv_port":27026,"stv_name":"Uncletopia | Frankfurt | 2 | All Maps | STV","players":[{"user_id":397,"name":"Milosz52","steam_id":76561199060940204,"connected_time":1571000000000,"state":"active","ping":102},{"user_id":355,"name":"Battle_Pass90","steam_id":76561199367142516,"connected_time":5344000000000,"state":"active","ping":70},{"user_id":395,"name":"PashaVerti","steam_id":76561199013963024,"connected_time":1719000000000,"state":"active","ping":75},{"user_id":402,"name":"giclure :;","steam_id":76561197986362828,"connected_time":901000000000,"state":"active","ping":60},{"user_id":332,"name":"MEDiUM","steam_id":76561198112328561,"connected_time":7576000000000,"state":"active","ping":95},{"user_id":403,"name":"MMMonkey | trade.tf","steam_id":76561198118917458,"connected_time":707000000000,"state":"active","ping":115},{"user_id":399,"name":"Spoody #JustPassing","steam_id":76561198031523769,"connected_time":1308000000000,"state":"active","ping":60},{"user_id":405,"name":"Acanda","steam_id":76561198123246537,"connected_time":113000000000,"state":"active","ping":49},{"user_id":344,"name":":P","steam_id":76561198106399430,"connected_time":6617000000000,"state":"active","ping":60},{"user_id":311,"name":"Mustekala1","steam_id":76561198044468928,"connected_time":8101000000000,"state":"active","ping":55},{"user_id":345,"name":"deadbeat dad","steam_id":76561198380267081,"connected_time":6605000000000,"state":"active","ping":71},{"user_id":370,"name":"DeCypher \u003c3","steam_id":76561198171992619,"connected_time":3996000000000,"state":"active","ping":102},{"user_id":335,"name":"Egor Pomidor","steam_id":76561199175688390,"connected_time":7458000000000,"state":"active","ping":75},{"user_id":381,"name":"Udinese Dion","steam_id":76561198067931573,"connected_time":2045000000000,"state":"active","ping":53},{"user_id":379,"name":"f√©nix","steam_id":76561198083199151,"connected_time":3058000000000,"state":"active","ping":61},{"user_id":392,"name":"FoOzTV","steam_id":76561197998636728,"connected_time":1766000000000,"state":"active","ping":70},{"user_id":404,"name":"miiq130","steam_id":76561198188010666,"connected_time":644000000000,"state":"active","ping":80},{"user_id":353,"name":"Tekky","steam_id":76561197990987315,"connected_time":5755000000000,"state":"active","ping":51},{"user_id":400,"name":"Volterion #SaveTf2","steam_id":76561198293088484,"connected_time":1079000000000,"state":"active","ping":61},{"user_id":385,"name":"Genuine","steam_id":76561197966295765,"connected_time":1914000000000,"state":"active","ping":43},{"user_id":389,"name":"Senor Ding Dong","steam_id":76561198102702616,"connected_time":1850000000000,"state":"active","ping":72},{"user_id":401,"name":"axl","steam_id":76561198991661832,"connected_time":1069000000000,"state":"active","ping":99},{"user_id":377,"name":"christoph","steam_id":76561198862617811,"connected_time":3301000000000,"state":"active","ping":68},{"user_id":390,"name":"Solymr ibn Wali Barad","steam_id":76561198044008976,"connected_time":1849000000000,"state":"active","ping":73}]},{"server_id":308,"name":"Uncletopia | Frankfurt | 3 | All Maps","name_short":"frk-3","host":"frk-1.de.uncletopia.com","port":27035,"enabled":true,"region":"eu","cc":"de","latitude":50.110924,"longitude":8.682127,"reserved":0,"last_update":"0001-01-01T00:00:00Z","name_a2s":"Uncletopia | Frankfurt | 3 | All Maps","protocol":17,"map":"pl_barnblitz","folder":"tf","game":"Team Fortress","app_id":440,"player_count":24,"max_players":24,"Bots":0,"server_type":"Dedicated","server_os":"Linux","password":true,"vac":true,"version":"7882260","steam_id":85568392924504274,"keywords":["nocrits","nodmgspread","payload","uncletopia"],"game_id":440,"stv_port":27036,"stv_name":"Uncletopia | Frankfurt | 3 | All Maps | STV","players":[{"user_id":225,"name":"Toasty5050","steam_id":76561198073540881,"connected_time":2697000000000,"state":"active","ping":40},{"user_id":247,"name":"Pixie","steam_id":76561198044038797,"connected_time":1170000000000,"state":"active","ping":86},{"user_id":210,"name":"Malai","steam_id":76561198062537014,"connected_time":3641000000000,"state":"active","ping":56},{"user_id":199,"name":"Acid","steam_id":76561198029047079,"connected_time":4416000000000,"state":"active","ping":49},{"user_id":253,"name":"Lampinen","steam_id":76561198004936228,"connected_time":504000000000,"state":"active","ping":83},{"user_id":235,"name":"Grim","steam_id":76561198141464555,"connected_time":2338000000000,"state":"active","ping":77},{"user_id":179,"name":"Meff","steam_id":76561197970610839,"connected_time":5353000000000,"state":"active","ping":55},{"user_id":221,"name":"boofing prozac","steam_id":76561198851157897,"connected_time":3077000000000,"state":"active","ping":76},{"user_id":208,"name":"Proud Jojo Fan #TF2SP","steam_id":76561198847327216,"connected_time":3657000000000,"state":"active","ping":77},{"user_id":237,"name":"VoV","steam_id":76561198094615674,"connected_time":2330000000000,"state":"active","ping":119},{"user_id":256,"name":"Max","steam_id":76561198138959361,"connected_time":189000000000,"state":"active","ping":60},{"user_id":224,"name":"Rimx","steam_id":76561198053034840,"connected_time":2829000000000,"state":"active","ping":96},{"user_id":248,"name":"panalmi","steam_id":76561197972077940,"connected_time":1003000000000,"state":"active","ping":86},{"user_id":254,"name":"Smorkface","steam_id":76561198045066985,"connected_time":297000000000,"state":"active","ping":52},{"user_id":215,"name":"Tegnerud","steam_id":76561198214185612,"connected_time":3595000000000,"state":"active","ping":69},{"user_id":249,"name":"St√ºmpy","steam_id":76561198255904077,"connected_time":998000000000,"state":"active","ping":68},{"user_id":240,"name":"MaRo","steam_id":76561198992286676,"connected_time":2285000000000,"state":"active","ping":64},{"user_id":244,"name":"L4gman","steam_id":76561198048227040,"connected_time":2213000000000,"state":"active","ping":100},{"user_id":245,"name":"not kissakala","steam_id":76561198306250172,"connected_time":1634000000000,"state":"active","ping":79},{"user_id":255,"name":"Dewotter","steam_id":76561198007653168,"connected_time":252000000000,"state":"active","ping":69},{"user_id":252,"name":"Cookies and Bakies","steam_id":76561198017442928,"connected_time":699000000000,"state":"active","ping":62},{"user_id":213,"name":"Myrmodion","steam_id":76561198054746247,"connected_time":3604000000000,"state":"active","ping":65},{"user_id":228,"name":"vurtun","steam_id":76561198857395274,"connected_time":2666000000000,"state":"active","ping":54},{"user_id":250,"name":"kreeekz","steam_id":76561198014431602,"connected_time":998000000000,"state":"active","ping":75}]},{"server_id":309,"name":"Uncletopia | Frankfurt | 4 | All Maps","name_short":"frk-4","host":"frk-1.de.uncletopia.com","port":27045,"enabled":true,"region":"eu","cc":"de","latitude":50.110924,"longitude":8.682127,"reserved":0,"last_update":"0001-01-01T00:00:00Z","name_a2s":"Uncletopia | Frankfurt | 4 | All Maps","protocol":17,"map":"cp_dustbowl","folder":"tf","game":"Team Fortress","app_id":440,"player_count":23,"max_players":24,"Bots":0,"server_type":"Dedicated","server_os":"Linux","password":true,"vac":true,"version":"7882260","steam_id":85568392924504275,"keywords":["cp","nocrits","nodmgspread","uncletopia"],"game_id":440,"stv_port":27046,"stv_name":"Uncletopia | Frankfurt | 4 | All Maps | STV","players":[{"user_id":657,"name":"Flostro","steam_id":76561198259793697,"connected_time":227000000000,"state":"active","ping":62},{"user_id":568,"name":"AftiksPL","steam_id":76561198875182686,"connected_time":7218000000000,"state":"active","ping":87},{"user_id":616,"name":"boneez","steam_id":76561198186800982,"connected_time":3299000000000,"state":"active","ping":60},{"user_id":637,"name":"Muli","steam_id":76561198001270460,"connected_time":1812000000000,"state":"active","ping":71},{"user_id":639,"name":"kananugettikeitto","steam_id":76561198071162890,"connected_time":1780000000000,"state":"active","ping":84},{"user_id":648,"name":"wot1|Cz|","steam_id":76561198202936792,"connected_time":1566000000000,"state":"active","ping":66},{"user_id":654,"name":"Bradsta03","steam_id":76561198345731165,"connected_time":483000000000,"state":"active","ping":68},{"user_id":640,"name":"davf591","steam_id":76561198110322367,"connected_time":1771000000000,"state":"active","ping":87},{"user_id":626,"name":"-Boomer-","steam_id":76561197970798571,"connected_time":2245000000000,"state":"active","ping":76},{"user_id":653,"name":"„Éï„Ç°„ÉÉ„Ç´„Éñ„É´„Éª„Éâ„É©„Ç¥","steam_id":76561198016649655,"connected_time":522000000000,"state":"active","ping":84},{"user_id":586,"name":"stefanbejenari","steam_id":76561199466718294,"connected_time":4886000000000,"state":"active","ping":72},{"user_id":649,"name":"[SpyYoshi]","steam_id":76561199001774837,"connected_time":1485000000000,"state":"active","ping":162},{"user_id":635,"name":"akciq ‚Åß‚Åßrespect","steam_id":76561198390963456,"connected_time":1845000000000,"state":"active","ping":75},{"user_id":641,"name":"Whiff","steam_id":76561198086264411,"connected_time":1767000000000,"state":"active","ping":74},{"user_id":656,"name":"Pagey2911","steam_id":76561198018465350,"connected_time":256000000000,"state":"active","ping":79},{"user_id":603,"name":"howabe","steam_id":76561197996486818,"connected_time":4000000000000,"state":"active","ping":52},{"user_id":611,"name":"Agartha Dweller","steam_id":76561198076881381,"connected_time":3614000000000,"state":"active","ping":71},{"user_id":643,"name":"Jackriz","steam_id":76561198024882111,"connected_time":1766000000000,"state":"active","ping":69},{"user_id":644,"name":"vadr","steam_id":76561198334528186,"connected_time":1763000000000,"state":"active","ping":56},{"user_id":658,"name":"Sub-average Spy Main","steam_id":76561198884288965,"connected_time":224000000000,"state":"active","ping":135},{"user_id":652,"name":"deadly commando","steam_id":76561198121214959,"connected_time":818000000000,"state":"active","ping":89},{"user_id":650,"name":"mona che sbatte le porte gaming","steam_id":76561198115904548,"connected_time":1464000000000,"state":"active","ping":92},{"user_id":660,"name":"bart","steam_id":76561198317737261,"connected_time":179000000000,"state":"active","ping":61}]},{"server_id":310,"name":"Uncletopia | Frankfurt | 5 | All Maps","name_short":"frk-5","host":"frk-1.de.uncletopia.com","port":27055,"enabled":true,"region":"eu","cc":"de","latitude":50.110924,"longitude":8.682127,"reserved":0,"last_update":"0001-01-01T00:00:00Z","name_a2s":"Uncletopia | Frankfurt | 5 | All Maps","protocol":17,"map":"pl_frontier_final","folder":"tf","game":"Team Fortress","app_id":440,"player_count":24,"max_players":24,"Bots":0,"server_type":"Dedicated","server_os":"Linux","password":true,"vac":true,"version":"7882260","steam_id":85568392924504277,"keywords":["nocrits","nodmgspread","payload","uncletopia"],"game_id":440,"stv_port":27056,"stv_name":"Uncletopia | Frankfurt | 5 | All Maps | STV","players":[{"user_id":575,"name":"registered M203 owner","steam_id":76561199090545523,"connected_time":771000000000,"state":"active","ping":41},{"user_id":568,"name":"mero","steam_id":76561198293147412,"connected_time":1112000000000,"state":"active","ping":92},{"user_id":494,"name":"citronous","steam_id":76561198093290934,"connected_time":5649000000000,"state":"active","ping":57},{"user_id":587,"name":"1337","steam_id":76561198930351000,"connected_time":560000000000,"state":"active","ping":60},{"user_id":590,"name":"David \"Crash\" Murphy","steam_id":76561198292845505,"connected_time":237000000000,"state":"active","ping":88},{"user_id":576,"name":"Husk","steam_id":76561198271808519,"connected_time":746000000000,"state":"active","ping":54},{"user_id":559,"name":"Rarky","steam_id":76561198054398642,"connected_time":1491000000000,"state":"active","ping":47},{"user_id":577,"name":"L4","steam_id":76561198168270939,"connected_time":741000000000,"state":"active","ping":74},{"user_id":528,"name":"E","steam_id":76561198414106145,"connected_time":3525000000000,"state":"active","ping":274},{"user_id":549,"name":"roblan11","steam_id":76561198066839258,"connected_time":2019000000000,"state":"active","ping":44},{"user_id":570,"name":"Pilaarius","steam_id":76561198120273212,"connected_time":854000000000,"state":"active","ping":95},{"user_id":562,"name":"Hasse Meister","steam_id":76561198126614993,"connected_time":1309000000000,"state":"active","ping":68},{"user_id":588,"name":"nachtraaf","steam_id":76561197960473205,"connected_time":429000000000,"state":"active","ping":58},{"user_id":579,"name":"Teecho","steam_id":76561197995269610,"connected_time":727000000000,"state":"active","ping":73},{"user_id":591,"name":"trans werewolf","steam_id":76561198107235989,"connected_time":61000000000,"state":"active","ping":59},{"user_id":571,"name":"Tea","steam_id":76561198799243030,"connected_time":823000000000,"state":"active","ping":72},{"user_id":552,"name":"Distarche","steam_id":76561198122507617,"connected_time":1982000000000,"state":"active","ping":95},{"user_id":535,"name":"JohnTraveltime","steam_id":76561199244281754,"connected_time":2948000000000,"state":"active","ping":66},{"user_id":565,"name":"Radegast the Brown","steam_id":76561198075489505,"connected_time":1256000000000,"state":"active","ping":60},{"user_id":581,"name":"bigboi_potato","steam_id":76561199136341471,"connected_time":712000000000,"state":"active","ping":82},{"user_id":592,"name":"madijo","steam_id":76561198012617400,"connected_time":45000000000,"state":"spawning","ping":76},{"user_id":589,"name":"‚úûhe joy of recycling","steam_id":76561198415564349,"connected_time":301000000000,"state":"active","ping":69},{"user_id":585,"name":"B4LL3R","steam_id":76561198976760649,"connected_time":627000000000,"state":"active","ping":72},{"user_id":563,"name":"Dictatorial Karelian","steam_id":76561198196736457,"connected_time":1303000000000,"state":"active","ping":74}]},{"server_id":311,"name":"Uncletopia | Frankfurt | 6 | All Maps","name_short":"frk-6","host":"frk-1.de.uncletopia.com","port":27065,"enabled":true,"region":"eu","cc":"de","latitude":50.110924,"longitude":8.682127,"reserved":0,"last_update":"0001-01-01T00:00:00Z","name_a2s":"Uncletopia | Frankfurt | 6 | All Maps","protocol":17,"map":"pl_barnblitz","folder":"tf","game":"Team Fortress","app_id":440,"player_count":24,"max_players":24,"Bots":0,"server_type":"Dedicated","server_os":"Linux","password":true,"vac":true,"version":"7882260","steam_id":85568392924504278,"keywords":["nocrits","nodmgspread","payload","uncletopia"],"game_id":440,"stv_port":27066,"stv_name":"Uncletopia | Frankfurt | 6 | All Maps | STV","players":[{"user_id":134,"name":"WATANG!","steam_id":76561198040478926,"connected_time":1510000000000,"state":"active","ping":64},{"user_id":147,"name":"D_Ink","steam_id":76561198267716662,"connected_time":94000000000,"state":"active","ping":52},{"user_id":124,"name":"birb","steam_id":76561198084891833,"connected_time":1812000000000,"state":"active","ping":49},{"user_id":50,"name":"rob","steam_id":76561198122211848,"connected_time":6482000000000,"state":"active","ping":90},{"user_id":104,"name":"im tha every woman fantasy.,,.","steam_id":76561198063925704,"connected_time":3364000000000,"state":"active","ping":45},{"user_id":142,"name":"MrvicaKing69","steam_id":76561199268407840,"connected_time":648000000000,"state":"active","ping":81},{"user_id":143,"name":"MAKENTAKEN","steam_id":76561199127359587,"connected_time":640000000000,"state":"active","ping":98},{"user_id":127,"name":"Franklin Andrew Robbins","steam_id":76561198846696358,"connected_time":1752000000000,"state":"active","ping":78},{"user_id":79,"name":"British Disapproval","steam_id":76561198001375260,"connected_time":4490000000000,"state":"active","ping":68},{"user_id":133,"name":"Spotmonkey","steam_id":76561198003994092,"connected_time":1540000000000,"state":"active","ping":72},{"user_id":126,"name":"sitting device","steam_id":76561198444445523,"connected_time":1765000000000,"state":"active","ping":71},{"user_id":97,"name":"wee woo","steam_id":76561198147277460,"connected_time":3410000000000,"state":"active","ping":57},{"user_id":98,"name":"dino jr nuggies","steam_id":76561198256619964,"connected_time":3404000000000,"state":"active","ping":75},{"user_id":120,"name":"LOBZIK","steam_id":76561198114830120,"connected_time":2307000000000,"state":"active","ping":77},{"user_id":30,"name":"Slifer the Sky Dragon","steam_id":76561198062255803,"connected_time":7062000000000,"state":"active","ping":60},{"user_id":144,"name":"Matrix108","steam_id":76561198180382327,"connected_time":454000000000,"state":"active","ping":61},{"user_id":140,"name":"senior pomidor","steam_id":76561198123659806,"connected_time":932000000000,"state":"active","ping":102},{"user_id":101,"name":"hello hi","steam_id":76561198148074472,"connected_time":3395000000000,"state":"active","ping":45},{"user_id":136,"name":"xx_peter_griffinzz_xx","steam_id":76561198863013731,"connected_time":1262000000000,"state":"active","ping":54},{"user_id":146,"name":"zek","steam_id":76561198862763731,"connected_time":299000000000,"state":"active","ping":58},{"user_id":103,"name":"zap 0.94","steam_id":76561198023211417,"connected_time":3388000000000,"state":"active","ping":61},{"user_id":114,"name":"Vezage","steam_id":76561198064916164,"connected_time":2533000000000,"state":"active","ping":76},{"user_id":138,"name":"Kaiser","steam_id":76561198024490825,"connected_time":1169000000000,"state":"active","ping":50},{"user_id":66,"name":"Distinguished Gentlemann","steam_id":76561198064734905,"connected_time":5642000000000,"state":"active","ping":94}]},{"server_id":23,"name":"Uncletopia | Frankfurt | 7 | Stopwatch Beta","name_short":"frk-7","host":"frk-1.de.uncletopia.com","port":27075,"enabled":true,"region":"eu","cc":"de","latitude":50.110924,"longitude":8.682127,"reserved":0,"last_update":"0001-01-01T00:00:00Z","name_a2s":"Uncletopia | Frankfurt | 7 | Stopwatch Beta","protocol":17,"map":"workshop/pl_badwater_pro_v12.ugc2142942074","folder":"tf","game":"Team Fortress","app_id":440,"player_count":0,"max_players":24,"Bots":0,"server_type":"Dedicated","server_os":"Linux","password":true,"vac":true,"version":"7882260","steam_id":85568392924742827,"keywords":["nocrits","nodmgspread","payload","uncletopia"],"game_id":440,"stv_port":27076,"stv_name":"Uncletopia | Frankfurt | 7 | Stopwatch Beta | STV","players":null},{"server_id":24,"name":"Uncletopia | Frankfurt | 8 | Community","name_short":"frk-8","host":"frk-1.de.uncletopia.com","port":27085,"enabled":true,"region":"eu","cc":"de","latitude":50.110924,"longitude":8.682127,"reserved":0,"last_update":"0001-01-01T00:00:00Z","name_a2s":"Uncletopia | Frankfurt | 8 | Community","protocol":17,"map":"workshop/cp_croissant_final.ugc458840209","folder":"tf","game":"Team Fortress","app_id":440,"player_count":3,"max_players":24,"Bots":0,"server_type":"Dedicated","server_os":"Linux","password":true,"vac":true,"version":"7882260","steam_id":85568392924742828,"keywords":["cp","nocrits","nodmgspread","uncletopia"],"game_id":440,"stv_port":27086,"stv_name":"Uncletopia | Frankfurt | 8 | Community | STV","players":[{"user_id":17,"name":"Wave Stillchill0 to me!","steam_id":76561199027811851,"connected_time":1956000000000,"state":"active","ping":55},{"user_id":18,"name":"F","steam_id":76561199149462792,"connected_time":1519000000000,"state":"active","ping":70},{"user_id":24,"name":"Jack.Orlando","steam_id":76561198802400236,"connected_time":143000000000,"state":"active","ping":66}]},{"server_id":202,"name":"Uncletopia | Hong Kong | 1 | All Maps","name_short":"hgk-1","host":"hgk-1.hk.uncletopia.com","port":27015,"enabled":true,"region":"asia","cc":"hk","latitude":22.302711,"longitude":114.177216,"reserved":0,"last_update":"0001-01-01T00:00:00Z","name_a2s":"Uncletopia | Hong Kong | 1 | All Maps","protocol":17,"map":"koth_viaduct","folder":"tf","game":"Team Fortress","app_id":440,"player_count":0,"max_players":24,"Bots":0,"server_type":"Dedicated","server_os":"Linux","password":true,"vac":true,"version":"7882260","steam_id":85568392924494504,"keywords":["cp","nocrits","nodmgspread","uncletopia"],"game_id":440,"stv_port":27016,"stv_name":"Uncletopia | Hong Kong | 1 | All Maps | STV","players":null},{"server_id":1,"name":"Uncletopia | Los Angeles | 1 | All Maps","name_short":"lax-1","host":"lax-1.us.uncletopia.com","port":27015,"enabled":true,"region":"us-west","cc":"us","latitude":33.94279,"longitude":-118.41004,"reserved":0,"last_update":"0001-01-01T00:00:00Z","name_a2s":"Uncletopia | Los Angeles | 1 | All Maps","protocol":17,"map":"pl_barnblitz","folder":"tf","game":"Team Fortress","app_id":440,"player_count":22,"max_players":24,"Bots":0,"server_type":"Dedicated","server_os":"Linux","password":true,"vac":true,"version":"7882260","steam_id":85568392924469991,"keywords":["nocrits","nodmgspread","payload","uncletopia"],"game_id":440,"stv_port":27016,"stv_name":"Uncletopia | Los Angeles | 1 | All Maps | STV","players":[{"user_id":66,"name":"Shinies","steam_id":76561198169459631,"connected_time":245000000000,"state":"active","ping":74},{"user_id":7,"name":"sleck","steam_id":76561197993068585,"connected_time":4149000000000,"state":"active","ping":45},{"user_id":22,"name":"rainbow sonic","steam_id":76561198015123424,"connected_time":2838000000000,"state":"active","ping":157},{"user_id":54,"name":"Diclonius","steam_id":76561198075646647,"connected_time":1731000000000,"state":"active","ping":45},{"user_id":67,"name":"Harold","steam_id":76561198057317770,"connected_time":199000000000,"state":"active","ping":45},{"user_id":58,"name":"shakoiwa","steam_id":76561199059441773,"connected_time":1392000000000,"state":"active","ping":52},{"user_id":68,"name":"slim goodbody","steam_id":76561197997100185,"connected_time":198000000000,"state":"active","ping":45},{"user_id":69,"name":"WACKY JIM","steam_id":76561198961641122,"connected_time":195000000000,"state":"active","ping":49},{"user_id":43,"name":"DrStarBucksCoffee","steam_id":76561198037372470,"connected_time":2216000000000,"state":"active","ping":75},{"user_id":21,"name":"Za Zombie","steam_id":76561198055545262,"connected_time":2882000000000,"state":"active","ping":114},{"user_id":63,"name":"Jokezonyu","steam_id":76561198213167893,"connected_time":728000000000,"state":"active","ping":65},{"user_id":65,"name":"Haver of Thicc Goth GF","steam_id":76561199038566105,"connected_time":387000000000,"state":"active","ping":133},{"user_id":50,"name":"Mosasaurus_Rex","steam_id":76561198823465309,"connected_time":2038000000000,"state":"active","ping":112},{"user_id":70,"name":"Molten Pancake","steam_id":76561199085340387,"connected_time":136000000000,"state":"active","ping":116},{"user_id":27,"name":"Shamrock Shake Oct.10.2020 @8pm","steam_id":76561198833313201,"connected_time":2733000000000,"state":"active","ping":55},{"user_id":71,"name":"Dullahan","steam_id":76561198119668908,"connected_time":134000000000,"state":"active","ping":58},{"user_id":47,"name":"Manticore","steam_id":76561198044664093,"connected_time":2084000000000,"state":"active","ping":108},{"user_id":72,"name":"Femboi Fox","steam_id":76561198915758702,"connected_time":102000000000,"state":"active","ping":75},{"user_id":73,"name":"guy","steam_id":76561198196443262,"connected_time":92000000000,"state":"active","ping":45},{"user_id":64,"name":"MerkyWaters","steam_id":76561197998853063,"connected_time":434000000000,"state":"active","ping":55},{"user_id":74,"name":"beans","steam_id":76561199082781884,"connected_time":47000000000,"state":"spawning","ping":29},{"user_id":51,"name":"Einstein_Kid","steam_id":76561199079149141,"connected_time":2002000000000,"state":"active","ping":53}]},{"server_id":112,"name":"Uncletopia | Los Angeles | 2 | All Maps","name_short":"lax-2","host":"lax-1.us.uncletopia.com","port":27025,"enabled":true,"region":"us-west","cc":"us","latitude":33.94279,"longitude":-118.41004,"reserved":0,"last_update":"0001-01-01T00:00:00Z","name_a2s":"Uncletopia | Los Angeles | 2 | All Maps","protocol":17,"map":"cp_sunshine","folder":"tf","game":"Team Fortress","app_id":440,"player_count":0,"max_players":24,"Bots":0,"server_type":"Dedicated","server_os":"Linux","password":true,"vac":true,"version":"7882260","steam_id":85568392924469992,"keywords":["cp","nocrits","nodmgspread","uncletopia"],"game_id":440,"stv_port":27026,"stv_name":"Uncletopia | Los Angeles | 2 | All Maps | STV","players":null},{"server_id":324,"name":"Uncletopia | Los Angeles | 3 | All Maps","name_short":"lax-3","host":"lax-1.us.uncletopia.com","port":27035,"enabled":true,"region":"us-west","cc":"us","latitude":33.94279,"longitude":-118.41004,"reserved":0,"last_update":"0001-01-01T00:00:00Z","name_a2s":"Uncletopia | Los Angeles | 3 | All Maps","protocol":17,"map":"cp_sunshine","folder":"tf","game":"Team Fortress","app_id":440,"player_count":2,"max_players":24,"Bots":0,"server_type":"Dedicated","server_os":"Linux","password":true,"vac":true,"version":"7882260","steam_id":85568392924510198,"keywords":["cp","nocrits","nodmgspread","uncletopia"],"game_id":440,"stv_port":27036,"stv_name":"Uncletopia | Los Angeles | 3 | All Maps | STV","players":[{"user_id":5,"name":"ScrockCat","steam_id":76561198012882208,"connected_time":1405000000000,"state":"active","ping":75},{"user_id":7,"name":"cat","steam_id":76561198302651200,"connected_time":578000000000,"state":"active","ping":109}]},{"server_id":25,"name":"Uncletopia | Los Angeles | 4 | Stopwatch Beta","name_short":"lax-4","host":"lax-1.us.uncletopia.com","port":27045,"enabled":true,"region":"us-west","cc":"us","latitude":33.94279,"longitude":-118.41004,"reserved":0,"last_update":"0001-01-01T00:00:00Z","name_a2s":"Uncletopia | Los Angeles | 4 | Stopwatch Beta","protocol":17,"map":"workshop/koth_bagel_rc6.ugc2514036946","folder":"tf","game":"Team Fortress","app_id":440,"player_count":0,"max_players":24,"Bots":0,"server_type":"Dedicated","server_os":"Linux","password":true,"vac":true,"version":"7882260","steam_id":85568392924510199,"keywords":["cp","nocrits","nodmgspread","uncletopia"],"game_id":440,"stv_port":27046,"stv_name":"Uncletopia | Los Angeles | 4 | Stopwatch Beta | STV","players":null},{"server_id":11,"name":"Uncletopia | London | 1 | All Maps","name_short":"lon-1","host":"lon-1.uk.uncletopia.com","port":27015,"enabled":true,"region":"eu","cc":"gb","latitude":51.509865,"longitude":-0.118092,"reserved":0,"last_update":"0001-01-01T00:00:00Z","name_a2s":"Uncletopia | London | 1 | All Maps","protocol":17,"map":"pl_badwater","folder":"tf","game":"Team Fortress","app_id":440,"player_count":24,"max_players":24,"Bots":0,"server_type":"Dedicated","server_os":"Linux","password":true,"vac":true,"version":"7882260","steam_id":85568392924367362,"keywords":["nocrits","nodmgspread","payload","uncletopia"],"game_id":440,"stv_port":27016,"stv_name":"Uncletopia | London | 1 | All Maps | STV","players":[{"user_id":280,"name":"megamash","steam_id":76561198042672341,"connected_time":2152000000000,"state":"active","ping":53},{"user_id":289,"name":"rat #1","steam_id":76561198381491880,"connected_time":1409000000000,"state":"active","ping":106},{"user_id":299,"name":"Femboy Portal Radio Uncompresse","steam_id":76561198072320671,"connected_time":295000000000,"state":"active","ping":35},{"user_id":208,"name":"Plep","steam_id":76561198840259819,"connected_time":7472000000000,"state":"active","ping":58},{"user_id":305,"name":"fshfkr","steam_id":76561198095979282,"connected_time":21000000000,"state":"active","ping":44},{"user_id":246,"name":"gub","steam_id":76561198171178427,"connected_time":4439000000000,"state":"active","ping":97},{"user_id":287,"name":"‚ô• aura ‚ô•","steam_id":76561198066258544,"connected_time":1461000000000,"state":"active","ping":63},{"user_id":250,"name":"Jofiah/TTV","steam_id":76561197977233962,"connected_time":4118000000000,"state":"active","ping":47},{"user_id":161,"name":"Aroo","steam_id":76561198132601368,"connected_time":10816000000000,"state":"active","ping":79},{"user_id":290,"name":"Sofia v. Boergersatt","steam_id":76561197968530671,"connected_time":1398000000000,"state":"active","ping":61},{"user_id":303,"name":"Lix","steam_id":76561198130779816,"connected_time":141000000000,"state":"active","ping":57},{"user_id":266,"name":"Pinkchup","steam_id":76561198106802803,"connected_time":3617000000000,"state":"active","ping":72},{"user_id":298,"name":"shooer! :D \u003e\u003c(((¬∫\u003e","steam_id":76561198110531281,"connected_time":610000000000,"state":"active","ping":70},{"user_id":302,"name":"Cosmetic brain","steam_id":76561198055936410,"connected_time":284000000000,"state":"active","ping":87},{"user_id":228,"name":"Ark-e","steam_id":76561198261870909,"connected_time":6166000000000,"state":"active","ping":32},{"user_id":230,"name":"cazador","steam_id":76561198123096922,"connected_time":5927000000000,"state":"active","ping":100},{"user_id":214,"name":"After8","steam_id":76561198090750865,"connected_time":7403000000000,"state":"active","ping":68},{"user_id":301,"name":"twitch/auratf2","steam_id":76561197988085026,"connected_time":292000000000,"state":"active","ping":75},{"user_id":294,"name":"Aaron","steam_id":76561197990046953,"connected_time":1029000000000,"state":"active","ping":60},{"user_id":252,"name":"Minimi","steam_id":76561198873850443,"connected_time":3933000000000,"state":"active","ping":40},{"user_id":306,"name":"ufomaster1111111","steam_id":76561198837347666,"connected_time":21000000000,"state":"active","ping":52},{"user_id":293,"name":"the worms","steam_id":76561198338001056,"connected_time":1378000000000,"state":"active","ping":62},{"user_id":283,"name":"Wujek Cacek","steam_id":76561198010267943,"connected_time":2124000000000,"state":"active","ping":75},{"user_id":300,"name":"The Sex Defender","steam_id":76561198165732391,"connected_time":294000000000,"state":"active","ping":93}]},{"server_id":114,"name":"Uncletopia | London | 2 | All Maps","name_short":"lon-2","host":"lon-1.uk.uncletopia.com","port":27025,"enabled":true,"region":"eu","cc":"gb","latitude":51.509865,"longitude":-0.118092,"reserved":0,"last_update":"0001-01-01T00:00:00Z","name_a2s":"Uncletopia | London | 2 | All Maps","protocol":17,"map":"pl_thundermountain","folder":"tf","game":"Team Fortress","app_id":440,"player_count":21,"max_players":24,"Bots":0,"server_type":"Dedicated","server_os":"Linux","password":true,"vac":true,"version":"7882260","steam_id":85568392924470941,"keywords":["nocrits","nodmgspread","payload","uncletopia"],"game_id":440,"stv_port":27026,"stv_name":"Uncletopia | London | 2 | All Maps | STV","players":[{"user_id":251,"name":"doopsuiker","steam_id":76561198025916703,"connected_time":388000000000,"state":"active","ping":80},{"user_id":214,"name":"Providence","steam_id":76561198003920270,"connected_time":2823000000000,"state":"active","ping":69},{"user_id":235,"name":"Purplish","steam_id":76561198006393993,"connected_time":2203000000000,"state":"active","ping":45},{"user_id":263,"name":"C√©l√©rio","steam_id":76561198088253576,"connected_time":21000000000,"state":"active","ping":44},{"user_id":220,"name":"tanyathsus","steam_id":76561198089522447,"connected_time":2479000000000,"state":"active","ping":60},{"user_id":253,"name":"Rook","steam_id":76561197995204779,"connected_time":337000000000,"state":"active","ping":43},{"user_id":254,"name":"Milk","steam_id":76561198125876588,"connected_time":337000000000,"state":"active","ping":41},{"user_id":231,"name":"Nikcha","steam_id":76561198253300222,"connected_time":2270000000000,"state":"active","ping":46},{"user_id":193,"name":"VanillaWoof","steam_id":76561198158343951,"connected_time":3644000000000,"state":"active","ping":61},{"user_id":236,"name":"Sir Cauterize","steam_id":76561198047079422,"connected_time":2055000000000,"state":"active","ping":48},{"user_id":240,"name":"Creative","steam_id":76561198835034247,"connected_time":1831000000000,"state":"active","ping":103},{"user_id":248,"name":"hunte","steam_id":76561198063483484,"connected_time":1050000000000,"state":"active","ping":76},{"user_id":259,"name":"Cletus","steam_id":76561198112815670,"connected_time":289000000000,"state":"active","ping":77},{"user_id":247,"name":"Officer Sandwich","steam_id":76561198306743311,"connected_time":1292000000000,"state":"active","ping":70},{"user_id":256,"name":"Sammy","steam_id":76561197977379410,"connected_time":327000000000,"state":"active","ping":94},{"user_id":166,"name":"hmscole09","steam_id":76561198811362788,"connected_time":4905000000000,"state":"active","ping":54},{"user_id":232,"name":"SooS","steam_id":76561198058943929,"connected_time":2256000000000,"state":"active","ping":71},{"user_id":158,"name":"Goober","steam_id":76561198054795379,"connected_time":5639000000000,"state":"active","ping":70},{"user_id":257,"name":"Ma≈õlak ‚ô™","steam_id":76561198079075744,"connected_time":318000000000,"state":"active","ping":70},{"user_id":260,"name":"Delta Melta","steam_id":76561198283391403,"connected_time":262000000000,"state":"active","ping":60},{"user_id":258,"name":"Snowmotion","steam_id":76561198075022454,"connected_time":314000000000,"state":"active","ping":71}]},{"server_id":320,"name":"Uncletopia | London | 3 | All Maps","name_short":"lon-3","host":"lon-1.uk.uncletopia.com","port":27035,"enabled":true,"region":"eu","cc":"gb","latitude":51.509865,"longitude":-0.118092,"reserved":0,"last_update":"0001-01-01T00:00:00Z","name_a2s":"Uncletopia | London | 3 | All Maps","protocol":17,"map":"cp_altitude","folder":"tf","game":"Team Fortress","app_id":440,"player_count":24,"max_players":24,"Bots":0,"server_type":"Dedicated","server_os":"Linux","password":true,"vac":true,"version":"7882260","steam_id":85568392924510192,"keywords":["cp","nocrits","nodmgspread","uncletopia"],"game_id":440,"stv_port":27036,"stv_name":"Uncletopia | London | 3 | All Maps | STV","players":[{"user_id":59,"name":"Pootis.gov.uk","steam_id":76561197970114051,"connected_time":674000000000,"state":"active","ping":45},{"user_id":15,"name":"ToxyTero","steam_id":76561198413359724,"connected_time":2554000000000,"state":"active","ping":80},{"user_id":16,"name":"B52 stealth bomber","steam_id":76561198878274997,"connected_time":2537000000000,"state":"active","ping":84},{"user_id":35,"name":"nemelex","steam_id":76561198958005865,"connected_time":1460000000000,"state":"active","ping":60},{"user_id":31,"name":"captain","steam_id":76561198072765192,"connected_time":1666000000000,"state":"active","ping":54},{"user_id":20,"name":"ja","steam_id":76561199228540618,"connected_time":2354000000000,"state":"active","ping":69},{"user_id":32,"name":"LeGibus","steam_id":76561198122455548,"connected_time":1662000000000,"state":"active","ping":55},{"user_id":33,"name":"Shotty_gunny","steam_id":76561198064158826,"connected_time":1549000000000,"state":"active","ping":65},{"user_id":41,"name":"Petight","steam_id":76561197999438798,"connected_time":1267000000000,"state":"active","ping":30},{"user_id":38,"name":"Ando","steam_id":76561198176784641,"connected_time":1347000000000,"state":"active","ping":64},{"user_id":36,"name":"Laxslow","steam_id":76561198065361846,"connected_time":1446000000000,"state":"active","ping":72},{"user_id":42,"name":"piping hot","steam_id":76561198011692496,"connected_time":1231000000000,"state":"active","ping":69},{"user_id":63,"name":"JownCenta","steam_id":76561198121397124,"connected_time":400000000000,"state":"active","ping":45},{"user_id":40,"name":"Sir Spectral The Punisher","steam_id":76561198250927762,"connected_time":1338000000000,"state":"active","ping":75},{"user_id":43,"name":"true","steam_id":76561198031145243,"connected_time":1226000000000,"state":"active","ping":79},{"user_id":64,"name":"chocolate flavoured femboy","steam_id":76561198819353867,"connected_time":300000000000,"state":"active","ping":34},{"user_id":45,"name":"iamhereforgaming","steam_id":76561199372555988,"connected_time":1208000000000,"state":"active","ping":90},{"user_id":46,"name":"xd","steam_id":76561198103583326,"connected_time":1205000000000,"state":"active","ping":62},{"user_id":47,"name":"padillacampos","steam_id":76561198161923970,"connected_time":1184000000000,"state":"active","ping":73},{"user_id":48,"name":"JO√ÉO MIGUEL","steam_id":76561198066297489,"connected_time":1179000000000,"state":"active","ping":74},{"user_id":55,"name":"TheAsianMate","steam_id":76561198116111669,"connected_time":1034000000000,"state":"active","ping":74},{"user_id":65,"name":"Mayor Wank from Wanker Town","steam_id":76561197998253588,"connected_time":290000000000,"state":"active","ping":56},{"user_id":58,"name":"tobi ^Ô∏ø^","steam_id":76561198023388785,"connected_time":905000000000,"state":"active","ping":60},{"user_id":61,"name":"kallerannar","steam_id":76561199095701143,"connected_time":497000000000,"state":"active","ping":84}]},{"server_id":321,"name":"Uncletopia | London | 4 | All Maps","name_short":"lon-4","host":"lon-1.uk.uncletopia.com","port":27045,"enabled":true,"region":"eu","cc":"gb","latitude":51.509865,"longitude":-0.118092,"reserved":0,"last_update":"0001-01-01T00:00:00Z","name_a2s":"Uncletopia | London | 4 | All Maps","protocol":17,"map":"cp_altitude","folder":"tf","game":"Team Fortress","app_id":440,"player_count":22,"max_players":24,"Bots":0,"server_type":"Dedicated","server_os":"Linux","password":true,"vac":true,"version":"7882260","steam_id":85568392924510193,"keywords":["cp","nocrits","nodmgspread","uncletopia"],"game_id":440,"stv_port":27046,"stv_name":"Uncletopia | London | 4 | All Maps | STV","players":[{"user_id":206,"name":"Hivel","steam_id":76561198151390773,"connected_time":1925000000000,"state":"active","ping":96},{"user_id":235,"name":"smk","steam_id":76561198068027379,"connected_time":274000000000,"state":"active","ping":80},{"user_id":220,"name":"Gnarville","steam_id":76561198006373329,"connected_time":1168000000000,"state":"active","ping":49},{"user_id":245,"name":"bird (trans rights)","steam_id":76561198393596975,"connected_time":110000000000,"state":"active","ping":50},{"user_id":208,"name":"|Zomaxx|","steam_id":76561198138925802,"connected_time":1841000000000,"state":"active","ping":69},{"user_id":224,"name":"dinorno","steam_id":76561198146276830,"connected_time":720000000000,"state":"active","ping":86},{"user_id":225,"name":"Apex Child Predator","steam_id":76561198348249993,"connected_time":701000000000,"state":"active","ping":76},{"user_id":233,"name":"Michael","steam_id":76561198003146906,"connected_time":451000000000,"state":"active","ping":47},{"user_id":204,"name":"Boomer Shooter Consoomer","steam_id":76561198079752648,"connected_time":2267000000000,"state":"active","ping":72},{"user_id":231,"name":"Captain Samo","steam_id":76561198047224482,"connected_time":484000000000,"state":"active","ping":77},{"user_id":227,"name":"Truegear","steam_id":76561198059511386,"connected_time":669000000000,"state":"active","ping":94},{"user_id":222,"name":"Explosive_kink","steam_id":76561198998702838,"connected_time":1090000000000,"state":"active","ping":54},{"user_id":239,"name":"TheMelonApocalypse","steam_id":76561199107057681,"connected_time":172000000000,"state":"active","ping":57},{"user_id":237,"name":"bixigu","steam_id":76561198007425793,"connected_time":245000000000,"state":"active","ping":95},{"user_id":196,"name":"KeTlEr","steam_id":76561198100957443,"connected_time":3437000000000,"state":"active","ping":73},{"user_id":238,"name":"‡∂ûbominasus 2137  #SaveTF2","steam_id":76561198030062981,"connected_time":216000000000,"state":"active","ping":75},{"user_id":234,"name":"gamer","steam_id":76561199121842872,"connected_time":367000000000,"state":"active","ping":52},{"user_id":210,"name":"wurlmon","steam_id":76561198113052745,"connected_time":1816000000000,"state":"active","ping":71},{"user_id":216,"name":"Ricord","steam_id":76561198104369167,"connected_time":1682000000000,"state":"active","ping":44},{"user_id":203,"name":"hlug2340","steam_id":76561198087970118,"connected_time":2796000000000,"state":"active","ping":74},{"user_id":246,"name":"Jan.","steam_id":76561197974066329,"connected_time":84000000000,"state":"active","ping":64},{"user_id":242,"name":"Koby","steam_id":76561198118554071,"connected_time":157000000000,"state":"active","ping":84}]},{"server_id":21,"name":"Uncletopia | London | 5 | All Maps","name_short":"lon-5","host":"lon-1.uk.uncletopia.com","port":27055,"enabled":true,"region":"eu","cc":"gb","latitude":51.509865,"longitude":-0.118092,"reserved":0,"last_update":"0001-01-01T00:00:00Z","name_a2s":"Uncletopia | London | 5 | All Maps","protocol":17,"map":"koth_cascade","folder":"tf","game":"Team Fortress","app_id":440,"player_count":5,"max_players":24,"Bots":0,"server_type":"Dedicated","server_os":"Linux","password":true,"vac":true,"version":"7882260","steam_id":85568392924742829,"keywords":["cp","nocrits","nodmgspread","uncletopia"],"game_id":440,"stv_port":27056,"stv_name":"Uncletopia | London | 5 | All Maps | STV","players":[{"user_id":16,"name":"Carrot","steam_id":76561198119340863,"connected_time":162000000000,"state":"active","ping":32},{"user_id":18,"name":"mh","steam_id":76561198442932674,"connected_time":91000000000,"state":"active","ping":110},{"user_id":19,"name":"abipinch","steam_id":76561199104348040,"connected_time":90000000000,"state":"active","ping":48},{"user_id":20,"name":"olsolsols12","steam_id":76561198089444052,"connected_time":72000000000,"state":"active","ping":52},{"user_id":21,"name":"lollyformolly","steam_id":76561199017868205,"connected_time":25000000000,"state":"spawning","ping":43}]},{"server_id":22,"name":"Uncletopia | London | 6 | All Maps","name_short":"lon-6","host":"lon-1.uk.uncletopia.com","port":27065,"enabled":true,"region":"eu","cc":"gb","latitude":51.509865,"longitude":-0.118092,"reserved":0,"last_update":"0001-01-01T00:00:00Z","name_a2s":"Uncletopia | London | 6 | All Maps","protocol":17,"map":"pl_borneo","folder":"tf","game":"Team Fortress","app_id":440,"player_count":24,"max_players":24,"Bots":0,"server_type":"Dedicated","server_os":"Linux","password":true,"vac":true,"version":"7882260","steam_id":85568392924742830,"keywords":["nocrits","nodmgspread","payload","uncletopia"],"game_id":440,"stv_port":27066,"stv_name":"Uncletopia | London | 6 | All Maps | STV","players":[{"user_id":432,"name":"1 toke 4 mars bars","steam_id":76561198056460000,"connected_time":1645000000000,"state":"active","ping":46},{"user_id":444,"name":"Frylock","steam_id":76561198050292560,"connected_time":591000000000,"state":"active","ping":45},{"user_id":445,"name":"‚òÅ Lou1smeister ‚òÅ","steam_id":76561198004032968,"connected_time":581000000000,"state":"active","ping":65},{"user_id":456,"name":"the babadook","steam_id":76561198040168682,"connected_time":47000000000,"state":"active","ping":37},{"user_id":434,"name":"Maverick","steam_id":76561198049193435,"connected_time":1512000000000,"state":"active","ping":162},{"user_id":381,"name":"Spinyapickle","steam_id":76561198086653667,"connected_time":4321000000000,"state":"active","ping":56},{"user_id":371,"name":"Silent","steam_id":76561198344588858,"connected_time":5105000000000,"state":"active","ping":78},{"user_id":447,"name":"Buddy","steam_id":76561198050185582,"connected_time":552000000000,"state":"active","ping":59},{"user_id":428,"name":"Banzar1","steam_id":76561198170325423,"connected_time":1826000000000,"state":"active","ping":119},{"user_id":453,"name":"quickfast","steam_id":76561199438900919,"connected_time":183000000000,"state":"active","ping":42},{"user_id":449,"name":"Markein","steam_id":76561198360754280,"connected_time":503000000000,"state":"active","ping":52},{"user_id":454,"name":"minn","steam_id":76561198099101232,"connected_time":115000000000,"state":"active","ping":56},{"user_id":410,"name":"ohio.lottery.contestant4004","steam_id":76561198051852765,"connected_time":3582000000000,"state":"active","ping":75},{"user_id":441,"name":"Caliban","steam_id":76561197999696839,"connected_time":1203000000000,"state":"active","ping":125},{"user_id":433,"name":"sex havin'","steam_id":76561198169857427,"connected_time":1614000000000,"state":"active","ping":70},{"user_id":451,"name":"Tea guy","steam_id":76561198797847641,"connected_time":301000000000,"state":"active","ping":59},{"user_id":419,"name":"burgz","steam_id":76561198109955787,"connected_time":2854000000000,"state":"active","ping":54},{"user_id":408,"name":"Watermelon","steam_id":76561198078349914,"connected_time":3622000000000,"state":"active","ping":55},{"user_id":423,"name":"xiiski","steam_id":76561198152387747,"connected_time":2803000000000,"state":"active","ping":132},{"user_id":455,"name":"The Lizard of Oz","steam_id":76561198160830606,"connected_time":109000000000,"state":"active","ping":74},{"user_id":450,"name":"Osmo","steam_id":76561199286764992,"connected_time":459000000000,"state":"active","ping":89},{"user_id":412,"name":"Zakk","steam_id":76561199217826681,"connected_time":3482000000000,"state":"active","ping":90},{"user_id":425,"name":"Fish 'n' Chips","steam_id":76561198033476886,"connected_time":2548000000000,"state":"active","ping":55}]},{"server_id":40,"name":"Uncletopia | London | 7 | No Payload","name_short":"lon-7","host":"lon-1.uk.uncletopia.com","port":27075,"enabled":true,"region":"eu","cc":"gb","latitude":51.509865,"longitude":-0.118092,"reserved":0,"last_update":"0001-01-01T00:00:00Z","name_a2s":"Uncletopia | London | 7 | No Payload","protocol":17,"map":"koth_viaduct","folder":"tf","game":"Team Fortress","app_id":440,"player_count":0,"max_players":24,"Bots":0,"server_type":"Dedicated","server_os":"Linux","password":true,"vac":true,"version":"7882260","steam_id":85568392924964314,"keywords":["cp","nocrits","nodmgspread","uncletopia"],"game_id":440,"stv_port":27076,"stv_name":"Uncletopia | London | 7 | No Payload | STV","players":null},{"server_id":41,"name":"Uncletopia | London | 8 | Community","name_short":"lon-8","host":"lon-1.uk.uncletopia.com","port":27085,"enabled":true,"region":"eu","cc":"gb","latitude":51.509865,"longitude":-0.118092,"reserved":0,"last_update":"0001-01-01T00:00:00Z","name_a2s":"Uncletopia | London | 8 | Community","protocol":17,"map":"workshop/koth_kemptown_rc1.ugc767410655","folder":"tf","game":"Team Fortress","app_id":440,"player_count":3,"max_players":24,"Bots":0,"server_type":"Dedicated","server_os":"Linux","password":true,"vac":true,"version":"7882260","steam_id":85568392924964315,"keywords":["cp","nocrits","nodmgspread","uncletopia"],"game_id":440,"stv_port":27086,"stv_name":"Uncletopia | London | 8 | Community | STV","players":[{"user_id":13,"name":"ARCANE","steam_id":76561198141294779,"connected_time":893000000000,"state":"active","ping":103},{"user_id":14,"name":"Coromax","steam_id":76561198797006018,"connected_time":876000000000,"state":"active","ping":70},{"user_id":15,"name":"Pan Pan","steam_id":76561199074670515,"connected_time":215000000000,"state":"active","ping":249}]},{"server_id":300,"name":"Uncletopia | Montr√©al | 1 | All Maps","name_short":"mtl-1","host":"mtl-1.ca.uncletopia.com","port":27015,"enabled":true,"region":"us-east","cc":"ca","latitude":45.50889,"longitude":-73.56167,"reserved":0,"last_update":"0001-01-01T00:00:00Z","name_a2s":"Uncletopia | Montr√©al | 1 | All Maps","protocol":17,"map":"koth_viaduct","folder":"tf","game":"Team Fortress","app_id":440,"player_count":0,"max_players":24,"Bots":0,"server_type":"Dedicated","server_os":"Linux","password":true,"vac":true,"version":"7882260","steam_id":85568392924500087,"keywords":["cp","nocrits","nodmgspread","uncletopia"],"game_id":440,"stv_port":27016,"stv_name":"Uncletopia | Montr√©al | 1 | All Maps | STV","players":null},{"server_id":301,"name":"Uncletopia | Montr√©al | 2 | All Maps","name_short":"mtl-2","host":"mtl-1.ca.uncletopia.com","port":27025,"enabled":true,"region":"us-east","cc":"ca","latitude":45.50889,"longitude":-73.56167,"reserved":0,"last_update":"0001-01-01T00:00:00Z","name_a2s":"Uncletopia | Montr√©al | 2 | All Maps","protocol":17,"map":"cp_altitude","folder":"tf","game":"Team Fortress","app_id":440,"player_count":0,"max_players":24,"Bots":0,"server_type":"Dedicated","server_os":"Linux","password":true,"vac":true,"version":"7882260","steam_id":85568392924500088,"keywords":["cp","nocrits","nodmgspread","uncletopia"],"game_id":440,"stv_port":27026,"stv_name":"Uncletopia | Montr√©al | 2 | All Maps | STV","players":null},{"server_id":302,"name":"Uncletopia | Montr√©al | 3 | All Maps","name_short":"mtl-3","host":"mtl-1.ca.uncletopia.com","port":27035,"enabled":true,"region":"us-east","cc":"ca","latitude":45.50889,"longitude":-73.56167,"reserved":0,"last_update":"0001-01-01T00:00:00Z","name_a2s":"Uncletopia | Montr√©al | 3 | All Maps","protocol":17,"map":"pl_frontier_final","folder":"tf","game":"Team Fortress","app_id":440,"player_count":0,"max_players":24,"Bots":0,"server_type":"Dedicated","server_os":"Linux","password":true,"vac":true,"version":"7882260","steam_id":85568392924500089,"keywords":["nocrits","nodmgspread","payload","uncletopia"],"game_id":440,"stv_port":27036,"stv_name":"Uncletopia | Montr√©al | 3 | All Maps | STV","players":null},{"server_id":303,"name":"Uncletopia | Montr√©al | 4 | No Payload","name_short":"mtl-4","host":"mtl-1.ca.uncletopia.com","port":27045,"enabled":true,"region":"us-east","cc":"ca","latitude":45.50889,"longitude":-73.56167,"reserved":0,"last_update":"0001-01-01T00:00:00Z","name_a2s":"Uncletopia | Montr√©al | 4 | No Payload","protocol":17,"map":"cp_altitude","folder":"tf","game":"Team Fortress","app_id":440,"player_count":0,"max_players":24,"Bots":0,"server_type":"Dedicated","server_os":"Linux","password":true,"vac":true,"version":"7882260","steam_id":85568392924500090,"keywords":["cp","nocrits","nodmgspread","uncletopia"],"game_id":440,"stv_port":27046,"stv_name":"Uncletopia | Montr√©al | 4 | No Payload | STV","players":null},{"server_id":13,"name":"Uncletopia | New York City | 1 | All Maps","name_short":"nyc-1","host":"nyc-1.us.uncletopia.com","port":27015,"enabled":true,"region":"us-east","cc":"us","latitude":40.73061,"longitude":-73.93524,"reserved":0,"last_update":"0001-01-01T00:00:00Z","name_a2s":"Uncletopia | New York City | 1 | All Maps","protocol":17,"map":"koth_highpass","folder":"tf","game":"Team Fortress","app_id":440,"player_count":0,"max_players":24,"Bots":0,"server_type":"Dedicated","server_os":"Linux","password":true,"vac":true,"version":"7882260","steam_id":85568392924469993,"keywords":["cp","nocrits","nodmgspread","uncletopia"],"game_id":440,"stv_port":27016,"stv_name":"Uncletopia | New York City | 1 | All Maps | STV","players":null},{"server_id":14,"name":"Uncletopia | New York City | 2 | All Maps","name_short":"nyc-2","host":"nyc-1.us.uncletopia.com","port":27025,"enabled":true,"region":"us-east","cc":"us","latitude":40.73061,"longitude":-73.93524,"reserved":0,"last_update":"0001-01-01T00:00:00Z","name_a2s":"Uncletopia | New York City | 2 | All Maps","protocol":17,"map":"pl_swiftwater_final1","folder":"tf","game":"Team Fortress","app_id":440,"player_count":0,"max_players":24,"Bots":0,"server_type":"Dedicated","server_os":"Linux","password":true,"vac":true,"version":"7882260","steam_id":85568392924469994,"keywords":["nocrits","nodmgspread","payload","uncletopia"],"game_id":440,"stv_port":27026,"stv_name":"Uncletopia | New York City | 2 | All Maps | STV","players":null},{"server_id":15,"name":"Uncletopia | New York City | 3 | Stopwatch Beta","name_short":"nyc-3","host":"nyc-1.us.uncletopia.com","port":27035,"enabled":true,"region":"us-east","cc":"us","latitude":40.73061,"longitude":-73.93524,"reserved":0,"last_update":"0001-01-01T00:00:00Z","name_a2s":"Uncletopia | New York City | 3 | Stopwatch Beta","protocol":17,"map":"koth_lakeside_final","folder":"tf","game":"Team Fortress","app_id":440,"player_count":0,"max_players":24,"Bots":0,"server_type":"Dedicated","server_os":"Linux","password":true,"vac":true,"version":"7882260","steam_id":85568392924742820,"keywords":["cp","nocrits","nodmgspread","uncletopia"],"game_id":440,"stv_port":27036,"stv_name":"Uncletopia | New York City | 3 | Stopwatch Beta | STV","players":null},{"server_id":16,"name":"Uncletopia | New York City | 4 | Community","name_short":"nyc-4","host":"nyc-1.us.uncletopia.com","port":27045,"enabled":true,"region":"us-east","cc":"us","latitude":40.73061,"longitude":-73.93524,"reserved":0,"last_update":"0001-01-01T00:00:00Z","name_a2s":"Uncletopia | New York City | 4 | Community","protocol":17,"map":"pl_badwater","folder":"tf","game":"Team Fortress","app_id":440,"player_count":4,"max_players":24,"Bots":0,"server_type":"Dedicated","server_os":"Linux","password":true,"vac":true,"version":"7882260","steam_id":85568392924742821,"keywords":["nocrits","nodmgspread","payload","uncletopia"],"game_id":440,"stv_port":27046,"stv_name":"Uncletopia | New York City | 4 | Community | STV","players":[{"user_id":4,"name":"Seli_Petra","steam_id":76561199122253034,"connected_time":382000000000,"state":"active","ping":68},{"user_id":5,"name":"Photomadic","steam_id":76561198290391981,"connected_time":374000000000,"state":"active","ping":70},{"user_id":6,"name":"Ainclair","steam_id":76561198143598982,"connected_time":297000000000,"state":"active","ping":57},{"user_id":7,"name":"sheep","steam_id":76561198172943006,"connected_time":101000000000,"state":"active","ping":58}]},{"server_id":142,"name":"Uncletopia | S√£o Paulo | 1 | All Maps","name_short":"sao-1","host":"sao-1.br.uncletopia.com","port":27015,"enabled":true,"region":"sa","cc":"br","latitude":-23.533773,"longitude":-46.62529,"reserved":0,"last_update":"0001-01-01T00:00:00Z","name_a2s":"Uncletopia | S√£o Paulo | 1 | All Maps","protocol":17,"map":"koth_viaduct","folder":"tf","game":"Team Fortress","app_id":440,"player_count":0,"max_players":24,"Bots":0,"server_type":"Dedicated","server_os":"Linux","password":true,"vac":true,"version":"7882260","steam_id":85568392924469996,"keywords":["cp","nocrits","nodmgspread","uncletopia"],"game_id":440,"stv_port":27016,"stv_name":"Uncletopia | S√£o Paulo | 1 | All Maps | STV","players":null},{"server_id":143,"name":"Uncletopia | S√£o Paulo | 2 | All Maps","name_short":"sao-2","host":"sao-2.br.uncletopia.com","port":27015,"enabled":true,"region":"sa","cc":"br","latitude":-23.533773,"longitude":-46.62529,"reserved":0,"last_update":"0001-01-01T00:00:00Z","name_a2s":"Uncletopia | S√£o Paulo | 2 | All Maps","protocol":17,"map":"pl_badwater","folder":"tf","game":"Team Fortress","app_id":440,"player_count":0,"max_players":24,"Bots":0,"server_type":"Dedicated","server_os":"Linux","password":true,"vac":true,"version":"7882260","steam_id":85568392924485349,"keywords":["nocrits","nodmgspread","payload","uncletopia"],"game_id":440,"stv_port":27016,"stv_name":"Uncletopia | S√£o Paulo | 2 | All Maps | STV","players":null},{"server_id":7,"name":"Uncletopia | Seattle | 1 | All Maps","name_short":"sea-1","host":"sea-1.us.uncletopia.com","port":27015,"enabled":true,"region":"us-west","cc":"us","latitude":47.608013,"longitude":-122.33517,"reserved":0,"last_update":"0001-01-01T00:00:00Z","name_a2s":"Uncletopia | Seattle | 1 | All Maps","protocol":17,"map":"cp_dustbowl","folder":"tf","game":"Team Fortress","app_id":440,"player_count":24,"max_players":24,"Bots":0,"server_type":"Dedicated","server_os":"Linux","password":true,"vac":true,"version":"7882260","steam_id":85568392924469997,"keywords":["cp","nocrits","nodmgspread","uncletopia"],"game_id":440,"stv_port":27016,"stv_name":"Uncletopia | Seattle | 1 | All Maps | STV","players":[{"user_id":158,"name":"„Åµ„Çè„Åµ„ÇèÊØõÂ∏É","steam_id":76561198088403016,"connected_time":13598000000000,"state":"active","ping":180},{"user_id":276,"name":"TheMagicMrWaffle","steam_id":76561198104357256,"connected_time":1614000000000,"state":"active","ping":78},{"user_id":267,"name":"bunny girl bimbo!","steam_id":76561198122027532,"connected_time":2196000000000,"state":"active","ping":129},{"user_id":259,"name":"Stick Drift","steam_id":76561199019675078,"connected_time":3615000000000,"state":"active","ping":102},{"user_id":278,"name":"Mecha","steam_id":76561198014927379,"connected_time":1417000000000,"state":"active","ping":115},{"user_id":274,"name":"Orb of Macaroni","steam_id":76561198080851298,"connected_time":1933000000000,"state":"active","ping":62},{"user_id":205,"name":"Y2K","steam_id":76561199191855486,"connected_time":7742000000000,"state":"active","ping":42},{"user_id":271,"name":"Jack Horner in a F-16","steam_id":76561198062438923,"connected_time":2018000000000,"state":"active","ping":118},{"user_id":252,"name":"The Yiddish Dictionary","steam_id":76561198986862889,"connected_time":3886000000000,"state":"active","ping":62},{"user_id":227,"name":"jayeskae","steam_id":76561198144220801,"connected_time":6471000000000,"state":"active","ping":48},{"user_id":282,"name":"JawnyMac","steam_id":76561198179529599,"connected_time":935000000000,"state":"active","ping":75},{"user_id":246,"name":"Daz","steam_id":76561198041431938,"connected_time":5146000000000,"state":"active","ping":50},{"user_id":277,"name":"Konrad Vilulf","steam_id":76561198111124481,"connected_time":1541000000000,"state":"active","ping":148},{"user_id":283,"name":"Wingman","steam_id":76561198066270405,"connected_time":915000000000,"state":"active","ping":64},{"user_id":244,"name":"Little Linguine","steam_id":76561198816986370,"connected_time":5541000000000,"state":"active","ping":58},{"user_id":232,"name":"greenpeace","steam_id":76561197983221708,"connected_time":6410000000000,"state":"active","ping":72},{"user_id":190,"name":"Pre Pissed Pants","steam_id":76561198042143837,"connected_time":10080000000000,"state":"active","ping":61},{"user_id":264,"name":"Kiwi Bird(Furry)","steam_id":76561198998492815,"connected_time":2546000000000,"state":"active","ping":133},{"user_id":281,"name":"Keamy","steam_id":76561199471434875,"connected_time":1052000000000,"state":"active","ping":49},{"user_id":128,"name":"M4 Sherman","steam_id":76561198126990820,"connected_time":15394000000000,"state":"active","ping":102},{"user_id":285,"name":"Ruben","steam_id":76561198048508642,"connected_time":72000000000,"state":"active","ping":52},{"user_id":272,"name":"sassy loli","steam_id":76561198402316065,"connected_time":2014000000000,"state":"active","ping":120},{"user_id":261,"name":"Wise Egg","steam_id":76561198388755604,"connected_time":3579000000000,"state":"active","ping":67},{"user_id":280,"name":"AmiableNebula","steam_id":76561198094306627,"connected_time":1276000000000,"state":"active","ping":75}]},{"server_id":119,"name":"Uncletopia | Seattle | 2 | All Maps","name_short":"sea-2","host":"sea-1.us.uncletopia.com","port":27025,"enabled":true,"region":"us-west","cc":"us","latitude":47.608013,"longitude":-122.33517,"reserved":0,"last_update":"0001-01-01T00:00:00Z","name_a2s":"Uncletopia | Seattle | 2 | All Maps","protocol":17,"map":"pl_frontier_final","folder":"tf","game":"Team Fortress","app_id":440,"player_count":24,"max_players":24,"Bots":0,"server_type":"Dedicated","server_os":"Linux","password":true,"vac":true,"version":"7882260","steam_id":85568392924469998,"keywords":["nocrits","nodmgspread","payload","uncletopia"],"game_id":440,"stv_port":27026,"stv_name":"Uncletopia | Seattle | 2 | All Maps | STV","players":[{"user_id":121,"name":"ether","steam_id":76561198210322871,"connected_time":479000000000,"state":"active","ping":74},{"user_id":122,"name":"Gut125Cin","steam_id":76561198101787225,"connected_time":393000000000,"state":"active","ping":50},{"user_id":28,"name":"Tibetan Pop Star","steam_id":76561198844903984,"connected_time":6311000000000,"state":"active","ping":86},{"user_id":99,"name":"DanceBunny","steam_id":76561198243610560,"connected_time":2474000000000,"state":"active","ping":75},{"user_id":31,"name":"Lesbian Futa Mommy","steam_id":76561198130479030,"connected_time":6012000000000,"state":"active","ping":58},{"user_id":116,"name":"chicken","steam_id":76561198196998007,"connected_time":1410000000000,"state":"active","ping":88},{"user_id":84,"name":"cupnoodles","steam_id":76561198076137957,"connected_time":3523000000000,"state":"active","ping":76},{"user_id":101,"name":"J.G. Klaus","steam_id":76561198001111196,"connected_time":2334000000000,"state":"active","ping":92},{"user_id":89,"name":"Baked Beans","steam_id":76561198090419068,"connected_time":3285000000000,"state":"active","ping":82},{"user_id":124,"name":"4logan","steam_id":76561198835163155,"connected_time":276000000000,"state":"active","ping":47},{"user_id":113,"name":"the trollining","steam_id":76561199160884713,"connected_time":1512000000000,"state":"active","ping":81},{"user_id":115,"name":"Coolgoat2005","steam_id":76561198284935250,"connected_time":1428000000000,"state":"active","ping":81},{"user_id":125,"name":"NFT(non functioning testicle)","steam_id":76561198092435966,"connected_time":248000000000,"state":"active","ping":117},{"user_id":109,"name":"JPMÂ≤©","steam_id":76561198043967997,"connected_time":1664000000000,"state":"active","ping":71},{"user_id":123,"name":"FlamingManiac","steam_id":76561198361996837,"connected_time":335000000000,"state":"active","ping":120},{"user_id":118,"name":"Your cousin Throckmorton","steam_id":76561198055430804,"connected_time":1004000000000,"state":"active","ping":125},{"user_id":86,"name":"Cosmo","steam_id":76561199085643398,"connected_time":3453000000000,"state":"active","ping":80},{"user_id":111,"name":"Fajita Master","steam_id":76561198329150962,"connected_time":1588000000000,"state":"active","ping":80},{"user_id":120,"name":"motherfucker 2.0","steam_id":76561198141189209,"connected_time":974000000000,"state":"active","ping":104},{"user_id":97,"name":"Penguin Master","steam_id":76561198838779388,"connected_time":2654000000000,"state":"active","ping":111},{"user_id":98,"name":"greenbean","steam_id":76561199150785954,"connected_time":2642000000000,"state":"active","ping":122},{"user_id":52,"name":"K.A.R.M.A.","steam_id":76561198240750142,"connected_time":5295000000000,"state":"active","ping":75},{"user_id":112,"name":"reallyfriendly","steam_id":76561197996819313,"connected_time":1543000000000,"state":"active","ping":127},{"user_id":117,"name":"Alien Figure","steam_id":76561198057999536,"connected_time":1249000000000,"state":"active","ping":33}]},{"server_id":406,"name":"Uncletopia | Seattle | 3 | Stopwatch Beta","name_short":"sea-3","host":"sea-1.us.uncletopia.com","port":27035,"enabled":true,"region":"us-west","cc":"us","latitude":47.608013,"longitude":-122.33517,"reserved":0,"last_update":"0001-01-01T00:00:00Z","name_a2s":"Uncletopia | Seattle | 3 | Stopwatch Beta","protocol":17,"map":"workshop/pl_badwater_pro_v12.ugc2142942074","folder":"tf","game":"Team Fortress","app_id":440,"player_count":0,"max_players":24,"Bots":0,"server_type":"Dedicated","server_os":"Linux","password":true,"vac":true,"version":"7882260","steam_id":85568392924515217,"keywords":["nocrits","nodmgspread","payload","uncletopia"],"game_id":440,"stv_port":27036,"stv_name":"Uncletopia | Seattle | 3 | Stopwatch Beta | STV","players":null},{"server_id":17,"name":"Uncletopia | San Francisco | 1 | All Maps","name_short":"sfo-1","host":"sfo-1.us.uncletopia.com","port":27015,"enabled":true,"region":"us-west","cc":"us","latitude":37.77397,"longitude":-122.4313,"reserved":0,"last_update":"0001-01-01T00:00:00Z","name_a2s":"Uncletopia | San Francisco | 1 | All Maps","protocol":17,"map":"cp_process_final","folder":"tf","game":"Team Fortress","app_id":440,"player_count":0,"max_players":24,"Bots":0,"server_type":"Dedicated","server_os":"Linux","password":true,"vac":true,"version":"7757534","steam_id":85568392924469999,"keywords":["cp","nocrits","nodmgspread","uncletopia"],"game_id":440,"stv_port":27016,"stv_name":"Uncletopia | San Francisco | 1 | All Maps | STV","players":null},{"server_id":18,"name":"Uncletopia | San Francisco | 2 | All Maps","name_short":"sfo-2","host":"sfo-1.us.uncletopia.com","port":27025,"enabled":true,"region":"us-west","cc":"us","latitude":37.77397,"longitude":-122.4313,"reserved":0,"last_update":"0001-01-01T00:00:00Z","name_a2s":"Uncletopia | San Francisco | 2 | All Maps","protocol":17,"map":"koth_highpass","folder":"tf","game":"Team Fortress","app_id":440,"player_count":0,"max_players":24,"Bots":0,"server_type":"Dedicated","server_os":"Linux","password":true,"vac":true,"version":"7757534","steam_id":85568392924470000,"keywords":["cp","nocrits","nodmgspread","uncletopia"],"game_id":440,"stv_port":27026,"stv_name":"Uncletopia | San Francisco | 2 | All Maps | STV","players":null},{"server_id":19,"name":"Uncletopia | San Francisco | 3 | Stopwatch Beta","name_short":"sfo-3","host":"sfo-1.us.uncletopia.com","port":27035,"enabled":true,"region":"us-west","cc":"us","latitude":37.77397,"longitude":-122.4313,"reserved":0,"last_update":"0001-01-01T00:00:00Z","name_a2s":"Uncletopia | San Francisco | 3 | Stopwatch Beta","protocol":17,"map":"koth_lakeside_final","folder":"tf","game":"Team Fortress","app_id":440,"player_count":0,"max_players":24,"Bots":0,"server_type":"Dedicated","server_os":"Linux","password":true,"vac":true,"version":"7757534","steam_id":85568392924742824,"keywords":["cp","nocrits","nodmgspread","uncletopia"],"game_id":440,"stv_port":27036,"stv_name":"Uncletopia | San Francisco | 3 | Stopwatch Beta | STV","players":null},{"server_id":20,"name":"Uncletopia | San Francisco | 4 | Community","name_short":"sfo-4","host":"sfo-1.us.uncletopia.com","port":27045,"enabled":true,"region":"us-west","cc":"us","latitude":37.77397,"longitude":-122.4313,"reserved":0,"last_update":"0001-01-01T00:00:00Z","name_a2s":"Uncletopia | San Francisco | 4 | Community","protocol":17,"map":"cp_altitude","folder":"tf","game":"Team Fortress","app_id":440,"player_count":0,"max_players":24,"Bots":0,"server_type":"Dedicated","server_os":"Linux","password":true,"vac":true,"version":"7757534","steam_id":85568392924742826,"keywords":["cp","nocrits","nodmgspread","uncletopia"],"game_id":440,"stv_port":27046,"stv_name":"Uncletopia | San Francisco | 4 | Community | STV","players":null},{"server_id":141,"name":"Uncletopia | Sydney | 1 | All Maps","name_short":"syd-1","host":"syd-1.au.uncletopia.com","port":27015,"enabled":true,"region":"au","cc":"au","latitude":-33.865143,"longitude":151.2099,"reserved":0,"last_update":"0001-01-01T00:00:00Z","name_a2s":"Uncletopia | Sydney | 1 | All Maps","protocol":17,"map":"cp_snakewater_final1","folder":"tf","game":"Team Fortress","app_id":440,"player_count":0,"max_players":24,"Bots":0,"server_type":"Dedicated","server_os":"Linux","password":true,"vac":true,"version":"7882260","steam_id":85568392924470001,"keywords":["cp","nocrits","nodmgspread","uncletopia"],"game_id":440,"stv_port":27016,"stv_name":"Uncletopia | Sydney | 1 | All Maps | STV","players":null},{"server_id":123,"name":"Uncletopia | Sydney | 2 | All Maps","name_short":"syd-2","host":"syd-1.au.uncletopia.com","port":27025,"enabled":true,"region":"au","cc":"au","latitude":-33.865143,"longitude":151.2099,"reserved":0,"last_update":"0001-01-01T00:00:00Z","name_a2s":"Uncletopia | Sydney | 2 | All Maps","protocol":17,"map":"pl_barnblitz","folder":"tf","game":"Team Fortress","app_id":440,"player_count":0,"max_players":24,"Bots":0,"server_type":"Dedicated","server_os":"Linux","password":true,"vac":true,"version":"7882260","steam_id":85568392924470002,"keywords":["nocrits","nodmgspread","payload","uncletopia"],"game_id":440,"stv_port":27026,"stv_name":"Uncletopia | Sydney | 2 | All Maps | STV","players":null},{"server_id":395,"name":"Uncletopia | Sydney | 3 | All Maps","name_short":"syd-3","host":"syd-1.au.uncletopia.com","port":27035,"enabled":true,"region":"au","cc":"au","latitude":-33.865143,"longitude":151.2099,"reserved":0,"last_update":"0001-01-01T00:00:00Z","name_a2s":"Uncletopia | Sydney | 3 | All Maps","protocol":17,"map":"pl_badwater","folder":"tf","game":"Team Fortress","app_id":440,"player_count":0,"max_players":24,"Bots":0,"server_type":"Dedicated","server_os":"Linux","password":true,"vac":true,"version":"7882260","steam_id":85568392925194467,"keywords":["nocrits","nodmgspread","payload","uncletopia"],"game_id":440,"stv_port":27036,"stv_name":"Uncletopia | Sydney | 3 | All Maps | STV","players":null},{"server_id":396,"name":"Uncletopia | Sydney | 4 | All Maps","name_short":"syd-4","host":"syd-1.au.uncletopia.com","port":27045,"enabled":true,"region":"au","cc":"au","latitude":-33.865143,"longitude":151.2099,"reserved":0,"last_update":"0001-01-01T00:00:00Z","name_a2s":"Uncletopia | Sydney | 4 | All Maps","protocol":17,"map":"cp_dustbowl","folder":"tf","game":"Team Fortress","app_id":440,"player_count":0,"max_players":24,"Bots":0,"server_type":"Dedicated","server_os":"Linux","password":true,"vac":true,"version":"7882260","steam_id":85568392925397958,"keywords":["cp","nocrits","nodmgspread","uncletopia"],"game_id":440,"stv_port":27046,"stv_name":"Uncletopia | Sydney | 4 | All Maps | STV","players":null},{"server_id":58,"name":"Uncletopia | Sydney | 5 | Stopwatch Beta","name_short":"syd-5","host":"syd-1.au.uncletopia.com","port":27055,"enabled":true,"region":"au","cc":"au","latitude":-33.865143,"longitude":151.2099,"reserved":0,"last_update":"0001-01-01T00:00:00Z","name_a2s":"Uncletopia | Sydney | 5 | Stopwatch Beta","protocol":17,"map":"cp_snakewater_final1","folder":"tf","game":"Team Fortress","app_id":440,"player_count":0,"max_players":24,"Bots":0,"server_type":"Dedicated","server_os":"Linux","password":true,"vac":true,"version":"7882260","steam_id":85568392925397959,"keywords":["cp","nocrits","nodmgspread","uncletopia"],"game_id":440,"stv_port":27056,"stv_name":"Uncletopia | Sydney | 5 | Stopwatch Beta | STV","players":null},{"server_id":59,"name":"Uncletopia | Sydney | 6 | Community","name_short":"syd-6","host":"syd-1.au.uncletopia.com","port":27065,"enabled":true,"region":"au","cc":"au","latitude":-33.865143,"longitude":151.2099,"reserved":0,"last_update":"0001-01-01T00:00:00Z","name_a2s":"Uncletopia | Sydney | 6 | Community","protocol":17,"map":"pl_snowycoast","folder":"tf","game":"Team Fortress","app_id":440,"player_count":0,"max_players":24,"Bots":0,"server_type":"Dedicated","server_os":"Linux","password":true,"vac":true,"version":"7882260","steam_id":85568392925397960,"keywords":["nocrits","nodmgspread","payload","uncletopia"],"game_id":440,"stv_port":27066,"stv_name":"Uncletopia | Sydney | 6 | Community | STV","players":null},{"server_id":49,"name":"Uncletopia | Warsaw | 1 | All Maps","name_short":"waw-1","host":"waw-1.pl.uncletopia.com","port":27015,"enabled":true,"region":"eu","cc":"pl","latitude":52.2297,"longitude":21.017532,"reserved":0,"last_update":"0001-01-01T00:00:00Z","name_a2s":"","protocol":0,"map":"","folder":"","game":"","app_id":0,"player_count":0,"max_players":0,"Bots":0,"server_type":"","server_os":"","password":false,"vac":false,"version":"","steam_id":0,"keywords":null,"game_id":0,"stv_port":0,"stv_name":"","players":null},{"server_id":50,"name":"Uncletopia | Warsaw | 2 | All Maps","name_short":"waw-2","host":"waw-1.pl.uncletopia.com","port":27025,"enabled":true,"region":"eu","cc":"pl","latitude":52.2297,"longitude":21.017532,"reserved":0,"last_update":"0001-01-01T00:00:00Z","name_a2s":"Uncletopia | Warsaw | 2 | All Maps","protocol":17,"map":"cp_snakewater_final1","folder":"tf","game":"Team Fortress","app_id":440,"player_count":0,"max_players":24,"Bots":0,"server_type":"Dedicated","server_os":"Linux","password":true,"vac":true,"version":"7882260","steam_id":85568392925397851,"keywords":["cp","nocrits","nodmgspread","uncletopia"],"game_id":440,"stv_port":27026,"stv_name":"Uncletopia | Warsaw | 2 | All Maps | STV","players":null},{"server_id":51,"name":"Uncletopia | Warsaw | 3 | All Maps","name_short":"waw-3","host":"waw-1.pl.uncletopia.com","port":27035,"enabled":true,"region":"eu","cc":"pl","latitude":52.2297,"longitude":21.017532,"reserved":0,"last_update":"0001-01-01T00:00:00Z","name_a2s":"Uncletopia | Warsaw | 3 | All Maps","protocol":17,"map":"koth_lakeside_final","folder":"tf","game":"Team Fortress","app_id":440,"player_count":0,"max_players":24,"Bots":0,"server_type":"Dedicated","server_os":"Linux","password":true,"vac":true,"version":"7882260","steam_id":85568392925397852,"keywords":["cp","nocrits","nodmgspread","uncletopia"],"game_id":440,"stv_port":27036,"stv_name":"Uncletopia | Warsaw | 3 | All Maps | STV","players":null},{"server_id":52,"name":"Uncletopia | Warsaw | 4 | All Maps","name_short":"waw-4","host":"waw-1.pl.uncletopia.com","port":27045,"enabled":true,"region":"eu","cc":"pl","latitude":52.2297,"longitude":21.017532,"reserved":0,"last_update":"0001-01-01T00:00:00Z","name_a2s":"Uncletopia | Warsaw | 4 | All Maps","protocol":17,"map":"koth_highpass","folder":"tf","game":"Team Fortress","app_id":440,"player_count":0,"max_players":24,"Bots":0,"server_type":"Dedicated","server_os":"Linux","password":true,"vac":true,"version":"7882260","steam_id":85568392925397853,"keywords":["cp","nocrits","nodmgspread","uncletopia"],"game_id":440,"stv_port":27046,"stv_name":"Uncletopia | Warsaw | 4 | All Maps | STV","players":null},{"server_id":53,"name":"Uncletopia | Warsaw | 5 | Stopwatch Beta","name_short":"waw-5","host":"waw-1.pl.uncletopia.com","port":27055,"enabled":true,"region":"eu","cc":"pl","latitude":52.2297,"longitude":21.017532,"reserved":0,"last_update":"0001-01-01T00:00:00Z","name_a2s":"Uncletopia | Warsaw | 5 | Stopwatch Beta","protocol":17,"map":"cp_mountainlab","folder":"tf","game":"Team Fortress","app_id":440,"player_count":0,"max_players":24,"Bots":0,"server_type":"Dedicated","server_os":"Linux","password":true,"vac":true,"version":"7882260","steam_id":85568392925397854,"keywords":["cp","nocrits","nodmgspread","uncletopia"],"game_id":440,"stv_port":27056,"stv_name":"Uncletopia | Warsaw | 5 | Stopwatch Beta | STV","players":null},{"server_id":54,"name":"Uncletopia | Warsaw | 6 | Community","name_short":"waw-6","host":"waw-1.pl.uncletopia.com","port":27065,"enabled":true,"region":"eu","cc":"pl","latitude":52.2297,"longitude":21.017532,"reserved":0,"last_update":"0001-01-01T00:00:00Z","name_a2s":"Uncletopia | Warsaw | 6 | Community","protocol":17,"map":"workshop/cp_mannbase_rc2a.ugc1900737467","folder":"tf","game":"Team Fortress","app_id":440,"player_count":0,"max_players":24,"Bots":0,"server_type":"Dedicated","server_os":"Linux","password":true,"vac":true,"version":"7882260","steam_id":85568392925397856,"keywords":["cp","nocrits","nodmgspread","uncletopia"],"game_id":440,"stv_port":27066,"stv_name":"Uncletopia | Warsaw | 6 | Community | STV","players":null}]}