{"status":true,"message":"","result":[{"server_id":9,"name":"Uncletopia | Atlanta | 1 | All Maps","name_short":"atl-1","host":"atl-1.us.uncletopia.com","port":27015,"enabled":true,"region":"us-east","cc":"us","latitude":33.753746,"longitude":-84.38633,"reserved":0,"last_update":"0001-01-01T00:00:00Z","name_a2s":"Uncletopia | Atlanta | 1 | All Maps","protocol":17,"map":"pl_pier","folder":"tf","game":"Team Fortress","app_id":440,"player_count":24,"max_players":24,"Bots":0,"server_type":"Dedicated","server_os":"Linux","password":true,"vac":true,"version":"7742253","steam_id":85568392924469982,"keywords":["nocrits","nodmgspread","payload","uncletopia"],"game_id":440,"stv_port":27016,"stv_name":"Uncletopia | Atlanta | 1 | All Maps | STV","players":[{"user_id":147,"name":"MyamE","steam_id":76561198133278462,"connected_time":456000000000,"state":"active","ping":67},{"user_id":128,"name":"Japanese Rabbit Enthusiast","steam_id":76561199134895220,"connected_time":2376000000000,"state":"active","ping":67},{"user_id":105,"name":"fritzzl","steam_id":76561199067153815,"connected_time":4695000000000,"state":"active","ping":101},{"user_id":114,"name":"ATL1 | Pango","steam_id":76561198069811545,"connected_time":4008000000000,"state":"active","ping":46},{"user_id":74,"name":"Stauxie","steam_id":76561198255030077,"connected_time":6452000000000,"state":"active","ping":56},{"user_id":103,"name":"qwertyuiop[]\\asdfghjkl;","steam_id":76561198119826352,"connected_time":5108000000000,"state":"active","ping":73},{"user_id":42,"name":"bear","steam_id":76561198083276946,"connected_time":9381000000000,"state":"active","ping":62},{"user_id":148,"name":"Shimon","steam_id":76561199061086990,"connected_time":49000000000,"state":"active","ping":152},{"user_id":134,"name":"-W3E- grim10465","steam_id":76561198045698581,"connected_time":2220000000000,"state":"active","ping":56},{"user_id":78,"name":"Mr.Mug","steam_id":76561199282207802,"connected_time":6303000000000,"state":"active","ping":76},{"user_id":138,"name":"Ghosty","steam_id":76561198880169557,"connected_time":1298000000000,"state":"active","ping":107},{"user_id":144,"name":"Ventastega","steam_id":76561197999366317,"connected_time":1030000000000,"state":"active","ping":85},{"user_id":143,"name":"Scorch","steam_id":76561198167024005,"connected_time":1213000000000,"state":"active","ping":60},{"user_id":139,"name":"Im High","steam_id":76561198049954886,"connected_time":1294000000000,"state":"active","ping":71},{"user_id":130,"name":"Royal_tm","steam_id":76561198319509387,"connected_time":2317000000000,"state":"active","ping":66},{"user_id":121,"name":"AliCeline","steam_id":76561198207017241,"connected_time":3487000000000,"state":"active","ping":73},{"user_id":111,"name":"Twisted Cryptid","steam_id":76561198283785778,"connected_time":4511000000000,"state":"active","ping":75},{"user_id":140,"name":"hapi bananuh","steam_id":76561198091547092,"connected_time":1270000000000,"state":"active","ping":62},{"user_id":136,"name":"3armedfalcon","steam_id":76561199257817140,"connected_time":1353000000000,"state":"active","ping":83},{"user_id":95,"name":"Waffle Wannabe","steam_id":76561198064510650,"connected_time":5569000000000,"state":"active","ping":71},{"user_id":54,"name":"NoShen","steam_id":76561198147434663,"connected_time":8415000000000,"state":"active","ping":47},{"user_id":141,"name":"Bingus","steam_id":76561198095721743,"connected_time":1249000000000,"state":"active","ping":78},{"user_id":126,"name":"ShiYor","steam_id":76561199117260032,"connected_time":3367000000000,"state":"active","ping":121},{"user_id":132,"name":"PEKPEK","steam_id":76561198048797430,"connected_time":2317000000000,"state":"active","ping":68}]},{"server_id":400,"name":"Uncletopia | Atlanta | 3 | Stopwatch Beta","name_short":"atl-3","host":"atl-1.us.uncletopia.com","port":27035,"enabled":true,"region":"us-east","cc":"us","latitude":33.753746,"longitude":-84.38633,"reserved":0,"last_update":"0001-01-01T00:00:00Z","name_a2s":"Uncletopia | Atlanta | 3 | Stopwatch Beta","protocol":17,"map":"pl_pier","folder":"tf","game":"Team Fortress","app_id":440,"player_count":0,"max_players":24,"Bots":0,"server_type":"Dedicated","server_os":"Linux","password":true,"vac":true,"version":"7742253","steam_id":85568392924515187,"keywords":["nocrits","nodmgspread","payload","uncletopia"],"game_id":440,"stv_port":27036,"stv_name":"Uncletopia | Atlanta | 3 | Stopwatch Beta | STV","players":null},{"server_id":401,"name":"Uncletopia | Atlanta | 4 | No Payload","name_short":"atl-4","host":"atl-1.us.uncletopia.com","port":27045,"enabled":true,"region":"us-east","cc":"us","latitude":33.753746,"longitude":-84.38633,"reserved":0,"last_update":"0001-01-01T00:00:00Z","name_a2s":"Uncletopia | Atlanta | 4 | No Payload","protocol":17,"map":"pl_pier","folder":"tf","game":"Team Fortress","app_id":440,"player_count":0,"max_players":24,"Bots":0,"server_type":"Dedicated","server_os":"Linux","password":true,"vac":true,"version":"7723704","steam_id":85568392924515188,"keywords":["nocrits","nodmgspread","payload","uncletopia"],"game_id":440,"stv_port":27046,"stv_name":"Uncletopia | Atlanta | 4 | No Payload | STV","players":null},{"server_id":2,"name":"Uncletopia | Chicago | 1 | All Maps","name_short":"chi-1","host":"chi-1.us.uncletopia.com","port":27015,"enabled":true,"region":"us-central","cc":"us","latitude":41.881832,"longitude":-87.62318,"reserved":0,"last_update":"0001-01-01T00:00:00Z","name_a2s":"Uncletopia | Chicago | 1 | All Maps","protocol":17,"map":"pl_upward","folder":"tf","game":"Team Fortress","app_id":440,"player_count":24,"max_players":24,"Bots":0,"server_type":"Dedicated","server_os":"Linux","password":true,"vac":true,"version":"7742253","steam_id":85568392924469984,"keywords":["nocrits","nodmgspread","payload","uncletopia"],"game_id":440,"stv_port":27016,"stv_name":"Uncletopia | Chicago | 1 | All Maps | STV","players":[{"user_id":98,"name":"bonk","steam_id":76561198004823930,"connected_time":1938000000000,"state":"active","ping":59},{"user_id":81,"name":"Evolution","steam_id":76561198144767370,"connected_time":2828000000000,"state":"active","ping":46},{"user_id":79,"name":"c64guy","steam_id":76561198023022744,"connected_time":2841000000000,"state":"active","ping":68},{"user_id":106,"name":"LunarrD","steam_id":76561198811220107,"connected_time":1894000000000,"state":"active","ping":79},{"user_id":85,"name":"trobin120","steam_id":76561199122420273,"connected_time":2551000000000,"state":"active","ping":66},{"user_id":105,"name":"doop","steam_id":76561198370487545,"connected_time":1908000000000,"state":"active","ping":78},{"user_id":100,"name":"SsaucySam","steam_id":76561198362539268,"connected_time":1934000000000,"state":"active","ping":79},{"user_id":99,"name":"limes","steam_id":76561198150290787,"connected_time":1937000000000,"state":"active","ping":64},{"user_id":101,"name":"McDumDum","steam_id":76561198040738807,"connected_time":1927000000000,"state":"active","ping":81},{"user_id":38,"name":"ginjitz","steam_id":76561199211170006,"connected_time":5704000000000,"state":"active","ping":168},{"user_id":108,"name":"Cassini","steam_id":76561198318526294,"connected_time":1691000000000,"state":"active","ping":61},{"user_id":82,"name":"Reckless Klondike","steam_id":76561198060904416,"connected_time":2828000000000,"state":"active","ping":75},{"user_id":62,"name":"Jimothy","steam_id":76561198982248872,"connected_time":4460000000000,"state":"active","ping":77},{"user_id":51,"name":"YungKeet","steam_id":76561198293854963,"connected_time":5146000000000,"state":"active","ping":85},{"user_id":104,"name":"bikerkid207","steam_id":76561198390782783,"connected_time":1915000000000,"state":"active","ping":64},{"user_id":65,"name":"Dr Frasier Crane","steam_id":76561198071790583,"connected_time":4317000000000,"state":"active","ping":63},{"user_id":110,"name":"Chuburn","steam_id":76561199078803862,"connected_time":1040000000000,"state":"active","ping":65},{"user_id":84,"name":"Argo","steam_id":76561198353725622,"connected_time":2815000000000,"state":"active","ping":83},{"user_id":93,"name":"carlosalobog17","steam_id":76561199412962152,"connected_time":2383000000000,"state":"active","ping":185},{"user_id":70,"name":"Undercover Koala","steam_id":76561198004429020,"connected_time":3740000000000,"state":"active","ping":87},{"user_id":114,"name":"F0rest","steam_id":76561199112458876,"connected_time":229000000000,"state":"active","ping":60},{"user_id":113,"name":"-flagellum","steam_id":76561198006297974,"connected_time":688000000000,"state":"active","ping":56},{"user_id":96,"name":"Lemonade Juice","steam_id":76561198402892608,"connected_time":2264000000000,"state":"active","ping":101},{"user_id":78,"name":"SuperJagops","steam_id":76561198034689716,"connected_time":3189000000000,"state":"active","ping":63}]},{"server_id":106,"name":"Uncletopia | Chicago | 2 | All Maps","name_short":"chi-2","host":"chi-1.us.uncletopia.com","port":27025,"enabled":true,"region":"us-central","cc":"us","latitude":41.881832,"longitude":-87.62318,"reserved":0,"last_update":"0001-01-01T00:00:00Z","name_a2s":"Uncletopia | Chicago | 2 | All Maps","protocol":17,"map":"koth_cascade","folder":"tf","game":"Team Fortress","app_id":440,"player_count":0,"max_players":24,"Bots":0,"server_type":"Dedicated","server_os":"Linux","password":true,"vac":true,"version":"7742253","steam_id":85568392924469985,"keywords":["cp","nocrits","nodmgspread","uncletopia"],"game_id":440,"stv_port":27026,"stv_name":"Uncletopia | Chicago | 2 | All Maps | STV","players":null},{"server_id":402,"name":"Uncletopia | Chicago | 3 | All Maps","name_short":"chi-3","host":"chi-1.us.uncletopia.com","port":27035,"enabled":true,"region":"us-central","cc":"us","latitude":41.881832,"longitude":-87.62318,"reserved":0,"last_update":"0001-01-01T00:00:00Z","name_a2s":"Uncletopia | Chicago | 3 | All Maps","protocol":17,"map":"pl_goldrush","folder":"tf","game":"Team Fortress","app_id":440,"player_count":24,"max_players":24,"Bots":0,"server_type":"Dedicated","server_os":"Linux","password":true,"vac":true,"version":"7742253","steam_id":85568392924515191,"keywords":["nocrits","nodmgspread","payload","uncletopia"],"game_id":440,"stv_port":27036,"stv_name":"Uncletopia | Chicago | 3 | All Maps | STV","players":[{"user_id":100,"name":"dudeer733","steam_id":76561198030319392,"connected_time":2230000000000,"state":"active","ping":69},{"user_id":103,"name":"Obamacare","steam_id":76561198018894553,"connected_time":2013000000000,"state":"active","ping":92},{"user_id":121,"name":"Riandox","steam_id":76561198130577326,"connected_time":1025000000000,"state":"active","ping":62},{"user_id":105,"name":"TheChickenChuck","steam_id":76561199192686708,"connected_time":1678000000000,"state":"active","ping":94},{"user_id":107,"name":"KOOSTIFF","steam_id":76561198053727976,"connected_time":1649000000000,"state":"active","ping":73},{"user_id":89,"name":"Uncle","steam_id":76561197988647705,"connected_time":3496000000000,"state":"active","ping":66},{"user_id":101,"name":"ItsThatKindaNight","steam_id":76561198883206743,"connected_time":2096000000000,"state":"active","ping":74},{"user_id":108,"name":"Mirari","steam_id":76561198126889358,"connected_time":1635000000000,"state":"active","ping":78},{"user_id":128,"name":"Punkin","steam_id":76561198334301755,"connected_time":171000000000,"state":"active","ping":64},{"user_id":124,"name":"hej","steam_id":76561197996366940,"connected_time":688000000000,"state":"active","ping":60},{"user_id":118,"name":"Iggy Dogg","steam_id":76561198059602545,"connected_time":1422000000000,"state":"active","ping":49},{"user_id":125,"name":"Coupon","steam_id":76561198111947598,"connected_time":657000000000,"state":"active","ping":82},{"user_id":112,"name":"Retrowave","steam_id":76561198061921346,"connected_time":1607000000000,"state":"active","ping":76},{"user_id":113,"name":"kametro4","steam_id":76561198835430429,"connected_time":1604000000000,"state":"active","ping":89},{"user_id":69,"name":"rambunctious slacker","steam_id":76561198337692867,"connected_time":5327000000000,"state":"active","ping":67},{"user_id":119,"name":"Bashirider","steam_id":76561198260522253,"connected_time":1149000000000,"state":"active","ping":61},{"user_id":44,"name":"Scorpsy","steam_id":76561198024477688,"connected_time":6976000000000,"state":"active","ping":71},{"user_id":86,"name":"stop","steam_id":76561198268686419,"connected_time":3645000000000,"state":"active","ping":57},{"user_id":96,"name":"Purgatory","steam_id":76561198374795958,"connected_time":2508000000000,"state":"active","ping":88},{"user_id":120,"name":"Enderneer","steam_id":76561198012136653,"connected_time":1105000000000,"state":"active","ping":56},{"user_id":104,"name":"Skelly4900","steam_id":76561199165904006,"connected_time":1687000000000,"state":"active","ping":71},{"user_id":116,"name":"Brumpo Tungus","steam_id":76561198054669779,"connected_time":1585000000000,"state":"active","ping":70},{"user_id":117,"name":"Neoplix","steam_id":76561199012756422,"connected_time":1536000000000,"state":"active","ping":79},{"user_id":122,"name":"Winter the Witchie","steam_id":76561198151971178,"connected_time":956000000000,"state":"active","ping":59}]},{"server_id":403,"name":"Uncletopia | Chicago | 4 | All Maps","name_short":"chi-4","host":"chi-1.us.uncletopia.com","port":27045,"enabled":true,"region":"us-central","cc":"us","latitude":41.881832,"longitude":-87.62318,"reserved":0,"last_update":"0001-01-01T00:00:00Z","name_a2s":"Uncletopia | Chicago | 4 | All Maps","protocol":17,"map":"pl_pier","folder":"tf","game":"Team Fortress","app_id":440,"player_count":16,"max_players":24,"Bots":0,"server_type":"Dedicated","server_os":"Linux","password":true,"vac":true,"version":"7742253","steam_id":85568392924515193,"keywords":["nocrits","nodmgspread","payload","uncletopia"],"game_id":440,"stv_port":27046,"stv_name":"Uncletopia | Chicago | 4 | All Maps | STV","players":[{"user_id":13,"name":"Bully McGuire","steam_id":76561198084230569,"connected_time":729000000000,"state":"active","ping":56},{"user_id":14,"name":"swan","steam_id":76561198012569200,"connected_time":653000000000,"state":"active","ping":72},{"user_id":15,"name":"kablong","steam_id":76561199094392047,"connected_time":571000000000,"state":"active","ping":123},{"user_id":16,"name":"jorjor wells","steam_id":76561199073429082,"connected_time":318000000000,"state":"active","ping":65},{"user_id":19,"name":"captainspatklz","steam_id":76561198432167270,"connected_time":209000000000,"state":"active","ping":67},{"user_id":18,"name":"Massive Conquistador","steam_id":76561197961138002,"connected_time":271000000000,"state":"active","ping":76},{"user_id":20,"name":"surfer","steam_id":76561198068409067,"connected_time":201000000000,"state":"active","ping":75},{"user_id":21,"name":"Librinox / Irrith","steam_id":76561198008996805,"connected_time":192000000000,"state":"active","ping":88},{"user_id":22,"name":"15 INCH TGIRL SCHLONG","steam_id":76561198122059018,"connected_time":170000000000,"state":"active","ping":59},{"user_id":23,"name":"Hypothetical NerdGirl Pussy","steam_id":76561198067556825,"connected_time":145000000000,"state":"active","ping":65},{"user_id":24,"name":"sentientpieceoftoast(they/them)","steam_id":76561199032992123,"connected_time":126000000000,"state":"active","ping":76},{"user_id":25,"name":"vinny6","steam_id":76561198386735728,"connected_time":95000000000,"state":"active","ping":73},{"user_id":26,"name":"mxgic","steam_id":76561198354656195,"connected_time":66000000000,"state":"active","ping":121},{"user_id":27,"name":"FakeBot","steam_id":76561197961193303,"connected_time":48000000000,"state":"spawning","ping":125},{"user_id":28,"name":"Weshmek","steam_id":76561198009950743,"connected_time":27000000000,"state":"spawning","ping":59},{"user_id":29,"name":"blume","steam_id":76561199438052823,"connected_time":18000000000,"state":"active","ping":59}]},{"server_id":36,"name":"Uncletopia | Chicago | 5 | All Maps","name_short":"chi-5","host":"chi-2.us.uncletopia.com","port":27015,"enabled":true,"region":"us-central","cc":"us","latitude":41.881832,"longitude":-87.62318,"reserved":0,"last_update":"0001-01-01T00:00:00Z","name_a2s":"Uncletopia | Chicago | 5 | All Maps","protocol":17,"map":"koth_highpass","folder":"tf","game":"Team Fortress","app_id":440,"player_count":0,"max_players":24,"Bots":0,"server_type":"Dedicated","server_os":"Linux","password":true,"vac":true,"version":"7742253","steam_id":85568392924866362,"keywords":["cp","nocrits","nodmgspread","uncletopia"],"game_id":440,"stv_port":27016,"stv_name":"Uncletopia | Chicago | 5 | All Maps | STV","players":null},{"server_id":37,"name":"Uncletopia | Chicago | 6 | All Maps","name_short":"chi-6","host":"chi-2.us.uncletopia.com","port":27025,"enabled":true,"region":"us-central","cc":"us","latitude":41.881832,"longitude":-87.62318,"reserved":0,"last_update":"0001-01-01T00:00:00Z","name_a2s":"Uncletopia | Chicago | 6 | All Maps","protocol":17,"map":"koth_lakeside_final","folder":"tf","game":"Team Fortress","app_id":440,"player_count":0,"max_players":24,"Bots":0,"server_type":"Dedicated","server_os":"Linux","password":true,"vac":true,"version":"7742253","steam_id":85568392924866363,"keywords":["cp","nocrits","nodmgspread","uncletopia"],"game_id":440,"stv_port":27026,"stv_name":"Uncletopia | Chicago | 6 | All Maps | STV","players":null},{"server_id":38,"name":"Uncletopia | Chicago | 7 | Stopwatch Beta","name_short":"chi-7","host":"chi-2.us.uncletopia.com","port":27035,"enabled":true,"region":"us-central","cc":"us","latitude":41.881832,"longitude":-87.62318,"reserved":0,"last_update":"0001-01-01T00:00:00Z","name_a2s":"Uncletopia | Chicago | 7 | Stopwatch Beta","protocol":17,"map":"workshop/koth_bagel_rc5.ugc2514036946","folder":"tf","game":"Team Fortress","app_id":440,"player_count":0,"max_players":24,"Bots":0,"server_type":"Dedicated","server_os":"Linux","password":true,"vac":true,"version":"7742253","steam_id":85568392924866364,"keywords":["cp","nocrits","nodmgspread","uncletopia"],"game_id":440,"stv_port":27036,"stv_name":"Uncletopia | Chicago | 7 | Stopwatch Beta | STV","players":null},{"server_id":39,"name":"Uncletopia | Chicago | 8 | Community","name_short":"chi-8","host":"chi-2.us.uncletopia.com","port":27045,"enabled":true,"region":"us-central","cc":"us","latitude":41.881832,"longitude":-87.62318,"reserved":0,"last_update":"0001-01-01T00:00:00Z","name_a2s":"Uncletopia | Chicago | 8 | Community","protocol":17,"map":"koth_lakeside_final","folder":"tf","game":"Team Fortress","app_id":440,"player_count":0,"max_players":24,"Bots":0,"server_type":"Dedicated","server_os":"Linux","password":true,"vac":true,"version":"7742253","steam_id":85568392924866365,"keywords":["cp","nocrits","nodmgspread","uncletopia"],"game_id":440,"stv_port":27046,"stv_name":"Uncletopia | Chicago | 8 | Community | STV","players":null},{"server_id":8,"name":"Uncletopia | Dallas | 1 | All Maps","name_short":"dal-1","host":"dal-1.us.uncletopia.com","port":27015,"enabled":true,"region":"us-central","cc":"us","latitude":32.779167,"longitude":-96.80889,"reserved":0,"last_update":"0001-01-01T00:00:00Z","name_a2s":"Uncletopia | Dallas | 1 | All Maps","protocol":17,"map":"cp_snakewater_final1","folder":"tf","game":"Team Fortress","app_id":440,"player_count":24,"max_players":24,"Bots":0,"server_type":"Dedicated","server_os":"Linux","password":true,"vac":true,"version":"7742253","steam_id":85568392924469986,"keywords":["cp","nocrits","nodmgspread","uncletopia"],"game_id":440,"stv_port":27016,"stv_name":"Uncletopia | Dallas | 1 | All Maps | STV","players":[{"user_id":208,"name":"MrActionJaxon","steam_id":76561198093549908,"connected_time":1335000000000,"state":"active","ping":52},{"user_id":204,"name":"Team Fortress Forever","steam_id":76561199192132061,"connected_time":2281000000000,"state":"active","ping":76},{"user_id":223,"name":"SlimGrady","steam_id":76561198451231329,"connected_time":164000000000,"state":"active","ping":67},{"user_id":224,"name":"synth lizard bitch","steam_id":76561198100176997,"connected_time":137000000000,"state":"active","ping":84},{"user_id":210,"name":"Rin \"Hindwing\" Redtail","steam_id":76561199074865638,"connected_time":1312000000000,"state":"active","ping":54},{"user_id":178,"name":"Coup de Grass","steam_id":76561198011643226,"connected_time":3655000000000,"state":"active","ping":59},{"user_id":211,"name":"Mr. Grins","steam_id":76561198032663494,"connected_time":1310000000000,"state":"active","ping":48},{"user_id":225,"name":"Turtle","steam_id":76561198262110064,"connected_time":122000000000,"state":"active","ping":63},{"user_id":226,"name":"SiltyStar85","steam_id":76561198309175923,"connected_time":102000000000,"state":"active","ping":105},{"user_id":219,"name":"Travis","steam_id":76561198121819162,"connected_time":448000000000,"state":"active","ping":59},{"user_id":165,"name":"Quansen","steam_id":76561198151594550,"connected_time":4938000000000,"state":"active","ping":73},{"user_id":220,"name":"Ping","steam_id":76561199206514106,"connected_time":399000000000,"state":"active","ping":60},{"user_id":206,"name":"Pixler544","steam_id":76561198240575132,"connected_time":1797000000000,"state":"active","ping":68},{"user_id":198,"name":"pencilneck","steam_id":76561198865971290,"connected_time":2836000000000,"state":"active","ping":92},{"user_id":194,"name":"FUSION","steam_id":76561197972659738,"connected_time":2898000000000,"state":"active","ping":75},{"user_id":172,"name":"ck_rene","steam_id":76561199079260488,"connected_time":4782000000000,"state":"active","ping":87},{"user_id":143,"name":"Red","steam_id":76561197998285162,"connected_time":6589000000000,"state":"active","ping":86},{"user_id":212,"name":"Mr. Ruckus","steam_id":76561198339566190,"connected_time":1277000000000,"state":"active","ping":87},{"user_id":227,"name":"Mr. Yoshida","steam_id":76561198263829831,"connected_time":79000000000,"state":"active","ping":102},{"user_id":195,"name":"Squiby","steam_id":76561198310246132,"connected_time":2896000000000,"state":"active","ping":36},{"user_id":228,"name":"Moz","steam_id":76561198027171160,"connected_time":79000000000,"state":"active","ping":62},{"user_id":171,"name":"Warzard","steam_id":76561199154051413,"connected_time":4799000000000,"state":"active","ping":117},{"user_id":221,"name":"Magneto","steam_id":76561199151206130,"connected_time":385000000000,"state":"active","ping":81},{"user_id":229,"name":"the12xu","steam_id":76561198197086561,"connected_time":59000000000,"state":"active","ping":90}]},{"server_id":108,"name":"Uncletopia | Dallas | 2 | All Maps","name_short":"dal-2","host":"dal-1.us.uncletopia.com","port":27025,"enabled":true,"region":"us-central","cc":"us","latitude":32.779167,"longitude":-96.80889,"reserved":0,"last_update":"0001-01-01T00:00:00Z","name_a2s":"Uncletopia | Dallas | 2 | All Maps","protocol":17,"map":"koth_viaduct","folder":"tf","game":"Team Fortress","app_id":440,"player_count":0,"max_players":24,"Bots":0,"server_type":"Dedicated","server_os":"Linux","password":true,"vac":true,"version":"7742253","steam_id":85568392924469988,"keywords":["cp","nocrits","nodmgspread","uncletopia"],"game_id":440,"stv_port":27026,"stv_name":"Uncletopia | Dallas | 2 | All Maps | STV","players":null},{"server_id":5,"name":"Uncletopia | Frankfurt | 1 | All Maps","name_short":"frk-1","host":"frk-1.de.uncletopia.com","port":27015,"enabled":true,"region":"eu","cc":"de","latitude":50.110924,"longitude":8.682127,"reserved":0,"last_update":"0001-01-01T00:00:00Z","name_a2s":"Uncletopia | Frankfurt | 1 | All Maps","protocol":17,"map":"pl_badwater","folder":"tf","game":"Team Fortress","app_id":440,"player_count":24,"max_players":24,"Bots":0,"server_type":"Dedicated","server_os":"Linux","password":true,"vac":true,"version":"7742253","steam_id":85568392924469989,"keywords":["nocrits","nodmgspread","payload","uncletopia"],"game_id":440,"stv_port":27016,"stv_name":"Uncletopia | Frankfurt | 1 | All Maps | STV","players":[{"user_id":456,"name":"jesus0004","steam_id":76561198300074730,"connected_time":2900000000000,"state":"active","ping":79},{"user_id":494,"name":"rajAs","steam_id":76561198035928111,"connected_time":491000000000,"state":"active","ping":73},{"user_id":443,"name":"Gordon Birdman","steam_id":76561198013382324,"connected_time":3471000000000,"state":"active","ping":69},{"user_id":450,"name":"tete","steam_id":76561198045222850,"connected_time":2979000000000,"state":"active","ping":79},{"user_id":486,"name":"chey","steam_id":76561198035380064,"connected_time":827000000000,"state":"active","ping":60},{"user_id":491,"name":"rosenberg","steam_id":76561198893414900,"connected_time":612000000000,"state":"active","ping":97},{"user_id":418,"name":"Cippo95","steam_id":76561198255311582,"connected_time":5976000000000,"state":"active","ping":73},{"user_id":504,"name":"ArikMor","steam_id":76561199124472513,"connected_time":8000000000,"state":"spawning","ping":195},{"user_id":464,"name":"ScrepoOn","steam_id":76561198094858786,"connected_time":2675000000000,"state":"active","ping":90},{"user_id":484,"name":"Tibor","steam_id":76561198268827760,"connected_time":877000000000,"state":"active","ping":77},{"user_id":493,"name":"Arizona Ranger","steam_id":76561198859118707,"connected_time":519000000000,"state":"active","ping":59},{"user_id":499,"name":"sondi","steam_id":76561198045466209,"connected_time":387000000000,"state":"active","ping":72},{"user_id":495,"name":"jker","steam_id":76561198816714058,"connected_time":473000000000,"state":"active","ping":113},{"user_id":496,"name":"S√≠theach","steam_id":76561198138915310,"connected_time":433000000000,"state":"active","ping":69},{"user_id":460,"name":"eklatea","steam_id":76561198398039827,"connected_time":2888000000000,"state":"active","ping":62},{"user_id":497,"name":"KingVoker","steam_id":76561198039602539,"connected_time":424000000000,"state":"active","ping":74},{"user_id":461,"name":"sinapsid","steam_id":76561199130784607,"connected_time":2880000000000,"state":"active","ping":84},{"user_id":469,"name":"KFD","steam_id":76561198157183003,"connected_time":2046000000000,"state":"active","ping":74},{"user_id":432,"name":"BobTheBox","steam_id":76561198080894136,"connected_time":4440000000000,"state":"active","ping":61},{"user_id":500,"name":"„ÉÜ„Ç§„É´„Çπ","steam_id":76561198022403271,"connected_time":346000000000,"state":"active","ping":45},{"user_id":498,"name":"tiia (cold hends)","steam_id":76561198046196005,"connected_time":408000000000,"state":"active","ping":44},{"user_id":501,"name":"ShawnDawn2","steam_id":76561198165013522,"connected_time":343000000000,"state":"active","ping":47},{"user_id":502,"name":"Mr_Alex","steam_id":76561198308929418,"connected_time":338000000000,"state":"active","ping":59},{"user_id":465,"name":"Don_Gondon","steam_id":76561198374345060,"connected_time":2413000000000,"state":"active","ping":111}]},{"server_id":110,"name":"Uncletopia | Frankfurt | 2 | All Maps","name_short":"frk-2","host":"frk-1.de.uncletopia.com","port":27025,"enabled":true,"region":"eu","cc":"de","latitude":50.110924,"longitude":8.682127,"reserved":0,"last_update":"0001-01-01T00:00:00Z","name_a2s":"Uncletopia | Frankfurt | 2 | All Maps","protocol":17,"map":"cp_sunshine","folder":"tf","game":"Team Fortress","app_id":440,"player_count":24,"max_players":24,"Bots":0,"server_type":"Dedicated","server_os":"Linux","password":true,"vac":true,"version":"7742253","steam_id":85568392924469990,"keywords":["cp","nocrits","nodmgspread","uncletopia"],"game_id":440,"stv_port":27026,"stv_name":"Uncletopia | Frankfurt | 2 | All Maps | STV","players":[{"user_id":243,"name":"engineergaming","steam_id":76561199423207269,"connected_time":2363000000000,"state":"active","ping":64},{"user_id":261,"name":"Sidewall Girts","steam_id":76561198092234302,"connected_time":1658000000000,"state":"active","ping":60},{"user_id":297,"name":"RazOverdrive","steam_id":76561198000794210,"connected_time":366000000000,"state":"active","ping":49},{"user_id":283,"name":"noamshor","steam_id":76561198974556515,"connected_time":1110000000000,"state":"active","ping":125},{"user_id":290,"name":"landa","steam_id":76561198175433731,"connected_time":697000000000,"state":"active","ping":80},{"user_id":291,"name":"f–∞t c’Ω’∏t","steam_id":76561198845550388,"connected_time":677000000000,"state":"active","ping":112},{"user_id":252,"name":"–º–∞—Å—é–Ω—è","steam_id":76561198282952165,"connected_time":1800000000000,"state":"active","ping":75},{"user_id":263,"name":"Seail_M","steam_id":76561198002405605,"connected_time":1624000000000,"state":"active","ping":57},{"user_id":246,"name":"toe eater","steam_id":76561199272782484,"connected_time":2247000000000,"state":"active","ping":53},{"user_id":292,"name":"m√®x","steam_id":76561197975951572,"connected_time":631000000000,"state":"active","ping":51},{"user_id":248,"name":"purplecan","steam_id":76561199208283508,"connected_time":2188000000000,"state":"active","ping":61},{"user_id":254,"name":"Senator Armstrong","steam_id":76561198984346408,"connected_time":1778000000000,"state":"active","ping":69},{"user_id":276,"name":"t0rsti","steam_id":76561198798929155,"connected_time":1364000000000,"state":"active","ping":116},{"user_id":289,"name":"Blind","steam_id":76561198310295139,"connected_time":737000000000,"state":"active","ping":79},{"user_id":257,"name":"Pan Pan","steam_id":76561199074670515,"connected_time":1764000000000,"state":"active","ping":93},{"user_id":259,"name":"ScottMachine","steam_id":76561198813531432,"connected_time":1716000000000,"state":"active","ping":59},{"user_id":293,"name":"Spajro","steam_id":76561198257383813,"connected_time":600000000000,"state":"active","ping":45},{"user_id":294,"name":"def","steam_id":76561198857396812,"connected_time":578000000000,"state":"active","ping":48},{"user_id":282,"name":"Hedj","steam_id":76561198108369687,"connected_time":1153000000000,"state":"active","ping":46},{"user_id":278,"name":"Angry Toast.exe","steam_id":76561198959812805,"connected_time":1317000000000,"state":"active","ping":60},{"user_id":295,"name":"Puzzles","steam_id":76561198137106459,"connected_time":559000000000,"state":"active","ping":63},{"user_id":299,"name":"Dr. Mario","steam_id":76561199125182282,"connected_time":10000000000,"state":"spawning","ping":83},{"user_id":296,"name":"Taffer","steam_id":76561198883964471,"connected_time":495000000000,"state":"active","ping":154},{"user_id":274,"name":"Pats [·¥ô-Œº]","steam_id":76561198418538887,"connected_time":1443000000000,"state":"active","ping":92}]},{"server_id":308,"name":"Uncletopia | Frankfurt | 3 | All Maps","name_short":"frk-3","host":"frk-1.de.uncletopia.com","port":27035,"enabled":true,"region":"eu","cc":"de","latitude":50.110924,"longitude":8.682127,"reserved":0,"last_update":"0001-01-01T00:00:00Z","name_a2s":"Uncletopia | Frankfurt | 3 | All Maps","protocol":17,"map":"koth_cascade","folder":"tf","game":"Team Fortress","app_id":440,"player_count":0,"max_players":24,"Bots":0,"server_type":"Dedicated","server_os":"Linux","password":true,"vac":true,"version":"7742253","steam_id":85568392924504274,"keywords":["cp","nocrits","nodmgspread","uncletopia"],"game_id":440,"stv_port":27036,"stv_name":"Uncletopia | Frankfurt | 3 | All Maps | STV","players":null},{"server_id":309,"name":"Uncletopia | Frankfurt | 4 | All Maps","name_short":"frk-4","host":"frk-1.de.uncletopia.com","port":27045,"enabled":true,"region":"eu","cc":"de","latitude":50.110924,"longitude":8.682127,"reserved":0,"last_update":"0001-01-01T00:00:00Z","name_a2s":"Uncletopia | Frankfurt | 4 | All Maps","protocol":17,"map":"pl_badwater","folder":"tf","game":"Team Fortress","app_id":440,"player_count":24,"max_players":24,"Bots":0,"server_type":"Dedicated","server_os":"Linux","password":true,"vac":true,"version":"7742253","steam_id":85568392924504275,"keywords":["nocrits","nodmgspread","payload","uncletopia"],"game_id":440,"stv_port":27046,"stv_name":"Uncletopia | Frankfurt | 4 | All Maps | STV","players":[{"user_id":37,"name":"–°—Ç–∞—Å)","steam_id":76561198161215388,"connected_time":6910000000000,"state":"active","ping":123},{"user_id":144,"name":"Great Teacher Onizuka","steam_id":76561198808819694,"connected_time":578000000000,"state":"active","ping":46},{"user_id":122,"name":"Dolcelatte","steam_id":76561198038501770,"connected_time":1936000000000,"state":"active","ping":50},{"user_id":145,"name":"System","steam_id":76561199442503973,"connected_time":555000000000,"state":"active","ping":47},{"user_id":141,"name":"–£–Ω–¥–µ—Ä–§–∞—Ñ–ª—è","steam_id":76561198059599948,"connected_time":917000000000,"state":"active","ping":108},{"user_id":138,"name":"Gangstalicious","steam_id":76561198106275451,"connected_time":1304000000000,"state":"active","ping":58},{"user_id":26,"name":"PogoGogo","steam_id":76561198124435543,"connected_time":7279000000000,"state":"active","ping":72},{"user_id":123,"name":"Tusho","steam_id":76561198115447383,"connected_time":1928000000000,"state":"active","ping":76},{"user_id":139,"name":"MLGJanitor","steam_id":76561198154572884,"connected_time":1302000000000,"state":"active","ping":73},{"user_id":85,"name":"Rayoo 420 BLAZE IT üêü","steam_id":76561198215225492,"connected_time":5437000000000,"state":"active","ping":65},{"user_id":124,"name":"Rodia","steam_id":76561197968293161,"connected_time":1912000000000,"state":"active","ping":61},{"user_id":148,"name":"tree__dude","steam_id":76561198975762241,"connected_time":320000000000,"state":"active","ping":110},{"user_id":146,"name":"The Funny Cat-Heaby","steam_id":76561198439978112,"connected_time":460000000000,"state":"active","ping":98},{"user_id":125,"name":"Auvirage","steam_id":76561198050018221,"connected_time":1911000000000,"state":"active","ping":48},{"user_id":142,"name":"Squishy","steam_id":76561198124618876,"connected_time":906000000000,"state":"active","ping":123},{"user_id":97,"name":"NaN","steam_id":76561198071098413,"connected_time":3722000000000,"state":"active","ping":55},{"user_id":66,"name":"GEEBUZ","steam_id":76561198046829164,"connected_time":5981000000000,"state":"active","ping":90},{"user_id":126,"name":"Vollys","steam_id":76561198018077773,"connected_time":1903000000000,"state":"active","ping":57},{"user_id":93,"name":"BinaryTrees","steam_id":76561198046819746,"connected_time":4280000000000,"state":"active","ping":41},{"user_id":147,"name":"R!not","steam_id":76561197986328786,"connected_time":399000000000,"state":"active","ping":50},{"user_id":112,"name":"benifis163","steam_id":76561198420973492,"connected_time":2544000000000,"state":"active","ping":94},{"user_id":127,"name":"gary","steam_id":76561198051623751,"connected_time":1898000000000,"state":"active","ping":78},{"user_id":119,"name":"galad.game","steam_id":76561198336324159,"connected_time":2130000000000,"state":"active","ping":62},{"user_id":137,"name":"-gunripp0r^be / Obelix^","steam_id":76561197999306879,"connected_time":1421000000000,"state":"active","ping":95}]},{"server_id":310,"name":"Uncletopia | Frankfurt | 5 | All Maps","name_short":"frk-5","host":"frk-1.de.uncletopia.com","port":27055,"enabled":true,"region":"eu","cc":"de","latitude":50.110924,"longitude":8.682127,"reserved":0,"last_update":"0001-01-01T00:00:00Z","name_a2s":"Uncletopia | Frankfurt | 5 | All Maps","protocol":17,"map":"pl_barnblitz","folder":"tf","game":"Team Fortress","app_id":440,"player_count":24,"max_players":24,"Bots":0,"server_type":"Dedicated","server_os":"Linux","password":true,"vac":true,"version":"7742253","steam_id":85568392924504277,"keywords":["nocrits","nodmgspread","payload","uncletopia"],"game_id":440,"stv_port":27056,"stv_name":"Uncletopia | Frankfurt | 5 | All Maps | STV","players":[{"user_id":406,"name":"historicalpoultry","steam_id":76561198148422688,"connected_time":263000000000,"state":"active","ping":41},{"user_id":366,"name":"Dongus","steam_id":76561198042774930,"connected_time":2791000000000,"state":"active","ping":60},{"user_id":405,"name":"R8N - Obismal","steam_id":76561198007482714,"connected_time":340000000000,"state":"active","ping":73},{"user_id":410,"name":"crolee","steam_id":76561198865817316,"connected_time":156000000000,"state":"active","ping":56},{"user_id":402,"name":"Fortezza","steam_id":76561198972539903,"connected_time":473000000000,"state":"active","ping":56},{"user_id":396,"name":"Sheerluck Holmes","steam_id":76561198051161936,"connected_time":723000000000,"state":"active","ping":61},{"user_id":407,"name":"I was good before.","steam_id":76561198187045217,"connected_time":238000000000,"state":"active","ping":73},{"user_id":388,"name":"O. Wilson","steam_id":76561198090751331,"connected_time":1844000000000,"state":"active","ping":62},{"user_id":408,"name":"Donitsipomo","steam_id":76561198052581459,"connected_time":201000000000,"state":"active","ping":82},{"user_id":354,"name":"Cannon Fodder","steam_id":76561198121408313,"connected_time":3365000000000,"state":"active","ping":101},{"user_id":384,"name":"Ouch","steam_id":76561198193054327,"connected_time":1871000000000,"state":"active","ping":62},{"user_id":403,"name":"Soulman25 (FIN)","steam_id":76561198103611974,"connected_time":470000000000,"state":"active","ping":98},{"user_id":376,"name":"Nex","steam_id":76561199223747483,"connected_time":2052000000000,"state":"active","ping":69},{"user_id":380,"name":"SadnessTrain","steam_id":76561198051934482,"connected_time":1928000000000,"state":"active","ping":63},{"user_id":397,"name":"=PB=","steam_id":76561197999146612,"connected_time":703000000000,"state":"active","ping":60},{"user_id":404,"name":"henoadam","steam_id":76561198151350377,"connected_time":385000000000,"state":"active","ping":58},{"user_id":398,"name":"Mehrtelb","steam_id":76561198054162669,"connected_time":690000000000,"state":"active","ping":52},{"user_id":399,"name":"SLiPpeRyJoe.nosound","steam_id":76561197977206359,"connected_time":673000000000,"state":"active","ping":173},{"user_id":411,"name":"Room","steam_id":76561199174579733,"connected_time":131000000000,"state":"active","ping":147},{"user_id":412,"name":"Pyro","steam_id":76561197972691893,"connected_time":126000000000,"state":"active","ping":63},{"user_id":386,"name":"BostontEA","steam_id":76561198232318512,"connected_time":1868000000000,"state":"active","ping":66},{"user_id":413,"name":"brtaba","steam_id":76561198796334790,"connected_time":69000000000,"state":"active","ping":50},{"user_id":392,"name":"TF2SuperFanandOtherGamesEnjoyer","steam_id":76561199122470298,"connected_time":1130000000000,"state":"active","ping":161},{"user_id":394,"name":"Neco-arc Astolfo","steam_id":76561198989682540,"connected_time":1061000000000,"state":"active","ping":49}]},{"server_id":311,"name":"Uncletopia | Frankfurt | 6 | All Maps","name_short":"frk-6","host":"frk-1.de.uncletopia.com","port":27065,"enabled":true,"region":"eu","cc":"de","latitude":50.110924,"longitude":8.682127,"reserved":0,"last_update":"0001-01-01T00:00:00Z","name_a2s":"Uncletopia | Frankfurt | 6 | All Maps","protocol":17,"map":"pl_pier","folder":"tf","game":"Team Fortress","app_id":440,"player_count":24,"max_players":24,"Bots":0,"server_type":"Dedicated","server_os":"Linux","password":true,"vac":true,"version":"7742253","steam_id":85568392924504278,"keywords":["nocrits","nodmgspread","payload","uncletopia"],"game_id":440,"stv_port":27066,"stv_name":"Uncletopia | Frankfurt | 6 | All Maps | STV","players":[{"user_id":185,"name":"Deckard","steam_id":76561198004704647,"connected_time":1593000000000,"state":"active","ping":71},{"user_id":190,"name":"S0LDaTo","steam_id":76561198269413360,"connected_time":1318000000000,"state":"active","ping":67},{"user_id":202,"name":"ficus","steam_id":76561197982968184,"connected_time":814000000000,"state":"active","ping":56},{"user_id":198,"name":"NeonPixel","steam_id":76561198165901066,"connected_time":981000000000,"state":"active","ping":76},{"user_id":138,"name":"Lewee","steam_id":76561198058828018,"connected_time":4488000000000,"state":"active","ping":61},{"user_id":110,"name":"YeetusFeetus","steam_id":76561199043598948,"connected_time":6011000000000,"state":"active","ping":106},{"user_id":195,"name":"Pan W","steam_id":76561198384111099,"connected_time":1213000000000,"state":"active","ping":61},{"user_id":201,"name":"waddle dork","steam_id":76561198297349985,"connected_time":836000000000,"state":"active","ping":51},{"user_id":188,"name":"leminsc8","steam_id":76561198825084995,"connected_time":1332000000000,"state":"active","ping":44},{"user_id":205,"name":"Fat Pigeon","steam_id":76561198817940142,"connected_time":514000000000,"state":"active","ping":49},{"user_id":206,"name":"Xiter","steam_id":76561198009362258,"connected_time":105000000000,"state":"active","ping":75},{"user_id":168,"name":"Cosmo Kramer","steam_id":76561199106110824,"connected_time":2264000000000,"state":"active","ping":72},{"user_id":209,"name":"Florua","steam_id":76561198182297846,"connected_time":23000000000,"state":"spawning","ping":61},{"user_id":207,"name":"nem≈õs","steam_id":76561198134203031,"connected_time":82000000000,"state":"active","ping":61},{"user_id":199,"name":"G6 sherlock","steam_id":76561198802967796,"connected_time":923000000000,"state":"active","ping":120},{"user_id":80,"name":"Mr. Mundy","steam_id":76561198132008918,"connected_time":7979000000000,"state":"active","ping":75},{"user_id":176,"name":"rmz.ssj","steam_id":76561198329613930,"connected_time":1930000000000,"state":"active","ping":64},{"user_id":193,"name":"ùöÇùöÇùô≥ùô≥_Caddy","steam_id":76561198063860944,"connected_time":1297000000000,"state":"active","ping":67},{"user_id":31,"name":"Hexagon","steam_id":76561198151205758,"connected_time":10893000000000,"state":"active","ping":59},{"user_id":181,"name":"MAKENTAKEN","steam_id":76561199127359587,"connected_time":1698000000000,"state":"active","ping":91},{"user_id":210,"name":"Oliver","steam_id":76561198063523419,"connected_time":9000000000,"state":"spawning","ping":89},{"user_id":203,"name":"panakid","steam_id":76561198364121077,"connected_time":744000000000,"state":"active","ping":95},{"user_id":186,"name":"Fran","steam_id":76561199070516960,"connected_time":1466000000000,"state":"active","ping":63},{"user_id":204,"name":"jaMie","steam_id":76561198170148783,"connected_time":598000000000,"state":"active","ping":63}]},{"server_id":23,"name":"Uncletopia | Frankfurt | 7 | Stopwatch Beta","name_short":"frk-7","host":"frk-1.de.uncletopia.com","port":27075,"enabled":true,"region":"eu","cc":"de","latitude":50.110924,"longitude":8.682127,"reserved":0,"last_update":"0001-01-01T00:00:00Z","name_a2s":"Uncletopia | Frankfurt | 7 | Stopwatch Beta","protocol":17,"map":"workshop/pl_summercoast_rc8e.ugc1761528829","folder":"tf","game":"Team Fortress","app_id":440,"player_count":0,"max_players":24,"Bots":0,"server_type":"Dedicated","server_os":"Linux","password":true,"vac":true,"version":"7742253","steam_id":85568392924742827,"keywords":["nocrits","nodmgspread","payload","uncletopia"],"game_id":440,"stv_port":27076,"stv_name":"Uncletopia | Frankfurt | 7 | Stopwatch Beta | STV","players":null},{"server_id":24,"name":"Uncletopia | Frankfurt | 8 | Community","name_short":"frk-8","host":"frk-1.de.uncletopia.com","port":27085,"enabled":true,"region":"eu","cc":"de","latitude":50.110924,"longitude":8.682127,"reserved":0,"last_update":"0001-01-01T00:00:00Z","name_a2s":"Uncletopia | Frankfurt | 8 | Community","protocol":17,"map":"workshop/pl_barnblitz_pro7.ugc582280235","folder":"tf","game":"Team Fortress","app_id":440,"player_count":0,"max_players":24,"Bots":0,"server_type":"Dedicated","server_os":"Linux","password":true,"vac":true,"version":"7742253","steam_id":85568392924742828,"keywords":["nocrits","nodmgspread","payload","uncletopia"],"game_id":440,"stv_port":27086,"stv_name":"Uncletopia | Frankfurt | 8 | Community | STV","players":null},{"server_id":202,"name":"Uncletopia | Hong Kong | 1 | All Maps","name_short":"hgk-1","host":"hgk-1.hk.uncletopia.com","port":27015,"enabled":true,"region":"asia","cc":"hk","latitude":22.302711,"longitude":114.177216,"reserved":0,"last_update":"0001-01-01T00:00:00Z","name_a2s":"Uncletopia | Hong Kong | 1 | All Maps","protocol":17,"map":"pl_barnblitz","folder":"tf","game":"Team Fortress","app_id":440,"player_count":21,"max_players":24,"Bots":0,"server_type":"Dedicated","server_os":"Linux","password":true,"vac":true,"version":"7742253","steam_id":85568392924494504,"keywords":["nocrits","nodmgspread","payload","uncletopia"],"game_id":440,"stv_port":27016,"stv_name":"Uncletopia | Hong Kong | 1 | All Maps | STV","players":[{"user_id":847,"name":"Doormann","steam_id":76561199219230108,"connected_time":586000000000,"state":"active","ping":121},{"user_id":855,"name":"Cienaga","steam_id":76561198195149342,"connected_time":292000000000,"state":"active","ping":145},{"user_id":781,"name":"ÊØç„ÅÆËÇâÂõ£Â≠ê","steam_id":76561198069561896,"connected_time":4558000000000,"state":"active","ping":30},{"user_id":797,"name":"Violezine","steam_id":76561199000502615,"connected_time":4171000000000,"state":"active","ping":80},{"user_id":856,"name":"v1.","steam_id":76561198037571054,"connected_time":243000000000,"state":"active","ping":33},{"user_id":848,"name":"Darknight","steam_id":76561199090139287,"connected_time":578000000000,"state":"active","ping":90},{"user_id":857,"name":"Him Him Ung","steam_id":76561198204789021,"connected_time":182000000000,"state":"active","ping":49},{"user_id":839,"name":"Sam_So","steam_id":76561198970994835,"connected_time":877000000000,"state":"active","ping":48},{"user_id":788,"name":"Skyler White yo","steam_id":76561198895193247,"connected_time":4477000000000,"state":"active","ping":64},{"user_id":717,"name":"Ê≤°ÊúâÂÜ∞Ê∑áÊ∑ãÂìàÂìà","steam_id":76561199158327323,"connected_time":9704000000000,"state":"active","ping":82},{"user_id":836,"name":"Bleno","steam_id":76561199250209631,"connected_time":1192000000000,"state":"active","ping":60},{"user_id":842,"name":"East","steam_id":76561198857299051,"connected_time":758000000000,"state":"active","ping":78},{"user_id":850,"name":"Dokutah, Husband of W","steam_id":76561199273390091,"connected_time":484000000000,"state":"active","ping":67},{"user_id":851,"name":"good goth girl","steam_id":76561198118989010,"connected_time":468000000000,"state":"active","ping":63},{"user_id":829,"name":":)","steam_id":76561198437941450,"connected_time":1527000000000,"state":"active","ping":73},{"user_id":858,"name":"bocchi the oppai","steam_id":76561198008307645,"connected_time":160000000000,"state":"active","ping":133},{"user_id":860,"name":"iamthenoname","steam_id":76561198982785447,"connected_time":12000000000,"state":"spawning","ping":66},{"user_id":852,"name":"Basil","steam_id":76561199262353252,"connected_time":353000000000,"state":"active","ping":83},{"user_id":853,"name":"Puddin","steam_id":76561198140052918,"connected_time":342000000000,"state":"active","ping":88},{"user_id":831,"name":"solo","steam_id":76561199221433871,"connected_time":1444000000000,"state":"active","ping":111},{"user_id":826,"name":"Monday","steam_id":76561198829584056,"connected_time":2431000000000,"state":"active","ping":31}]},{"server_id":1,"name":"Uncletopia | Los Angeles | 1 | All Maps","name_short":"lax-1","host":"lax-1.us.uncletopia.com","port":27015,"enabled":true,"region":"us-west","cc":"us","latitude":33.94279,"longitude":-118.41004,"reserved":0,"last_update":"0001-01-01T00:00:00Z","name_a2s":"Uncletopia | Los Angeles | 1 | All Maps","protocol":17,"map":"cp_dustbowl","folder":"tf","game":"Team Fortress","app_id":440,"player_count":0,"max_players":24,"Bots":0,"server_type":"Dedicated","server_os":"Linux","password":true,"vac":true,"version":"7742253","steam_id":85568392924469991,"keywords":["cp","nocrits","nodmgspread","uncletopia"],"game_id":440,"stv_port":27016,"stv_name":"Uncletopia | Los Angeles | 1 | All Maps | STV","players":null},{"server_id":112,"name":"Uncletopia | Los Angeles | 2 | All Maps","name_short":"lax-2","host":"lax-1.us.uncletopia.com","port":27025,"enabled":true,"region":"us-west","cc":"us","latitude":33.94279,"longitude":-118.41004,"reserved":0,"last_update":"0001-01-01T00:00:00Z","name_a2s":"Uncletopia | Los Angeles | 2 | All Maps","protocol":17,"map":"pl_swiftwater_final1","folder":"tf","game":"Team Fortress","app_id":440,"player_count":0,"max_players":24,"Bots":0,"server_type":"Dedicated","server_os":"Linux","password":true,"vac":true,"version":"7742253","steam_id":85568392924469992,"keywords":["nocrits","nodmgspread","payload","uncletopia"],"game_id":440,"stv_port":27026,"stv_name":"Uncletopia | Los Angeles | 2 | All Maps | STV","players":null},{"server_id":324,"name":"Uncletopia | Los Angeles | 3 | All Maps","name_short":"lax-3","host":"lax-1.us.uncletopia.com","port":27035,"enabled":true,"region":"us-west","cc":"us","latitude":33.94279,"longitude":-118.41004,"reserved":0,"last_update":"0001-01-01T00:00:00Z","name_a2s":"Uncletopia | Los Angeles | 3 | All Maps","protocol":17,"map":"cp_snakewater_final1","folder":"tf","game":"Team Fortress","app_id":440,"player_count":0,"max_players":24,"Bots":0,"server_type":"Dedicated","server_os":"Linux","password":true,"vac":true,"version":"7742253","steam_id":85568392924510198,"keywords":["cp","nocrits","nodmgspread","uncletopia"],"game_id":440,"stv_port":27036,"stv_name":"Uncletopia | Los Angeles | 3 | All Maps | STV","players":null},{"server_id":25,"name":"Uncletopia | Los Angeles | 4 | Stopwatch Beta","name_short":"lax-4","host":"lax-1.us.uncletopia.com","port":27045,"enabled":true,"region":"us-west","cc":"us","latitude":33.94279,"longitude":-118.41004,"reserved":0,"last_update":"0001-01-01T00:00:00Z","name_a2s":"Uncletopia | Los Angeles | 4 | Stopwatch Beta","protocol":17,"map":"cp_snakewater_final1","folder":"tf","game":"Team Fortress","app_id":440,"player_count":0,"max_players":24,"Bots":0,"server_type":"Dedicated","server_os":"Linux","password":true,"vac":true,"version":"7742253","steam_id":85568392924510199,"keywords":["cp","nocrits","nodmgspread","uncletopia"],"game_id":440,"stv_port":27046,"stv_name":"Uncletopia | Los Angeles | 4 | Stopwatch Beta | STV","players":null},{"server_id":11,"name":"Uncletopia | London | 1 | All Maps","name_short":"lon-1","host":"lon-1.uk.uncletopia.com","port":27015,"enabled":true,"region":"eu","cc":"gb","latitude":51.509865,"longitude":-0.118092,"reserved":0,"last_update":"0001-01-01T00:00:00Z","name_a2s":"Uncletopia | London | 1 | All Maps","protocol":17,"map":"cp_coldfront","folder":"tf","game":"Team Fortress","app_id":440,"player_count":23,"max_players":24,"Bots":0,"server_type":"Dedicated","server_os":"Linux","password":true,"vac":true,"version":"7742253","steam_id":85568392924367362,"keywords":["cp","nocrits","nodmgspread","uncletopia"],"game_id":440,"stv_port":27016,"stv_name":"Uncletopia | London | 1 | All Maps | STV","players":[{"user_id":251,"name":"The Crostralian","steam_id":76561198098119937,"connected_time":1997000000000,"state":"active","ping":90},{"user_id":276,"name":"Flamingwa","steam_id":76561199134332265,"connected_time":815000000000,"state":"active","ping":33},{"user_id":282,"name":"Xiqui","steam_id":76561198818386611,"connected_time":749000000000,"state":"active","ping":82},{"user_id":203,"name":"Rask","steam_id":76561198052934944,"connected_time":5059000000000,"state":"active","ping":88},{"user_id":239,"name":"PokiMann","steam_id":76561198189055357,"connected_time":3436000000000,"state":"active","ping":63},{"user_id":290,"name":"Sasha Vandal (YT)","steam_id":76561198063448831,"connected_time":469000000000,"state":"active","ping":166},{"user_id":289,"name":"‚ô•SOFIA‚ô•","steam_id":76561199153232734,"connected_time":506000000000,"state":"active","ping":75},{"user_id":267,"name":"Vanadis","steam_id":76561198255557997,"connected_time":1513000000000,"state":"active","ping":86},{"user_id":285,"name":"teddy","steam_id":76561198007436837,"connected_time":572000000000,"state":"active","ping":42},{"user_id":286,"name":"SausageRoll","steam_id":76561197994072622,"connected_time":569000000000,"state":"active","ping":45},{"user_id":287,"name":"Zoran Snajper","steam_id":76561198312564061,"connected_time":547000000000,"state":"active","ping":72},{"user_id":261,"name":"Tank","steam_id":76561199059174576,"connected_time":1811000000000,"state":"active","ping":175},{"user_id":225,"name":"Osmo","steam_id":76561199286764992,"connected_time":4190000000000,"state":"active","ping":96},{"user_id":293,"name":"SirKaelan","steam_id":76561198123193384,"connected_time":33000000000,"state":"active","ping":86},{"user_id":256,"name":"Nooblington","steam_id":76561198053695699,"connected_time":1943000000000,"state":"active","ping":48},{"user_id":173,"name":"Rambi","steam_id":76561199058078505,"connected_time":7527000000000,"state":"active","ping":163},{"user_id":281,"name":"UNO, The Ubisoft Original (2023","steam_id":76561198846784757,"connected_time":768000000000,"state":"active","ping":56},{"user_id":291,"name":"AdventurousMR","steam_id":76561198412400073,"connected_time":460000000000,"state":"active","ping":58},{"user_id":240,"name":"this is pointless","steam_id":76561198093605066,"connected_time":3431000000000,"state":"active","ping":85},{"user_id":258,"name":"soap lore","steam_id":76561198058879767,"connected_time":1861000000000,"state":"active","ping":46},{"user_id":288,"name":"eye am","steam_id":76561198149249679,"connected_time":544000000000,"state":"active","ping":80},{"user_id":273,"name":"AforeKingDwarf","steam_id":76561198043562926,"connected_time":1051000000000,"state":"active","ping":43},{"user_id":220,"name":"thefatcontroller","steam_id":76561199332965146,"connected_time":4570000000000,"state":"active","ping":82}]},{"server_id":114,"name":"Uncletopia | London | 2 | All Maps","name_short":"lon-2","host":"lon-1.uk.uncletopia.com","port":27025,"enabled":true,"region":"eu","cc":"gb","latitude":51.509865,"longitude":-0.118092,"reserved":0,"last_update":"0001-01-01T00:00:00Z","name_a2s":"Uncletopia | London | 2 | All Maps","protocol":17,"map":"cp_dustbowl","folder":"tf","game":"Team Fortress","app_id":440,"player_count":23,"max_players":24,"Bots":0,"server_type":"Dedicated","server_os":"Linux","password":true,"vac":true,"version":"7742253","steam_id":85568392924470941,"keywords":["cp","nocrits","nodmgspread","uncletopia"],"game_id":440,"stv_port":27026,"stv_name":"Uncletopia | London | 2 | All Maps | STV","players":[{"user_id":609,"name":"Jamu","steam_id":76561198128677991,"connected_time":839000000000,"state":"active","ping":53},{"user_id":599,"name":"tactical783","steam_id":76561199051688560,"connected_time":1223000000000,"state":"active","ping":46},{"user_id":622,"name":"ItsFinnishDaniel","steam_id":76561199078675974,"connected_time":92000000000,"state":"active","ping":80},{"user_id":602,"name":"ValentineHU","steam_id":76561198165061845,"connected_time":1180000000000,"state":"active","ping":81},{"user_id":620,"name":"poop","steam_id":76561198272406084,"connected_time":280000000000,"state":"active","ping":143},{"user_id":613,"name":"i am bread","steam_id":76561199180277321,"connected_time":594000000000,"state":"active","ping":77},{"user_id":546,"name":"Festive Samanth","steam_id":76561198880505482,"connected_time":2635000000000,"state":"spawning","ping":86},{"user_id":604,"name":"Sharper Spoon","steam_id":76561198877130687,"connected_time":1149000000000,"state":"active","ping":150},{"user_id":625,"name":"Chrikin","steam_id":76561198416301532,"connected_time":23000000000,"state":"active","ping":113},{"user_id":607,"name":"neb","steam_id":76561198812042085,"connected_time":1033000000000,"state":"active","ping":44},{"user_id":569,"name":"Big Horned Girlfriend","steam_id":76561197981149859,"connected_time":2343000000000,"state":"active","ping":86},{"user_id":550,"name":"Frazzles","steam_id":76561199228009586,"connected_time":2589000000000,"state":"active","ping":38},{"user_id":566,"name":"Cabbch","steam_id":76561198045955679,"connected_time":2385000000000,"state":"active","ping":45},{"user_id":552,"name":"Welder","steam_id":76561198355300561,"connected_time":2576000000000,"state":"active","ping":75},{"user_id":617,"name":"holmes6007","steam_id":76561198200075734,"connected_time":367000000000,"state":"active","ping":87},{"user_id":618,"name":"Acxsa","steam_id":76561198098979449,"connected_time":357000000000,"state":"active","ping":71},{"user_id":621,"name":"hamude.alsarhan2011","steam_id":76561199259727736,"connected_time":177000000000,"state":"active","ping":62},{"user_id":586,"name":"Metal","steam_id":76561199013364336,"connected_time":1661000000000,"state":"active","ping":45},{"user_id":623,"name":"sammeh","steam_id":76561198879773477,"connected_time":87000000000,"state":"active","ping":50},{"user_id":619,"name":"A Large Wooden Badger","steam_id":76561197993747302,"connected_time":317000000000,"state":"active","ping":153},{"user_id":587,"name":"–ì–¥–µ –º–æ—Ä–µ?","steam_id":76561197979625544,"connected_time":1633000000000,"state":"active","ping":89},{"user_id":624,"name":"Graf von Scyth","steam_id":76561198198497733,"connected_time":72000000000,"state":"active","ping":43},{"user_id":598,"name":"Rosehip","steam_id":76561198860690846,"connected_time":1253000000000,"state":"active","ping":115}]},{"server_id":320,"name":"Uncletopia | London | 3 | All Maps","name_short":"lon-3","host":"lon-1.uk.uncletopia.com","port":27035,"enabled":true,"region":"eu","cc":"gb","latitude":51.509865,"longitude":-0.118092,"reserved":0,"last_update":"0001-01-01T00:00:00Z","name_a2s":"Uncletopia | London | 3 | All Maps","protocol":17,"map":"cp_steel","folder":"tf","game":"Team Fortress","app_id":440,"player_count":24,"max_players":24,"Bots":0,"server_type":"Dedicated","server_os":"Linux","password":true,"vac":true,"version":"7742253","steam_id":85568392924510192,"keywords":["cp","nocrits","nodmgspread","uncletopia"],"game_id":440,"stv_port":27036,"stv_name":"Uncletopia | London | 3 | All Maps | STV","players":[{"user_id":320,"name":"D-boi","steam_id":76561199001837576,"connected_time":236000000000,"state":"active","ping":55},{"user_id":275,"name":"Haiva","steam_id":76561198139999282,"connected_time":2110000000000,"state":"active","ping":75},{"user_id":317,"name":"TheGuyWho'sHereForNoReason","steam_id":76561198851507736,"connected_time":269000000000,"state":"active","ping":173},{"user_id":285,"name":"Jar","steam_id":76561198156384007,"connected_time":1739000000000,"state":"active","ping":51},{"user_id":322,"name":"MtnDew The Learning Pyromain","steam_id":76561199100059743,"connected_time":216000000000,"state":"active","ping":103},{"user_id":308,"name":"wolfgang","steam_id":76561199111818670,"connected_time":537000000000,"state":"active","ping":100},{"user_id":324,"name":"Hot._.Chocopops","steam_id":76561199025668594,"connected_time":170000000000,"state":"active","ping":63},{"user_id":278,"name":"waffle toaster","steam_id":76561198799089628,"connected_time":1968000000000,"state":"active","ping":55},{"user_id":198,"name":"Keelan","steam_id":76561198013665543,"connected_time":7142000000000,"state":"active","ping":66},{"user_id":251,"name":"kaT","steam_id":76561198879664338,"connected_time":3456000000000,"state":"active","ping":63},{"user_id":318,"name":"Nummi","steam_id":76561198980901935,"connected_time":264000000000,"state":"active","ping":75},{"user_id":315,"name":"Hkitchen","steam_id":76561198194779526,"connected_time":357000000000,"state":"active","ping":44},{"user_id":262,"name":"Chris Chan (real)","steam_id":76561199005562645,"connected_time":2496000000000,"state":"active","ping":90},{"user_id":321,"name":"RealFunGuy","steam_id":76561198116644064,"connected_time":227000000000,"state":"active","ping":54},{"user_id":303,"name":"Ed","steam_id":76561198135081318,"connected_time":779000000000,"state":"active","ping":49},{"user_id":310,"name":"Borat","steam_id":76561198122226417,"connected_time":499000000000,"state":"active","ping":39},{"user_id":304,"name":"Ummdustry","steam_id":76561198063470477,"connected_time":755000000000,"state":"active","ping":49},{"user_id":282,"name":"sumweeb","steam_id":76561198311624395,"connected_time":1780000000000,"state":"active","ping":42},{"user_id":259,"name":"tom","steam_id":76561198202442602,"connected_time":2589000000000,"state":"active","ping":89},{"user_id":299,"name":"frosty","steam_id":76561198094560834,"connected_time":1103000000000,"state":"active","ping":45},{"user_id":267,"name":"Basshunter (real)","steam_id":76561198806419035,"connected_time":2460000000000,"state":"active","ping":88},{"user_id":252,"name":"Hitori Gotoh","steam_id":76561198101532240,"connected_time":3152000000000,"state":"active","ping":47},{"user_id":323,"name":"The Bonk Man‚Ñ¢","steam_id":76561199044260792,"connected_time":211000000000,"state":"active","ping":81},{"user_id":283,"name":"torn","steam_id":76561198223003236,"connected_time":1779000000000,"state":"active","ping":59}]},{"server_id":321,"name":"Uncletopia | London | 4 | All Maps","name_short":"lon-4","host":"lon-1.uk.uncletopia.com","port":27045,"enabled":true,"region":"eu","cc":"gb","latitude":51.509865,"longitude":-0.118092,"reserved":0,"last_update":"0001-01-01T00:00:00Z","name_a2s":"Uncletopia | London | 4 | All Maps","protocol":17,"map":"koth_highpass","folder":"tf","game":"Team Fortress","app_id":440,"player_count":0,"max_players":24,"Bots":0,"server_type":"Dedicated","server_os":"Linux","password":true,"vac":true,"version":"7742253","steam_id":85568392924510193,"keywords":["cp","nocrits","nodmgspread","uncletopia"],"game_id":440,"stv_port":27046,"stv_name":"Uncletopia | London | 4 | All Maps | STV","players":null},{"server_id":21,"name":"Uncletopia | London | 5 | All Maps","name_short":"lon-5","host":"lon-1.uk.uncletopia.com","port":27055,"enabled":true,"region":"eu","cc":"gb","latitude":51.509865,"longitude":-0.118092,"reserved":0,"last_update":"0001-01-01T00:00:00Z","name_a2s":"Uncletopia | London | 5 | All Maps","protocol":17,"map":"pl_frontier_final","folder":"tf","game":"Team Fortress","app_id":440,"player_count":24,"max_players":24,"Bots":0,"server_type":"Dedicated","server_os":"Linux","password":true,"vac":true,"version":"7742253","steam_id":85568392924742829,"keywords":["nocrits","nodmgspread","payload","uncletopia"],"game_id":440,"stv_port":27056,"stv_name":"Uncletopia | London | 5 | All Maps | STV","players":[{"user_id":187,"name":"fat retard","steam_id":76561199365128399,"connected_time":151000000000,"state":"active","ping":116},{"user_id":183,"name":"GazerBazer","steam_id":76561198879107565,"connected_time":288000000000,"state":"active","ping":91},{"user_id":161,"name":"Paul Penix","steam_id":76561197996941396,"connected_time":1241000000000,"state":"active","ping":42},{"user_id":115,"name":"KillerQueen (he/they/she)","steam_id":76561199019399725,"connected_time":4826000000000,"state":"active","ping":48},{"user_id":182,"name":"t.tv/FamilyGuyFunnyMoments277","steam_id":76561198416047580,"connected_time":314000000000,"state":"active","ping":145},{"user_id":162,"name":"not deaf just vibing","steam_id":76561198718760200,"connected_time":1177000000000,"state":"active","ping":39},{"user_id":163,"name":"Zake","steam_id":76561198352461844,"connected_time":1157000000000,"state":"active","ping":60},{"user_id":97,"name":"Octoblue64","steam_id":76561198388997283,"connected_time":6426000000000,"state":"active","ping":38},{"user_id":164,"name":"Joe","steam_id":76561198061717026,"connected_time":1153000000000,"state":"active","ping":45},{"user_id":151,"name":"Lyra","steam_id":76561198043601838,"connected_time":2321000000000,"state":"active","ping":60},{"user_id":165,"name":"‚à´cos¬≤(2x)sin(x)dx","steam_id":76561198079937590,"connected_time":1143000000000,"state":"active","ping":59},{"user_id":179,"name":"Can my wife use your toilet?","steam_id":76561198132926700,"connected_time":482000000000,"state":"active","ping":53},{"user_id":167,"name":"bruh","steam_id":76561198109262927,"connected_time":1134000000000,"state":"active","ping":75},{"user_id":180,"name":"Baklava Enjoyer","steam_id":76561198990679631,"connected_time":445000000000,"state":"active","ping":69},{"user_id":141,"name":"s8nschoice","steam_id":76561198176658659,"connected_time":3791000000000,"state":"active","ping":123},{"user_id":185,"name":"JeanCorben","steam_id":76561197965133561,"connected_time":203000000000,"state":"active","ping":44},{"user_id":160,"name":"strangely","steam_id":76561198030697131,"connected_time":1268000000000,"state":"active","ping":32},{"user_id":186,"name":"TKN_Paps997","steam_id":76561198419868465,"connected_time":202000000000,"state":"active","ping":89},{"user_id":181,"name":"Chromatic","steam_id":76561198355976286,"connected_time":404000000000,"state":"active","ping":48},{"user_id":170,"name":"Abby","steam_id":76561198170528489,"connected_time":1084000000000,"state":"active","ping":58},{"user_id":177,"name":"Gnaisse","steam_id":76561198010560642,"connected_time":929000000000,"state":"active","ping":85},{"user_id":90,"name":"‚ô£–ë—Ä–µ–¥–æ–≤—ã–π –ú–µ—Å—è—Ü","steam_id":76561198796404149,"connected_time":7083000000000,"state":"active","ping":107},{"user_id":155,"name":"OhMyGrosch","steam_id":76561198361193051,"connected_time":2209000000000,"state":"active","ping":41},{"user_id":189,"name":"marsel","steam_id":76561198116168271,"connected_time":132000000000,"state":"active","ping":83}]},{"server_id":22,"name":"Uncletopia | London | 6 | All Maps","name_short":"lon-6","host":"lon-1.uk.uncletopia.com","port":27065,"enabled":true,"region":"eu","cc":"gb","latitude":51.509865,"longitude":-0.118092,"reserved":0,"last_update":"0001-01-01T00:00:00Z","name_a2s":"Uncletopia | London | 6 | All Maps","protocol":17,"map":"koth_highpass","folder":"tf","game":"Team Fortress","app_id":440,"player_count":0,"max_players":24,"Bots":0,"server_type":"Dedicated","server_os":"Linux","password":true,"vac":true,"version":"7742253","steam_id":85568392924742830,"keywords":["cp","nocrits","nodmgspread","uncletopia"],"game_id":440,"stv_port":27066,"stv_name":"Uncletopia | London | 6 | All Maps | STV","players":null},{"server_id":40,"name":"Uncletopia | London | 7 | No Payload","name_short":"lon-7","host":"lon-1.uk.uncletopia.com","port":27075,"enabled":true,"region":"eu","cc":"gb","latitude":51.509865,"longitude":-0.118092,"reserved":0,"last_update":"0001-01-01T00:00:00Z","name_a2s":"Uncletopia | London | 7 | No Payload","protocol":17,"map":"koth_viaduct","folder":"tf","game":"Team Fortress","app_id":440,"player_count":0,"max_players":24,"Bots":0,"server_type":"Dedicated","server_os":"Linux","password":true,"vac":true,"version":"7742253","steam_id":85568392924964314,"keywords":["cp","nocrits","nodmgspread","uncletopia"],"game_id":440,"stv_port":27076,"stv_name":"Uncletopia | London | 7 | No Payload | STV","players":null},{"server_id":41,"name":"Uncletopia | London | 8 | Community","name_short":"lon-8","host":"lon-1.uk.uncletopia.com","port":27085,"enabled":true,"region":"eu","cc":"gb","latitude":51.509865,"longitude":-0.118092,"reserved":0,"last_update":"0001-01-01T00:00:00Z","name_a2s":"Uncletopia | London | 8 | Community","protocol":17,"map":"cp_altitude","folder":"tf","game":"Team Fortress","app_id":440,"player_count":0,"max_players":24,"Bots":0,"server_type":"Dedicated","server_os":"Linux","password":true,"vac":true,"version":"7742253","steam_id":85568392924964315,"keywords":["cp","nocrits","nodmgspread","uncletopia"],"game_id":440,"stv_port":27086,"stv_name":"Uncletopia | London | 8 | Community | STV","players":null},{"server_id":300,"name":"Uncletopia | Montr√©al | 1 | All Maps","name_short":"mtl-1","host":"mtl-1.ca.uncletopia.com","port":27015,"enabled":true,"region":"us-east","cc":"ca","latitude":45.50889,"longitude":-73.56167,"reserved":0,"last_update":"0001-01-01T00:00:00Z","name_a2s":"Uncletopia | Montr√©al | 1 | All Maps","protocol":17,"map":"pl_barnblitz","folder":"tf","game":"Team Fortress","app_id":440,"player_count":0,"max_players":24,"Bots":0,"server_type":"Dedicated","server_os":"Linux","password":true,"vac":true,"version":"7742253","steam_id":85568392924500087,"keywords":["nocrits","nodmgspread","payload","uncletopia"],"game_id":440,"stv_port":27016,"stv_name":"Uncletopia | Montr√©al | 1 | All Maps | STV","players":null},{"server_id":301,"name":"Uncletopia | Montr√©al | 2 | All Maps","name_short":"mtl-2","host":"mtl-1.ca.uncletopia.com","port":27025,"enabled":true,"region":"us-east","cc":"ca","latitude":45.50889,"longitude":-73.56167,"reserved":0,"last_update":"0001-01-01T00:00:00Z","name_a2s":"Uncletopia | Montr√©al | 2 | All Maps","protocol":17,"map":"koth_highpass","folder":"tf","game":"Team Fortress","app_id":440,"player_count":0,"max_players":24,"Bots":0,"server_type":"Dedicated","server_os":"Linux","password":true,"vac":true,"version":"7742253","steam_id":85568392924500088,"keywords":["cp","nocrits","nodmgspread","uncletopia"],"game_id":440,"stv_port":27026,"stv_name":"Uncletopia | Montr√©al | 2 | All Maps | STV","players":null},{"server_id":302,"name":"Uncletopia | Montr√©al | 3 | All Maps","name_short":"mtl-3","host":"mtl-1.ca.uncletopia.com","port":27035,"enabled":true,"region":"us-east","cc":"ca","latitude":45.50889,"longitude":-73.56167,"reserved":0,"last_update":"0001-01-01T00:00:00Z","name_a2s":"Uncletopia | Montr√©al | 3 | All Maps","protocol":17,"map":"cp_snakewater_final1","folder":"tf","game":"Team Fortress","app_id":440,"player_count":0,"max_players":24,"Bots":0,"server_type":"Dedicated","server_os":"Linux","password":true,"vac":true,"version":"7742253","steam_id":85568392924500089,"keywords":["cp","nocrits","nodmgspread","uncletopia"],"game_id":440,"stv_port":27036,"stv_name":"Uncletopia | Montr√©al | 3 | All Maps | STV","players":null},{"server_id":303,"name":"Uncletopia | Montr√©al | 4 | No Payload","name_short":"mtl-4","host":"mtl-1.ca.uncletopia.com","port":27045,"enabled":true,"region":"us-east","cc":"ca","latitude":45.50889,"longitude":-73.56167,"reserved":0,"last_update":"0001-01-01T00:00:00Z","name_a2s":"Uncletopia | Montr√©al | 4 | No Payload","protocol":17,"map":"cp_snakewater_final1","folder":"tf","game":"Team Fortress","app_id":440,"player_count":0,"max_players":24,"Bots":0,"server_type":"Dedicated","server_os":"Linux","password":true,"vac":true,"version":"7742253","steam_id":85568392924500090,"keywords":["cp","nocrits","nodmgspread","uncletopia"],"game_id":440,"stv_port":27046,"stv_name":"Uncletopia | Montr√©al | 4 | No Payload | STV","players":null},{"server_id":13,"name":"Uncletopia | New York City | 1 | All Maps","name_short":"nyc-1","host":"nyc-1.us.uncletopia.com","port":27015,"enabled":true,"region":"us-east","cc":"us","latitude":40.73061,"longitude":-73.93524,"reserved":0,"last_update":"0001-01-01T00:00:00Z","name_a2s":"Uncletopia | New York City | 1 | All Maps","protocol":17,"map":"koth_cascade","folder":"tf","game":"Team Fortress","app_id":440,"player_count":0,"max_players":24,"Bots":0,"server_type":"Dedicated","server_os":"Linux","password":true,"vac":true,"version":"7742253","steam_id":85568392924469993,"keywords":["cp","nocrits","nodmgspread","uncletopia"],"game_id":440,"stv_port":27016,"stv_name":"Uncletopia | New York City | 1 | All Maps | STV","players":null},{"server_id":14,"name":"Uncletopia | New York City | 2 | All Maps","name_short":"nyc-2","host":"nyc-1.us.uncletopia.com","port":27025,"enabled":true,"region":"us-east","cc":"us","latitude":40.73061,"longitude":-73.93524,"reserved":0,"last_update":"0001-01-01T00:00:00Z","name_a2s":"Uncletopia | New York City | 2 | All Maps","protocol":17,"map":"cp_mountainlab","folder":"tf","game":"Team Fortress","app_id":440,"player_count":0,"max_players":24,"Bots":0,"server_type":"Dedicated","server_os":"Linux","password":true,"vac":true,"version":"7742253","steam_id":85568392924469994,"keywords":["cp","nocrits","nodmgspread","uncletopia"],"game_id":440,"stv_port":27026,"stv_name":"Uncletopia | New York City | 2 | All Maps | STV","players":null},{"server_id":15,"name":"Uncletopia | New York City | 3 | Stopwatch Beta","name_short":"nyc-3","host":"nyc-1.us.uncletopia.com","port":27035,"enabled":true,"region":"us-east","cc":"us","latitude":40.73061,"longitude":-73.93524,"reserved":0,"last_update":"0001-01-01T00:00:00Z","name_a2s":"Uncletopia | New York City | 3 | Stopwatch Beta","protocol":17,"map":"pl_pier","folder":"tf","game":"Team Fortress","app_id":440,"player_count":0,"max_players":24,"Bots":0,"server_type":"Dedicated","server_os":"Linux","password":true,"vac":true,"version":"7742253","steam_id":85568392924742820,"keywords":["nocrits","nodmgspread","payload","uncletopia"],"game_id":440,"stv_port":27036,"stv_name":"Uncletopia | New York City | 3 | Stopwatch Beta | STV","players":null},{"server_id":16,"name":"Uncletopia | New York City | 4 | Community","name_short":"nyc-4","host":"nyc-1.us.uncletopia.com","port":27045,"enabled":true,"region":"us-east","cc":"us","latitude":40.73061,"longitude":-73.93524,"reserved":0,"last_update":"0001-01-01T00:00:00Z","name_a2s":"Uncletopia | New York City | 4 | Community","protocol":17,"map":"koth_viaduct","folder":"tf","game":"Team Fortress","app_id":440,"player_count":0,"max_players":24,"Bots":0,"server_type":"Dedicated","server_os":"Linux","password":true,"vac":true,"version":"7742253","steam_id":85568392924742821,"keywords":["cp","nocrits","nodmgspread","uncletopia"],"game_id":440,"stv_port":27046,"stv_name":"Uncletopia | New York City | 4 | Community | STV","players":null},{"server_id":142,"name":"Uncletopia | S√£o Paulo | 1 | All Maps","name_short":"sao-1","host":"sao-1.br.uncletopia.com","port":27015,"enabled":true,"region":"sa","cc":"br","latitude":-23.533773,"longitude":-46.62529,"reserved":0,"last_update":"0001-01-01T00:00:00Z","name_a2s":"Uncletopia | S√£o Paulo | 1 | All Maps","protocol":17,"map":"koth_viaduct","folder":"tf","game":"Team Fortress","app_id":440,"player_count":0,"max_players":24,"Bots":0,"server_type":"Dedicated","server_os":"Linux","password":true,"vac":true,"version":"7742253","steam_id":85568392924469996,"keywords":["cp","nocrits","nodmgspread","uncletopia"],"game_id":440,"stv_port":27016,"stv_name":"Uncletopia | S√£o Paulo | 1 | All Maps | STV","players":null},{"server_id":143,"name":"Uncletopia | S√£o Paulo | 2 | All Maps","name_short":"sao-2","host":"sao-2.br.uncletopia.com","port":27015,"enabled":true,"region":"sa","cc":"br","latitude":-23.533773,"longitude":-46.62529,"reserved":0,"last_update":"0001-01-01T00:00:00Z","name_a2s":"Uncletopia | S√£o Paulo | 2 | All Maps","protocol":17,"map":"koth_viaduct","folder":"tf","game":"Team Fortress","app_id":440,"player_count":0,"max_players":24,"Bots":0,"server_type":"Dedicated","server_os":"Linux","password":true,"vac":true,"version":"7742253","steam_id":85568392924485349,"keywords":["cp","nocrits","nodmgspread","uncletopia"],"game_id":440,"stv_port":27016,"stv_name":"Uncletopia | S√£o Paulo | 2 | All Maps | STV","players":null},{"server_id":7,"name":"Uncletopia | Seattle | 1 | All Maps","name_short":"sea-1","host":"sea-1.us.uncletopia.com","port":27015,"enabled":true,"region":"us-west","cc":"us","latitude":47.608013,"longitude":-122.33517,"reserved":0,"last_update":"0001-01-01T00:00:00Z","name_a2s":"Uncletopia | Seattle | 1 | All Maps","protocol":17,"map":"cp_snakewater_final1","folder":"tf","game":"Team Fortress","app_id":440,"player_count":0,"max_players":24,"Bots":0,"server_type":"Dedicated","server_os":"Linux","password":true,"vac":true,"version":"7742253","steam_id":85568392924469997,"keywords":["cp","nocrits","nodmgspread","uncletopia"],"game_id":440,"stv_port":27016,"stv_name":"Uncletopia | Seattle | 1 | All Maps | STV","players":null},{"server_id":119,"name":"Uncletopia | Seattle | 2 | All Maps","name_short":"sea-2","host":"sea-1.us.uncletopia.com","port":27025,"enabled":true,"region":"us-west","cc":"us","latitude":47.608013,"longitude":-122.33517,"reserved":0,"last_update":"0001-01-01T00:00:00Z","name_a2s":"Uncletopia | Seattle | 2 | All Maps","protocol":17,"map":"pl_badwater","folder":"tf","game":"Team Fortress","app_id":440,"player_count":24,"max_players":24,"Bots":0,"server_type":"Dedicated","server_os":"Linux","password":true,"vac":true,"version":"7742253","steam_id":85568392924469998,"keywords":["nocrits","nodmgspread","payload","uncletopia"],"game_id":440,"stv_port":27026,"stv_name":"Uncletopia | Seattle | 2 | All Maps | STV","players":[{"user_id":8,"name":"Bagel","steam_id":76561198167747447,"connected_time":4053000000000,"state":"active","ping":135},{"user_id":63,"name":"Beanbag","steam_id":76561198101393625,"connected_time":1043000000000,"state":"active","ping":97},{"user_id":56,"name":"Cash MoneyBlue","steam_id":76561198934825927,"connected_time":1538000000000,"state":"active","ping":117},{"user_id":73,"name":"WalkinMan","steam_id":76561198047941142,"connected_time":731000000000,"state":"active","ping":51},{"user_id":10,"name":"‚ù§Dumpster Cat‚ù§","steam_id":76561199200969139,"connected_time":3830000000000,"state":"active","ping":58},{"user_id":71,"name":"Asher","steam_id":76561198218499636,"connected_time":813000000000,"state":"active","ping":119},{"user_id":14,"name":"earthtraveler413","steam_id":76561198865139926,"connected_time":3529000000000,"state":"active","ping":48},{"user_id":75,"name":"‚ô• Femboy‚ô•Ventily ‚ô•","steam_id":76561198157260335,"connected_time":455000000000,"state":"active","ping":79},{"user_id":57,"name":"Squirrly (Festive)","steam_id":76561199247095754,"connected_time":1473000000000,"state":"active","ping":63},{"user_id":33,"name":"MonteJT","steam_id":76561198055409360,"connected_time":2800000000000,"state":"active","ping":71},{"user_id":77,"name":"What are you doing?!","steam_id":76561198405248691,"connected_time":249000000000,"state":"active","ping":75},{"user_id":22,"name":"the real mocha (not fake)","steam_id":76561198825658971,"connected_time":3142000000000,"state":"active","ping":77},{"user_id":51,"name":"-=Bits=-Dinkleberg","steam_id":76561198080367616,"connected_time":1891000000000,"state":"active","ping":117},{"user_id":46,"name":"A Pair of Candy Canes","steam_id":76561198052239472,"connected_time":2363000000000,"state":"active","ping":76},{"user_id":74,"name":"alice's adventures in pyroland","steam_id":76561198325306660,"connected_time":645000000000,"state":"active","ping":54},{"user_id":27,"name":"mu","steam_id":76561197997530228,"connected_time":2966000000000,"state":"active","ping":62},{"user_id":28,"name":"Lingus Loopus","steam_id":76561198041426868,"connected_time":2962000000000,"state":"active","ping":120},{"user_id":67,"name":"FROYO domando","steam_id":76561199150367705,"connected_time":955000000000,"state":"active","ping":118},{"user_id":59,"name":"42","steam_id":76561198043965184,"connected_time":1427000000000,"state":"active","ping":72},{"user_id":61,"name":"Carsen","steam_id":76561198225481404,"connected_time":1400000000000,"state":"active","ping":129},{"user_id":60,"name":"BrotherGrowly","steam_id":76561198086663043,"connected_time":1418000000000,"state":"active","ping":146},{"user_id":39,"name":"Ok then","steam_id":76561198891914787,"connected_time":2591000000000,"state":"active","ping":86},{"user_id":72,"name":"Old Spice Enthusiast","steam_id":76561199254804349,"connected_time":760000000000,"state":"active","ping":165},{"user_id":42,"name":"brimstone","steam_id":76561198066619792,"connected_time":2551000000000,"state":"active","ping":77}]},{"server_id":406,"name":"Uncletopia | Seattle | 3 | Stopwatch Beta","name_short":"sea-3","host":"sea-1.us.uncletopia.com","port":27035,"enabled":true,"region":"us-west","cc":"us","latitude":47.608013,"longitude":-122.33517,"reserved":0,"last_update":"0001-01-01T00:00:00Z","name_a2s":"Uncletopia | Seattle | 3 | Stopwatch Beta","protocol":17,"map":"cp_altitude","folder":"tf","game":"Team Fortress","app_id":440,"player_count":0,"max_players":24,"Bots":0,"server_type":"Dedicated","server_os":"Linux","password":true,"vac":true,"version":"7742253","steam_id":85568392924515217,"keywords":["cp","nocrits","nodmgspread","uncletopia"],"game_id":440,"stv_port":27036,"stv_name":"Uncletopia | Seattle | 3 | Stopwatch Beta | STV","players":null},{"server_id":17,"name":"Uncletopia | San Francisco | 1 | All Maps","name_short":"sfo-1","host":"sfo-1.us.uncletopia.com","port":27015,"enabled":true,"region":"us-west","cc":"us","latitude":37.77397,"longitude":-122.4313,"reserved":0,"last_update":"0001-01-01T00:00:00Z","name_a2s":"Uncletopia | San Francisco | 1 | All Maps","protocol":17,"map":"pl_snowycoast","folder":"tf","game":"Team Fortress","app_id":440,"player_count":0,"max_players":24,"Bots":0,"server_type":"Dedicated","server_os":"Linux","password":true,"vac":true,"version":"7742253","steam_id":85568392924469999,"keywords":["nocrits","nodmgspread","payload","uncletopia"],"game_id":440,"stv_port":27016,"stv_name":"Uncletopia | San Francisco | 1 | All Maps | STV","players":null},{"server_id":18,"name":"Uncletopia | San Francisco | 2 | All Maps","name_short":"sfo-2","host":"sfo-1.us.uncletopia.com","port":27025,"enabled":true,"region":"us-west","cc":"us","latitude":37.77397,"longitude":-122.4313,"reserved":0,"last_update":"0001-01-01T00:00:00Z","name_a2s":"Uncletopia | San Francisco | 2 | All Maps","protocol":17,"map":"cp_altitude","folder":"tf","game":"Team Fortress","app_id":440,"player_count":0,"max_players":24,"Bots":0,"server_type":"Dedicated","server_os":"Linux","password":true,"vac":true,"version":"7742253","steam_id":85568392924470000,"keywords":["cp","nocrits","nodmgspread","uncletopia"],"game_id":440,"stv_port":27026,"stv_name":"Uncletopia | San Francisco | 2 | All Maps | STV","players":null},{"server_id":19,"name":"Uncletopia | San Francisco | 3 | Stopwatch Beta","name_short":"sfo-3","host":"sfo-1.us.uncletopia.com","port":27035,"enabled":true,"region":"us-west","cc":"us","latitude":37.77397,"longitude":-122.4313,"reserved":0,"last_update":"0001-01-01T00:00:00Z","name_a2s":"Uncletopia | San Francisco | 3 | Stopwatch Beta","protocol":17,"map":"cp_snakewater_final1","folder":"tf","game":"Team Fortress","app_id":440,"player_count":0,"max_players":24,"Bots":0,"server_type":"Dedicated","server_os":"Linux","password":true,"vac":true,"version":"7742253","steam_id":85568392924742824,"keywords":["cp","nocrits","nodmgspread","uncletopia"],"game_id":440,"stv_port":27036,"stv_name":"Uncletopia | San Francisco | 3 | Stopwatch Beta | STV","players":null},{"server_id":20,"name":"Uncletopia | San Francisco | 4 | Community","name_short":"sfo-4","host":"sfo-1.us.uncletopia.com","port":27045,"enabled":true,"region":"us-west","cc":"us","latitude":37.77397,"longitude":-122.4313,"reserved":0,"last_update":"0001-01-01T00:00:00Z","name_a2s":"Uncletopia | San Francisco | 4 | Community","protocol":17,"map":"cp_dustbowl","folder":"tf","game":"Team Fortress","app_id":440,"player_count":0,"max_players":24,"Bots":0,"server_type":"Dedicated","server_os":"Linux","password":true,"vac":true,"version":"7742253","steam_id":85568392924742826,"keywords":["cp","nocrits","nodmgspread","uncletopia"],"game_id":440,"stv_port":27046,"stv_name":"Uncletopia | San Francisco | 4 | Community | STV","players":null},{"server_id":141,"name":"Uncletopia | Sydney | 1 | All Maps","name_short":"syd-1","host":"syd-1.au.uncletopia.com","port":27015,"enabled":true,"region":"au","cc":"au","latitude":-33.865143,"longitude":151.2099,"reserved":0,"last_update":"0001-01-01T00:00:00Z","name_a2s":"Uncletopia | Sydney | 1 | All Maps","protocol":17,"map":"koth_viaduct","folder":"tf","game":"Team Fortress","app_id":440,"player_count":0,"max_players":24,"Bots":0,"server_type":"Dedicated","server_os":"Linux","password":true,"vac":true,"version":"7742253","steam_id":85568392924470001,"keywords":["cp","nocrits","nodmgspread","uncletopia"],"game_id":440,"stv_port":27016,"stv_name":"Uncletopia | Sydney | 1 | All Maps | STV","players":null},{"server_id":123,"name":"Uncletopia | Sydney | 2 | All Maps","name_short":"syd-2","host":"syd-1.au.uncletopia.com","port":27025,"enabled":true,"region":"au","cc":"au","latitude":-33.865143,"longitude":151.2099,"reserved":0,"last_update":"0001-01-01T00:00:00Z","name_a2s":"Uncletopia | Sydney | 2 | All Maps","protocol":17,"map":"cp_mountainlab","folder":"tf","game":"Team Fortress","app_id":440,"player_count":0,"max_players":24,"Bots":0,"server_type":"Dedicated","server_os":"Linux","password":true,"vac":true,"version":"7742253","steam_id":85568392924470002,"keywords":["cp","nocrits","nodmgspread","uncletopia"],"game_id":440,"stv_port":27026,"stv_name":"Uncletopia | Sydney | 2 | All Maps | STV","players":null},{"server_id":395,"name":"Uncletopia | Sydney | 3 | All Maps","name_short":"syd-3","host":"syd-1.au.uncletopia.com","port":27035,"enabled":true,"region":"au","cc":"au","latitude":-33.865143,"longitude":151.2099,"reserved":0,"last_update":"0001-01-01T00:00:00Z","name_a2s":"Uncletopia | Sydney | 3 | All Maps","protocol":17,"map":"koth_viaduct","folder":"tf","game":"Team Fortress","app_id":440,"player_count":0,"max_players":24,"Bots":0,"server_type":"Dedicated","server_os":"Linux","password":true,"vac":true,"version":"7742253","steam_id":85568392925194467,"keywords":["cp","nocrits","nodmgspread","uncletopia"],"game_id":440,"stv_port":27036,"stv_name":"Uncletopia | Sydney | 3 | All Maps | STV","players":null},{"server_id":396,"name":"Uncletopia | Sydney | 4 | All Maps","name_short":"syd-4","host":"syd-1.au.uncletopia.com","port":27045,"enabled":true,"region":"au","cc":"au","latitude":-33.865143,"longitude":151.2099,"reserved":0,"last_update":"0001-01-01T00:00:00Z","name_a2s":"Uncletopia | Sydney | 4 | All Maps","protocol":17,"map":"cp_mountainlab","folder":"tf","game":"Team Fortress","app_id":440,"player_count":1,"max_players":24,"Bots":0,"server_type":"Dedicated","server_os":"Linux","password":true,"vac":true,"version":"7742253","steam_id":85568392925397958,"keywords":["cp","nocrits","nodmgspread","uncletopia"],"game_id":440,"stv_port":27046,"stv_name":"Uncletopia | Sydney | 4 | All Maps | STV","players":[{"user_id":9,"name":"Snipper","steam_id":76561199227682729,"connected_time":296000000000,"state":"active","ping":78}]},{"server_id":58,"name":"Uncletopia | Sydney | 5 | Stopwatch Beta","name_short":"syd-5","host":"syd-1.au.uncletopia.com","port":27055,"enabled":true,"region":"au","cc":"au","latitude":-33.865143,"longitude":151.2099,"reserved":0,"last_update":"0001-01-01T00:00:00Z","name_a2s":"Uncletopia | Sydney | 5 | Stopwatch Beta","protocol":17,"map":"workshop/pl_badwater_pro_v12.ugc2142942074","folder":"tf","game":"Team Fortress","app_id":440,"player_count":0,"max_players":24,"Bots":0,"server_type":"Dedicated","server_os":"Linux","password":true,"vac":true,"version":"7742253","steam_id":85568392925397959,"keywords":["nocrits","nodmgspread","payload","uncletopia"],"game_id":440,"stv_port":27056,"stv_name":"Uncletopia | Sydney | 5 | Stopwatch Beta | STV","players":null},{"server_id":59,"name":"Uncletopia | Sydney | 6 | Community","name_short":"syd-6","host":"syd-1.au.uncletopia.com","port":27065,"enabled":true,"region":"au","cc":"au","latitude":-33.865143,"longitude":151.2099,"reserved":0,"last_update":"0001-01-01T00:00:00Z","name_a2s":"Uncletopia | Sydney | 6 | Community","protocol":17,"map":"workshop/koth_ashville_final.ugc2130459942","folder":"tf","game":"Team Fortress","app_id":440,"player_count":0,"max_players":24,"Bots":0,"server_type":"Dedicated","server_os":"Linux","password":true,"vac":true,"version":"7742253","steam_id":85568392925397960,"keywords":["cp","nocrits","nodmgspread","uncletopia"],"game_id":440,"stv_port":27066,"stv_name":"Uncletopia | Sydney | 6 | Community | STV","players":null},{"server_id":49,"name":"Uncletopia | Warsaw | 1 | All Maps","name_short":"waw-1","host":"waw-1.pl.uncletopia.com","port":27015,"enabled":true,"region":"eu","cc":"pl","latitude":52.2297,"longitude":21.017532,"reserved":0,"last_update":"0001-01-01T00:00:00Z","name_a2s":"","protocol":0,"map":"","folder":"","game":"","app_id":0,"player_count":0,"max_players":0,"Bots":0,"server_type":"","server_os":"","password":false,"vac":false,"version":"","steam_id":0,"keywords":null,"game_id":0,"stv_port":0,"stv_name":"","players":null},{"server_id":50,"name":"Uncletopia | Warsaw | 2 | All Maps","name_short":"waw-2","host":"waw-1.pl.uncletopia.com","port":27025,"enabled":true,"region":"eu","cc":"pl","latitude":52.2297,"longitude":21.017532,"reserved":0,"last_update":"0001-01-01T00:00:00Z","name_a2s":"Uncletopia | Warsaw | 2 | All Maps","protocol":17,"map":"koth_highpass","folder":"tf","game":"Team Fortress","app_id":440,"player_count":0,"max_players":24,"Bots":0,"server_type":"Dedicated","server_os":"Linux","password":true,"vac":true,"version":"7742253","steam_id":85568392925397851,"keywords":["cp","nocrits","nodmgspread","uncletopia"],"game_id":440,"stv_port":27026,"stv_name":"Uncletopia | Warsaw | 2 | All Maps | STV","players":null},{"server_id":51,"name":"Uncletopia | Warsaw | 3 | All Maps","name_short":"waw-3","host":"waw-1.pl.uncletopia.com","port":27035,"enabled":true,"region":"eu","cc":"pl","latitude":52.2297,"longitude":21.017532,"reserved":0,"last_update":"0001-01-01T00:00:00Z","name_a2s":"Uncletopia | Warsaw | 3 | All Maps","protocol":17,"map":"koth_harvest_final","folder":"tf","game":"Team Fortress","app_id":440,"player_count":0,"max_players":24,"Bots":0,"server_type":"Dedicated","server_os":"Linux","password":true,"vac":true,"version":"7742253","steam_id":85568392925397852,"keywords":["cp","nocrits","nodmgspread","uncletopia"],"game_id":440,"stv_port":27036,"stv_name":"Uncletopia | Warsaw | 3 | All Maps | STV","players":null},{"server_id":52,"name":"Uncletopia | Warsaw | 4 | All Maps","name_short":"waw-4","host":"waw-1.pl.uncletopia.com","port":27045,"enabled":true,"region":"eu","cc":"pl","latitude":52.2297,"longitude":21.017532,"reserved":0,"last_update":"0001-01-01T00:00:00Z","name_a2s":"Uncletopia | Warsaw | 4 | All Maps","protocol":17,"map":"pl_borneo","folder":"tf","game":"Team Fortress","app_id":440,"player_count":0,"max_players":24,"Bots":0,"server_type":"Dedicated","server_os":"Linux","password":true,"vac":true,"version":"7742253","steam_id":85568392925397853,"keywords":["nocrits","nodmgspread","payload","uncletopia"],"game_id":440,"stv_port":27046,"stv_name":"Uncletopia | Warsaw | 4 | All Maps | STV","players":null},{"server_id":53,"name":"Uncletopia | Warsaw | 5 | Stopwatch Beta","name_short":"waw-5","host":"waw-1.pl.uncletopia.com","port":27055,"enabled":true,"region":"eu","cc":"pl","latitude":52.2297,"longitude":21.017532,"reserved":0,"last_update":"0001-01-01T00:00:00Z","name_a2s":"Uncletopia | Warsaw | 5 | Stopwatch Beta","protocol":17,"map":"pl_swiftwater_final1","folder":"tf","game":"Team Fortress","app_id":440,"player_count":0,"max_players":24,"Bots":0,"server_type":"Dedicated","server_os":"Linux","password":true,"vac":true,"version":"7742253","steam_id":85568392925397854,"keywords":["nocrits","nodmgspread","payload","uncletopia"],"game_id":440,"stv_port":27056,"stv_name":"Uncletopia | Warsaw | 5 | Stopwatch Beta | STV","players":null},{"server_id":54,"name":"Uncletopia | Warsaw | 6 | Community","name_short":"waw-6","host":"waw-1.pl.uncletopia.com","port":27065,"enabled":true,"region":"eu","cc":"pl","latitude":52.2297,"longitude":21.017532,"reserved":0,"last_update":"0001-01-01T00:00:00Z","name_a2s":"Uncletopia | Warsaw | 6 | Community","protocol":17,"map":"workshop/pl_vigil_rc9.ugc1266210012","folder":"tf","game":"Team Fortress","app_id":440,"player_count":0,"max_players":24,"Bots":0,"server_type":"Dedicated","server_os":"Linux","password":true,"vac":true,"version":"7742253","steam_id":85568392925397856,"keywords":["nocrits","nodmgspread","payload","uncletopia"],"game_id":440,"stv_port":27066,"stv_name":"Uncletopia | Warsaw | 6 | Community | STV","players":null}]}