{"status":true,"message":"","result":[{"server_id":9,"name":"Uncletopia | Atlanta | 1 | All Maps","name_short":"atl-1","host":"atl-1.us.uncletopia.com","port":27015,"enabled":true,"region":"us-east","cc":"us","latitude":33.753746,"longitude":-84.38633,"reserved":0,"last_update":"0001-01-01T00:00:00Z","name_a2s":"Uncletopia | Atlanta | 1 | All Maps","protocol":17,"map":"cp_mountainlab","folder":"tf","game":"Team Fortress","app_id":440,"player_count":23,"max_players":24,"Bots":0,"server_type":"Dedicated","server_os":"Linux","password":true,"vac":true,"version":"7757534","steam_id":85568392924469982,"keywords":["cp","nocrits","nodmgspread","uncletopia"],"game_id":440,"stv_port":27016,"stv_name":"Uncletopia | Atlanta | 1 | All Maps | STV","players":[{"user_id":1275,"name":"pigswill","steam_id":76561197999081865,"connected_time":476000000000,"state":"active","ping":75},{"user_id":1207,"name":"Swoletard","steam_id":76561198074212758,"connected_time":4275000000000,"state":"active","ping":42},{"user_id":1287,"name":"sosu","steam_id":76561198012675381,"connected_time":109000000000,"state":"active","ping":59},{"user_id":1288,"name":"kurai","steam_id":76561198077902438,"connected_time":70000000000,"state":"active","ping":57},{"user_id":1208,"name":"2006Microsoft Intellisense Mous","steam_id":76561198085401931,"connected_time":4269000000000,"state":"active","ping":44},{"user_id":1276,"name":"Brisk","steam_id":76561198129769783,"connected_time":443000000000,"state":"active","ping":70},{"user_id":1277,"name":"iceman","steam_id":76561198135397441,"connected_time":429000000000,"state":"active","ping":75},{"user_id":1278,"name":"Amoru","steam_id":76561198798161817,"connected_time":395000000000,"state":"active","ping":185},{"user_id":1279,"name":"toshi","steam_id":76561197970394733,"connected_time":394000000000,"state":"active","ping":76},{"user_id":1290,"name":"Nauraushaun","steam_id":76561199050174626,"connected_time":55000000000,"state":"active","ping":81},{"user_id":1262,"name":"defcon","steam_id":76561198100656328,"connected_time":1182000000000,"state":"active","ping":73},{"user_id":1246,"name":"Ashes!","steam_id":76561197998475441,"connected_time":2223000000000,"state":"active","ping":77},{"user_id":1291,"name":"stfu im vibin rn","steam_id":76561198069407799,"connected_time":28000000000,"state":"active","ping":48},{"user_id":1240,"name":"Soulshin51","steam_id":76561199059591551,"connected_time":2438000000000,"state":"active","ping":107},{"user_id":1236,"name":"cook","steam_id":76561198090531755,"connected_time":3041000000000,"state":"active","ping":68},{"user_id":1284,"name":"Rise for the National Spamton","steam_id":76561198138468982,"connected_time":283000000000,"state":"active","ping":117},{"user_id":1281,"name":"Towns","steam_id":76561198984662863,"connected_time":367000000000,"state":"active","ping":56},{"user_id":1247,"name":"Gustavo Fring","steam_id":76561198132807405,"connected_time":2154000000000,"state":"active","ping":86},{"user_id":1229,"name":"Freyesh","steam_id":76561198126946022,"connected_time":3335000000000,"state":"active","ping":118},{"user_id":1230,"name":"Limitless","steam_id":76561198057139998,"connected_time":3296000000000,"state":"active","ping":76},{"user_id":1238,"name":"E$$ence","steam_id":76561198013374122,"connected_time":2748000000000,"state":"active","ping":51},{"user_id":1012,"name":"Tay1Qr","steam_id":76561198082809935,"connected_time":6638000000000,"state":"active","ping":66},{"user_id":1282,"name":"harry","steam_id":76561198365118514,"connected_time":360000000000,"state":"active","ping":74}]},{"server_id":400,"name":"Uncletopia | Atlanta | 3 | Community","name_short":"atl-3","host":"atl-1.us.uncletopia.com","port":27035,"enabled":true,"region":"us-east","cc":"us","latitude":33.753746,"longitude":-84.38633,"reserved":0,"last_update":"0001-01-01T00:00:00Z","name_a2s":"Uncletopia | Atlanta | 3 | Community","protocol":17,"map":"workshop/koth_bagel_rc6.ugc2514036946","folder":"tf","game":"Team Fortress","app_id":440,"player_count":6,"max_players":24,"Bots":0,"server_type":"Dedicated","server_os":"Linux","password":true,"vac":true,"version":"7757534","steam_id":85568392924515187,"keywords":["cp","nocrits","nodmgspread","uncletopia"],"game_id":440,"stv_port":27036,"stv_name":"Uncletopia | Atlanta | 3 | Community | STV","players":[{"user_id":201,"name":"Impulse","steam_id":76561198296123434,"connected_time":2182000000000,"state":"active","ping":84},{"user_id":205,"name":"tardis_946","steam_id":76561199090388860,"connected_time":1348000000000,"state":"active","ping":96},{"user_id":212,"name":"AudaCD","steam_id":76561198202775853,"connected_time":327000000000,"state":"active","ping":74},{"user_id":161,"name":"John the Rebel","steam_id":76561198107084871,"connected_time":6664000000000,"state":"active","ping":73},{"user_id":162,"name":"Zyrbaiakor","steam_id":76561198141521671,"connected_time":6658000000000,"state":"active","ping":70},{"user_id":182,"name":"CheddarBowl","steam_id":76561198840224195,"connected_time":5594000000000,"state":"active","ping":84}]},{"server_id":401,"name":"Uncletopia | Atlanta | 4 | No Payload","name_short":"atl-4","host":"atl-1.us.uncletopia.com","port":27045,"enabled":true,"region":"us-east","cc":"us","latitude":33.753746,"longitude":-84.38633,"reserved":0,"last_update":"0001-01-01T00:00:00Z","name_a2s":"","protocol":0,"map":"","folder":"","game":"","app_id":0,"player_count":0,"max_players":0,"Bots":0,"server_type":"","server_os":"","password":false,"vac":false,"version":"","steam_id":0,"keywords":null,"game_id":0,"stv_port":0,"stv_name":"","players":null},{"server_id":2,"name":"Uncletopia | Chicago | 1 | All Maps","name_short":"chi-1","host":"chi-1.us.uncletopia.com","port":27015,"enabled":true,"region":"us-central","cc":"us","latitude":41.881832,"longitude":-87.62318,"reserved":0,"last_update":"0001-01-01T00:00:00Z","name_a2s":"Uncletopia | Chicago | 1 | All Maps","protocol":17,"map":"cp_dustbowl","folder":"tf","game":"Team Fortress","app_id":440,"player_count":14,"max_players":24,"Bots":0,"server_type":"Dedicated","server_os":"Linux","password":true,"vac":true,"version":"7757534","steam_id":85568392924469984,"keywords":["cp","nocrits","nodmgspread","uncletopia"],"game_id":440,"stv_port":27016,"stv_name":"Uncletopia | Chicago | 1 | All Maps | STV","players":[{"user_id":695,"name":"Grecki","steam_id":76561198396610691,"connected_time":203000000000,"state":"active","ping":60},{"user_id":634,"name":"Bird watcher #savetf2","steam_id":76561199201098634,"connected_time":5176000000000,"state":"active","ping":58},{"user_id":657,"name":"eish","steam_id":76561198089463603,"connected_time":4086000000000,"state":"active","ping":129},{"user_id":666,"name":"SwingDickerson","steam_id":76561198045542926,"connected_time":3190000000000,"state":"active","ping":40},{"user_id":697,"name":"The fish of doom","steam_id":76561198049069677,"connected_time":83000000000,"state":"active","ping":53},{"user_id":671,"name":"SDL","steam_id":76561198859719985,"connected_time":3110000000000,"state":"active","ping":83},{"user_id":696,"name":"Jezzus","steam_id":76561199289676387,"connected_time":193000000000,"state":"active","ping":81},{"user_id":694,"name":"lil hog","steam_id":76561199230929836,"connected_time":239000000000,"state":"active","ping":89},{"user_id":639,"name":"♡Alyx♡","steam_id":76561198024303978,"connected_time":4968000000000,"state":"active","ping":60},{"user_id":678,"name":"vantiss","steam_id":76561197961105061,"connected_time":2196000000000,"state":"active","ping":97},{"user_id":682,"name":"Wheaties","steam_id":76561198060909578,"connected_time":2042000000000,"state":"active","ping":102},{"user_id":680,"name":"\u003e:3 Muiramme εїз","steam_id":76561197994458543,"connected_time":2186000000000,"state":"active","ping":88},{"user_id":652,"name":"[txc] milk","steam_id":76561198127457787,"connected_time":4673000000000,"state":"active","ping":75},{"user_id":685,"name":"Born to shit, Forced to wipe","steam_id":76561198137880777,"connected_time":1864000000000,"state":"active","ping":85}]},{"server_id":106,"name":"Uncletopia | Chicago | 2 | All Maps","name_short":"chi-2","host":"chi-1.us.uncletopia.com","port":27025,"enabled":true,"region":"us-central","cc":"us","latitude":41.881832,"longitude":-87.62318,"reserved":0,"last_update":"0001-01-01T00:00:00Z","name_a2s":"Uncletopia | Chicago | 2 | All Maps","protocol":17,"map":"koth_lakeside_final","folder":"tf","game":"Team Fortress","app_id":440,"player_count":0,"max_players":24,"Bots":0,"server_type":"Dedicated","server_os":"Linux","password":true,"vac":true,"version":"7757534","steam_id":85568392924469985,"keywords":["cp","nocrits","nodmgspread","uncletopia"],"game_id":440,"stv_port":27026,"stv_name":"Uncletopia | Chicago | 2 | All Maps | STV","players":null},{"server_id":402,"name":"Uncletopia | Chicago | 3 | All Maps","name_short":"chi-3","host":"chi-1.us.uncletopia.com","port":27035,"enabled":true,"region":"us-central","cc":"us","latitude":41.881832,"longitude":-87.62318,"reserved":0,"last_update":"0001-01-01T00:00:00Z","name_a2s":"Uncletopia | Chicago | 3 | All Maps","protocol":17,"map":"pl_pier","folder":"tf","game":"Team Fortress","app_id":440,"player_count":0,"max_players":24,"Bots":0,"server_type":"Dedicated","server_os":"Linux","password":true,"vac":true,"version":"7757534","steam_id":85568392924515191,"keywords":["nocrits","nodmgspread","payload","uncletopia"],"game_id":440,"stv_port":27036,"stv_name":"Uncletopia | Chicago | 3 | All Maps | STV","players":null},{"server_id":403,"name":"Uncletopia | Chicago | 4 | All Maps","name_short":"chi-4","host":"chi-1.us.uncletopia.com","port":27045,"enabled":true,"region":"us-central","cc":"us","latitude":41.881832,"longitude":-87.62318,"reserved":0,"last_update":"0001-01-01T00:00:00Z","name_a2s":"Uncletopia | Chicago | 4 | All Maps","protocol":17,"map":"cp_snakewater_final1","folder":"tf","game":"Team Fortress","app_id":440,"player_count":24,"max_players":24,"Bots":0,"server_type":"Dedicated","server_os":"Linux","password":true,"vac":true,"version":"7757534","steam_id":85568392924515193,"keywords":["cp","nocrits","nodmgspread","uncletopia"],"game_id":440,"stv_port":27046,"stv_name":"Uncletopia | Chicago | 4 | All Maps | STV","players":[{"user_id":299,"name":"C Papi","steam_id":76561198027779564,"connected_time":6509000000000,"state":"active","ping":50},{"user_id":379,"name":"bo scrungulus","steam_id":76561198038036122,"connected_time":1322000000000,"state":"active","ping":75},{"user_id":395,"name":"CARCiN","steam_id":76561198042271448,"connected_time":6000000000,"state":"active","ping":85},{"user_id":366,"name":"The Pizza King","steam_id":76561198024287176,"connected_time":1809000000000,"state":"active","ping":61},{"user_id":314,"name":"Bliztank | RGL.gg","steam_id":76561198019252798,"connected_time":4751000000000,"state":"active","ping":59},{"user_id":385,"name":"rad","steam_id":76561198413125750,"connected_time":428000000000,"state":"active","ping":64},{"user_id":367,"name":"Iron","steam_id":76561198247918478,"connected_time":1786000000000,"state":"active","ping":61},{"user_id":383,"name":"j0rd4n","steam_id":76561197962960547,"connected_time":624000000000,"state":"active","ping":77},{"user_id":392,"name":"marlow","steam_id":76561198094408360,"connected_time":193000000000,"state":"active","ping":74},{"user_id":358,"name":"CHARLIE","steam_id":76561199061380038,"connected_time":2288000000000,"state":"active","ping":165},{"user_id":393,"name":"邪恶的巫师","steam_id":76561198165212575,"connected_time":173000000000,"state":"active","ping":60},{"user_id":347,"name":"barnacle boy","steam_id":76561198003219831,"connected_time":3150000000000,"state":"active","ping":75},{"user_id":362,"name":"Yamagishi","steam_id":76561198209644868,"connected_time":1872000000000,"state":"active","ping":75},{"user_id":394,"name":"reis","steam_id":76561199232952016,"connected_time":145000000000,"state":"active","ping":190},{"user_id":390,"name":"B0baF3tt","steam_id":76561198065339248,"connected_time":271000000000,"state":"active","ping":90},{"user_id":349,"name":"Resistance","steam_id":76561198146782074,"connected_time":3112000000000,"state":"active","ping":54},{"user_id":373,"name":"nohatbeyond","steam_id":76561198055211132,"connected_time":1644000000000,"state":"active","ping":67},{"user_id":346,"name":"ARE WE HAVING FUN YET","steam_id":76561198028572994,"connected_time":3396000000000,"state":"active","ping":56},{"user_id":387,"name":"Salixiola","steam_id":76561198042177809,"connected_time":409000000000,"state":"active","ping":74},{"user_id":388,"name":"[DEEP] Danmar33","steam_id":76561198056453091,"connected_time":392000000000,"state":"active","ping":51},{"user_id":352,"name":"Empyrean","steam_id":76561198116398716,"connected_time":2868000000000,"state":"active","ping":113},{"user_id":370,"name":"cAssBlaster","steam_id":76561198138488101,"connected_time":1771000000000,"state":"active","ping":60},{"user_id":377,"name":"Saggy","steam_id":76561198166706479,"connected_time":1402000000000,"state":"active","ping":71},{"user_id":350,"name":"TheMaskedChris","steam_id":76561198271980205,"connected_time":3107000000000,"state":"active","ping":82}]},{"server_id":36,"name":"Uncletopia | Chicago | 5 | All Maps","name_short":"chi-5","host":"chi-2.us.uncletopia.com","port":27015,"enabled":true,"region":"us-central","cc":"us","latitude":41.881832,"longitude":-87.62318,"reserved":0,"last_update":"0001-01-01T00:00:00Z","name_a2s":"Uncletopia | Chicago | 5 | All Maps","protocol":17,"map":"pl_borneo","folder":"tf","game":"Team Fortress","app_id":440,"player_count":24,"max_players":24,"Bots":0,"server_type":"Dedicated","server_os":"Linux","password":true,"vac":true,"version":"7757534","steam_id":85568392924866362,"keywords":["nocrits","nodmgspread","payload","uncletopia"],"game_id":440,"stv_port":27016,"stv_name":"Uncletopia | Chicago | 5 | All Maps | STV","players":[{"user_id":378,"name":"poijm","steam_id":76561198012945016,"connected_time":729000000000,"state":"active","ping":45},{"user_id":362,"name":"emix14","steam_id":76561198041945324,"connected_time":2225000000000,"state":"active","ping":118},{"user_id":379,"name":"Rudy","steam_id":76561198013456828,"connected_time":579000000000,"state":"active","ping":66},{"user_id":356,"name":"Punished Shitster","steam_id":76561198150452857,"connected_time":2699000000000,"state":"active","ping":72},{"user_id":361,"name":"ham bone","steam_id":76561198351143785,"connected_time":2426000000000,"state":"active","ping":62},{"user_id":348,"name":"GOD EMPEROR","steam_id":76561198089852954,"connected_time":3475000000000,"state":"active","ping":86},{"user_id":359,"name":"TheHarmacist","steam_id":76561198068249096,"connected_time":2499000000000,"state":"active","ping":115},{"user_id":364,"name":"prestige worldwide (wide)","steam_id":76561198045655893,"connected_time":2151000000000,"state":"active","ping":59},{"user_id":352,"name":"superx","steam_id":76561198044976613,"connected_time":3282000000000,"state":"active","ping":73},{"user_id":331,"name":"gristle","steam_id":76561198046815360,"connected_time":5046000000000,"state":"active","ping":91},{"user_id":335,"name":"groond","steam_id":76561198309426720,"connected_time":4303000000000,"state":"active","ping":60},{"user_id":377,"name":"Vodka","steam_id":76561198062027586,"connected_time":1047000000000,"state":"active","ping":160},{"user_id":322,"name":"social distance warrior","steam_id":76561198128992994,"connected_time":5895000000000,"state":"active","ping":90},{"user_id":369,"name":"holyblade12","steam_id":76561198090842572,"connected_time":1757000000000,"state":"active","ping":51},{"user_id":344,"name":"domky","steam_id":76561198066114874,"connected_time":3681000000000,"state":"active","ping":103},{"user_id":345,"name":"noh","steam_id":76561198149443710,"connected_time":3627000000000,"state":"active","ping":107},{"user_id":380,"name":"miner","steam_id":76561198073035221,"connected_time":515000000000,"state":"active","ping":61},{"user_id":366,"name":"Titan Tezwa","steam_id":76561198030320618,"connected_time":2132000000000,"state":"active","ping":71},{"user_id":318,"name":"gerg","steam_id":76561197997127387,"connected_time":6048000000000,"state":"active","ping":101},{"user_id":330,"name":"A Shiny Meat Bicycle","steam_id":76561198358757709,"connected_time":5101000000000,"state":"active","ping":102},{"user_id":373,"name":"lamadre07","steam_id":76561198067337453,"connected_time":1372000000000,"state":"active","ping":107},{"user_id":357,"name":"HE’S IN THE GODDAMN WALLS","steam_id":76561198363267009,"connected_time":2650000000000,"state":"active","ping":74},{"user_id":321,"name":"Mahiru Koizumi","steam_id":76561198164782653,"connected_time":5976000000000,"state":"active","ping":75},{"user_id":347,"name":"Sussus Amogus","steam_id":76561198344691394,"connected_time":3564000000000,"state":"active","ping":64}]},{"server_id":37,"name":"Uncletopia | Chicago | 6 | All Maps","name_short":"chi-6","host":"chi-2.us.uncletopia.com","port":27025,"enabled":true,"region":"us-central","cc":"us","latitude":41.881832,"longitude":-87.62318,"reserved":0,"last_update":"0001-01-01T00:00:00Z","name_a2s":"Uncletopia | Chicago | 6 | All Maps","protocol":17,"map":"pl_swiftwater_final1","folder":"tf","game":"Team Fortress","app_id":440,"player_count":2,"max_players":24,"Bots":0,"server_type":"Dedicated","server_os":"Linux","password":true,"vac":true,"version":"7757534","steam_id":85568392924866363,"keywords":["nocrits","nodmgspread","payload","uncletopia"],"game_id":440,"stv_port":27026,"stv_name":"Uncletopia | Chicago | 6 | All Maps | STV","players":[{"user_id":538,"name":"Mr.Mrausky","steam_id":76561199120622265,"connected_time":452000000000,"state":"active","ping":74},{"user_id":539,"name":"i rember","steam_id":76561198405060986,"connected_time":406000000000,"state":"active","ping":88}]},{"server_id":38,"name":"Uncletopia | Chicago | 7 | Stopwatch Beta","name_short":"chi-7","host":"chi-2.us.uncletopia.com","port":27035,"enabled":true,"region":"us-central","cc":"us","latitude":41.881832,"longitude":-87.62318,"reserved":0,"last_update":"0001-01-01T00:00:00Z","name_a2s":"Uncletopia | Chicago | 7 | Stopwatch Beta","protocol":17,"map":"pl_upward","folder":"tf","game":"Team Fortress","app_id":440,"player_count":0,"max_players":24,"Bots":0,"server_type":"Dedicated","server_os":"Linux","password":true,"vac":true,"version":"7757534","steam_id":85568392924866364,"keywords":["nocrits","nodmgspread","payload","uncletopia"],"game_id":440,"stv_port":27036,"stv_name":"Uncletopia | Chicago | 7 | Stopwatch Beta | STV","players":null},{"server_id":39,"name":"Uncletopia | Chicago | 8 | Community","name_short":"chi-8","host":"chi-2.us.uncletopia.com","port":27045,"enabled":true,"region":"us-central","cc":"us","latitude":41.881832,"longitude":-87.62318,"reserved":0,"last_update":"0001-01-01T00:00:00Z","name_a2s":"Uncletopia | Chicago | 8 | Community","protocol":17,"map":"workshop/rd_asteroid_redux_b1.ugc2154902912","folder":"tf","game":"Team Fortress","app_id":440,"player_count":0,"max_players":24,"Bots":0,"server_type":"Dedicated","server_os":"Linux","password":true,"vac":true,"version":"7757534","steam_id":85568392924866365,"keywords":["beta","nocrits","nodmgspread","rd","uncletopia"],"game_id":440,"stv_port":27046,"stv_name":"Uncletopia | Chicago | 8 | Community | STV","players":null},{"server_id":8,"name":"Uncletopia | Dallas | 1 | All Maps","name_short":"dal-1","host":"dal-1.us.uncletopia.com","port":27015,"enabled":true,"region":"us-central","cc":"us","latitude":32.779167,"longitude":-96.80889,"reserved":0,"last_update":"0001-01-01T00:00:00Z","name_a2s":"Uncletopia | Dallas | 1 | All Maps","protocol":17,"map":"cp_dustbowl","folder":"tf","game":"Team Fortress","app_id":440,"player_count":24,"max_players":24,"Bots":0,"server_type":"Dedicated","server_os":"Linux","password":true,"vac":true,"version":"7757534","steam_id":85568392924469986,"keywords":["cp","nocrits","nodmgspread","uncletopia"],"game_id":440,"stv_port":27016,"stv_name":"Uncletopia | Dallas | 1 | All Maps | STV","players":[{"user_id":793,"name":"Pink Tooth Bob","steam_id":76561198142122915,"connected_time":1115000000000,"state":"active","ping":110},{"user_id":819,"name":"snondof","steam_id":76561198150982973,"connected_time":436000000000,"state":"active","ping":96},{"user_id":812,"name":"Papa Smurf","steam_id":76561198412786186,"connected_time":637000000000,"state":"active","ping":59},{"user_id":809,"name":"Dilbert Garfunkel","steam_id":76561198088318184,"connected_time":757000000000,"state":"active","ping":100},{"user_id":742,"name":"Saulen","steam_id":76561198150726407,"connected_time":5528000000000,"state":"active","ping":60},{"user_id":828,"name":"HellaCopter","steam_id":76561198062313698,"connected_time":13000000000,"state":"active","ping":113},{"user_id":820,"name":"!! BRO IS FLABBERGASTED !!","steam_id":76561198135036396,"connected_time":425000000000,"state":"active","ping":59},{"user_id":810,"name":"bobbyreinman2009","steam_id":76561198804763186,"connected_time":700000000000,"state":"active","ping":81},{"user_id":817,"name":"littengamer1112","steam_id":76561198992690060,"connected_time":569000000000,"state":"active","ping":76},{"user_id":827,"name":"obliviated Gamer ||-iwnl-||","steam_id":76561198044006334,"connected_time":56000000000,"state":"active","ping":90},{"user_id":808,"name":"a_person","steam_id":76561199038072811,"connected_time":791000000000,"state":"active","ping":78},{"user_id":811,"name":"BeerDrinker49000000000","steam_id":76561198846515168,"connected_time":692000000000,"state":"active","ping":82},{"user_id":823,"name":"Soda","steam_id":76561198219209367,"connected_time":361000000000,"state":"active","ping":63},{"user_id":785,"name":"OddSlaush","steam_id":76561198043898488,"connected_time":1463000000000,"state":"active","ping":65},{"user_id":765,"name":"kidspartan1111","steam_id":76561198881635850,"connected_time":4030000000000,"state":"active","ping":113},{"user_id":754,"name":"penzfan","steam_id":76561198230422640,"connected_time":4497000000000,"state":"active","ping":70},{"user_id":813,"name":"Keeby Moment","steam_id":76561198172792271,"connected_time":630000000000,"state":"active","ping":87},{"user_id":814,"name":"Trube, dube!™","steam_id":76561198965187780,"connected_time":624000000000,"state":"active","ping":77},{"user_id":815,"name":"Bird of Paradise","steam_id":76561198891152046,"connected_time":618000000000,"state":"active","ping":98},{"user_id":816,"name":"Ancient Ayys","steam_id":76561198098941655,"connected_time":615000000000,"state":"active","ping":91},{"user_id":781,"name":"FluttyPutty","steam_id":76561198218446556,"connected_time":1767000000000,"state":"active","ping":60},{"user_id":824,"name":"oz","steam_id":76561198994752511,"connected_time":339000000000,"state":"active","ping":77},{"user_id":825,"name":"Even Tide","steam_id":76561199057226703,"connected_time":336000000000,"state":"active","ping":76},{"user_id":724,"name":"[ØWQJØ]chubacaalatake","steam_id":76561198136201697,"connected_time":6738000000000,"state":"active","ping":123}]},{"server_id":108,"name":"Uncletopia | Dallas | 2 | All Maps","name_short":"dal-2","host":"dal-1.us.uncletopia.com","port":27025,"enabled":true,"region":"us-central","cc":"us","latitude":32.779167,"longitude":-96.80889,"reserved":0,"last_update":"0001-01-01T00:00:00Z","name_a2s":"Uncletopia | Dallas | 2 | All Maps","protocol":17,"map":"pl_barnblitz","folder":"tf","game":"Team Fortress","app_id":440,"player_count":24,"max_players":24,"Bots":0,"server_type":"Dedicated","server_os":"Linux","password":true,"vac":true,"version":"7757534","steam_id":85568392924469988,"keywords":["nocrits","nodmgspread","payload","uncletopia"],"game_id":440,"stv_port":27026,"stv_name":"Uncletopia | Dallas | 2 | All Maps | STV","players":[{"user_id":426,"name":"★Kaputt","steam_id":76561198118037894,"connected_time":1188000000000,"state":"active","ping":85},{"user_id":436,"name":"Rinzler","steam_id":76561198380155582,"connected_time":974000000000,"state":"active","ping":147},{"user_id":417,"name":"bleh","steam_id":76561198368102618,"connected_time":1983000000000,"state":"active","ping":75},{"user_id":445,"name":"gamers aren't real","steam_id":76561198113748347,"connected_time":767000000000,"state":"active","ping":65},{"user_id":441,"name":"skaj","steam_id":76561198082278586,"connected_time":860000000000,"state":"active","ping":67},{"user_id":412,"name":"Will","steam_id":76561198105645417,"connected_time":2080000000000,"state":"active","ping":55},{"user_id":440,"name":"Treatz","steam_id":76561198064634697,"connected_time":868000000000,"state":"active","ping":83},{"user_id":430,"name":"Local Babyfur Unicorn","steam_id":76561198155526516,"connected_time":1114000000000,"state":"active","ping":31},{"user_id":429,"name":"Western_dragon","steam_id":76561198130456105,"connected_time":1123000000000,"state":"active","ping":74},{"user_id":446,"name":"Speedwaifu ʕ•́ᴥ•̀ʔっ","steam_id":76561198103360445,"connected_time":326000000000,"state":"active","ping":141},{"user_id":447,"name":"façade","steam_id":76561199157009256,"connected_time":32000000000,"state":"spawning","ping":149},{"user_id":431,"name":"Cat I Win","steam_id":76561198261886976,"connected_time":1112000000000,"state":"active","ping":86},{"user_id":432,"name":"Project_Counter","steam_id":76561198152786076,"connected_time":1097000000000,"state":"active","ping":51},{"user_id":442,"name":"DemoKnight tf2","steam_id":76561198971360187,"connected_time":859000000000,"state":"active","ping":73},{"user_id":411,"name":"MINI CRIT!999","steam_id":76561198027649268,"connected_time":2115000000000,"state":"active","ping":79},{"user_id":180,"name":"momiji fumo","steam_id":76561198066698922,"connected_time":16827000000000,"state":"active","ping":86},{"user_id":434,"name":"hazardspacewolf","steam_id":76561198447443314,"connected_time":1043000000000,"state":"active","ping":88},{"user_id":435,"name":"KeiSan91","steam_id":76561198141201396,"connected_time":1030000000000,"state":"active","ping":140},{"user_id":443,"name":"WannaSeeA","steam_id":76561198097701042,"connected_time":821000000000,"state":"active","ping":49},{"user_id":401,"name":"Painkiller","steam_id":76561198049787400,"connected_time":2405000000000,"state":"active","ping":74},{"user_id":414,"name":"Number_forty1","steam_id":76561198103653795,"connected_time":2051000000000,"state":"active","ping":82},{"user_id":415,"name":"greg","steam_id":76561198051075489,"connected_time":2045000000000,"state":"active","ping":56},{"user_id":416,"name":"Lucy","steam_id":76561198032590343,"connected_time":2013000000000,"state":"active","ping":86},{"user_id":444,"name":"Luna","steam_id":76561198131342156,"connected_time":821000000000,"state":"active","ping":59}]},{"server_id":5,"name":"Uncletopia | Frankfurt | 1 | All Maps","name_short":"frk-1","host":"frk-1.de.uncletopia.com","port":27015,"enabled":true,"region":"eu","cc":"de","latitude":50.110924,"longitude":8.682127,"reserved":0,"last_update":"0001-01-01T00:00:00Z","name_a2s":"Uncletopia | Frankfurt | 1 | All Maps","protocol":17,"map":"pl_badwater","folder":"tf","game":"Team Fortress","app_id":440,"player_count":0,"max_players":24,"Bots":0,"server_type":"Dedicated","server_os":"Linux","password":true,"vac":true,"version":"7757534","steam_id":85568392924469989,"keywords":["nocrits","nodmgspread","payload","uncletopia"],"game_id":440,"stv_port":27016,"stv_name":"Uncletopia | Frankfurt | 1 | All Maps | STV","players":null},{"server_id":110,"name":"Uncletopia | Frankfurt | 2 | All Maps","name_short":"frk-2","host":"frk-1.de.uncletopia.com","port":27025,"enabled":true,"region":"eu","cc":"de","latitude":50.110924,"longitude":8.682127,"reserved":0,"last_update":"0001-01-01T00:00:00Z","name_a2s":"Uncletopia | Frankfurt | 2 | All Maps","protocol":17,"map":"cp_altitude","folder":"tf","game":"Team Fortress","app_id":440,"player_count":0,"max_players":24,"Bots":0,"server_type":"Dedicated","server_os":"Linux","password":true,"vac":true,"version":"7757534","steam_id":85568392924469990,"keywords":["cp","nocrits","nodmgspread","uncletopia"],"game_id":440,"stv_port":27026,"stv_name":"Uncletopia | Frankfurt | 2 | All Maps | STV","players":null},{"server_id":308,"name":"Uncletopia | Frankfurt | 3 | All Maps","name_short":"frk-3","host":"frk-1.de.uncletopia.com","port":27035,"enabled":true,"region":"eu","cc":"de","latitude":50.110924,"longitude":8.682127,"reserved":0,"last_update":"0001-01-01T00:00:00Z","name_a2s":"Uncletopia | Frankfurt | 3 | All Maps","protocol":17,"map":"pl_borneo","folder":"tf","game":"Team Fortress","app_id":440,"player_count":0,"max_players":24,"Bots":0,"server_type":"Dedicated","server_os":"Linux","password":true,"vac":true,"version":"7757534","steam_id":85568392924504274,"keywords":["nocrits","nodmgspread","payload","uncletopia"],"game_id":440,"stv_port":27036,"stv_name":"Uncletopia | Frankfurt | 3 | All Maps | STV","players":null},{"server_id":309,"name":"Uncletopia | Frankfurt | 4 | All Maps","name_short":"frk-4","host":"frk-1.de.uncletopia.com","port":27045,"enabled":true,"region":"eu","cc":"de","latitude":50.110924,"longitude":8.682127,"reserved":0,"last_update":"0001-01-01T00:00:00Z","name_a2s":"Uncletopia | Frankfurt | 4 | All Maps","protocol":17,"map":"pl_pier","folder":"tf","game":"Team Fortress","app_id":440,"player_count":0,"max_players":24,"Bots":0,"server_type":"Dedicated","server_os":"Linux","password":true,"vac":true,"version":"7757534","steam_id":85568392924504275,"keywords":["nocrits","nodmgspread","payload","uncletopia"],"game_id":440,"stv_port":27046,"stv_name":"Uncletopia | Frankfurt | 4 | All Maps | STV","players":null},{"server_id":310,"name":"Uncletopia | Frankfurt | 5 | All Maps","name_short":"frk-5","host":"frk-1.de.uncletopia.com","port":27055,"enabled":true,"region":"eu","cc":"de","latitude":50.110924,"longitude":8.682127,"reserved":0,"last_update":"0001-01-01T00:00:00Z","name_a2s":"Uncletopia | Frankfurt | 5 | All Maps","protocol":17,"map":"cp_altitude","folder":"tf","game":"Team Fortress","app_id":440,"player_count":0,"max_players":24,"Bots":0,"server_type":"Dedicated","server_os":"Linux","password":true,"vac":true,"version":"7757534","steam_id":85568392924504277,"keywords":["cp","nocrits","nodmgspread","uncletopia"],"game_id":440,"stv_port":27056,"stv_name":"Uncletopia | Frankfurt | 5 | All Maps | STV","players":null},{"server_id":311,"name":"Uncletopia | Frankfurt | 6 | All Maps","name_short":"frk-6","host":"frk-1.de.uncletopia.com","port":27065,"enabled":true,"region":"eu","cc":"de","latitude":50.110924,"longitude":8.682127,"reserved":0,"last_update":"0001-01-01T00:00:00Z","name_a2s":"Uncletopia | Frankfurt | 6 | All Maps","protocol":17,"map":"pl_barnblitz","folder":"tf","game":"Team Fortress","app_id":440,"player_count":0,"max_players":24,"Bots":0,"server_type":"Dedicated","server_os":"Linux","password":true,"vac":true,"version":"7757534","steam_id":85568392924504278,"keywords":["nocrits","nodmgspread","payload","uncletopia"],"game_id":440,"stv_port":27066,"stv_name":"Uncletopia | Frankfurt | 6 | All Maps | STV","players":null},{"server_id":23,"name":"Uncletopia | Frankfurt | 7 | Stopwatch Beta","name_short":"frk-7","host":"frk-1.de.uncletopia.com","port":27075,"enabled":true,"region":"eu","cc":"de","latitude":50.110924,"longitude":8.682127,"reserved":0,"last_update":"0001-01-01T00:00:00Z","name_a2s":"Uncletopia | Frankfurt | 7 | Stopwatch Beta","protocol":17,"map":"pl_borneo","folder":"tf","game":"Team Fortress","app_id":440,"player_count":0,"max_players":24,"Bots":0,"server_type":"Dedicated","server_os":"Linux","password":true,"vac":true,"version":"7757534","steam_id":85568392924742827,"keywords":["nocrits","nodmgspread","payload","uncletopia"],"game_id":440,"stv_port":27076,"stv_name":"Uncletopia | Frankfurt | 7 | Stopwatch Beta | STV","players":null},{"server_id":24,"name":"Uncletopia | Frankfurt | 8 | Community","name_short":"frk-8","host":"frk-1.de.uncletopia.com","port":27085,"enabled":true,"region":"eu","cc":"de","latitude":50.110924,"longitude":8.682127,"reserved":0,"last_update":"0001-01-01T00:00:00Z","name_a2s":"Uncletopia | Frankfurt | 8 | Community","protocol":17,"map":"workshop/cp_overgrown_rc7b.ugc503939302","folder":"tf","game":"Team Fortress","app_id":440,"player_count":1,"max_players":24,"Bots":0,"server_type":"Dedicated","server_os":"Linux","password":true,"vac":true,"version":"7757534","steam_id":85568392924742828,"keywords":["cp","nocrits","nodmgspread","uncletopia"],"game_id":440,"stv_port":27086,"stv_name":"Uncletopia | Frankfurt | 8 | Community | STV","players":[{"user_id":14,"name":"Kendo-6","steam_id":76561198318748304,"connected_time":1336000000000,"state":"active","ping":111}]},{"server_id":202,"name":"Uncletopia | Hong Kong | 1 | All Maps","name_short":"hgk-1","host":"hgk-1.hk.uncletopia.com","port":27015,"enabled":true,"region":"asia","cc":"hk","latitude":22.302711,"longitude":114.177216,"reserved":0,"last_update":"0001-01-01T00:00:00Z","name_a2s":"Uncletopia | Hong Kong | 1 | All Maps","protocol":17,"map":"koth_lakeside_final","folder":"tf","game":"Team Fortress","app_id":440,"player_count":0,"max_players":24,"Bots":0,"server_type":"Dedicated","server_os":"Linux","password":true,"vac":true,"version":"7757534","steam_id":85568392924494504,"keywords":["cp","nocrits","nodmgspread","uncletopia"],"game_id":440,"stv_port":27016,"stv_name":"Uncletopia | Hong Kong | 1 | All Maps | STV","players":null},{"server_id":1,"name":"Uncletopia | Los Angeles | 1 | All Maps","name_short":"lax-1","host":"lax-1.us.uncletopia.com","port":27015,"enabled":true,"region":"us-west","cc":"us","latitude":33.94279,"longitude":-118.41004,"reserved":0,"last_update":"0001-01-01T00:00:00Z","name_a2s":"Uncletopia | Los Angeles | 1 | All Maps","protocol":17,"map":"koth_cascade","folder":"tf","game":"Team Fortress","app_id":440,"player_count":0,"max_players":24,"Bots":0,"server_type":"Dedicated","server_os":"Linux","password":true,"vac":true,"version":"7757534","steam_id":85568392924469991,"keywords":["cp","nocrits","nodmgspread","uncletopia"],"game_id":440,"stv_port":27016,"stv_name":"Uncletopia | Los Angeles | 1 | All Maps | STV","players":null},{"server_id":112,"name":"Uncletopia | Los Angeles | 2 | All Maps","name_short":"lax-2","host":"lax-1.us.uncletopia.com","port":27025,"enabled":true,"region":"us-west","cc":"us","latitude":33.94279,"longitude":-118.41004,"reserved":0,"last_update":"0001-01-01T00:00:00Z","name_a2s":"Uncletopia | Los Angeles | 2 | All Maps","protocol":17,"map":"koth_viaduct","folder":"tf","game":"Team Fortress","app_id":440,"player_count":0,"max_players":24,"Bots":0,"server_type":"Dedicated","server_os":"Linux","password":true,"vac":true,"version":"7757534","steam_id":85568392924469992,"keywords":["cp","nocrits","nodmgspread","uncletopia"],"game_id":440,"stv_port":27026,"stv_name":"Uncletopia | Los Angeles | 2 | All Maps | STV","players":null},{"server_id":324,"name":"Uncletopia | Los Angeles | 3 | All Maps","name_short":"lax-3","host":"lax-1.us.uncletopia.com","port":27035,"enabled":true,"region":"us-west","cc":"us","latitude":33.94279,"longitude":-118.41004,"reserved":0,"last_update":"0001-01-01T00:00:00Z","name_a2s":"Uncletopia | Los Angeles | 3 | All Maps","protocol":17,"map":"koth_nucleus","folder":"tf","game":"Team Fortress","app_id":440,"player_count":23,"max_players":24,"Bots":0,"server_type":"Dedicated","server_os":"Linux","password":true,"vac":true,"version":"7757534","steam_id":85568392924510198,"keywords":["cp","nocrits","nodmgspread","uncletopia"],"game_id":440,"stv_port":27036,"stv_name":"Uncletopia | Los Angeles | 3 | All Maps | STV","players":[{"user_id":357,"name":"Buswolley","steam_id":76561197995205571,"connected_time":3021000000000,"state":"active","ping":55},{"user_id":307,"name":"Drewski","steam_id":76561198334969647,"connected_time":5844000000000,"state":"active","ping":52},{"user_id":379,"name":"Snaggletooth","steam_id":76561198043784995,"connected_time":487000000000,"state":"active","ping":64},{"user_id":378,"name":"Ignition","steam_id":76561198857365735,"connected_time":725000000000,"state":"active","ping":60},{"user_id":371,"name":"EAT SPIT!","steam_id":76561198096836451,"connected_time":1396000000000,"state":"active","ping":58},{"user_id":352,"name":"RightBackAtChu","steam_id":76561199104849434,"connected_time":3151000000000,"state":"active","ping":67},{"user_id":374,"name":"bean drinker","steam_id":76561198044004639,"connected_time":946000000000,"state":"active","ping":83},{"user_id":380,"name":"aqua","steam_id":76561199407709552,"connected_time":401000000000,"state":"active","ping":92},{"user_id":325,"name":"doozy","steam_id":76561198033106776,"connected_time":5254000000000,"state":"active","ping":118},{"user_id":375,"name":"Bubbamanme","steam_id":76561198119778504,"connected_time":940000000000,"state":"active","ping":83},{"user_id":373,"name":"Fish Lambert","steam_id":76561198098279668,"connected_time":1133000000000,"state":"active","ping":55},{"user_id":369,"name":"P.I.Staker","steam_id":76561198087096559,"connected_time":1899000000000,"state":"active","ping":72},{"user_id":306,"name":"werolat","steam_id":76561197960544784,"connected_time":6233000000000,"state":"active","ping":59},{"user_id":377,"name":"Naffers","steam_id":76561198195957335,"connected_time":880000000000,"state":"active","ping":74},{"user_id":335,"name":"herbletea","steam_id":76561199079523149,"connected_time":4111000000000,"state":"active","ping":53},{"user_id":370,"name":"Assassin","steam_id":76561198321410235,"connected_time":1397000000000,"state":"active","ping":44},{"user_id":381,"name":"Poppet","steam_id":76561198012301951,"connected_time":244000000000,"state":"active","ping":110},{"user_id":382,"name":"Schnitz","steam_id":76561198265484253,"connected_time":212000000000,"state":"active","ping":54},{"user_id":367,"name":"Amogous Supreme","steam_id":76561198025476774,"connected_time":2119000000000,"state":"active","ping":62},{"user_id":358,"name":"azureglxy","steam_id":76561198861388315,"connected_time":3018000000000,"state":"active","ping":44},{"user_id":309,"name":"Truffles","steam_id":76561198095868800,"connected_time":5844000000000,"state":"active","ping":96},{"user_id":318,"name":"Skullgirls enjoyer","steam_id":76561198077811162,"connected_time":5630000000000,"state":"active","ping":52},{"user_id":376,"name":"chanoc","steam_id":76561198026734746,"connected_time":939000000000,"state":"active","ping":55}]},{"server_id":25,"name":"Uncletopia | Los Angeles | 4 | Stopwatch Beta","name_short":"lax-4","host":"lax-1.us.uncletopia.com","port":27045,"enabled":true,"region":"us-west","cc":"us","latitude":33.94279,"longitude":-118.41004,"reserved":0,"last_update":"0001-01-01T00:00:00Z","name_a2s":"Uncletopia | Los Angeles | 4 | Stopwatch Beta","protocol":17,"map":"cp_dustbowl","folder":"tf","game":"Team Fortress","app_id":440,"player_count":0,"max_players":24,"Bots":0,"server_type":"Dedicated","server_os":"Linux","password":true,"vac":true,"version":"7757534","steam_id":85568392924510199,"keywords":["cp","nocrits","nodmgspread","uncletopia"],"game_id":440,"stv_port":27046,"stv_name":"Uncletopia | Los Angeles | 4 | Stopwatch Beta | STV","players":null},{"server_id":11,"name":"Uncletopia | London | 1 | All Maps","name_short":"lon-1","host":"lon-1.uk.uncletopia.com","port":27015,"enabled":true,"region":"eu","cc":"gb","latitude":51.509865,"longitude":-0.118092,"reserved":0,"last_update":"0001-01-01T00:00:00Z","name_a2s":"Uncletopia | London | 1 | All Maps","protocol":17,"map":"cp_altitude","folder":"tf","game":"Team Fortress","app_id":440,"player_count":0,"max_players":24,"Bots":0,"server_type":"Dedicated","server_os":"Linux","password":true,"vac":true,"version":"7757534","steam_id":85568392924367362,"keywords":["cp","nocrits","nodmgspread","uncletopia"],"game_id":440,"stv_port":27016,"stv_name":"Uncletopia | London | 1 | All Maps | STV","players":null},{"server_id":114,"name":"Uncletopia | London | 2 | All Maps","name_short":"lon-2","host":"lon-1.uk.uncletopia.com","port":27025,"enabled":true,"region":"eu","cc":"gb","latitude":51.509865,"longitude":-0.118092,"reserved":0,"last_update":"0001-01-01T00:00:00Z","name_a2s":"Uncletopia | London | 2 | All Maps","protocol":17,"map":"pl_pier","folder":"tf","game":"Team Fortress","app_id":440,"player_count":0,"max_players":24,"Bots":0,"server_type":"Dedicated","server_os":"Linux","password":true,"vac":true,"version":"7757534","steam_id":85568392924470941,"keywords":["nocrits","nodmgspread","payload","uncletopia"],"game_id":440,"stv_port":27026,"stv_name":"Uncletopia | London | 2 | All Maps | STV","players":null},{"server_id":320,"name":"Uncletopia | London | 3 | All Maps","name_short":"lon-3","host":"lon-1.uk.uncletopia.com","port":27035,"enabled":true,"region":"eu","cc":"gb","latitude":51.509865,"longitude":-0.118092,"reserved":0,"last_update":"0001-01-01T00:00:00Z","name_a2s":"Uncletopia | London | 3 | All Maps","protocol":17,"map":"pl_barnblitz","folder":"tf","game":"Team Fortress","app_id":440,"player_count":24,"max_players":24,"Bots":0,"server_type":"Dedicated","server_os":"Linux","password":true,"vac":true,"version":"7757534","steam_id":85568392924510192,"keywords":["nocrits","nodmgspread","payload","uncletopia"],"game_id":440,"stv_port":27036,"stv_name":"Uncletopia | London | 3 | All Maps | STV","players":[{"user_id":44,"name":"cloud","steam_id":76561198179768931,"connected_time":3504000000000,"state":"active","ping":59},{"user_id":4,"name":"marsel","steam_id":76561198116168271,"connected_time":5318000000000,"state":"active","ping":76},{"user_id":27,"name":"Hong Kong Larry","steam_id":76561198071829617,"connected_time":4679000000000,"state":"active","ping":42},{"user_id":66,"name":"Qxillum","steam_id":76561198037201297,"connected_time":2636000000000,"state":"active","ping":55},{"user_id":69,"name":"Leszy","steam_id":76561198372172135,"connected_time":2464000000000,"state":"active","ping":73},{"user_id":47,"name":"mio bomba","steam_id":76561198217364720,"connected_time":3322000000000,"state":"active","ping":55},{"user_id":94,"name":"Flex","steam_id":76561197970482191,"connected_time":361000000000,"state":"active","ping":52},{"user_id":87,"name":"Alin","steam_id":76561198059679991,"connected_time":1114000000000,"state":"active","ping":96},{"user_id":36,"name":"Ghost Leviathan","steam_id":76561199198815439,"connected_time":4128000000000,"state":"active","ping":70},{"user_id":12,"name":"DeL's Arcade","steam_id":76561197972530119,"connected_time":5297000000000,"state":"active","ping":108},{"user_id":13,"name":"Farao Ramses II","steam_id":76561198078722712,"connected_time":5297000000000,"state":"active","ping":44},{"user_id":74,"name":"2b","steam_id":76561199149307190,"connected_time":2370000000000,"state":"active","ping":89},{"user_id":81,"name":"theeyeofsauronmc","steam_id":76561199157250663,"connected_time":1897000000000,"state":"active","ping":158},{"user_id":89,"name":"Elusive","steam_id":76561198170323910,"connected_time":913000000000,"state":"active","ping":56},{"user_id":40,"name":"Maun0","steam_id":76561198191103446,"connected_time":4043000000000,"state":"active","ping":93},{"user_id":90,"name":"Saken","steam_id":76561198049075295,"connected_time":898000000000,"state":"active","ping":60},{"user_id":78,"name":"Entomono","steam_id":76561198189172213,"connected_time":2196000000000,"state":"active","ping":39},{"user_id":50,"name":"Ich stinke","steam_id":76561198065076046,"connected_time":3222000000000,"state":"active","ping":67},{"user_id":29,"name":"CHEEKI BREEKI","steam_id":76561198023120431,"connected_time":4658000000000,"state":"active","ping":66},{"user_id":83,"name":"m","steam_id":76561198883590923,"connected_time":1778000000000,"state":"active","ping":98},{"user_id":39,"name":"qd12","steam_id":76561198396114370,"connected_time":4077000000000,"state":"active","ping":99},{"user_id":91,"name":"yeldad","steam_id":76561198447264153,"connected_time":799000000000,"state":"active","ping":117},{"user_id":88,"name":"trans werewolf","steam_id":76561198107235989,"connected_time":920000000000,"state":"active","ping":72},{"user_id":93,"name":"Heikkimr","steam_id":76561198892900358,"connected_time":730000000000,"state":"active","ping":85}]},{"server_id":321,"name":"Uncletopia | London | 4 | All Maps","name_short":"lon-4","host":"lon-1.uk.uncletopia.com","port":27045,"enabled":true,"region":"eu","cc":"gb","latitude":51.509865,"longitude":-0.118092,"reserved":0,"last_update":"0001-01-01T00:00:00Z","name_a2s":"Uncletopia | London | 4 | All Maps","protocol":17,"map":"pl_barnblitz","folder":"tf","game":"Team Fortress","app_id":440,"player_count":0,"max_players":24,"Bots":0,"server_type":"Dedicated","server_os":"Linux","password":true,"vac":true,"version":"7757534","steam_id":85568392924510193,"keywords":["nocrits","nodmgspread","payload","uncletopia"],"game_id":440,"stv_port":27046,"stv_name":"Uncletopia | London | 4 | All Maps | STV","players":null},{"server_id":21,"name":"Uncletopia | London | 5 | All Maps","name_short":"lon-5","host":"lon-1.uk.uncletopia.com","port":27055,"enabled":true,"region":"eu","cc":"gb","latitude":51.509865,"longitude":-0.118092,"reserved":0,"last_update":"0001-01-01T00:00:00Z","name_a2s":"Uncletopia | London | 5 | All Maps","protocol":17,"map":"pl_pier","folder":"tf","game":"Team Fortress","app_id":440,"player_count":0,"max_players":24,"Bots":0,"server_type":"Dedicated","server_os":"Linux","password":true,"vac":true,"version":"7757534","steam_id":85568392924742829,"keywords":["nocrits","nodmgspread","payload","uncletopia"],"game_id":440,"stv_port":27056,"stv_name":"Uncletopia | London | 5 | All Maps | STV","players":null},{"server_id":22,"name":"Uncletopia | London | 6 | All Maps","name_short":"lon-6","host":"lon-1.uk.uncletopia.com","port":27065,"enabled":true,"region":"eu","cc":"gb","latitude":51.509865,"longitude":-0.118092,"reserved":0,"last_update":"0001-01-01T00:00:00Z","name_a2s":"Uncletopia | London | 6 | All Maps","protocol":17,"map":"koth_highpass","folder":"tf","game":"Team Fortress","app_id":440,"player_count":0,"max_players":24,"Bots":0,"server_type":"Dedicated","server_os":"Linux","password":true,"vac":true,"version":"7757534","steam_id":85568392924742830,"keywords":["cp","nocrits","nodmgspread","uncletopia"],"game_id":440,"stv_port":27066,"stv_name":"Uncletopia | London | 6 | All Maps | STV","players":null},{"server_id":40,"name":"Uncletopia | London | 7 | No Payload","name_short":"lon-7","host":"lon-1.uk.uncletopia.com","port":27075,"enabled":true,"region":"eu","cc":"gb","latitude":51.509865,"longitude":-0.118092,"reserved":0,"last_update":"0001-01-01T00:00:00Z","name_a2s":"Uncletopia | London | 7 | No Payload","protocol":17,"map":"koth_highpass","folder":"tf","game":"Team Fortress","app_id":440,"player_count":0,"max_players":24,"Bots":0,"server_type":"Dedicated","server_os":"Linux","password":true,"vac":true,"version":"7757534","steam_id":85568392924964314,"keywords":["cp","nocrits","nodmgspread","uncletopia"],"game_id":440,"stv_port":27076,"stv_name":"Uncletopia | London | 7 | No Payload | STV","players":null},{"server_id":41,"name":"Uncletopia | London | 8 | Community","name_short":"lon-8","host":"lon-1.uk.uncletopia.com","port":27085,"enabled":true,"region":"eu","cc":"gb","latitude":51.509865,"longitude":-0.118092,"reserved":0,"last_update":"0001-01-01T00:00:00Z","name_a2s":"Uncletopia | London | 8 | Community","protocol":17,"map":"cp_altitude","folder":"tf","game":"Team Fortress","app_id":440,"player_count":0,"max_players":24,"Bots":0,"server_type":"Dedicated","server_os":"Linux","password":true,"vac":true,"version":"7757534","steam_id":85568392924964315,"keywords":["cp","nocrits","nodmgspread","uncletopia"],"game_id":440,"stv_port":27086,"stv_name":"Uncletopia | London | 8 | Community | STV","players":null},{"server_id":300,"name":"Uncletopia | Montréal | 1 | All Maps","name_short":"mtl-1","host":"mtl-1.ca.uncletopia.com","port":27015,"enabled":true,"region":"us-east","cc":"ca","latitude":45.50889,"longitude":-73.56167,"reserved":0,"last_update":"0001-01-01T00:00:00Z","name_a2s":"Uncletopia | Montréal | 1 | All Maps","protocol":17,"map":"cp_mountainlab","folder":"tf","game":"Team Fortress","app_id":440,"player_count":0,"max_players":24,"Bots":0,"server_type":"Dedicated","server_os":"Linux","password":true,"vac":true,"version":"7757534","steam_id":85568392924500087,"keywords":["cp","nocrits","nodmgspread","uncletopia"],"game_id":440,"stv_port":27016,"stv_name":"Uncletopia | Montréal | 1 | All Maps | STV","players":null},{"server_id":301,"name":"Uncletopia | Montréal | 2 | All Maps","name_short":"mtl-2","host":"mtl-1.ca.uncletopia.com","port":27025,"enabled":true,"region":"us-east","cc":"ca","latitude":45.50889,"longitude":-73.56167,"reserved":0,"last_update":"0001-01-01T00:00:00Z","name_a2s":"Uncletopia | Montréal | 2 | All Maps","protocol":17,"map":"cp_snakewater_final1","folder":"tf","game":"Team Fortress","app_id":440,"player_count":0,"max_players":24,"Bots":0,"server_type":"Dedicated","server_os":"Linux","password":true,"vac":true,"version":"7757534","steam_id":85568392924500088,"keywords":["cp","nocrits","nodmgspread","uncletopia"],"game_id":440,"stv_port":27026,"stv_name":"Uncletopia | Montréal | 2 | All Maps | STV","players":null},{"server_id":302,"name":"Uncletopia | Montréal | 3 | All Maps","name_short":"mtl-3","host":"mtl-1.ca.uncletopia.com","port":27035,"enabled":true,"region":"us-east","cc":"ca","latitude":45.50889,"longitude":-73.56167,"reserved":0,"last_update":"0001-01-01T00:00:00Z","name_a2s":"Uncletopia | Montréal | 3 | All Maps","protocol":17,"map":"pl_frontier_final","folder":"tf","game":"Team Fortress","app_id":440,"player_count":0,"max_players":24,"Bots":0,"server_type":"Dedicated","server_os":"Linux","password":true,"vac":true,"version":"7757534","steam_id":85568392924500089,"keywords":["nocrits","nodmgspread","payload","uncletopia"],"game_id":440,"stv_port":27036,"stv_name":"Uncletopia | Montréal | 3 | All Maps | STV","players":null},{"server_id":303,"name":"Uncletopia | Montréal | 4 | No Payload","name_short":"mtl-4","host":"mtl-1.ca.uncletopia.com","port":27045,"enabled":true,"region":"us-east","cc":"ca","latitude":45.50889,"longitude":-73.56167,"reserved":0,"last_update":"0001-01-01T00:00:00Z","name_a2s":"Uncletopia | Montréal | 4 | No Payload","protocol":17,"map":"cp_coldfront","folder":"tf","game":"Team Fortress","app_id":440,"player_count":0,"max_players":24,"Bots":0,"server_type":"Dedicated","server_os":"Linux","password":true,"vac":true,"version":"7757534","steam_id":85568392924500090,"keywords":["cp","nocrits","nodmgspread","uncletopia"],"game_id":440,"stv_port":27046,"stv_name":"Uncletopia | Montréal | 4 | No Payload | STV","players":null},{"server_id":13,"name":"Uncletopia | New York City | 1 | All Maps","name_short":"nyc-1","host":"nyc-1.us.uncletopia.com","port":27015,"enabled":true,"region":"us-east","cc":"us","latitude":40.73061,"longitude":-73.93524,"reserved":0,"last_update":"0001-01-01T00:00:00Z","name_a2s":"Uncletopia | New York City | 1 | All Maps","protocol":17,"map":"cp_altitude","folder":"tf","game":"Team Fortress","app_id":440,"player_count":0,"max_players":24,"Bots":0,"server_type":"Dedicated","server_os":"Linux","password":true,"vac":true,"version":"7757534","steam_id":85568392924469993,"keywords":["cp","nocrits","nodmgspread","uncletopia"],"game_id":440,"stv_port":27016,"stv_name":"Uncletopia | New York City | 1 | All Maps | STV","players":null},{"server_id":14,"name":"Uncletopia | New York City | 2 | All Maps","name_short":"nyc-2","host":"nyc-1.us.uncletopia.com","port":27025,"enabled":true,"region":"us-east","cc":"us","latitude":40.73061,"longitude":-73.93524,"reserved":0,"last_update":"0001-01-01T00:00:00Z","name_a2s":"Uncletopia | New York City | 2 | All Maps","protocol":17,"map":"cp_dustbowl","folder":"tf","game":"Team Fortress","app_id":440,"player_count":0,"max_players":24,"Bots":0,"server_type":"Dedicated","server_os":"Linux","password":true,"vac":true,"version":"7757534","steam_id":85568392924469994,"keywords":["cp","nocrits","nodmgspread","uncletopia"],"game_id":440,"stv_port":27026,"stv_name":"Uncletopia | New York City | 2 | All Maps | STV","players":null},{"server_id":15,"name":"Uncletopia | New York City | 3 | Stopwatch Beta","name_short":"nyc-3","host":"nyc-1.us.uncletopia.com","port":27035,"enabled":true,"region":"us-east","cc":"us","latitude":40.73061,"longitude":-73.93524,"reserved":0,"last_update":"0001-01-01T00:00:00Z","name_a2s":"Uncletopia | New York City | 3 | Stopwatch Beta","protocol":17,"map":"workshop/koth_ramjam_rc1.ugc459778887","folder":"tf","game":"Team Fortress","app_id":440,"player_count":0,"max_players":24,"Bots":0,"server_type":"Dedicated","server_os":"Linux","password":true,"vac":true,"version":"7757534","steam_id":85568392924742820,"keywords":["cp","nocrits","nodmgspread","uncletopia"],"game_id":440,"stv_port":27036,"stv_name":"Uncletopia | New York City | 3 | Stopwatch Beta | STV","players":null},{"server_id":16,"name":"Uncletopia | New York City | 4 | Community","name_short":"nyc-4","host":"nyc-1.us.uncletopia.com","port":27045,"enabled":true,"region":"us-east","cc":"us","latitude":40.73061,"longitude":-73.93524,"reserved":0,"last_update":"0001-01-01T00:00:00Z","name_a2s":"Uncletopia | New York City | 4 | Community","protocol":17,"map":"workshop/rd_asteroid_redux_b1.ugc2154902912","folder":"tf","game":"Team Fortress","app_id":440,"player_count":0,"max_players":24,"Bots":0,"server_type":"Dedicated","server_os":"Linux","password":true,"vac":true,"version":"7757534","steam_id":85568392924742821,"keywords":["beta","nocrits","nodmgspread","rd","uncletopia"],"game_id":440,"stv_port":27046,"stv_name":"Uncletopia | New York City | 4 | Community | STV","players":null},{"server_id":142,"name":"Uncletopia | São Paulo | 1 | All Maps","name_short":"sao-1","host":"sao-1.br.uncletopia.com","port":27015,"enabled":true,"region":"sa","cc":"br","latitude":-23.533773,"longitude":-46.62529,"reserved":0,"last_update":"0001-01-01T00:00:00Z","name_a2s":"Uncletopia | São Paulo | 1 | All Maps","protocol":17,"map":"pl_badwater","folder":"tf","game":"Team Fortress","app_id":440,"player_count":0,"max_players":24,"Bots":0,"server_type":"Dedicated","server_os":"Linux","password":true,"vac":true,"version":"7757534","steam_id":85568392924469996,"keywords":["nocrits","nodmgspread","payload","uncletopia"],"game_id":440,"stv_port":27016,"stv_name":"Uncletopia | São Paulo | 1 | All Maps | STV","players":null},{"server_id":143,"name":"Uncletopia | São Paulo | 2 | All Maps","name_short":"sao-2","host":"sao-2.br.uncletopia.com","port":27015,"enabled":true,"region":"sa","cc":"br","latitude":-23.533773,"longitude":-46.62529,"reserved":0,"last_update":"0001-01-01T00:00:00Z","name_a2s":"Uncletopia | São Paulo | 2 | All Maps","protocol":17,"map":"koth_cascade","folder":"tf","game":"Team Fortress","app_id":440,"player_count":0,"max_players":24,"Bots":0,"server_type":"Dedicated","server_os":"Linux","password":true,"vac":true,"version":"7757534","steam_id":85568392924485349,"keywords":["cp","nocrits","nodmgspread","uncletopia"],"game_id":440,"stv_port":27016,"stv_name":"Uncletopia | São Paulo | 2 | All Maps | STV","players":null},{"server_id":7,"name":"Uncletopia | Seattle | 1 | All Maps","name_short":"sea-1","host":"sea-1.us.uncletopia.com","port":27015,"enabled":true,"region":"us-west","cc":"us","latitude":47.608013,"longitude":-122.33517,"reserved":0,"last_update":"0001-01-01T00:00:00Z","name_a2s":"Uncletopia | Seattle | 1 | All Maps","protocol":17,"map":"pl_upward","folder":"tf","game":"Team Fortress","app_id":440,"player_count":24,"max_players":24,"Bots":0,"server_type":"Dedicated","server_os":"Linux","password":true,"vac":true,"version":"7757534","steam_id":85568392924469997,"keywords":["nocrits","nodmgspread","payload","uncletopia"],"game_id":440,"stv_port":27016,"stv_name":"Uncletopia | Seattle | 1 | All Maps | STV","players":[{"user_id":869,"name":"Ayayahuasca","steam_id":76561199002906056,"connected_time":1263000000000,"state":"active","ping":46},{"user_id":863,"name":"[TrC] Nosy","steam_id":76561197978859310,"connected_time":2530000000000,"state":"active","ping":55},{"user_id":857,"name":"The Super Mario Bros. Movie","steam_id":76561198871692156,"connected_time":3001000000000,"state":"active","ping":50},{"user_id":797,"name":"rat gets the cheese","steam_id":76561198031234032,"connected_time":7455000000000,"state":"active","ping":105},{"user_id":851,"name":"Eated Bees","steam_id":76561198352732164,"connected_time":3524000000000,"state":"active","ping":62},{"user_id":861,"name":"ms. anthrope","steam_id":76561198063533082,"connected_time":2641000000000,"state":"active","ping":42},{"user_id":868,"name":"oil","steam_id":76561198099980149,"connected_time":1267000000000,"state":"active","ping":89},{"user_id":873,"name":"Herr Müller","steam_id":76561198064876829,"connected_time":1198000000000,"state":"active","ping":143},{"user_id":850,"name":"PerKnuckleChuckle","steam_id":76561198023221596,"connected_time":3722000000000,"state":"active","ping":79},{"user_id":858,"name":"eau:","steam_id":76561198110020262,"connected_time":2986000000000,"state":"active","ping":70},{"user_id":889,"name":"Moose","steam_id":76561198113839089,"connected_time":68000000000,"state":"active","ping":91},{"user_id":883,"name":"TGGHaze gaming","steam_id":76561199134730784,"connected_time":880000000000,"state":"active","ping":140},{"user_id":877,"name":"loppy","steam_id":76561198081870327,"connected_time":1141000000000,"state":"active","ping":83},{"user_id":866,"name":"Creature","steam_id":76561198194585781,"connected_time":2056000000000,"state":"active","ping":79},{"user_id":816,"name":"Aribari","steam_id":76561198117327938,"connected_time":5792000000000,"state":"active","ping":119},{"user_id":887,"name":"I_Want_A_Soft_Taco","steam_id":76561198225561352,"connected_time":270000000000,"state":"active","ping":78},{"user_id":860,"name":"Clagger","steam_id":76561198066701092,"connected_time":2663000000000,"state":"active","ping":44},{"user_id":880,"name":"Arsonist Goose","steam_id":76561198147441830,"connected_time":1025000000000,"state":"active","ping":76},{"user_id":846,"name":"ROGUE-PLANET","steam_id":76561198116023052,"connected_time":3960000000000,"state":"active","ping":77},{"user_id":885,"name":"Google","steam_id":76561198857237473,"connected_time":618000000000,"state":"active","ping":54},{"user_id":888,"name":"hosewater","steam_id":76561198023383126,"connected_time":203000000000,"state":"active","ping":56},{"user_id":862,"name":"[TrC] Dackstrus","steam_id":76561197973518509,"connected_time":2552000000000,"state":"active","ping":61},{"user_id":794,"name":"soup","steam_id":76561198043209046,"connected_time":8140000000000,"state":"active","ping":86},{"user_id":882,"name":"Peppy","steam_id":76561198866629645,"connected_time":976000000000,"state":"active","ping":63}]},{"server_id":119,"name":"Uncletopia | Seattle | 2 | All Maps","name_short":"sea-2","host":"sea-1.us.uncletopia.com","port":27025,"enabled":true,"region":"us-west","cc":"us","latitude":47.608013,"longitude":-122.33517,"reserved":0,"last_update":"0001-01-01T00:00:00Z","name_a2s":"Uncletopia | Seattle | 2 | All Maps","protocol":17,"map":"pl_pier","folder":"tf","game":"Team Fortress","app_id":440,"player_count":24,"max_players":24,"Bots":0,"server_type":"Dedicated","server_os":"Linux","password":true,"vac":true,"version":"7757534","steam_id":85568392924469998,"keywords":["nocrits","nodmgspread","payload","uncletopia"],"game_id":440,"stv_port":27026,"stv_name":"Uncletopia | Seattle | 2 | All Maps | STV","players":[{"user_id":937,"name":"goop","steam_id":76561198204169516,"connected_time":621000000000,"state":"active","ping":72},{"user_id":938,"name":"moopmop","steam_id":76561198065224965,"connected_time":621000000000,"state":"active","ping":61},{"user_id":936,"name":"Flembrane","steam_id":76561197995328898,"connected_time":634000000000,"state":"active","ping":74},{"user_id":883,"name":"cracky","steam_id":76561197971365444,"connected_time":5144000000000,"state":"active","ping":51},{"user_id":931,"name":"jimme mr breast","steam_id":76561198881144114,"connected_time":921000000000,"state":"active","ping":48},{"user_id":884,"name":"Oomitch","steam_id":76561198071702759,"connected_time":5131000000000,"state":"active","ping":55},{"user_id":942,"name":"Ranger","steam_id":76561199048628904,"connected_time":484000000000,"state":"active","ping":57},{"user_id":918,"name":"lettuce","steam_id":76561198133969522,"connected_time":1765000000000,"state":"active","ping":68},{"user_id":934,"name":"served","steam_id":76561199438267625,"connected_time":685000000000,"state":"active","ping":116},{"user_id":940,"name":"Junior_198X","steam_id":76561198158596794,"connected_time":603000000000,"state":"active","ping":99},{"user_id":921,"name":"Gary, 40, soul sucking 9-5","steam_id":76561198073812888,"connected_time":1742000000000,"state":"active","ping":46},{"user_id":941,"name":"Artic_Ryuu","steam_id":76561198182194918,"connected_time":587000000000,"state":"active","ping":75},{"user_id":922,"name":"Coolshroomish","steam_id":76561199109440924,"connected_time":1723000000000,"state":"active","ping":52},{"user_id":905,"name":"Gay Cake","steam_id":76561198004388831,"connected_time":3027000000000,"state":"active","ping":123},{"user_id":906,"name":"Lt. Dan's Legs","steam_id":76561198043851584,"connected_time":3025000000000,"state":"active","ping":158},{"user_id":928,"name":"IzzyHoP","steam_id":76561197995927883,"connected_time":1518000000000,"state":"active","ping":56},{"user_id":927,"name":"Antzen","steam_id":76561198041343470,"connected_time":1557000000000,"state":"active","ping":74},{"user_id":916,"name":"health station","steam_id":76561198035698704,"connected_time":1771000000000,"state":"active","ping":70},{"user_id":923,"name":"Neo Kojiro","steam_id":76561198000967076,"connected_time":1721000000000,"state":"active","ping":143},{"user_id":908,"name":"BlixyDragon","steam_id":76561198295422834,"connected_time":2974000000000,"state":"active","ping":174},{"user_id":924,"name":"Daddy","steam_id":76561199247095754,"connected_time":1703000000000,"state":"active","ping":63},{"user_id":909,"name":"Nekomata","steam_id":76561198191536489,"connected_time":2971000000000,"state":"active","ping":94},{"user_id":933,"name":"Tyzombiecrusher","steam_id":76561198175855278,"connected_time":880000000000,"state":"active","ping":93},{"user_id":913,"name":"Strength!!","steam_id":76561198001241984,"connected_time":1845000000000,"state":"active","ping":55}]},{"server_id":406,"name":"Uncletopia | Seattle | 3 | Stopwatch Beta","name_short":"sea-3","host":"sea-1.us.uncletopia.com","port":27035,"enabled":true,"region":"us-west","cc":"us","latitude":47.608013,"longitude":-122.33517,"reserved":0,"last_update":"0001-01-01T00:00:00Z","name_a2s":"Uncletopia | Seattle | 3 | Stopwatch Beta","protocol":17,"map":"workshop/pl_barnblitz_pro7.ugc582280235","folder":"tf","game":"Team Fortress","app_id":440,"player_count":0,"max_players":24,"Bots":0,"server_type":"Dedicated","server_os":"Linux","password":true,"vac":true,"version":"7757534","steam_id":85568392924515217,"keywords":["nocrits","nodmgspread","payload","uncletopia"],"game_id":440,"stv_port":27036,"stv_name":"Uncletopia | Seattle | 3 | Stopwatch Beta | STV","players":null},{"server_id":17,"name":"Uncletopia | San Francisco | 1 | All Maps","name_short":"sfo-1","host":"sfo-1.us.uncletopia.com","port":27015,"enabled":true,"region":"us-west","cc":"us","latitude":37.77397,"longitude":-122.4313,"reserved":0,"last_update":"0001-01-01T00:00:00Z","name_a2s":"Uncletopia | San Francisco | 1 | All Maps","protocol":17,"map":"cp_altitude","folder":"tf","game":"Team Fortress","app_id":440,"player_count":2,"max_players":24,"Bots":0,"server_type":"Dedicated","server_os":"Linux","password":true,"vac":true,"version":"7757534","steam_id":85568392924469999,"keywords":["cp","nocrits","nodmgspread","uncletopia"],"game_id":440,"stv_port":27016,"stv_name":"Uncletopia | San Francisco | 1 | All Maps | STV","players":[{"user_id":21,"name":"PheebsyDeebsy","steam_id":76561198101509436,"connected_time":612000000000,"state":"active","ping":45},{"user_id":22,"name":"GalaxySheep","steam_id":76561198066484754,"connected_time":562000000000,"state":"active","ping":111}]},{"server_id":18,"name":"Uncletopia | San Francisco | 2 | All Maps","name_short":"sfo-2","host":"sfo-1.us.uncletopia.com","port":27025,"enabled":true,"region":"us-west","cc":"us","latitude":37.77397,"longitude":-122.4313,"reserved":0,"last_update":"0001-01-01T00:00:00Z","name_a2s":"Uncletopia | San Francisco | 2 | All Maps","protocol":17,"map":"pl_pier","folder":"tf","game":"Team Fortress","app_id":440,"player_count":20,"max_players":24,"Bots":0,"server_type":"Dedicated","server_os":"Linux","password":true,"vac":true,"version":"7757534","steam_id":85568392924470000,"keywords":["nocrits","nodmgspread","payload","uncletopia"],"game_id":440,"stv_port":27026,"stv_name":"Uncletopia | San Francisco | 2 | All Maps | STV","players":[{"user_id":602,"name":"Chicken","steam_id":76561198065890499,"connected_time":13000000000,"state":"spawning","ping":78},{"user_id":565,"name":"koolkobra76","steam_id":76561198174724163,"connected_time":1396000000000,"state":"active","ping":55},{"user_id":581,"name":"Jack from Jack in The Box","steam_id":76561199083594971,"connected_time":891000000000,"state":"active","ping":61},{"user_id":592,"name":"LtK","steam_id":76561197993180943,"connected_time":290000000000,"state":"active","ping":72},{"user_id":590,"name":"pro-PAIN","steam_id":76561198104544593,"connected_time":301000000000,"state":"active","ping":56},{"user_id":593,"name":"deo","steam_id":76561198046650995,"connected_time":284000000000,"state":"active","ping":102},{"user_id":603,"name":"gacevargosa","steam_id":76561199465878669,"connected_time":7000000000,"state":"spawning","ping":240},{"user_id":596,"name":"bengineer","steam_id":76561198171912174,"connected_time":187000000000,"state":"active","ping":68},{"user_id":569,"name":"Rakk","steam_id":76561198855176174,"connected_time":1324000000000,"state":"active","ping":52},{"user_id":553,"name":"TheDogeIsReal","steam_id":76561199331300024,"connected_time":2507000000000,"state":"active","ping":78},{"user_id":570,"name":"MayaBon","steam_id":76561198797968261,"connected_time":1321000000000,"state":"active","ping":73},{"user_id":587,"name":"hakken","steam_id":76561199102391736,"connected_time":445000000000,"state":"active","ping":59},{"user_id":515,"name":"Fierce Unggoy","steam_id":76561198262565372,"connected_time":5894000000000,"state":"active","ping":72},{"user_id":572,"name":"Sonicega","steam_id":76561198044362988,"connected_time":1268000000000,"state":"active","ping":90},{"user_id":537,"name":"Burgie","steam_id":76561198066425198,"connected_time":4369000000000,"state":"active","ping":60},{"user_id":597,"name":"🅜🅔🅔🅚🅢🅣🅔\ufffd\ufffd\ufffd","steam_id":76561197999748343,"connected_time":157000000000,"state":"active","ping":75},{"user_id":600,"name":"DOZ\u0026METR","steam_id":76561199066656692,"connected_time":59000000000,"state":"active","ping":250},{"user_id":588,"name":"gravy","steam_id":76561198089644778,"connected_time":397000000000,"state":"active","ping":59},{"user_id":601,"name":"Mister Heavy 2012","steam_id":76561198911542330,"connected_time":49000000000,"state":"spawning","ping":213},{"user_id":586,"name":"soldier (tea for two)","steam_id":76561198072318772,"connected_time":572000000000,"state":"active","ping":61}]},{"server_id":19,"name":"Uncletopia | San Francisco | 3 | Stopwatch Beta","name_short":"sfo-3","host":"sfo-1.us.uncletopia.com","port":27035,"enabled":true,"region":"us-west","cc":"us","latitude":37.77397,"longitude":-122.4313,"reserved":0,"last_update":"0001-01-01T00:00:00Z","name_a2s":"Uncletopia | San Francisco | 3 | Stopwatch Beta","protocol":17,"map":"cp_snakewater_final1","folder":"tf","game":"Team Fortress","app_id":440,"player_count":0,"max_players":24,"Bots":0,"server_type":"Dedicated","server_os":"Linux","password":true,"vac":true,"version":"7757534","steam_id":85568392924742824,"keywords":["cp","nocrits","nodmgspread","uncletopia"],"game_id":440,"stv_port":27036,"stv_name":"Uncletopia | San Francisco | 3 | Stopwatch Beta | STV","players":null},{"server_id":20,"name":"Uncletopia | San Francisco | 4 | Community","name_short":"sfo-4","host":"sfo-1.us.uncletopia.com","port":27045,"enabled":true,"region":"us-west","cc":"us","latitude":37.77397,"longitude":-122.4313,"reserved":0,"last_update":"0001-01-01T00:00:00Z","name_a2s":"Uncletopia | San Francisco | 4 | Community","protocol":17,"map":"workshop/pl_barnblitz_pro7.ugc582280235","folder":"tf","game":"Team Fortress","app_id":440,"player_count":1,"max_players":24,"Bots":0,"server_type":"Dedicated","server_os":"Linux","password":true,"vac":true,"version":"7757534","steam_id":85568392924742826,"keywords":["nocrits","nodmgspread","payload","uncletopia"],"game_id":440,"stv_port":27046,"stv_name":"Uncletopia | San Francisco | 4 | Community | STV","players":[{"user_id":340,"name":"Pudsla","steam_id":76561198258974036,"connected_time":433000000000,"state":"active","ping":53}]},{"server_id":141,"name":"Uncletopia | Sydney | 1 | All Maps","name_short":"syd-1","host":"syd-1.au.uncletopia.com","port":27015,"enabled":true,"region":"au","cc":"au","latitude":-33.865143,"longitude":151.2099,"reserved":0,"last_update":"0001-01-01T00:00:00Z","name_a2s":"Uncletopia | Sydney | 1 | All Maps","protocol":17,"map":"koth_viaduct","folder":"tf","game":"Team Fortress","app_id":440,"player_count":7,"max_players":24,"Bots":0,"server_type":"Dedicated","server_os":"Linux","password":true,"vac":true,"version":"7757534","steam_id":85568392924470001,"keywords":["cp","nocrits","nodmgspread","uncletopia"],"game_id":440,"stv_port":27016,"stv_name":"Uncletopia | Sydney | 1 | All Maps | STV","players":[{"user_id":34,"name":"HollowNaught","steam_id":76561198197382111,"connected_time":1046000000000,"state":"active","ping":59},{"user_id":35,"name":"Janbric OwO","steam_id":76561199161207802,"connected_time":946000000000,"state":"active","ping":84},{"user_id":36,"name":"Gregory","steam_id":76561199028542666,"connected_time":524000000000,"state":"active","ping":42},{"user_id":37,"name":"Jardabib","steam_id":76561199011236039,"connected_time":118000000000,"state":"active","ping":54},{"user_id":38,"name":"Le Bisoneer TF2","steam_id":76561199446773766,"connected_time":117000000000,"state":"active","ping":81},{"user_id":40,"name":"mixyad3","steam_id":76561198046461767,"connected_time":36000000000,"state":"active","ping":68},{"user_id":41,"name":"please dont touch me","steam_id":76561198202170587,"connected_time":27000000000,"state":"active","ping":74}]},{"server_id":123,"name":"Uncletopia | Sydney | 2 | All Maps","name_short":"syd-2","host":"syd-1.au.uncletopia.com","port":27025,"enabled":true,"region":"au","cc":"au","latitude":-33.865143,"longitude":151.2099,"reserved":0,"last_update":"0001-01-01T00:00:00Z","name_a2s":"Uncletopia | Sydney | 2 | All Maps","protocol":17,"map":"cp_sunshine","folder":"tf","game":"Team Fortress","app_id":440,"player_count":24,"max_players":24,"Bots":0,"server_type":"Dedicated","server_os":"Linux","password":true,"vac":true,"version":"7757534","steam_id":85568392924470002,"keywords":["cp","nocrits","nodmgspread","uncletopia"],"game_id":440,"stv_port":27026,"stv_name":"Uncletopia | Sydney | 2 | All Maps | STV","players":[{"user_id":196,"name":"Rizeo","steam_id":76561198147901488,"connected_time":4839000000000,"state":"active","ping":70},{"user_id":197,"name":"electro599","steam_id":76561198058148858,"connected_time":4808000000000,"state":"active","ping":59},{"user_id":246,"name":"Gwarp","steam_id":76561198061960926,"connected_time":1860000000000,"state":"active","ping":101},{"user_id":257,"name":"no teles 4 u","steam_id":76561198018478297,"connected_time":413000000000,"state":"active","ping":73},{"user_id":200,"name":"SIRROM12 (SIRR)","steam_id":76561198116738329,"connected_time":4358000000000,"state":"active","ping":79},{"user_id":209,"name":"Toody","steam_id":76561198212656752,"connected_time":3487000000000,"state":"active","ping":46},{"user_id":244,"name":"FyreFeat","steam_id":76561198068428930,"connected_time":1896000000000,"state":"active","ping":55},{"user_id":216,"name":"Q","steam_id":76561198055600105,"connected_time":3320000000000,"state":"active","ping":74},{"user_id":243,"name":"JmayTheUnknown","steam_id":76561198217463552,"connected_time":2080000000000,"state":"active","ping":76},{"user_id":239,"name":"zore","steam_id":76561198016233021,"connected_time":2395000000000,"state":"active","ping":64},{"user_id":250,"name":"Fleetfoot","steam_id":76561198072845816,"connected_time":1316000000000,"state":"active","ping":54},{"user_id":211,"name":"saudi ambassador messi","steam_id":76561198031293430,"connected_time":3459000000000,"state":"active","ping":87},{"user_id":256,"name":"ScaleForm","steam_id":76561198950855452,"connected_time":580000000000,"state":"active","ping":65},{"user_id":247,"name":"Tiger_Tan","steam_id":76561198221733844,"connected_time":1860000000000,"state":"active","ping":65},{"user_id":215,"name":"TimTam","steam_id":76561198158862578,"connected_time":3369000000000,"state":"active","ping":66},{"user_id":241,"name":"wackel","steam_id":76561198091003826,"connected_time":2255000000000,"state":"active","ping":60},{"user_id":249,"name":"Enchanted Cat","steam_id":76561198866538028,"connected_time":1366000000000,"state":"active","ping":76},{"user_id":226,"name":"71312n4n","steam_id":76561198044303596,"connected_time":2885000000000,"state":"active","ping":45},{"user_id":223,"name":"BLORZINGUS","steam_id":76561198063481761,"connected_time":3000000000000,"state":"active","ping":44},{"user_id":259,"name":"quasi","steam_id":76561198282589938,"connected_time":34000000000,"state":"active","ping":96},{"user_id":236,"name":"Chooka","steam_id":76561197992307814,"connected_time":2530000000000,"state":"active","ping":67},{"user_id":242,"name":"FreeBeers","steam_id":76561198095448607,"connected_time":2166000000000,"state":"active","ping":68},{"user_id":260,"name":"Lain","steam_id":76561198149217307,"connected_time":34000000000,"state":"active","ping":78},{"user_id":261,"name":"the normoaner","steam_id":76561198082423230,"connected_time":34000000000,"state":"active","ping":75}]},{"server_id":395,"name":"Uncletopia | Sydney | 3 | All Maps","name_short":"syd-3","host":"syd-1.au.uncletopia.com","port":27035,"enabled":true,"region":"au","cc":"au","latitude":-33.865143,"longitude":151.2099,"reserved":0,"last_update":"0001-01-01T00:00:00Z","name_a2s":"Uncletopia | Sydney | 3 | All Maps","protocol":17,"map":"pl_badwater","folder":"tf","game":"Team Fortress","app_id":440,"player_count":0,"max_players":24,"Bots":0,"server_type":"Dedicated","server_os":"Linux","password":true,"vac":true,"version":"7757534","steam_id":85568392925194467,"keywords":["nocrits","nodmgspread","payload","uncletopia"],"game_id":440,"stv_port":27036,"stv_name":"Uncletopia | Sydney | 3 | All Maps | STV","players":null},{"server_id":396,"name":"Uncletopia | Sydney | 4 | All Maps","name_short":"syd-4","host":"syd-1.au.uncletopia.com","port":27045,"enabled":true,"region":"au","cc":"au","latitude":-33.865143,"longitude":151.2099,"reserved":0,"last_update":"0001-01-01T00:00:00Z","name_a2s":"Uncletopia | Sydney | 4 | All Maps","protocol":17,"map":"cp_dustbowl","folder":"tf","game":"Team Fortress","app_id":440,"player_count":0,"max_players":24,"Bots":0,"server_type":"Dedicated","server_os":"Linux","password":true,"vac":true,"version":"7757534","steam_id":85568392925397958,"keywords":["cp","nocrits","nodmgspread","uncletopia"],"game_id":440,"stv_port":27046,"stv_name":"Uncletopia | Sydney | 4 | All Maps | STV","players":null},{"server_id":58,"name":"Uncletopia | Sydney | 5 | Stopwatch Beta","name_short":"syd-5","host":"syd-1.au.uncletopia.com","port":27055,"enabled":true,"region":"au","cc":"au","latitude":-33.865143,"longitude":151.2099,"reserved":0,"last_update":"0001-01-01T00:00:00Z","name_a2s":"Uncletopia | Sydney | 5 | Stopwatch Beta","protocol":17,"map":"workshop/koth_clearcut_b15.ugc2107050255","folder":"tf","game":"Team Fortress","app_id":440,"player_count":0,"max_players":24,"Bots":0,"server_type":"Dedicated","server_os":"Linux","password":true,"vac":true,"version":"7757534","steam_id":85568392925397959,"keywords":["cp","nocrits","nodmgspread","uncletopia"],"game_id":440,"stv_port":27056,"stv_name":"Uncletopia | Sydney | 5 | Stopwatch Beta | STV","players":null},{"server_id":59,"name":"Uncletopia | Sydney | 6 | Community","name_short":"syd-6","host":"syd-1.au.uncletopia.com","port":27065,"enabled":true,"region":"au","cc":"au","latitude":-33.865143,"longitude":151.2099,"reserved":0,"last_update":"0001-01-01T00:00:00Z","name_a2s":"Uncletopia | Sydney | 6 | Community","protocol":17,"map":"workshop/pl_emerge_rc2.ugc888027758","folder":"tf","game":"Team Fortress","app_id":440,"player_count":0,"max_players":24,"Bots":0,"server_type":"Dedicated","server_os":"Linux","password":true,"vac":true,"version":"7757534","steam_id":85568392925397960,"keywords":["nocrits","nodmgspread","payload","uncletopia"],"game_id":440,"stv_port":27066,"stv_name":"Uncletopia | Sydney | 6 | Community | STV","players":null},{"server_id":49,"name":"Uncletopia | Warsaw | 1 | All Maps","name_short":"waw-1","host":"waw-1.pl.uncletopia.com","port":27015,"enabled":true,"region":"eu","cc":"pl","latitude":52.2297,"longitude":21.017532,"reserved":0,"last_update":"0001-01-01T00:00:00Z","name_a2s":"","protocol":0,"map":"","folder":"","game":"","app_id":0,"player_count":0,"max_players":0,"Bots":0,"server_type":"","server_os":"","password":false,"vac":false,"version":"","steam_id":0,"keywords":null,"game_id":0,"stv_port":0,"stv_name":"","players":null},{"server_id":50,"name":"Uncletopia | Warsaw | 2 | All Maps","name_short":"waw-2","host":"waw-1.pl.uncletopia.com","port":27025,"enabled":true,"region":"eu","cc":"pl","latitude":52.2297,"longitude":21.017532,"reserved":0,"last_update":"0001-01-01T00:00:00Z","name_a2s":"Uncletopia | Warsaw | 2 | All Maps","protocol":17,"map":"pl_upward","folder":"tf","game":"Team Fortress","app_id":440,"player_count":0,"max_players":24,"Bots":0,"server_type":"Dedicated","server_os":"Linux","password":true,"vac":true,"version":"7757534","steam_id":85568392925397851,"keywords":["nocrits","nodmgspread","payload","uncletopia"],"game_id":440,"stv_port":27026,"stv_name":"Uncletopia | Warsaw | 2 | All Maps | STV","players":null},{"server_id":51,"name":"Uncletopia | Warsaw | 3 | All Maps","name_short":"waw-3","host":"waw-1.pl.uncletopia.com","port":27035,"enabled":true,"region":"eu","cc":"pl","latitude":52.2297,"longitude":21.017532,"reserved":0,"last_update":"0001-01-01T00:00:00Z","name_a2s":"Uncletopia | Warsaw | 3 | All Maps","protocol":17,"map":"pl_barnblitz","folder":"tf","game":"Team Fortress","app_id":440,"player_count":0,"max_players":24,"Bots":0,"server_type":"Dedicated","server_os":"Linux","password":true,"vac":true,"version":"7757534","steam_id":85568392925397852,"keywords":["nocrits","nodmgspread","payload","uncletopia"],"game_id":440,"stv_port":27036,"stv_name":"Uncletopia | Warsaw | 3 | All Maps | STV","players":null},{"server_id":52,"name":"Uncletopia | Warsaw | 4 | All Maps","name_short":"waw-4","host":"waw-1.pl.uncletopia.com","port":27045,"enabled":true,"region":"eu","cc":"pl","latitude":52.2297,"longitude":21.017532,"reserved":0,"last_update":"0001-01-01T00:00:00Z","name_a2s":"Uncletopia | Warsaw | 4 | All Maps","protocol":17,"map":"cp_altitude","folder":"tf","game":"Team Fortress","app_id":440,"player_count":0,"max_players":24,"Bots":0,"server_type":"Dedicated","server_os":"Linux","password":true,"vac":true,"version":"7757534","steam_id":85568392925397853,"keywords":["cp","nocrits","nodmgspread","uncletopia"],"game_id":440,"stv_port":27046,"stv_name":"Uncletopia | Warsaw | 4 | All Maps | STV","players":null},{"server_id":53,"name":"Uncletopia | Warsaw | 5 | Stopwatch Beta","name_short":"waw-5","host":"waw-1.pl.uncletopia.com","port":27055,"enabled":true,"region":"eu","cc":"pl","latitude":52.2297,"longitude":21.017532,"reserved":0,"last_update":"0001-01-01T00:00:00Z","name_a2s":"Uncletopia | Warsaw | 5 | Stopwatch Beta","protocol":17,"map":"pl_pier","folder":"tf","game":"Team Fortress","app_id":440,"player_count":0,"max_players":24,"Bots":0,"server_type":"Dedicated","server_os":"Linux","password":true,"vac":true,"version":"7757534","steam_id":85568392925397854,"keywords":["nocrits","nodmgspread","payload","uncletopia"],"game_id":440,"stv_port":27056,"stv_name":"Uncletopia | Warsaw | 5 | Stopwatch Beta | STV","players":null},{"server_id":54,"name":"Uncletopia | Warsaw | 6 | Community","name_short":"waw-6","host":"waw-1.pl.uncletopia.com","port":27065,"enabled":true,"region":"eu","cc":"pl","latitude":52.2297,"longitude":21.017532,"reserved":0,"last_update":"0001-01-01T00:00:00Z","name_a2s":"Uncletopia | Warsaw | 6 | Community","protocol":17,"map":"koth_highpass","folder":"tf","game":"Team Fortress","app_id":440,"player_count":0,"max_players":24,"Bots":0,"server_type":"Dedicated","server_os":"Linux","password":true,"vac":true,"version":"7757534","steam_id":85568392925397856,"keywords":["cp","nocrits","nodmgspread","uncletopia"],"game_id":440,"stv_port":27066,"stv_name":"Uncletopia | Warsaw | 6 | Community | STV","players":null}]}