{"status":true,"message":"","result":[{"server_id":2,"name":"Uncletopia | Chicago | 1 | All Maps","name_short":"chi-1","host":"chi-1.us.uncletopia.com","port":27015,"enabled":true,"region":"us-central","cc":"us","latitude":41.881832,"longitude":-87.62318,"reserved":0,"last_update":"0001-01-01T00:00:00Z","name_a2s":"Uncletopia | Chicago | 1 | All Maps","protocol":17,"map":"cp_gorge","folder":"tf","game":"Team Fortress","app_id":440,"player_count":24,"max_players":24,"Bots":0,"server_type":"Dedicated","server_os":"Linux","password":true,"vac":true,"version":"7961495","steam_id":85568392924469984,"keywords":["cp","nocrits","nodmgspread","uncletopia"],"game_id":440,"stv_port":27016,"stv_name":"Uncletopia | Chicago | 1 | All Maps | STV","players":[{"user_id":392,"name":"EpicLikeEpicGames","steam_id":76561199373276790,"connected_time":448000000000,"state":"active","ping":101},{"user_id":345,"name":"ohton","steam_id":76561199033233448,"connected_time":2711000000000,"state":"active","ping":105},{"user_id":384,"name":"DJ Taj Mahal","steam_id":76561198024504491,"connected_time":674000000000,"state":"active","ping":38},{"user_id":385,"name":"melon","steam_id":76561199014039702,"connected_time":674000000000,"state":"active","ping":56},{"user_id":342,"name":"Banks","steam_id":76561198276505537,"connected_time":2822000000000,"state":"active","ping":67},{"user_id":368,"name":"Gnarly Shark Bite","steam_id":76561198004058342,"connected_time":1751000000000,"state":"active","ping":74},{"user_id":369,"name":"Crocodile(real)","steam_id":76561199190685448,"connected_time":1744000000000,"state":"active","ping":49},{"user_id":386,"name":"NUt","steam_id":76561198031007966,"connected_time":666000000000,"state":"active","ping":79},{"user_id":381,"name":"Doctor Emerald(real)","steam_id":76561199123003872,"connected_time":753000000000,"state":"active","ping":91},{"user_id":388,"name":"Praise_to_the_Flashlight!","steam_id":76561199001728789,"connected_time":645000000000,"state":"active","ping":63},{"user_id":302,"name":"swam","steam_id":76561198412916626,"connected_time":5519000000000,"state":"active","ping":72},{"user_id":337,"name":"Rukks","steam_id":76561197993918954,"connected_time":3417000000000,"state":"active","ping":87},{"user_id":352,"name":"aphexjh","steam_id":76561197985854658,"connected_time":2083000000000,"state":"active","ping":62},{"user_id":336,"name":"4 life","steam_id":76561198175961598,"connected_time":3504000000000,"state":"active","ping":114},{"user_id":332,"name":"Hector Salamanca","steam_id":76561199103213955,"connected_time":3642000000000,"state":"active","ping":116},{"user_id":391,"name":"RandomGavin?","steam_id":76561199102839784,"connected_time":467000000000,"state":"active","ping":95},{"user_id":378,"name":"♥Bunny♥Slut♥","steam_id":76561198206376851,"connected_time":1055000000000,"state":"active","ping":130},{"user_id":373,"name":"Puke Skyfucker","steam_id":76561198012846213,"connected_time":1473000000000,"state":"active","ping":77},{"user_id":390,"name":"paetho YT (new vid!)","steam_id":76561198152690003,"connected_time":530000000000,"state":"active","ping":59},{"user_id":382,"name":"Piggy","steam_id":76561198000399862,"connected_time":752000000000,"state":"active","ping":84},{"user_id":376,"name":"Herdez Hot Salsa","steam_id":76561197991740906,"connected_time":1175000000000,"state":"active","ping":82},{"user_id":303,"name":"Mkwhackertracker","steam_id":76561198128343704,"connected_time":5470000000000,"state":"active","ping":64},{"user_id":383,"name":"LikeASir","steam_id":76561198042209721,"connected_time":706000000000,"state":"active","ping":45}]},{"server_id":106,"name":"Uncletopia | Chicago | 2 | All Maps","name_short":"chi-2","host":"chi-1.us.uncletopia.com","port":27025,"enabled":true,"region":"us-central","cc":"us","latitude":41.881832,"longitude":-87.62318,"reserved":0,"last_update":"0001-01-01T00:00:00Z","name_a2s":"Uncletopia | Chicago | 2 | All Maps","protocol":17,"map":"cp_dustbowl","folder":"tf","game":"Team Fortress","app_id":440,"player_count":24,"max_players":24,"Bots":0,"server_type":"Dedicated","server_os":"Linux","password":true,"vac":true,"version":"7961495","steam_id":85568392924469985,"keywords":["cp","nocrits","nodmgspread","uncletopia"],"game_id":440,"stv_port":27026,"stv_name":"Uncletopia | Chicago | 2 | All Maps | STV","players":[{"user_id":537,"name":"gale","steam_id":76561198250068972,"connected_time":2072000000000,"state":"active","ping":91},{"user_id":551,"name":"davidholidexd","steam_id":76561199089404565,"connected_time":937000000000,"state":"active","ping":114},{"user_id":521,"name":"Emily50AE","steam_id":76561198088619665,"connected_time":2538000000000,"state":"active","ping":81},{"user_id":562,"name":"wiiblob","steam_id":76561198109106242,"connected_time":332000000000,"state":"active","ping":136},{"user_id":538,"name":"ameritech","steam_id":76561198064769089,"connected_time":1994000000000,"state":"active","ping":53},{"user_id":565,"name":"[Melon]","steam_id":76561198010161125,"connected_time":245000000000,"state":"active","ping":35},{"user_id":573,"name":"Vial of Throbb","steam_id":76561198348095996,"connected_time":115000000000,"state":"active","ping":79},{"user_id":550,"name":"Cooldude_15","steam_id":76561198346713382,"connected_time":946000000000,"state":"active","ping":43},{"user_id":556,"name":"Luca!","steam_id":76561198137880777,"connected_time":784000000000,"state":"active","ping":88},{"user_id":549,"name":"Hertz","steam_id":76561198245322982,"connected_time":961000000000,"state":"active","ping":45},{"user_id":513,"name":"uberslak","steam_id":76561198064715241,"connected_time":3194000000000,"state":"active","ping":117},{"user_id":569,"name":"Sigiferd","steam_id":76561198148788110,"connected_time":176000000000,"state":"active","ping":118},{"user_id":572,"name":"Nighttimerecorder","steam_id":76561198005857340,"connected_time":129000000000,"state":"active","ping":103},{"user_id":468,"name":"Barmy","steam_id":76561198111626352,"connected_time":5760000000000,"state":"active","ping":89},{"user_id":553,"name":"Sergeant Joker #savetf2","steam_id":76561198854616604,"connected_time":931000000000,"state":"active","ping":65},{"user_id":571,"name":"crabapples","steam_id":76561198075818655,"connected_time":158000000000,"state":"active","ping":63},{"user_id":555,"name":"Creampie","steam_id":76561199007051562,"connected_time":902000000000,"state":"active","ping":112},{"user_id":559,"name":"hi ping","steam_id":76561198383636396,"connected_time":741000000000,"state":"active","ping":125},{"user_id":510,"name":"Jill the Owl","steam_id":76561197999210583,"connected_time":3400000000000,"state":"active","ping":71},{"user_id":557,"name":"Mister Rattlebones","steam_id":76561198065560157,"connected_time":760000000000,"state":"active","ping":60},{"user_id":558,"name":"loser","steam_id":76561198259380127,"connected_time":746000000000,"state":"active","ping":56},{"user_id":560,"name":"FenderBender","steam_id":76561198106379456,"connected_time":554000000000,"state":"active","ping":121},{"user_id":554,"name":"PageBoiSkull","steam_id":76561198237353578,"connected_time":917000000000,"state":"active","ping":114},{"user_id":568,"name":"Agent 6310","steam_id":76561199406809071,"connected_time":206000000000,"state":"active","ping":81}]},{"server_id":402,"name":"Uncletopia | Chicago | 3 | All Maps","name_short":"chi-3","host":"chi-1.us.uncletopia.com","port":27035,"enabled":true,"region":"us-central","cc":"us","latitude":41.881832,"longitude":-87.62318,"reserved":0,"last_update":"0001-01-01T00:00:00Z","name_a2s":"Uncletopia | Chicago | 3 | All Maps","protocol":17,"map":"pl_barnblitz","folder":"tf","game":"Team Fortress","app_id":440,"player_count":24,"max_players":24,"Bots":0,"server_type":"Dedicated","server_os":"Linux","password":true,"vac":true,"version":"7961495","steam_id":85568392924515191,"keywords":["nocrits","nodmgspread","payload","uncletopia"],"game_id":440,"stv_port":27036,"stv_name":"Uncletopia | Chicago | 3 | All Maps | STV","players":[{"user_id":349,"name":"oxycodone","steam_id":76561198188722751,"connected_time":1300000000000,"state":"active","ping":101},{"user_id":347,"name":"Herr Müller","steam_id":76561198064876829,"connected_time":1326000000000,"state":"active","ping":93},{"user_id":324,"name":"Rhutebeer","steam_id":76561198018302761,"connected_time":3608000000000,"state":"active","ping":101},{"user_id":344,"name":"dnaak","steam_id":76561197960489193,"connected_time":1406000000000,"state":"active","ping":45},{"user_id":348,"name":"Rappitor","steam_id":76561198105613110,"connected_time":1308000000000,"state":"active","ping":49},{"user_id":365,"name":"Cambonieboo","steam_id":76561198139174433,"connected_time":159000000000,"state":"active","ping":92},{"user_id":362,"name":"LittleFieryOne","steam_id":76561198107463724,"connected_time":177000000000,"state":"active","ping":60},{"user_id":363,"name":"AwakenedLaser","steam_id":76561198881657823,"connected_time":168000000000,"state":"active","ping":113},{"user_id":313,"name":"Digitic","steam_id":76561198080295536,"connected_time":3870000000000,"state":"active","ping":77},{"user_id":330,"name":"IlTrashPanda","steam_id":76561198447864095,"connected_time":2915000000000,"state":"active","ping":85},{"user_id":351,"name":"The Entire Population of Canada","steam_id":76561198090187112,"connected_time":1285000000000,"state":"active","ping":66},{"user_id":358,"name":"smile","steam_id":76561198113083770,"connected_time":735000000000,"state":"active","ping":63},{"user_id":315,"name":"caption cool","steam_id":76561197990612056,"connected_time":3864000000000,"state":"active","ping":42},{"user_id":359,"name":"are","steam_id":76561198154405722,"connected_time":685000000000,"state":"active","ping":67},{"user_id":356,"name":"a victim of soicumstance","steam_id":76561198375575841,"connected_time":1050000000000,"state":"active","ping":56},{"user_id":340,"name":"Acehay14","steam_id":76561198052373291,"connected_time":1715000000000,"state":"active","ping":71},{"user_id":354,"name":"kksmrecker","steam_id":76561199122869459,"connected_time":1231000000000,"state":"active","ping":85},{"user_id":366,"name":"BorealBriar","steam_id":76561199473631878,"connected_time":141000000000,"state":"active","ping":78},{"user_id":278,"name":"seldom","steam_id":76561198166193756,"connected_time":6078000000000,"state":"active","ping":68},{"user_id":342,"name":"5(x+3) -x = 59","steam_id":76561199214358977,"connected_time":1651000000000,"state":"active","ping":90},{"user_id":357,"name":"iku","steam_id":76561198847749278,"connected_time":981000000000,"state":"active","ping":71},{"user_id":355,"name":"Its Dr.Stoned","steam_id":76561198079622791,"connected_time":1226000000000,"state":"active","ping":76},{"user_id":361,"name":"Quibbli","steam_id":76561199214866732,"connected_time":285000000000,"state":"active","ping":68},{"user_id":333,"name":"bread","steam_id":76561198291298731,"connected_time":2400000000000,"state":"active","ping":72}]},{"server_id":403,"name":"Uncletopia | Chicago | 4 | All Maps","name_short":"chi-4","host":"chi-1.us.uncletopia.com","port":27045,"enabled":true,"region":"us-central","cc":"us","latitude":41.881832,"longitude":-87.62318,"reserved":0,"last_update":"0001-01-01T00:00:00Z","name_a2s":"Uncletopia | Chicago | 4 | All Maps","protocol":17,"map":"pl_upward","folder":"tf","game":"Team Fortress","app_id":440,"player_count":24,"max_players":24,"Bots":0,"server_type":"Dedicated","server_os":"Linux","password":true,"vac":true,"version":"7961495","steam_id":85568392924515193,"keywords":["nocrits","nodmgspread","payload","uncletopia"],"game_id":440,"stv_port":27046,"stv_name":"Uncletopia | Chicago | 4 | All Maps | STV","players":[{"user_id":746,"name":"Walter Malone","steam_id":76561198078661356,"connected_time":499000000000,"state":"active","ping":83},{"user_id":739,"name":"pirate pete","steam_id":76561198151048590,"connected_time":1394000000000,"state":"active","ping":65},{"user_id":747,"name":"cat","steam_id":76561198096347625,"connected_time":478000000000,"state":"active","ping":77},{"user_id":750,"name":"Spyfall","steam_id":76561198081729993,"connected_time":459000000000,"state":"active","ping":84},{"user_id":697,"name":"TenkoTenko","steam_id":76561199134895220,"connected_time":5100000000000,"state":"active","ping":77},{"user_id":757,"name":"skipper","steam_id":76561198395965181,"connected_time":52000000000,"state":"active","ping":70},{"user_id":700,"name":"Space⭐Taffy","steam_id":76561198002271720,"connected_time":5008000000000,"state":"active","ping":61},{"user_id":752,"name":"juicy j","steam_id":76561198043497451,"connected_time":442000000000,"state":"active","ping":47},{"user_id":753,"name":"engiqueer69","steam_id":76561199153261850,"connected_time":419000000000,"state":"active","ping":103},{"user_id":689,"name":"!! NOT A FLYING TOY !!","steam_id":76561198069735882,"connected_time":5264000000000,"state":"active","ping":71},{"user_id":718,"name":"TheKyleB","steam_id":76561198202515104,"connected_time":3877000000000,"state":"active","ping":42},{"user_id":703,"name":"I'mWalkerHere","steam_id":76561199310055450,"connected_time":4946000000000,"state":"active","ping":86},{"user_id":733,"name":"Dwarfo","steam_id":76561198119220289,"connected_time":2610000000000,"state":"active","ping":82},{"user_id":740,"name":"lcy13vv","steam_id":76561197995997446,"connected_time":1388000000000,"state":"active","ping":58},{"user_id":720,"name":"Spy (I Love spy)","steam_id":76561199138738952,"connected_time":3745000000000,"state":"active","ping":75},{"user_id":755,"name":"Menlymen","steam_id":76561198046508051,"connected_time":177000000000,"state":"active","ping":61},{"user_id":756,"name":"Kev","steam_id":76561198310880776,"connected_time":144000000000,"state":"active","ping":74},{"user_id":754,"name":"King Spaghetti","steam_id":76561198027067890,"connected_time":409000000000,"state":"active","ping":55},{"user_id":745,"name":"mr.edderkopper","steam_id":76561198152614478,"connected_time":1000000000000,"state":"active","ping":53},{"user_id":742,"name":"Speedy","steam_id":76561198080761661,"connected_time":1358000000000,"state":"active","ping":84},{"user_id":707,"name":"Cee","steam_id":76561199114277048,"connected_time":4918000000000,"state":"active","ping":52},{"user_id":737,"name":"An Erect Penis :)","steam_id":76561198086477485,"connected_time":1758000000000,"state":"active","ping":39},{"user_id":728,"name":"Ejaculation Zach","steam_id":76561198203765200,"connected_time":3405000000000,"state":"active","ping":61},{"user_id":743,"name":"DickTheCock","steam_id":76561198104346849,"connected_time":1343000000000,"state":"active","ping":78}]},{"server_id":36,"name":"Uncletopia | Chicago | 5 | All Maps","name_short":"chi-5","host":"chi-2.us.uncletopia.com","port":27015,"enabled":true,"region":"us-central","cc":"us","latitude":41.881832,"longitude":-87.62318,"reserved":0,"last_update":"0001-01-01T00:00:00Z","name_a2s":"Uncletopia | Chicago | 5 | All Maps","protocol":17,"map":"pl_barnblitz","folder":"tf","game":"Team Fortress","app_id":440,"player_count":24,"max_players":24,"Bots":0,"server_type":"Dedicated","server_os":"Linux","password":true,"vac":true,"version":"7961495","steam_id":85568392924866362,"keywords":["nocrits","nodmgspread","payload","uncletopia"],"game_id":440,"stv_port":27016,"stv_name":"Uncletopia | Chicago | 5 | All Maps | STV","players":[{"user_id":271,"name":"Boomerish","steam_id":76561198083946878,"connected_time":1904000000000,"state":"active","ping":76},{"user_id":289,"name":"bikerkid207","steam_id":76561198390782783,"connected_time":806000000000,"state":"active","ping":66},{"user_id":292,"name":"Chernov","steam_id":76561198014463424,"connected_time":610000000000,"state":"active","ping":60},{"user_id":267,"name":"ultralisk52","steam_id":76561198051666604,"connected_time":2276000000000,"state":"active","ping":60},{"user_id":300,"name":"Anonymous_Cletus_TTV","steam_id":76561198243740340,"connected_time":403000000000,"state":"active","ping":93},{"user_id":293,"name":"Stressmelo","steam_id":76561199204445185,"connected_time":540000000000,"state":"active","ping":72},{"user_id":242,"name":"Soulidity","steam_id":76561198429603550,"connected_time":4725000000000,"state":"active","ping":61},{"user_id":297,"name":"euphoricfilth (it/her)","steam_id":76561198100160865,"connected_time":504000000000,"state":"active","ping":61},{"user_id":269,"name":"evil tiger","steam_id":76561198152818418,"connected_time":2227000000000,"state":"active","ping":89},{"user_id":294,"name":"Pizza","steam_id":76561198835151009,"connected_time":527000000000,"state":"active","ping":72},{"user_id":288,"name":"Combatspok","steam_id":76561197971598115,"connected_time":985000000000,"state":"active","ping":62},{"user_id":244,"name":"Cedric","steam_id":76561198072090580,"connected_time":4497000000000,"state":"active","ping":100},{"user_id":281,"name":"\u003eZquiDD0♥","steam_id":76561198798931344,"connected_time":1346000000000,"state":"active","ping":95},{"user_id":296,"name":"Sagoogoo","steam_id":76561198176061614,"connected_time":507000000000,"state":"active","ping":88},{"user_id":301,"name":"brodieodio","steam_id":76561198073627784,"connected_time":236000000000,"state":"active","ping":56},{"user_id":290,"name":"Tax evader","steam_id":76561199062081467,"connected_time":802000000000,"state":"active","ping":76},{"user_id":260,"name":"chicago 5 sewer goblin","steam_id":76561198138221795,"connected_time":3238000000000,"state":"active","ping":75},{"user_id":256,"name":"jungle jim","steam_id":76561199161322235,"connected_time":3325000000000,"state":"active","ping":64},{"user_id":298,"name":"too much peyote","steam_id":76561198161747964,"connected_time":485000000000,"state":"active","ping":79},{"user_id":278,"name":"StarLy","steam_id":76561198174428289,"connected_time":1449000000000,"state":"active","ping":75},{"user_id":259,"name":"Angry Ginger","steam_id":76561198256929349,"connected_time":3280000000000,"state":"active","ping":57},{"user_id":287,"name":"Cloud","steam_id":76561198954987128,"connected_time":1070000000000,"state":"active","ping":76},{"user_id":302,"name":"TractorKid45","steam_id":76561198087472085,"connected_time":14000000000,"state":"spawning","ping":90},{"user_id":265,"name":"Dingus","steam_id":76561198132068284,"connected_time":2348000000000,"state":"active","ping":74}]},{"server_id":37,"name":"Uncletopia | Chicago | 6 | All Maps","name_short":"chi-6","host":"chi-2.us.uncletopia.com","port":27025,"enabled":true,"region":"us-central","cc":"us","latitude":41.881832,"longitude":-87.62318,"reserved":0,"last_update":"0001-01-01T00:00:00Z","name_a2s":"Uncletopia | Chicago | 6 | All Maps","protocol":17,"map":"pl_swiftwater_final1","folder":"tf","game":"Team Fortress","app_id":440,"player_count":24,"max_players":24,"Bots":0,"server_type":"Dedicated","server_os":"Linux","password":true,"vac":true,"version":"7961495","steam_id":85568392924866363,"keywords":["nocrits","nodmgspread","payload","uncletopia"],"game_id":440,"stv_port":27026,"stv_name":"Uncletopia | Chicago | 6 | All Maps | STV","players":[{"user_id":385,"name":"Polly Geist","steam_id":76561198271964253,"connected_time":396000000000,"state":"active","ping":76},{"user_id":353,"name":"Stryder","steam_id":76561199387418697,"connected_time":2776000000000,"state":"active","ping":93},{"user_id":375,"name":"iUseDvorak","steam_id":76561198064439037,"connected_time":1670000000000,"state":"active","ping":60},{"user_id":377,"name":"Unwavering Flavor","steam_id":76561198053306065,"connected_time":1443000000000,"state":"active","ping":75},{"user_id":386,"name":"Wiggee","steam_id":76561197972792989,"connected_time":389000000000,"state":"active","ping":71},{"user_id":383,"name":"bobby wasabi","steam_id":76561198380018244,"connected_time":613000000000,"state":"active","ping":74},{"user_id":387,"name":"EdogDock","steam_id":76561198017380363,"connected_time":357000000000,"state":"active","ping":63},{"user_id":365,"name":"GAMEGAMING","steam_id":76561199222119901,"connected_time":2077000000000,"state":"active","ping":104},{"user_id":325,"name":"Aquiles Baesta","steam_id":76561198081053203,"connected_time":4422000000000,"state":"active","ping":123},{"user_id":388,"name":"2 Eggs, Scrambled","steam_id":76561198077756206,"connected_time":352000000000,"state":"active","ping":135},{"user_id":390,"name":"pvt parts","steam_id":76561199199615102,"connected_time":299000000000,"state":"active","ping":65},{"user_id":372,"name":"moe","steam_id":76561198929586245,"connected_time":1769000000000,"state":"active","ping":100},{"user_id":378,"name":"Generic_Soda","steam_id":76561197993528721,"connected_time":1436000000000,"state":"active","ping":61},{"user_id":382,"name":"Free1337","steam_id":76561198034160133,"connected_time":735000000000,"state":"active","ping":60},{"user_id":360,"name":"AlexLovesYou","steam_id":76561199163263543,"connected_time":2663000000000,"state":"active","ping":106},{"user_id":394,"name":"Sleep Doctor","steam_id":76561199114147383,"connected_time":78000000000,"state":"active","ping":62},{"user_id":317,"name":"Stranger in a Strange Land","steam_id":76561198049843671,"connected_time":5119000000000,"state":"active","ping":64},{"user_id":369,"name":"super clickteam fusion","steam_id":76561198275101482,"connected_time":1889000000000,"state":"active","ping":139},{"user_id":342,"name":"DAX","steam_id":76561198189418762,"connected_time":3398000000000,"state":"active","ping":90},{"user_id":380,"name":"jon.cinnamon","steam_id":76561198127316418,"connected_time":1170000000000,"state":"active","ping":66},{"user_id":392,"name":"Junsei","steam_id":76561199088984886,"connected_time":295000000000,"state":"active","ping":58},{"user_id":384,"name":"Toblerone","steam_id":76561198057374871,"connected_time":558000000000,"state":"active","ping":65},{"user_id":343,"name":"DeadErebus","steam_id":76561198286117045,"connected_time":3332000000000,"state":"active","ping":34},{"user_id":393,"name":"Hezxp","steam_id":76561198312931111,"connected_time":259000000000,"state":"active","ping":87}]},{"server_id":38,"name":"Uncletopia | Chicago | 7 | Stopwatch Beta","name_short":"chi-7","host":"chi-2.us.uncletopia.com","port":27035,"enabled":true,"region":"us-central","cc":"us","latitude":41.881832,"longitude":-87.62318,"reserved":0,"last_update":"0001-01-01T00:00:00Z","name_a2s":"Uncletopia | Chicago | 7 | Stopwatch Beta","protocol":17,"map":"koth_lakeside_final","folder":"tf","game":"Team Fortress","app_id":440,"player_count":2,"max_players":24,"Bots":0,"server_type":"Dedicated","server_os":"Linux","password":true,"vac":true,"version":"7961495","steam_id":85568392924866364,"keywords":["cp","nocrits","nodmgspread","uncletopia"],"game_id":440,"stv_port":27036,"stv_name":"Uncletopia | Chicago | 7 | Stopwatch Beta | STV","players":[{"user_id":18,"name":"TheSmolPopato","steam_id":76561199076606348,"connected_time":64000000000,"state":"active","ping":56},{"user_id":19,"name":"Hayd3nQ","steam_id":76561198124849736,"connected_time":14000000000,"state":"spawning","ping":107}]},{"server_id":39,"name":"Uncletopia | Chicago | 8 | Community","name_short":"chi-8","host":"chi-2.us.uncletopia.com","port":27045,"enabled":true,"region":"us-central","cc":"us","latitude":41.881832,"longitude":-87.62318,"reserved":0,"last_update":"0001-01-01T00:00:00Z","name_a2s":"Uncletopia | Chicago | 8 | Community","protocol":17,"map":"workshop/pl_vigil_rc9.ugc1266210012","folder":"tf","game":"Team Fortress","app_id":440,"player_count":24,"max_players":24,"Bots":0,"server_type":"Dedicated","server_os":"Linux","password":true,"vac":true,"version":"7961495","steam_id":85568392924866365,"keywords":["nocrits","nodmgspread","payload","uncletopia"],"game_id":440,"stv_port":27046,"stv_name":"Uncletopia | Chicago | 8 | Community | STV","players":[{"user_id":154,"name":"pink hair and pronouns","steam_id":76561198066227208,"connected_time":712000000000,"state":"active","ping":60},{"user_id":102,"name":"silly jester","steam_id":76561198079609974,"connected_time":3135000000000,"state":"active","ping":105},{"user_id":95,"name":"FROYO Ding Dong","steam_id":76561198379421700,"connected_time":3518000000000,"state":"active","ping":72},{"user_id":135,"name":"Gram Tokers Count Doinkula","steam_id":76561198112811565,"connected_time":1736000000000,"state":"active","ping":74},{"user_id":103,"name":"Chimpo","steam_id":76561198066228209,"connected_time":3123000000000,"state":"active","ping":76},{"user_id":114,"name":"The Bull","steam_id":76561198143826450,"connected_time":2932000000000,"state":"active","ping":43},{"user_id":167,"name":"Ianfinity","steam_id":76561199098871191,"connected_time":140000000000,"state":"active","ping":88},{"user_id":129,"name":"big golden rock boy","steam_id":76561199384986721,"connected_time":2228000000000,"state":"active","ping":84},{"user_id":164,"name":"green bean","steam_id":76561198113099204,"connected_time":309000000000,"state":"active","ping":89},{"user_id":158,"name":"Snugboo","steam_id":76561198147970327,"connected_time":569000000000,"state":"active","ping":60},{"user_id":165,"name":"obama with no clothes on (real)","steam_id":76561199276152699,"connected_time":295000000000,"state":"active","ping":92},{"user_id":98,"name":"JI-MAN CHOI","steam_id":76561198107899101,"connected_time":3432000000000,"state":"active","ping":78},{"user_id":166,"name":"frank","steam_id":76561198137777483,"connected_time":250000000000,"state":"active","ping":63},{"user_id":117,"name":"Theory-LOL","steam_id":76561198116419931,"connected_time":2891000000000,"state":"active","ping":107},{"user_id":156,"name":"Ezakt","steam_id":76561199099132304,"connected_time":611000000000,"state":"active","ping":75},{"user_id":149,"name":"Divine Kitty","steam_id":76561198293490689,"connected_time":1241000000000,"state":"active","ping":118},{"user_id":160,"name":"lu","steam_id":76561198080731872,"connected_time":524000000000,"state":"active","ping":76},{"user_id":112,"name":"CLwonhOnko","steam_id":76561198035964690,"connected_time":2958000000000,"state":"active","ping":69},{"user_id":146,"name":"stampdawg","steam_id":76561198050500060,"connected_time":1440000000000,"state":"active","ping":86},{"user_id":153,"name":"Hope","steam_id":76561199201900779,"connected_time":788000000000,"state":"active","ping":77},{"user_id":157,"name":"KillPact","steam_id":76561197976319415,"connected_time":601000000000,"state":"active","ping":72},{"user_id":119,"name":"Jin Mu-Won","steam_id":76561198414122318,"connected_time":2870000000000,"state":"active","ping":69},{"user_id":163,"name":"Kozaky","steam_id":76561198047144993,"connected_time":402000000000,"state":"active","ping":89},{"user_id":127,"name":"Chiki","steam_id":76561198063590320,"connected_time":2300000000000,"state":"active","ping":69}]},{"server_id":8,"name":"Uncletopia | Dallas | 1 | All Maps","name_short":"dal-1","host":"dal-1.us.uncletopia.com","port":27015,"enabled":true,"region":"us-central","cc":"us","latitude":32.779167,"longitude":-96.80889,"reserved":0,"last_update":"0001-01-01T00:00:00Z","name_a2s":"Uncletopia | Dallas | 1 | All Maps","protocol":17,"map":"pl_barnblitz","folder":"tf","game":"Team Fortress","app_id":440,"player_count":24,"max_players":24,"Bots":0,"server_type":"Dedicated","server_os":"Linux","password":true,"vac":true,"version":"7961495","steam_id":85568392924469986,"keywords":["nocrits","nodmgspread","payload","uncletopia"],"game_id":440,"stv_port":27016,"stv_name":"Uncletopia | Dallas | 1 | All Maps | STV","players":[{"user_id":421,"name":"Icarus the legend","steam_id":76561199013250091,"connected_time":824000000000,"state":"active","ping":51},{"user_id":417,"name":"Ambush","steam_id":76561199217844192,"connected_time":1054000000000,"state":"active","ping":91},{"user_id":428,"name":"andydandyrew","steam_id":76561198327138508,"connected_time":585000000000,"state":"active","ping":75},{"user_id":398,"name":"red","steam_id":76561198090531755,"connected_time":2026000000000,"state":"active","ping":44},{"user_id":415,"name":"artichoke","steam_id":76561198980994364,"connected_time":1268000000000,"state":"active","ping":108},{"user_id":438,"name":"fried eggs","steam_id":76561198319442494,"connected_time":290000000000,"state":"active","ping":90},{"user_id":416,"name":"guppy","steam_id":76561198041380190,"connected_time":1185000000000,"state":"active","ping":100},{"user_id":439,"name":"webaline","steam_id":76561199052450127,"connected_time":235000000000,"state":"active","ping":79},{"user_id":435,"name":"Ġ1 ♦ Synth","steam_id":76561198058660228,"connected_time":421000000000,"state":"active","ping":45},{"user_id":430,"name":"TrippyLens","steam_id":76561198130380133,"connected_time":469000000000,"state":"active","ping":82},{"user_id":420,"name":"Pukei-Pukei","steam_id":76561197992722546,"connected_time":839000000000,"state":"active","ping":95},{"user_id":429,"name":"Jennifer Aniston's Nipples","steam_id":76561198086107548,"connected_time":520000000000,"state":"active","ping":46},{"user_id":433,"name":"pandora0016","steam_id":76561198089092873,"connected_time":440000000000,"state":"active","ping":89},{"user_id":437,"name":"Green Mario","steam_id":76561198922644496,"connected_time":379000000000,"state":"active","ping":98},{"user_id":387,"name":"Greg Boberton 2012","steam_id":76561198983566026,"connected_time":3212000000000,"state":"active","ping":82},{"user_id":382,"name":"bkiller","steam_id":76561198029265697,"connected_time":3380000000000,"state":"active","ping":81},{"user_id":363,"name":"FanaticSalt","steam_id":76561199380123059,"connected_time":4377000000000,"state":"active","ping":44},{"user_id":404,"name":"M","steam_id":76561198286792807,"connected_time":1941000000000,"state":"active","ping":56},{"user_id":432,"name":"Dr_chilly","steam_id":76561198445383213,"connected_time":443000000000,"state":"active","ping":96},{"user_id":423,"name":"TheSmokingMan","steam_id":76561198032652995,"connected_time":807000000000,"state":"active","ping":64},{"user_id":424,"name":"garbo","steam_id":76561198149280150,"connected_time":798000000000,"state":"active","ping":61},{"user_id":425,"name":"RazeMania","steam_id":76561199016669751,"connected_time":797000000000,"state":"active","ping":100},{"user_id":418,"name":"fleepore (:","steam_id":76561199238295034,"connected_time":896000000000,"state":"active","ping":74},{"user_id":426,"name":"°Creamy Gilligan","steam_id":76561198001569384,"connected_time":781000000000,"state":"active","ping":89}]},{"server_id":108,"name":"Uncletopia | Dallas | 2 | All Maps","name_short":"dal-2","host":"dal-1.us.uncletopia.com","port":27025,"enabled":true,"region":"us-central","cc":"us","latitude":32.779167,"longitude":-96.80889,"reserved":0,"last_update":"0001-01-01T00:00:00Z","name_a2s":"Uncletopia | Dallas | 2 | All Maps","protocol":17,"map":"pl_frontier_final","folder":"tf","game":"Team Fortress","app_id":440,"player_count":24,"max_players":24,"Bots":0,"server_type":"Dedicated","server_os":"Linux","password":true,"vac":true,"version":"7961495","steam_id":85568392924469988,"keywords":["nocrits","nodmgspread","payload","uncletopia"],"game_id":440,"stv_port":27026,"stv_name":"Uncletopia | Dallas | 2 | All Maps | STV","players":[{"user_id":559,"name":"Alkimia","steam_id":76561198385763137,"connected_time":2215000000000,"state":"active","ping":148},{"user_id":592,"name":"Krongle","steam_id":76561198158656427,"connected_time":563000000000,"state":"active","ping":124},{"user_id":551,"name":"Aeris","steam_id":76561198287271028,"connected_time":2713000000000,"state":"active","ping":84},{"user_id":573,"name":"suns","steam_id":76561198079583278,"connected_time":1406000000000,"state":"active","ping":70},{"user_id":584,"name":"Rafl","steam_id":76561198055222756,"connected_time":722000000000,"state":"active","ping":40},{"user_id":541,"name":"croissantcrusader","steam_id":76561198813533235,"connected_time":3334000000000,"state":"active","ping":59},{"user_id":540,"name":"barker bill","steam_id":76561198018451994,"connected_time":3453000000000,"state":"active","ping":60},{"user_id":585,"name":"Necronoxide","steam_id":76561197997856321,"connected_time":720000000000,"state":"active","ping":88},{"user_id":550,"name":"leon fan,stan,enjoyer,lover LFB","steam_id":76561198041643833,"connected_time":2884000000000,"state":"active","ping":62},{"user_id":586,"name":"Kaptain","steam_id":76561199085057380,"connected_time":711000000000,"state":"active","ping":87},{"user_id":587,"name":"firstlastmcgee","steam_id":76561198170187989,"connected_time":680000000000,"state":"active","ping":45},{"user_id":572,"name":"Proud Swift City Resident","steam_id":76561198036283992,"connected_time":1512000000000,"state":"active","ping":79},{"user_id":579,"name":"Corpse01","steam_id":76561198153671643,"connected_time":1082000000000,"state":"active","ping":86},{"user_id":596,"name":"ElZeto","steam_id":76561198252322622,"connected_time":215000000000,"state":"active","ping":82},{"user_id":593,"name":"Voodo133","steam_id":76561198042670351,"connected_time":525000000000,"state":"active","ping":106},{"user_id":569,"name":"cofferhead","steam_id":76561199191108449,"connected_time":1643000000000,"state":"active","ping":88},{"user_id":589,"name":"SkullFireAce","steam_id":76561198083649727,"connected_time":617000000000,"state":"active","ping":53},{"user_id":567,"name":"dudescore","steam_id":76561199091453555,"connected_time":1839000000000,"state":"active","ping":94},{"user_id":538,"name":"TechnoBear2099","steam_id":76561198238863596,"connected_time":3652000000000,"state":"active","ping":53},{"user_id":590,"name":"TheGaming13","steam_id":76561199239498966,"connected_time":610000000000,"state":"active","ping":64},{"user_id":452,"name":"[cf] Captain Terror","steam_id":76561198028034742,"connected_time":8543000000000,"state":"active","ping":102},{"user_id":524,"name":"sebjzy ♥","steam_id":76561198009959034,"connected_time":4387000000000,"state":"active","ping":56},{"user_id":576,"name":"SizableChap","steam_id":76561199148162904,"connected_time":1304000000000,"state":"active","ping":66},{"user_id":595,"name":"zero two","steam_id":76561199058650117,"connected_time":425000000000,"state":"active","ping":103}]},{"server_id":5,"name":"Uncletopia | Frankfurt | 1 | All Maps","name_short":"frk-1","host":"frk-1.de.uncletopia.com","port":27015,"enabled":true,"region":"eu","cc":"de","latitude":50.110924,"longitude":8.682127,"reserved":0,"last_update":"0001-01-01T00:00:00Z","name_a2s":"Uncletopia | Frankfurt | 1 | All Maps","protocol":17,"map":"cp_mountainlab","folder":"tf","game":"Team Fortress","app_id":440,"player_count":1,"max_players":24,"Bots":0,"server_type":"Dedicated","server_os":"Linux","password":true,"vac":true,"version":"7961495","steam_id":85568392924469989,"keywords":["cp","nocrits","nodmgspread","uncletopia"],"game_id":440,"stv_port":27016,"stv_name":"Uncletopia | Frankfurt | 1 | All Maps | STV","players":[{"user_id":679,"name":"thekoolest88","steam_id":76561199022415672,"connected_time":28000000000,"state":"active","ping":141}]},{"server_id":110,"name":"Uncletopia | Frankfurt | 2 | All Maps","name_short":"frk-2","host":"frk-1.de.uncletopia.com","port":27025,"enabled":true,"region":"eu","cc":"de","latitude":50.110924,"longitude":8.682127,"reserved":0,"last_update":"0001-01-01T00:00:00Z","name_a2s":"Uncletopia | Frankfurt | 2 | All Maps","protocol":17,"map":"koth_lakeside_final","folder":"tf","game":"Team Fortress","app_id":440,"player_count":23,"max_players":24,"Bots":0,"server_type":"Dedicated","server_os":"Linux","password":true,"vac":true,"version":"7961495","steam_id":85568392924469990,"keywords":["cp","nocrits","nodmgspread","uncletopia"],"game_id":440,"stv_port":27026,"stv_name":"Uncletopia | Frankfurt | 2 | All Maps | STV","players":[{"user_id":781,"name":"Jerry Cotton","steam_id":76561198089991130,"connected_time":1217000000000,"state":"active","ping":54},{"user_id":782,"name":"Northvy","steam_id":76561198136732563,"connected_time":1177000000000,"state":"active","ping":57},{"user_id":785,"name":"Kr1mzan","steam_id":76561198084073880,"connected_time":1075000000000,"state":"active","ping":88},{"user_id":771,"name":"pos","steam_id":76561198026132442,"connected_time":1862000000000,"state":"active","ping":75},{"user_id":796,"name":"Ziltoid","steam_id":76561198020753675,"connected_time":638000000000,"state":"active","ping":74},{"user_id":786,"name":"chillrend_morphs_high_lod6","steam_id":76561198452963141,"connected_time":983000000000,"state":"active","ping":74},{"user_id":774,"name":"Sabour","steam_id":76561197963965445,"connected_time":1569000000000,"state":"active","ping":59},{"user_id":787,"name":"C.H.E.R.E.P.","steam_id":76561198026938595,"connected_time":958000000000,"state":"active","ping":76},{"user_id":793,"name":"♥ Emma ♥","steam_id":76561198046796406,"connected_time":850000000000,"state":"active","ping":59},{"user_id":717,"name":"Mr_Pulse_","steam_id":76561198095001602,"connected_time":6953000000000,"state":"active","ping":86},{"user_id":729,"name":"TeslaVet","steam_id":76561198027201872,"connected_time":5918000000000,"state":"active","ping":67},{"user_id":712,"name":"Teathling","steam_id":76561198061580505,"connected_time":7092000000000,"state":"active","ping":54},{"user_id":730,"name":"ELHAM","steam_id":76561198076474035,"connected_time":5910000000000,"state":"active","ping":68},{"user_id":784,"name":"hai","steam_id":76561198074743037,"connected_time":1094000000000,"state":"active","ping":60},{"user_id":788,"name":"Suetolog","steam_id":76561199053090212,"connected_time":958000000000,"state":"active","ping":50},{"user_id":798,"name":"mio bomba","steam_id":76561198217364720,"connected_time":115000000000,"state":"active","ping":46},{"user_id":790,"name":"dmEngineer_tf2 #SaveTF2","steam_id":76561199388956338,"connected_time":910000000000,"state":"active","ping":75},{"user_id":791,"name":"cuddle","steam_id":76561198805181599,"connected_time":876000000000,"state":"active","ping":70},{"user_id":792,"name":"JujuBalu","steam_id":76561198207253071,"connected_time":873000000000,"state":"active","ping":50},{"user_id":778,"name":"XiaBit","steam_id":76561199204102465,"connected_time":1458000000000,"state":"active","ping":69},{"user_id":797,"name":"Panda","steam_id":76561198176342325,"connected_time":596000000000,"state":"active","ping":97},{"user_id":795,"name":"Bobo","steam_id":76561198052308399,"connected_time":741000000000,"state":"active","ping":59},{"user_id":779,"name":"fecal incident","steam_id":76561198086770023,"connected_time":1361000000000,"state":"active","ping":59}]},{"server_id":308,"name":"Uncletopia | Frankfurt | 3 | All Maps","name_short":"frk-3","host":"frk-1.de.uncletopia.com","port":27035,"enabled":true,"region":"eu","cc":"de","latitude":50.110924,"longitude":8.682127,"reserved":0,"last_update":"0001-01-01T00:00:00Z","name_a2s":"Uncletopia | Frankfurt | 3 | All Maps","protocol":17,"map":"pl_goldrush","folder":"tf","game":"Team Fortress","app_id":440,"player_count":23,"max_players":24,"Bots":0,"server_type":"Dedicated","server_os":"Linux","password":true,"vac":true,"version":"7961495","steam_id":85568392924504274,"keywords":["nocrits","nodmgspread","payload","uncletopia"],"game_id":440,"stv_port":27036,"stv_name":"Uncletopia | Frankfurt | 3 | All Maps | STV","players":[{"user_id":494,"name":"Grenade The green goblin.","steam_id":76561197979603871,"connected_time":1299000000000,"state":"active","ping":57},{"user_id":503,"name":"killbind irl","steam_id":76561198180637374,"connected_time":870000000000,"state":"active","ping":90},{"user_id":496,"name":"Mario Moretti [BR]","steam_id":76561198179299606,"connected_time":1144000000000,"state":"active","ping":97},{"user_id":504,"name":"Gaxkang","steam_id":76561198125768571,"connected_time":854000000000,"state":"active","ping":67},{"user_id":497,"name":"Basil","steam_id":76561198046832312,"connected_time":1092000000000,"state":"active","ping":78},{"user_id":348,"name":"finbar","steam_id":76561198056812396,"connected_time":12375000000000,"state":"active","ping":90},{"user_id":431,"name":"cvprian","steam_id":76561198066655971,"connected_time":6529000000000,"state":"active","ping":60},{"user_id":482,"name":"誰かが見ている","steam_id":76561198834913692,"connected_time":2391000000000,"state":"active","ping":63},{"user_id":507,"name":"click click","steam_id":76561198049405872,"connected_time":600000000000,"state":"active","ping":39},{"user_id":499,"name":"Ewelinka Zniszczenia","steam_id":76561198307374456,"connected_time":968000000000,"state":"active","ping":64},{"user_id":397,"name":"ScarredPixel123","steam_id":76561199165112703,"connected_time":9126000000000,"state":"active","ping":81},{"user_id":513,"name":"Chucky.","steam_id":76561197969361063,"connected_time":258000000000,"state":"active","ping":89},{"user_id":500,"name":"Lazuli","steam_id":76561198058636964,"connected_time":953000000000,"state":"active","ping":60},{"user_id":501,"name":".:Mr. SnipeR:.","steam_id":76561198070091899,"connected_time":951000000000,"state":"active","ping":50},{"user_id":481,"name":"I ate all the wheat","steam_id":76561199388085402,"connected_time":2766000000000,"state":"active","ping":158},{"user_id":502,"name":"Mega","steam_id":76561197970389664,"connected_time":945000000000,"state":"active","ping":50},{"user_id":512,"name":"❅✮nurse✮❅ LFT","steam_id":76561198204505424,"connected_time":465000000000,"state":"active","ping":87},{"user_id":483,"name":"Gryoss","steam_id":76561197999837111,"connected_time":2344000000000,"state":"active","ping":102},{"user_id":406,"name":"ht","steam_id":76561198860941690,"connected_time":8350000000000,"state":"active","ping":68},{"user_id":509,"name":"Bolton Freeman","steam_id":76561198096196978,"connected_time":556000000000,"state":"active","ping":65},{"user_id":371,"name":"Flint Atheno","steam_id":76561198000565196,"connected_time":10974000000000,"state":"active","ping":54},{"user_id":511,"name":"Azure","steam_id":76561198162852029,"connected_time":510000000000,"state":"active","ping":62},{"user_id":474,"name":"KNNTX","steam_id":76561198161313074,"connected_time":3292000000000,"state":"active","ping":113}]},{"server_id":309,"name":"Uncletopia | Frankfurt | 4 | All Maps","name_short":"frk-4","host":"frk-1.de.uncletopia.com","port":27045,"enabled":true,"region":"eu","cc":"de","latitude":50.110924,"longitude":8.682127,"reserved":0,"last_update":"0001-01-01T00:00:00Z","name_a2s":"Uncletopia | Frankfurt | 4 | All Maps","protocol":17,"map":"koth_lakeside_final","folder":"tf","game":"Team Fortress","app_id":440,"player_count":0,"max_players":24,"Bots":0,"server_type":"Dedicated","server_os":"Linux","password":true,"vac":true,"version":"7961495","steam_id":85568392924504275,"keywords":["cp","nocrits","nodmgspread","uncletopia"],"game_id":440,"stv_port":27046,"stv_name":"Uncletopia | Frankfurt | 4 | All Maps | STV","players":null},{"server_id":310,"name":"Uncletopia | Frankfurt | 5 | All Maps","name_short":"frk-5","host":"frk-1.de.uncletopia.com","port":27055,"enabled":true,"region":"eu","cc":"de","latitude":50.110924,"longitude":8.682127,"reserved":0,"last_update":"0001-01-01T00:00:00Z","name_a2s":"Uncletopia | Frankfurt | 5 | All Maps","protocol":17,"map":"koth_cascade","folder":"tf","game":"Team Fortress","app_id":440,"player_count":0,"max_players":24,"Bots":0,"server_type":"Dedicated","server_os":"Linux","password":true,"vac":true,"version":"7961495","steam_id":85568392924504277,"keywords":["cp","nocrits","nodmgspread","uncletopia"],"game_id":440,"stv_port":27056,"stv_name":"Uncletopia | Frankfurt | 5 | All Maps | STV","players":null},{"server_id":311,"name":"Uncletopia | Frankfurt | 6 | All Maps","name_short":"frk-6","host":"frk-1.de.uncletopia.com","port":27065,"enabled":true,"region":"eu","cc":"de","latitude":50.110924,"longitude":8.682127,"reserved":0,"last_update":"0001-01-01T00:00:00Z","name_a2s":"Uncletopia | Frankfurt | 6 | All Maps","protocol":17,"map":"pl_upward","folder":"tf","game":"Team Fortress","app_id":440,"player_count":0,"max_players":24,"Bots":0,"server_type":"Dedicated","server_os":"Linux","password":true,"vac":true,"version":"7961495","steam_id":85568392924504278,"keywords":["nocrits","nodmgspread","payload","uncletopia"],"game_id":440,"stv_port":27066,"stv_name":"Uncletopia | Frankfurt | 6 | All Maps | STV","players":null},{"server_id":23,"name":"Uncletopia | Frankfurt | 7 | Stopwatch Beta","name_short":"frk-7","host":"frk-1.de.uncletopia.com","port":27075,"enabled":true,"region":"eu","cc":"de","latitude":50.110924,"longitude":8.682127,"reserved":0,"last_update":"0001-01-01T00:00:00Z","name_a2s":"Uncletopia | Frankfurt | 7 | Stopwatch Beta","protocol":17,"map":"koth_lakeside_final","folder":"tf","game":"Team Fortress","app_id":440,"player_count":0,"max_players":24,"Bots":0,"server_type":"Dedicated","server_os":"Linux","password":true,"vac":true,"version":"7961495","steam_id":85568392924742827,"keywords":["cp","nocrits","nodmgspread","uncletopia"],"game_id":440,"stv_port":27076,"stv_name":"Uncletopia | Frankfurt | 7 | Stopwatch Beta | STV","players":null},{"server_id":24,"name":"Uncletopia | Frankfurt | 8 | Community","name_short":"frk-8","host":"frk-1.de.uncletopia.com","port":27085,"enabled":true,"region":"eu","cc":"de","latitude":50.110924,"longitude":8.682127,"reserved":0,"last_update":"0001-01-01T00:00:00Z","name_a2s":"Uncletopia | Frankfurt | 8 | Community","protocol":17,"map":"workshop/cp_overgrown_rc8.ugc503939302","folder":"tf","game":"Team Fortress","app_id":440,"player_count":0,"max_players":24,"Bots":0,"server_type":"Dedicated","server_os":"Linux","password":true,"vac":true,"version":"7961495","steam_id":85568392924742828,"keywords":["cp","nocrits","nodmgspread","uncletopia"],"game_id":440,"stv_port":27086,"stv_name":"Uncletopia | Frankfurt | 8 | Community | STV","players":null},{"server_id":202,"name":"Uncletopia | Hong Kong | 1 | All Maps","name_short":"hgk-1","host":"hgk-1.hk.uncletopia.com","port":27015,"enabled":true,"region":"asia","cc":"hk","latitude":22.302711,"longitude":114.177216,"reserved":0,"last_update":"0001-01-01T00:00:00Z","name_a2s":"Uncletopia | Hong Kong | 1 | All Maps","protocol":17,"map":"cp_process_final","folder":"tf","game":"Team Fortress","app_id":440,"player_count":0,"max_players":24,"Bots":0,"server_type":"Dedicated","server_os":"Linux","password":true,"vac":true,"version":"7961495","steam_id":85568392924494504,"keywords":["cp","nocrits","nodmgspread","uncletopia"],"game_id":440,"stv_port":27016,"stv_name":"Uncletopia | Hong Kong | 1 | All Maps | STV","players":null},{"server_id":1,"name":"Uncletopia | Los Angeles | 1 | All Maps","name_short":"lax-1","host":"lax-1.us.uncletopia.com","port":27015,"enabled":true,"region":"us-west","cc":"us","latitude":33.94279,"longitude":-118.41004,"reserved":0,"last_update":"0001-01-01T00:00:00Z","name_a2s":"Uncletopia | Los Angeles | 1 | All Maps","protocol":17,"map":"koth_viaduct","folder":"tf","game":"Team Fortress","app_id":440,"player_count":24,"max_players":24,"Bots":0,"server_type":"Dedicated","server_os":"Linux","password":true,"vac":true,"version":"7961495","steam_id":85568392924469991,"keywords":["cp","nocrits","nodmgspread","uncletopia"],"game_id":440,"stv_port":27016,"stv_name":"Uncletopia | Los Angeles | 1 | All Maps | STV","players":[{"user_id":275,"name":"BrockSpread","steam_id":76561198145924402,"connected_time":5547000000000,"state":"active","ping":92},{"user_id":324,"name":"pyrosnark","steam_id":76561198981868580,"connected_time":1026000000000,"state":"active","ping":105},{"user_id":304,"name":"TwoBit","steam_id":76561198062437559,"connected_time":2638000000000,"state":"active","ping":132},{"user_id":271,"name":"Spud","steam_id":76561198878000618,"connected_time":5748000000000,"state":"active","ping":44},{"user_id":299,"name":"twofour","steam_id":76561197995200743,"connected_time":3082000000000,"state":"active","ping":41},{"user_id":312,"name":"minerkid2004","steam_id":76561198044262827,"connected_time":2258000000000,"state":"active","ping":58},{"user_id":332,"name":"Defeat","steam_id":76561198065203818,"connected_time":659000000000,"state":"active","ping":65},{"user_id":281,"name":"greenpeace","steam_id":76561197983221708,"connected_time":4986000000000,"state":"active","ping":59},{"user_id":310,"name":"Interrobang","steam_id":76561198385044529,"connected_time":2386000000000,"state":"active","ping":98},{"user_id":300,"name":"Typha","steam_id":76561198350099066,"connected_time":3030000000000,"state":"active","ping":43},{"user_id":250,"name":"[DATS➡] Sugar Meowth","steam_id":76561197995251793,"connected_time":6879000000000,"state":"active","ping":75},{"user_id":311,"name":"Maniac9","steam_id":76561197960530967,"connected_time":2385000000000,"state":"active","ping":56},{"user_id":330,"name":"MantisToboggan","steam_id":76561197969447887,"connected_time":740000000000,"state":"active","ping":97},{"user_id":253,"name":"Texas","steam_id":76561198053276976,"connected_time":6738000000000,"state":"active","ping":64},{"user_id":319,"name":"JACK BRUNO","steam_id":76561198027957690,"connected_time":1546000000000,"state":"active","ping":74},{"user_id":333,"name":"Motik7","steam_id":76561198277431281,"connected_time":628000000000,"state":"active","ping":49},{"user_id":327,"name":"BuncusBeffer","steam_id":76561198285936616,"connected_time":974000000000,"state":"active","ping":70},{"user_id":322,"name":"Giant","steam_id":76561198851536991,"connected_time":1375000000000,"state":"active","ping":50},{"user_id":301,"name":"Mr. Blubber","steam_id":76561198338906916,"connected_time":2839000000000,"state":"active","ping":47},{"user_id":286,"name":"[Industrial] A_HUMBLEBUMBLED","steam_id":76561198064771878,"connected_time":4500000000000,"state":"active","ping":79},{"user_id":284,"name":"how do i control my guy?","steam_id":76561198158855211,"connected_time":4720000000000,"state":"active","ping":72},{"user_id":323,"name":"Slippy","steam_id":76561198334059206,"connected_time":1259000000000,"state":"active","ping":60},{"user_id":334,"name":"smeasly","steam_id":76561198028718812,"connected_time":362000000000,"state":"active","ping":75},{"user_id":329,"name":"melvinsaurus56430","steam_id":76561198170276601,"connected_time":852000000000,"state":"active","ping":101}]},{"server_id":112,"name":"Uncletopia | Los Angeles | 2 | All Maps","name_short":"lax-2","host":"lax-1.us.uncletopia.com","port":27025,"enabled":true,"region":"us-west","cc":"us","latitude":33.94279,"longitude":-118.41004,"reserved":0,"last_update":"0001-01-01T00:00:00Z","name_a2s":"Uncletopia | Los Angeles | 2 | All Maps","protocol":17,"map":"pl_upward","folder":"tf","game":"Team Fortress","app_id":440,"player_count":24,"max_players":24,"Bots":0,"server_type":"Dedicated","server_os":"Linux","password":true,"vac":true,"version":"7961495","steam_id":85568392924469992,"keywords":["nocrits","nodmgspread","payload","uncletopia"],"game_id":440,"stv_port":27026,"stv_name":"Uncletopia | Los Angeles | 2 | All Maps | STV","players":[{"user_id":69,"name":"sora","steam_id":76561198094256973,"connected_time":1341000000000,"state":"active","ping":62},{"user_id":70,"name":"Sh3ba Spaniel","steam_id":76561198047412394,"connected_time":1289000000000,"state":"active","ping":113},{"user_id":81,"name":"Color Drop","steam_id":76561198066651473,"connected_time":453000000000,"state":"active","ping":50},{"user_id":76,"name":"forceuser1","steam_id":76561198100476561,"connected_time":742000000000,"state":"active","ping":149},{"user_id":82,"name":"gatorbelt","steam_id":76561198145784505,"connected_time":423000000000,"state":"active","ping":43},{"user_id":74,"name":"Wahaha hee","steam_id":76561198098017157,"connected_time":896000000000,"state":"active","ping":83},{"user_id":46,"name":"Invisible Wild Hog","steam_id":76561198079973828,"connected_time":2328000000000,"state":"active","ping":86},{"user_id":47,"name":"Pyro main in the works","steam_id":76561198798254710,"connected_time":2116000000000,"state":"active","ping":66},{"user_id":75,"name":"porksoda","steam_id":76561198021451377,"connected_time":785000000000,"state":"active","ping":76},{"user_id":50,"name":"InvalidUserID","steam_id":76561198014177920,"connected_time":1890000000000,"state":"active","ping":34},{"user_id":79,"name":"GreenApples","steam_id":76561198120559543,"connected_time":630000000000,"state":"active","ping":46},{"user_id":72,"name":"emukill","steam_id":76561198053143720,"connected_time":1225000000000,"state":"active","ping":88},{"user_id":53,"name":"Blue Banana","steam_id":76561198100077411,"connected_time":1772000000000,"state":"active","ping":45},{"user_id":80,"name":"BigGoose","steam_id":76561198833281392,"connected_time":613000000000,"state":"active","ping":88},{"user_id":55,"name":"Kumatora","steam_id":76561198137748378,"connected_time":1757000000000,"state":"active","ping":95},{"user_id":56,"name":"knatspray","steam_id":76561198832507482,"connected_time":1754000000000,"state":"active","ping":84},{"user_id":59,"name":"Ender","steam_id":76561198819439451,"connected_time":1655000000000,"state":"active","ping":110},{"user_id":78,"name":"Girth Control","steam_id":76561198060780467,"connected_time":701000000000,"state":"active","ping":77},{"user_id":73,"name":"Pah-Wraith Gul Dukat","steam_id":76561198033918106,"connected_time":1033000000000,"state":"active","ping":46},{"user_id":62,"name":"a mcdonalds employee","steam_id":76561198429149902,"connected_time":1636000000000,"state":"active","ping":118},{"user_id":63,"name":"DrCoeloCephalo","steam_id":76561198102666293,"connected_time":1629000000000,"state":"active","ping":83},{"user_id":68,"name":"Moth Beam","steam_id":76561198005069202,"connected_time":1523000000000,"state":"active","ping":80},{"user_id":65,"name":"VicLoL","steam_id":76561198045580784,"connected_time":1622000000000,"state":"active","ping":56},{"user_id":66,"name":"tiredfisherman69","steam_id":76561199228963816,"connected_time":1619000000000,"state":"active","ping":67}]},{"server_id":324,"name":"Uncletopia | Los Angeles | 3 | All Maps","name_short":"lax-3","host":"lax-1.us.uncletopia.com","port":27035,"enabled":true,"region":"us-west","cc":"us","latitude":33.94279,"longitude":-118.41004,"reserved":0,"last_update":"0001-01-01T00:00:00Z","name_a2s":"Uncletopia | Los Angeles | 3 | All Maps","protocol":17,"map":"cp_dustbowl","folder":"tf","game":"Team Fortress","app_id":440,"player_count":23,"max_players":24,"Bots":0,"server_type":"Dedicated","server_os":"Linux","password":true,"vac":true,"version":"7961495","steam_id":85568392924510198,"keywords":["cp","nocrits","nodmgspread","uncletopia"],"game_id":440,"stv_port":27036,"stv_name":"Uncletopia | Los Angeles | 3 | All Maps | STV","players":[{"user_id":21,"name":"Alex Manneks","steam_id":76561198118579501,"connected_time":2168000000000,"state":"active","ping":65},{"user_id":37,"name":"TQman","steam_id":76561199031963925,"connected_time":177000000000,"state":"active","ping":82},{"user_id":23,"name":"dicksouls26","steam_id":76561198838196266,"connected_time":1701000000000,"state":"active","ping":128},{"user_id":39,"name":"459d","steam_id":76561198336142389,"connected_time":141000000000,"state":"active","ping":106},{"user_id":32,"name":"Yeezuz","steam_id":76561198448209430,"connected_time":343000000000,"state":"active","ping":114},{"user_id":27,"name":"CUBICLE #35","steam_id":76561198799010228,"connected_time":502000000000,"state":"active","ping":60},{"user_id":28,"name":"Draven","steam_id":76561198074776388,"connected_time":498000000000,"state":"active","ping":82},{"user_id":47,"name":"ccat","steam_id":76561198281773224,"connected_time":30000000000,"state":"spawning","ping":88},{"user_id":30,"name":"Ockulus","steam_id":76561199069638460,"connected_time":447000000000,"state":"active","ping":149},{"user_id":33,"name":"Ink","steam_id":76561198328781175,"connected_time":322000000000,"state":"active","ping":56},{"user_id":38,"name":"Goober","steam_id":76561198894808611,"connected_time":164000000000,"state":"active","ping":158},{"user_id":35,"name":"Heinz-Harald Frentzen","steam_id":76561199002203593,"connected_time":223000000000,"state":"active","ping":113},{"user_id":40,"name":"Cool Dog","steam_id":76561198106476075,"connected_time":108000000000,"state":"active","ping":96},{"user_id":41,"name":"k1tty","steam_id":76561198869348268,"connected_time":101000000000,"state":"active","ping":45},{"user_id":42,"name":"AnotherCrusader","steam_id":76561199263562904,"connected_time":100000000000,"state":"active","ping":100},{"user_id":43,"name":"magnanimity","steam_id":76561198242842394,"connected_time":80000000000,"state":"active","ping":77},{"user_id":44,"name":"Dullahan","steam_id":76561198119668908,"connected_time":65000000000,"state":"active","ping":52},{"user_id":45,"name":"Mani","steam_id":76561198139428711,"connected_time":54000000000,"state":"spawning","ping":120},{"user_id":46,"name":"CadenLCheese","steam_id":76561199105517435,"connected_time":53000000000,"state":"active","ping":74},{"user_id":48,"name":"Indica","steam_id":76561198239218830,"connected_time":24000000000,"state":"active","ping":108},{"user_id":49,"name":"soup gaming (real)","steam_id":76561199081923911,"connected_time":12000000000,"state":"spawning","ping":108},{"user_id":50,"name":"you bet your bippity","steam_id":76561199077027954,"connected_time":9000000000,"state":"spawning","ping":662},{"user_id":51,"name":"Dededoo","steam_id":76561198279033471,"connected_time":5000000000,"state":"spawning","ping":84}]},{"server_id":25,"name":"Uncletopia | Los Angeles | 4 | Stopwatch Beta","name_short":"lax-4","host":"lax-1.us.uncletopia.com","port":27045,"enabled":true,"region":"us-west","cc":"us","latitude":33.94279,"longitude":-118.41004,"reserved":0,"last_update":"0001-01-01T00:00:00Z","name_a2s":"Uncletopia | Los Angeles | 4 | Stopwatch Beta","protocol":17,"map":"pl_frontier_final","folder":"tf","game":"Team Fortress","app_id":440,"player_count":0,"max_players":24,"Bots":0,"server_type":"Dedicated","server_os":"Linux","password":true,"vac":true,"version":"7961495","steam_id":85568392924510199,"keywords":["nocrits","nodmgspread","payload","uncletopia"],"game_id":440,"stv_port":27046,"stv_name":"Uncletopia | Los Angeles | 4 | Stopwatch Beta | STV","players":null},{"server_id":11,"name":"Uncletopia | London | 1 | All Maps","name_short":"lon-1","host":"lon-1.uk.uncletopia.com","port":27015,"enabled":true,"region":"eu","cc":"gb","latitude":51.509865,"longitude":-0.118092,"reserved":0,"last_update":"0001-01-01T00:00:00Z","name_a2s":"Uncletopia | London | 1 | All Maps","protocol":17,"map":"pl_frontier_final","folder":"tf","game":"Team Fortress","app_id":440,"player_count":23,"max_players":24,"Bots":0,"server_type":"Dedicated","server_os":"Linux","password":true,"vac":true,"version":"7961495","steam_id":85568392924367362,"keywords":["nocrits","nodmgspread","payload","uncletopia"],"game_id":440,"stv_port":27016,"stv_name":"Uncletopia | London | 1 | All Maps | STV","players":[{"user_id":799,"name":"remi, she wrote.","steam_id":76561198044045655,"connected_time":3164000000000,"state":"active","ping":76},{"user_id":765,"name":"beurgeur","steam_id":76561198872426314,"connected_time":6477000000000,"state":"active","ping":35},{"user_id":826,"name":"ArmedWithWings","steam_id":76561198154615474,"connected_time":349000000000,"state":"active","ping":94},{"user_id":821,"name":"H-say","steam_id":76561198177400362,"connected_time":680000000000,"state":"active","ping":97},{"user_id":814,"name":"Minimi","steam_id":76561198873850443,"connected_time":1433000000000,"state":"active","ping":44},{"user_id":806,"name":"Herb","steam_id":76561198205266944,"connected_time":2473000000000,"state":"active","ping":43},{"user_id":780,"name":"VideoJames","steam_id":76561197970114051,"connected_time":5074000000000,"state":"active","ping":43},{"user_id":810,"name":"beheading video from 2009","steam_id":76561198834897089,"connected_time":1870000000000,"state":"active","ping":75},{"user_id":822,"name":"Femboy Gaming","steam_id":76561198174108515,"connected_time":558000000000,"state":"active","ping":55},{"user_id":827,"name":"Konkov","steam_id":76561198100303078,"connected_time":344000000000,"state":"active","ping":99},{"user_id":769,"name":"snowycoast","steam_id":76561198346638308,"connected_time":6353000000000,"state":"active","ping":52},{"user_id":724,"name":"dec","steam_id":76561198009660168,"connected_time":12787000000000,"state":"active","ping":45},{"user_id":817,"name":"varven","steam_id":76561197965907387,"connected_time":1335000000000,"state":"active","ping":56},{"user_id":775,"name":"hmscole09","steam_id":76561198811362788,"connected_time":5457000000000,"state":"active","ping":55},{"user_id":754,"name":"teddy","steam_id":76561198007436837,"connected_time":8444000000000,"state":"active","ping":44},{"user_id":776,"name":"smell_my_cheese","steam_id":76561198008517427,"connected_time":5428000000000,"state":"active","ping":54},{"user_id":802,"name":"Aaron","steam_id":76561197990046953,"connected_time":2936000000000,"state":"active","ping":59},{"user_id":792,"name":"TheEventGuy","steam_id":76561197972797744,"connected_time":4010000000000,"state":"active","ping":69},{"user_id":761,"name":"Slifer The Sky Dragon","steam_id":76561198062255803,"connected_time":7538000000000,"state":"active","ping":67},{"user_id":824,"name":"DJPNK","steam_id":76561197989948420,"connected_time":544000000000,"state":"active","ping":54},{"user_id":828,"name":"19raic","steam_id":76561199093514786,"connected_time":344000000000,"state":"active","ping":80},{"user_id":809,"name":"t0ast","steam_id":76561198141722573,"connected_time":1909000000000,"state":"active","ping":33},{"user_id":812,"name":"Son Goku","steam_id":76561199383437138,"connected_time":1488000000000,"state":"active","ping":123}]},{"server_id":114,"name":"Uncletopia | London | 2 | All Maps","name_short":"lon-2","host":"lon-1.uk.uncletopia.com","port":27025,"enabled":true,"region":"eu","cc":"gb","latitude":51.509865,"longitude":-0.118092,"reserved":0,"last_update":"0001-01-01T00:00:00Z","name_a2s":"Uncletopia | London | 2 | All Maps","protocol":17,"map":"pl_barnblitz","folder":"tf","game":"Team Fortress","app_id":440,"player_count":23,"max_players":24,"Bots":0,"server_type":"Dedicated","server_os":"Linux","password":true,"vac":true,"version":"7961495","steam_id":85568392924470941,"keywords":["nocrits","nodmgspread","payload","uncletopia"],"game_id":440,"stv_port":27026,"stv_name":"Uncletopia | London | 2 | All Maps | STV","players":[{"user_id":442,"name":"Sy","steam_id":76561198395421637,"connected_time":184000000000,"state":"active","ping":59},{"user_id":422,"name":"LainBizkit","steam_id":76561199200708626,"connected_time":1994000000000,"state":"active","ping":89},{"user_id":439,"name":"Olaf Gasbrigi","steam_id":76561198000618491,"connected_time":768000000000,"state":"active","ping":71},{"user_id":437,"name":"[T]aKer","steam_id":76561198001778013,"connected_time":1055000000000,"state":"active","ping":47},{"user_id":441,"name":"Star in a pond","steam_id":76561198205501279,"connected_time":200000000000,"state":"active","ping":90},{"user_id":440,"name":"Serbian Hammer","steam_id":76561198009032913,"connected_time":650000000000,"state":"active","ping":74},{"user_id":404,"name":"dejvi","steam_id":76561198103899658,"connected_time":3206000000000,"state":"active","ping":63},{"user_id":424,"name":"Thales gaming","steam_id":76561198154569703,"connected_time":1976000000000,"state":"active","ping":83},{"user_id":399,"name":"I'm a chad, I play with a 60hz.","steam_id":76561199233979726,"connected_time":3311000000000,"state":"active","ping":88},{"user_id":425,"name":"monaskick","steam_id":76561198326190912,"connected_time":1970000000000,"state":"active","ping":73},{"user_id":400,"name":"ff:ff:ff:ff:ff:ff","steam_id":76561198072122983,"connected_time":3309000000000,"state":"active","ping":76},{"user_id":443,"name":"brehs","steam_id":76561198150653454,"connected_time":175000000000,"state":"active","ping":44},{"user_id":359,"name":"Ran33","steam_id":76561197991474499,"connected_time":5988000000000,"state":"active","ping":89},{"user_id":434,"name":"Vitamin Weee","steam_id":76561199183937747,"connected_time":1571000000000,"state":"active","ping":94},{"user_id":405,"name":"bob","steam_id":76561198353212719,"connected_time":3140000000000,"state":"active","ping":46},{"user_id":428,"name":"Mownkey","steam_id":76561198152813004,"connected_time":1881000000000,"state":"active","ping":51},{"user_id":438,"name":"Ch3gg3V5w3gg3V","steam_id":76561198080215543,"connected_time":875000000000,"state":"active","ping":53},{"user_id":415,"name":"Jimmi Amareno","steam_id":76561198327750625,"connected_time":2883000000000,"state":"active","ping":29},{"user_id":431,"name":"Dayman","steam_id":76561198156533657,"connected_time":1871000000000,"state":"active","ping":55},{"user_id":432,"name":"Charon","steam_id":76561198061714753,"connected_time":1863000000000,"state":"active","ping":83},{"user_id":433,"name":"Nut Steven","steam_id":76561198051881261,"connected_time":1851000000000,"state":"active","ping":33},{"user_id":436,"name":"nut fondler","steam_id":76561198928909138,"connected_time":1115000000000,"state":"active","ping":53},{"user_id":370,"name":"juicy","steam_id":76561198127264835,"connected_time":5498000000000,"state":"active","ping":47}]},{"server_id":320,"name":"Uncletopia | London | 3 | All Maps","name_short":"lon-3","host":"lon-1.uk.uncletopia.com","port":27035,"enabled":true,"region":"eu","cc":"gb","latitude":51.509865,"longitude":-0.118092,"reserved":0,"last_update":"0001-01-01T00:00:00Z","name_a2s":"Uncletopia | London | 3 | All Maps","protocol":17,"map":"pl_pier","folder":"tf","game":"Team Fortress","app_id":440,"player_count":24,"max_players":24,"Bots":0,"server_type":"Dedicated","server_os":"Linux","password":true,"vac":true,"version":"7961495","steam_id":85568392924510192,"keywords":["nocrits","nodmgspread","payload","uncletopia"],"game_id":440,"stv_port":27036,"stv_name":"Uncletopia | London | 3 | All Maps | STV","players":[{"user_id":205,"name":"glyph","steam_id":76561197980736364,"connected_time":4205000000000,"state":"active","ping":76},{"user_id":210,"name":"Mamaki","steam_id":76561198799617313,"connected_time":3110000000000,"state":"active","ping":80},{"user_id":211,"name":"bricked","steam_id":76561198123562445,"connected_time":3107000000000,"state":"active","ping":44},{"user_id":237,"name":"Neacrock","steam_id":76561199178338856,"connected_time":975000000000,"state":"active","ping":125},{"user_id":212,"name":"notpanmanmemes","steam_id":76561199168536547,"connected_time":3051000000000,"state":"active","ping":141},{"user_id":240,"name":"Qdarks","steam_id":76561198013391340,"connected_time":511000000000,"state":"active","ping":144},{"user_id":234,"name":"Dangerousbros","steam_id":76561198088952519,"connected_time":1130000000000,"state":"active","ping":45},{"user_id":198,"name":"Cherry","steam_id":76561198150841824,"connected_time":4938000000000,"state":"active","ping":61},{"user_id":235,"name":"Kamanie","steam_id":76561198135448255,"connected_time":1071000000000,"state":"active","ping":60},{"user_id":238,"name":"Mr_White","steam_id":76561198024615280,"connected_time":753000000000,"state":"active","ping":75},{"user_id":241,"name":"flusha","steam_id":76561199062818404,"connected_time":486000000000,"state":"active","ping":67},{"user_id":242,"name":"The Irish Eejit","steam_id":76561198027738057,"connected_time":446000000000,"state":"active","ping":65},{"user_id":243,"name":"Ed geen","steam_id":76561198184360615,"connected_time":433000000000,"state":"active","ping":104},{"user_id":227,"name":"Mike","steam_id":76561198228455736,"connected_time":1592000000000,"state":"active","ping":46},{"user_id":251,"name":"trans werewolf","steam_id":76561198107235989,"connected_time":154000000000,"state":"active","ping":72},{"user_id":246,"name":"raehik","steam_id":76561198025278149,"connected_time":319000000000,"state":"active","ping":46},{"user_id":247,"name":"TylowStar","steam_id":76561198357107806,"connected_time":251000000000,"state":"active","ping":60},{"user_id":204,"name":"noVa","steam_id":76561198296550363,"connected_time":4389000000000,"state":"active","ping":58},{"user_id":209,"name":"Faustino","steam_id":76561198061771785,"connected_time":3121000000000,"state":"active","ping":82},{"user_id":221,"name":"clcraven","steam_id":76561198004637699,"connected_time":2562000000000,"state":"active","ping":57},{"user_id":226,"name":"The Nostalgia Critic","steam_id":76561198360395476,"connected_time":1697000000000,"state":"active","ping":33},{"user_id":248,"name":"pablo","steam_id":76561198322087870,"connected_time":232000000000,"state":"active","ping":110},{"user_id":249,"name":"ඞbominasus 2137  #SaveTF2","steam_id":76561198030062981,"connected_time":206000000000,"state":"active","ping":72},{"user_id":252,"name":"Sticker Girl","steam_id":76561198086326874,"connected_time":9000000000,"state":"spawning","ping":130}]},{"server_id":321,"name":"Uncletopia | London | 4 | All Maps","name_short":"lon-4","host":"lon-1.uk.uncletopia.com","port":27045,"enabled":true,"region":"eu","cc":"gb","latitude":51.509865,"longitude":-0.118092,"reserved":0,"last_update":"0001-01-01T00:00:00Z","name_a2s":"Uncletopia | London | 4 | All Maps","protocol":17,"map":"koth_viaduct","folder":"tf","game":"Team Fortress","app_id":440,"player_count":0,"max_players":24,"Bots":0,"server_type":"Dedicated","server_os":"Linux","password":true,"vac":true,"version":"7961495","steam_id":85568392924510193,"keywords":["cp","nocrits","nodmgspread","uncletopia"],"game_id":440,"stv_port":27046,"stv_name":"Uncletopia | London | 4 | All Maps | STV","players":null},{"server_id":21,"name":"Uncletopia | London | 5 | All Maps","name_short":"lon-5","host":"lon-1.uk.uncletopia.com","port":27055,"enabled":true,"region":"eu","cc":"gb","latitude":51.509865,"longitude":-0.118092,"reserved":0,"last_update":"0001-01-01T00:00:00Z","name_a2s":"Uncletopia | London | 5 | All Maps","protocol":17,"map":"cp_process_final","folder":"tf","game":"Team Fortress","app_id":440,"player_count":0,"max_players":24,"Bots":0,"server_type":"Dedicated","server_os":"Linux","password":true,"vac":true,"version":"7961495","steam_id":85568392924742829,"keywords":["cp","nocrits","nodmgspread","uncletopia"],"game_id":440,"stv_port":27056,"stv_name":"Uncletopia | London | 5 | All Maps | STV","players":null},{"server_id":22,"name":"Uncletopia | London | 6 | All Maps","name_short":"lon-6","host":"lon-1.uk.uncletopia.com","port":27065,"enabled":true,"region":"eu","cc":"gb","latitude":51.509865,"longitude":-0.118092,"reserved":0,"last_update":"0001-01-01T00:00:00Z","name_a2s":"Uncletopia | London | 6 | All Maps","protocol":17,"map":"cp_dustbowl","folder":"tf","game":"Team Fortress","app_id":440,"player_count":0,"max_players":24,"Bots":0,"server_type":"Dedicated","server_os":"Linux","password":true,"vac":true,"version":"7961495","steam_id":85568392924742830,"keywords":["cp","nocrits","nodmgspread","uncletopia"],"game_id":440,"stv_port":27066,"stv_name":"Uncletopia | London | 6 | All Maps | STV","players":null},{"server_id":40,"name":"Uncletopia | London | 7 | No Payload","name_short":"lon-7","host":"lon-1.uk.uncletopia.com","port":27075,"enabled":true,"region":"eu","cc":"gb","latitude":51.509865,"longitude":-0.118092,"reserved":0,"last_update":"0001-01-01T00:00:00Z","name_a2s":"Uncletopia | London | 7 | No Payload","protocol":17,"map":"cp_coldfront","folder":"tf","game":"Team Fortress","app_id":440,"player_count":0,"max_players":24,"Bots":0,"server_type":"Dedicated","server_os":"Linux","password":true,"vac":true,"version":"7961495","steam_id":85568392924964314,"keywords":["cp","nocrits","nodmgspread","uncletopia"],"game_id":440,"stv_port":27076,"stv_name":"Uncletopia | London | 7 | No Payload | STV","players":null},{"server_id":41,"name":"Uncletopia | London | 8 | Community","name_short":"lon-8","host":"lon-1.uk.uncletopia.com","port":27085,"enabled":true,"region":"eu","cc":"gb","latitude":51.509865,"longitude":-0.118092,"reserved":0,"last_update":"0001-01-01T00:00:00Z","name_a2s":"Uncletopia | London | 8 | Community","protocol":17,"map":"workshop/koth_bagel_rc6.ugc2514036946","folder":"tf","game":"Team Fortress","app_id":440,"player_count":0,"max_players":24,"Bots":0,"server_type":"Dedicated","server_os":"Linux","password":true,"vac":true,"version":"7961495","steam_id":85568392924964315,"keywords":["cp","nocrits","nodmgspread","uncletopia"],"game_id":440,"stv_port":27086,"stv_name":"Uncletopia | London | 8 | Community | STV","players":null},{"server_id":300,"name":"Uncletopia | Montréal | 1 | All Maps","name_short":"mtl-1","host":"mtl-1.ca.uncletopia.com","port":27015,"enabled":true,"region":"us-east","cc":"ca","latitude":45.50889,"longitude":-73.56167,"reserved":0,"last_update":"0001-01-01T00:00:00Z","name_a2s":"Uncletopia | Montréal | 1 | All Maps","protocol":17,"map":"koth_cascade","folder":"tf","game":"Team Fortress","app_id":440,"player_count":0,"max_players":24,"Bots":0,"server_type":"Dedicated","server_os":"Linux","password":true,"vac":true,"version":"7961495","steam_id":85568392924500087,"keywords":["cp","nocrits","nodmgspread","uncletopia"],"game_id":440,"stv_port":27016,"stv_name":"Uncletopia | Montréal | 1 | All Maps | STV","players":null},{"server_id":301,"name":"Uncletopia | Montréal | 2 | All Maps","name_short":"mtl-2","host":"mtl-1.ca.uncletopia.com","port":27025,"enabled":true,"region":"us-east","cc":"ca","latitude":45.50889,"longitude":-73.56167,"reserved":0,"last_update":"0001-01-01T00:00:00Z","name_a2s":"Uncletopia | Montréal | 2 | All Maps","protocol":17,"map":"cp_altitude","folder":"tf","game":"Team Fortress","app_id":440,"player_count":0,"max_players":24,"Bots":0,"server_type":"Dedicated","server_os":"Linux","password":true,"vac":true,"version":"7961495","steam_id":85568392924500088,"keywords":["cp","nocrits","nodmgspread","uncletopia"],"game_id":440,"stv_port":27026,"stv_name":"Uncletopia | Montréal | 2 | All Maps | STV","players":null},{"server_id":302,"name":"Uncletopia | Montréal | 3 | All Maps","name_short":"mtl-3","host":"mtl-1.ca.uncletopia.com","port":27035,"enabled":true,"region":"us-east","cc":"ca","latitude":45.50889,"longitude":-73.56167,"reserved":0,"last_update":"0001-01-01T00:00:00Z","name_a2s":"Uncletopia | Montréal | 3 | All Maps","protocol":17,"map":"pl_snowycoast","folder":"tf","game":"Team Fortress","app_id":440,"player_count":0,"max_players":24,"Bots":0,"server_type":"Dedicated","server_os":"Linux","password":true,"vac":true,"version":"7961495","steam_id":85568392924500089,"keywords":["nocrits","nodmgspread","payload","uncletopia"],"game_id":440,"stv_port":27036,"stv_name":"Uncletopia | Montréal | 3 | All Maps | STV","players":null},{"server_id":303,"name":"Uncletopia | Montréal | 4 | No Payload","name_short":"mtl-4","host":"mtl-1.ca.uncletopia.com","port":27045,"enabled":true,"region":"us-east","cc":"ca","latitude":45.50889,"longitude":-73.56167,"reserved":0,"last_update":"0001-01-01T00:00:00Z","name_a2s":"Uncletopia | Montréal | 4 | No Payload","protocol":17,"map":"koth_badlands","folder":"tf","game":"Team Fortress","app_id":440,"player_count":0,"max_players":24,"Bots":0,"server_type":"Dedicated","server_os":"Linux","password":true,"vac":true,"version":"7961495","steam_id":85568392924500090,"keywords":["cp","nocrits","nodmgspread","uncletopia"],"game_id":440,"stv_port":27046,"stv_name":"Uncletopia | Montréal | 4 | No Payload | STV","players":null},{"server_id":13,"name":"Uncletopia | New York City | 1 | All Maps","name_short":"nyc-1","host":"nyc-1.us.uncletopia.com","port":27015,"enabled":true,"region":"us-east","cc":"us","latitude":40.73061,"longitude":-73.93524,"reserved":0,"last_update":"0001-01-01T00:00:00Z","name_a2s":"Uncletopia | New York City | 1 | All Maps","protocol":17,"map":"pl_borneo","folder":"tf","game":"Team Fortress","app_id":440,"player_count":24,"max_players":24,"Bots":0,"server_type":"Dedicated","server_os":"Linux","password":true,"vac":true,"version":"7961495","steam_id":85568392924469993,"keywords":["nocrits","nodmgspread","payload","uncletopia"],"game_id":440,"stv_port":27016,"stv_name":"Uncletopia | New York City | 1 | All Maps | STV","players":[{"user_id":231,"name":"nhbiker","steam_id":76561198081277675,"connected_time":2124000000000,"state":"active","ping":45},{"user_id":242,"name":"JACOB","steam_id":76561198211874895,"connected_time":1148000000000,"state":"active","ping":81},{"user_id":253,"name":"ARINET","steam_id":76561198052572890,"connected_time":652000000000,"state":"active","ping":43},{"user_id":251,"name":"SublunarFox","steam_id":76561198886387474,"connected_time":690000000000,"state":"active","ping":57},{"user_id":254,"name":"DoctaPudding, The Piss Dealer","steam_id":76561198973528482,"connected_time":632000000000,"state":"active","ping":89},{"user_id":220,"name":"Olifont","steam_id":76561198141162919,"connected_time":2654000000000,"state":"active","ping":68},{"user_id":218,"name":"cyberas","steam_id":76561198257092290,"connected_time":2836000000000,"state":"active","ping":66},{"user_id":258,"name":"Broadway Rose","steam_id":76561198046083342,"connected_time":333000000000,"state":"active","ping":39},{"user_id":256,"name":"your fwiend","steam_id":76561198154773643,"connected_time":591000000000,"state":"active","ping":62},{"user_id":245,"name":"Cerabond","steam_id":76561199230915333,"connected_time":1118000000000,"state":"active","ping":71},{"user_id":224,"name":"lexi","steam_id":76561198176299759,"connected_time":2505000000000,"state":"active","ping":75},{"user_id":199,"name":"Cookie","steam_id":76561198047736899,"connected_time":3613000000000,"state":"active","ping":39},{"user_id":255,"name":"Mr_Frosty","steam_id":76561199380389079,"connected_time":629000000000,"state":"active","ping":80},{"user_id":246,"name":"highburg","steam_id":76561198400452950,"connected_time":1068000000000,"state":"active","ping":67},{"user_id":240,"name":"Ranger Plague","steam_id":76561198174647666,"connected_time":1250000000000,"state":"active","ping":84},{"user_id":252,"name":"breathingtrees","steam_id":76561198118931690,"connected_time":687000000000,"state":"active","ping":55},{"user_id":249,"name":"Oogle","steam_id":76561198041815877,"connected_time":744000000000,"state":"active","ping":55},{"user_id":198,"name":"hayes","steam_id":76561198057101042,"connected_time":3741000000000,"state":"active","ping":81},{"user_id":257,"name":"retinz","steam_id":76561198135563495,"connected_time":447000000000,"state":"active","ping":54},{"user_id":212,"name":"Ping","steam_id":76561198072947773,"connected_time":3296000000000,"state":"active","ping":72},{"user_id":236,"name":"Tank Chili","steam_id":76561198161183031,"connected_time":1711000000000,"state":"active","ping":73},{"user_id":162,"name":"Spiral Mountain","steam_id":76561198058683715,"connected_time":5598000000000,"state":"active","ping":72},{"user_id":215,"name":"Atomic Ursa","steam_id":76561198032246421,"connected_time":3095000000000,"state":"active","ping":69},{"user_id":248,"name":"TF2 LovEnjoyer -mweh-","steam_id":76561199181503581,"connected_time":957000000000,"state":"active","ping":89}]},{"server_id":14,"name":"Uncletopia | New York City | 2 | All Maps","name_short":"nyc-2","host":"nyc-1.us.uncletopia.com","port":27025,"enabled":true,"region":"us-east","cc":"us","latitude":40.73061,"longitude":-73.93524,"reserved":0,"last_update":"0001-01-01T00:00:00Z","name_a2s":"Uncletopia | New York City | 2 | All Maps","protocol":17,"map":"pl_borneo","folder":"tf","game":"Team Fortress","app_id":440,"player_count":24,"max_players":24,"Bots":0,"server_type":"Dedicated","server_os":"Linux","password":true,"vac":true,"version":"7961495","steam_id":85568392924469994,"keywords":["nocrits","nodmgspread","payload","uncletopia"],"game_id":440,"stv_port":27026,"stv_name":"Uncletopia | New York City | 2 | All Maps | STV","players":[{"user_id":465,"name":"Queso2469","steam_id":76561197993024580,"connected_time":2767000000000,"state":"active","ping":47},{"user_id":416,"name":"daemon","steam_id":76561198001541433,"connected_time":6003000000000,"state":"active","ping":75},{"user_id":472,"name":"MY LOVE DRIPS IN RED","steam_id":76561198072179483,"connected_time":2151000000000,"state":"active","ping":75},{"user_id":471,"name":"Swege","steam_id":76561198047941849,"connected_time":2287000000000,"state":"active","ping":65},{"user_id":485,"name":"Broken Cereal√","steam_id":76561198087489795,"connected_time":343000000000,"state":"active","ping":77},{"user_id":474,"name":"Maxxycat","steam_id":76561198194062681,"connected_time":1742000000000,"state":"active","ping":62},{"user_id":486,"name":"Gluestick","steam_id":76561199013430308,"connected_time":343000000000,"state":"active","ping":105},{"user_id":484,"name":"stik","steam_id":76561199037406065,"connected_time":368000000000,"state":"active","ping":65},{"user_id":478,"name":"okar","steam_id":76561198916847884,"connected_time":1192000000000,"state":"active","ping":48},{"user_id":487,"name":"gIBBY","steam_id":76561198080099598,"connected_time":341000000000,"state":"active","ping":42},{"user_id":490,"name":"Nerrrd_","steam_id":76561198870129960,"connected_time":122000000000,"state":"active","ping":31},{"user_id":460,"name":"jazzfelix48","steam_id":76561198979303580,"connected_time":3460000000000,"state":"active","ping":106},{"user_id":488,"name":"The Sinister Potion","steam_id":76561198131280715,"connected_time":337000000000,"state":"active","ping":71},{"user_id":476,"name":"Fairchild Republic A-10 Thndrbl","steam_id":76561199038043360,"connected_time":1585000000000,"state":"active","ping":73},{"user_id":489,"name":"average MF DOOM fan","steam_id":76561199081242205,"connected_time":331000000000,"state":"active","ping":131},{"user_id":468,"name":"Moses","steam_id":76561198874531590,"connected_time":2694000000000,"state":"active","ping":62},{"user_id":481,"name":"chiswola","steam_id":76561198046920142,"connected_time":937000000000,"state":"active","ping":92},{"user_id":431,"name":"∇TEARS","steam_id":76561198740347952,"connected_time":5555000000000,"state":"active","ping":61},{"user_id":483,"name":"King's Disease","steam_id":76561198076639682,"connected_time":523000000000,"state":"active","ping":52},{"user_id":473,"name":"Two-Teste Tommy","steam_id":76561198064308936,"connected_time":1875000000000,"state":"active","ping":57},{"user_id":482,"name":"Piss Scoundrel","steam_id":76561197995562098,"connected_time":595000000000,"state":"active","ping":66},{"user_id":461,"name":"Shaun_Druh_Willi","steam_id":76561199087577025,"connected_time":2809000000000,"state":"active","ping":110},{"user_id":407,"name":"Jamendithas","steam_id":76561198119537716,"connected_time":7092000000000,"state":"active","ping":67},{"user_id":463,"name":"Pockets","steam_id":76561198001742296,"connected_time":2803000000000,"state":"active","ping":75}]},{"server_id":15,"name":"Uncletopia | New York City | 3 | Stopwatch Beta","name_short":"nyc-3","host":"nyc-1.us.uncletopia.com","port":27035,"enabled":true,"region":"us-east","cc":"us","latitude":40.73061,"longitude":-73.93524,"reserved":0,"last_update":"0001-01-01T00:00:00Z","name_a2s":"Uncletopia | New York City | 3 | Stopwatch Beta","protocol":17,"map":"workshop/cp_reckoner_rc6.ugc674719999","folder":"tf","game":"Team Fortress","app_id":440,"player_count":0,"max_players":24,"Bots":0,"server_type":"Dedicated","server_os":"Linux","password":true,"vac":true,"version":"7961495","steam_id":85568392924742820,"keywords":["cp","nocrits","nodmgspread","uncletopia"],"game_id":440,"stv_port":27036,"stv_name":"Uncletopia | New York City | 3 | Stopwatch Beta | STV","players":null},{"server_id":16,"name":"Uncletopia | New York City | 4 | Community","name_short":"nyc-4","host":"nyc-1.us.uncletopia.com","port":27045,"enabled":true,"region":"us-east","cc":"us","latitude":40.73061,"longitude":-73.93524,"reserved":0,"last_update":"0001-01-01T00:00:00Z","name_a2s":"Uncletopia | New York City | 4 | Community","protocol":17,"map":"workshop/koth_trenchfoot_b1a.ugc731436616","folder":"tf","game":"Team Fortress","app_id":440,"player_count":0,"max_players":24,"Bots":0,"server_type":"Dedicated","server_os":"Linux","password":true,"vac":true,"version":"7961495","steam_id":85568392924742821,"keywords":["cp","nocrits","nodmgspread","uncletopia"],"game_id":440,"stv_port":27046,"stv_name":"Uncletopia | New York City | 4 | Community | STV","players":null},{"server_id":142,"name":"Uncletopia | São Paulo | 1 | All Maps","name_short":"sao-1","host":"sao-1.br.uncletopia.com","port":27015,"enabled":true,"region":"sa","cc":"br","latitude":-23.533773,"longitude":-46.62529,"reserved":0,"last_update":"0001-01-01T00:00:00Z","name_a2s":"Uncletopia | São Paulo | 1 | All Maps","protocol":17,"map":"pl_badwater","folder":"tf","game":"Team Fortress","app_id":440,"player_count":3,"max_players":24,"Bots":0,"server_type":"Dedicated","server_os":"Linux","password":true,"vac":true,"version":"7961495","steam_id":85568392924469996,"keywords":["nocrits","nodmgspread","payload","uncletopia"],"game_id":440,"stv_port":27016,"stv_name":"Uncletopia | São Paulo | 1 | All Maps | STV","players":[{"user_id":21,"name":"Heavy's sandwicheria","steam_id":76561199434489438,"connected_time":136000000000,"state":"active","ping":71},{"user_id":16,"name":"K. Montozo","steam_id":76561198892462260,"connected_time":2882000000000,"state":"active","ping":70},{"user_id":18,"name":"いこ","steam_id":76561198965538287,"connected_time":2376000000000,"state":"active","ping":45}]},{"server_id":143,"name":"Uncletopia | São Paulo | 2 | All Maps","name_short":"sao-2","host":"sao-2.br.uncletopia.com","port":27015,"enabled":true,"region":"sa","cc":"br","latitude":-23.533773,"longitude":-46.62529,"reserved":0,"last_update":"0001-01-01T00:00:00Z","name_a2s":"Uncletopia | São Paulo | 2 | All Maps","protocol":17,"map":"koth_highpass","folder":"tf","game":"Team Fortress","app_id":440,"player_count":0,"max_players":24,"Bots":0,"server_type":"Dedicated","server_os":"Linux","password":true,"vac":true,"version":"7961495","steam_id":85568392924485349,"keywords":["cp","nocrits","nodmgspread","uncletopia"],"game_id":440,"stv_port":27016,"stv_name":"Uncletopia | São Paulo | 2 | All Maps | STV","players":null},{"server_id":7,"name":"Uncletopia | Seattle | 1 | All Maps","name_short":"sea-1","host":"sea-1.us.uncletopia.com","port":27015,"enabled":true,"region":"us-west","cc":"us","latitude":47.608013,"longitude":-122.33517,"reserved":0,"last_update":"0001-01-01T00:00:00Z","name_a2s":"Uncletopia | Seattle | 1 | All Maps","protocol":17,"map":"pl_snowycoast","folder":"tf","game":"Team Fortress","app_id":440,"player_count":24,"max_players":24,"Bots":0,"server_type":"Dedicated","server_os":"Linux","password":true,"vac":true,"version":"7961495","steam_id":85568392924469997,"keywords":["nocrits","nodmgspread","payload","uncletopia"],"game_id":440,"stv_port":27016,"stv_name":"Uncletopia | Seattle | 1 | All Maps | STV","players":[{"user_id":285,"name":"[SK] Punish ♥ 牧濑红莉栖","steam_id":76561198207987376,"connected_time":55000000000,"state":"active","ping":123},{"user_id":286,"name":"doghouse","steam_id":76561198000319035,"connected_time":51000000000,"state":"active","ping":102},{"user_id":275,"name":"Goblin (Real)","steam_id":76561199160926985,"connected_time":1171000000000,"state":"active","ping":136},{"user_id":278,"name":"Frogzilla","steam_id":76561198077657538,"connected_time":1096000000000,"state":"active","ping":77},{"user_id":269,"name":"Olive","steam_id":76561199134893517,"connected_time":2065000000000,"state":"active","ping":121},{"user_id":250,"name":"ZEKKER","steam_id":76561197967968980,"connected_time":3528000000000,"state":"active","ping":52},{"user_id":283,"name":"Painkiller","steam_id":76561198049787400,"connected_time":174000000000,"state":"active","ping":85},{"user_id":271,"name":"dust | she/it","steam_id":76561198045218909,"connected_time":1660000000000,"state":"active","ping":42},{"user_id":266,"name":"||BassMan||","steam_id":76561198279865229,"connected_time":2214000000000,"state":"active","ping":107},{"user_id":234,"name":"ROGUE-PLANET","steam_id":76561198116023052,"connected_time":4765000000000,"state":"active","ping":78},{"user_id":262,"name":"Zee✞","steam_id":76561198274550638,"connected_time":2536000000000,"state":"active","ping":108},{"user_id":237,"name":"Kc","steam_id":76561198210734407,"connected_time":4087000000000,"state":"active","ping":116},{"user_id":284,"name":"abaddon_amogTTV #savetf2","steam_id":76561198268581959,"connected_time":88000000000,"state":"active","ping":60},{"user_id":261,"name":"caca sniffer","steam_id":76561199099914725,"connected_time":2591000000000,"state":"active","ping":52},{"user_id":238,"name":"CashGordon","steam_id":76561197975594096,"connected_time":4085000000000,"state":"active","ping":39},{"user_id":210,"name":"Wheaty","steam_id":76561198003553412,"connected_time":6979000000000,"state":"active","ping":50},{"user_id":277,"name":"WaffleWithNoToppings","steam_id":76561199088280111,"connected_time":1159000000000,"state":"active","ping":52},{"user_id":274,"name":"BlazedBunny","steam_id":76561198243610560,"connected_time":1233000000000,"state":"active","ping":80},{"user_id":235,"name":"craftylongsword","steam_id":76561198340102940,"connected_time":4446000000000,"state":"active","ping":63},{"user_id":281,"name":"Saddam","steam_id":76561197985725267,"connected_time":385000000000,"state":"active","ping":63},{"user_id":282,"name":"TonyBoi43","steam_id":76561198299127756,"connected_time":355000000000,"state":"active","ping":52},{"user_id":252,"name":"keithykeithers","steam_id":76561197995552615,"connected_time":3453000000000,"state":"active","ping":49},{"user_id":279,"name":"sillyjack","steam_id":76561198844273999,"connected_time":1078000000000,"state":"active","ping":45},{"user_id":287,"name":"deez","steam_id":76561198114436842,"connected_time":28000000000,"state":"active","ping":138}]},{"server_id":119,"name":"Uncletopia | Seattle | 2 | All Maps","name_short":"sea-2","host":"sea-1.us.uncletopia.com","port":27025,"enabled":true,"region":"us-west","cc":"us","latitude":47.608013,"longitude":-122.33517,"reserved":0,"last_update":"0001-01-01T00:00:00Z","name_a2s":"Uncletopia | Seattle | 2 | All Maps","protocol":17,"map":"pl_frontier_final","folder":"tf","game":"Team Fortress","app_id":440,"player_count":24,"max_players":24,"Bots":0,"server_type":"Dedicated","server_os":"Linux","password":true,"vac":true,"version":"7961495","steam_id":85568392924469998,"keywords":["nocrits","nodmgspread","payload","uncletopia"],"game_id":440,"stv_port":27026,"stv_name":"Uncletopia | Seattle | 2 | All Maps | STV","players":[{"user_id":84,"name":"Eraser cat","steam_id":76561199045570463,"connected_time":365000000000,"state":"active","ping":45},{"user_id":23,"name":"thebeast","steam_id":76561198255963049,"connected_time":4787000000000,"state":"active","ping":63},{"user_id":59,"name":"Poetic Pillager","steam_id":76561198964913885,"connected_time":3097000000000,"state":"active","ping":95},{"user_id":24,"name":"donutdagger","steam_id":76561199203048300,"connected_time":4641000000000,"state":"active","ping":86},{"user_id":82,"name":"HanakoToast","steam_id":76561198045233131,"connected_time":400000000000,"state":"active","ping":100},{"user_id":66,"name":"PJROCK101","steam_id":76561198070616561,"connected_time":2291000000000,"state":"active","ping":59},{"user_id":67,"name":"TomosconesYT","steam_id":76561198813586588,"connected_time":2145000000000,"state":"active","ping":76},{"user_id":47,"name":"Darkspiral","steam_id":76561198080807559,"connected_time":3671000000000,"state":"active","ping":75},{"user_id":70,"name":"LemonZest","steam_id":76561199196369249,"connected_time":2075000000000,"state":"active","ping":129},{"user_id":30,"name":"Immortal8Reaper","steam_id":76561198297661559,"connected_time":4402000000000,"state":"active","ping":95},{"user_id":31,"name":"The_Skull","steam_id":76561198121244647,"connected_time":4399000000000,"state":"active","ping":133},{"user_id":34,"name":"Keamy","steam_id":76561199471434875,"connected_time":4171000000000,"state":"active","ping":43},{"user_id":61,"name":"Ice cream sandwich","steam_id":76561198172748357,"connected_time":2664000000000,"state":"active","ping":61},{"user_id":75,"name":"HotHead","steam_id":76561198138468982,"connected_time":1893000000000,"state":"active","ping":42},{"user_id":38,"name":"Mocha Josie","steam_id":76561198066452726,"connected_time":4020000000000,"state":"active","ping":83},{"user_id":80,"name":"Whomsticot","steam_id":76561198406721885,"connected_time":448000000000,"state":"active","ping":75},{"user_id":41,"name":"eau:","steam_id":76561198110020262,"connected_time":3752000000000,"state":"active","ping":66},{"user_id":51,"name":"geniusgo","steam_id":76561198025064008,"connected_time":3538000000000,"state":"active","ping":67},{"user_id":79,"name":"benji","steam_id":76561198084417967,"connected_time":599000000000,"state":"active","ping":82},{"user_id":83,"name":"raph","steam_id":76561198074592493,"connected_time":383000000000,"state":"active","ping":81},{"user_id":81,"name":"Lawnmower","steam_id":76561198186680197,"connected_time":419000000000,"state":"active","ping":59},{"user_id":77,"name":"Mr. Ravioli","steam_id":76561197996625649,"connected_time":979000000000,"state":"active","ping":58},{"user_id":49,"name":"laggy mcstab","steam_id":76561198106379962,"connected_time":3628000000000,"state":"active","ping":60},{"user_id":53,"name":"tr","steam_id":76561198046944222,"connected_time":3388000000000,"state":"active","ping":46}]},{"server_id":406,"name":"Uncletopia | Seattle | 3 | Stopwatch Beta","name_short":"sea-3","host":"sea-1.us.uncletopia.com","port":27035,"enabled":true,"region":"us-west","cc":"us","latitude":47.608013,"longitude":-122.33517,"reserved":0,"last_update":"0001-01-01T00:00:00Z","name_a2s":"Uncletopia | Seattle | 3 | Stopwatch Beta","protocol":17,"map":"pl_borneo","folder":"tf","game":"Team Fortress","app_id":440,"player_count":0,"max_players":24,"Bots":0,"server_type":"Dedicated","server_os":"Linux","password":true,"vac":true,"version":"7961495","steam_id":85568392924515217,"keywords":["nocrits","nodmgspread","payload","uncletopia"],"game_id":440,"stv_port":27036,"stv_name":"Uncletopia | Seattle | 3 | Stopwatch Beta | STV","players":null},{"server_id":17,"name":"Uncletopia | San Francisco | 1 | All Maps","name_short":"sfo-1","host":"sfo-1.us.uncletopia.com","port":27015,"enabled":true,"region":"us-west","cc":"us","latitude":37.77397,"longitude":-122.4313,"reserved":0,"last_update":"0001-01-01T00:00:00Z","name_a2s":"Uncletopia | San Francisco | 1 | All Maps","protocol":17,"map":"pl_frontier_final","folder":"tf","game":"Team Fortress","app_id":440,"player_count":0,"max_players":24,"Bots":0,"server_type":"Dedicated","server_os":"Linux","password":true,"vac":true,"version":"7932396","steam_id":85568392924469999,"keywords":["nocrits","nodmgspread","payload","uncletopia"],"game_id":440,"stv_port":27016,"stv_name":"Uncletopia | San Francisco | 1 | All Maps | STV","players":null},{"server_id":18,"name":"Uncletopia | San Francisco | 2 | All Maps","name_short":"sfo-2","host":"sfo-1.us.uncletopia.com","port":27025,"enabled":true,"region":"us-west","cc":"us","latitude":37.77397,"longitude":-122.4313,"reserved":0,"last_update":"0001-01-01T00:00:00Z","name_a2s":"Uncletopia | San Francisco | 2 | All Maps","protocol":17,"map":"cp_snakewater_final1","folder":"tf","game":"Team Fortress","app_id":440,"player_count":0,"max_players":24,"Bots":0,"server_type":"Dedicated","server_os":"Linux","password":true,"vac":true,"version":"7932396","steam_id":85568392924470000,"keywords":["cp","nocrits","nodmgspread","uncletopia"],"game_id":440,"stv_port":27026,"stv_name":"Uncletopia | San Francisco | 2 | All Maps | STV","players":null},{"server_id":19,"name":"Uncletopia | San Francisco | 3 | Stopwatch Beta","name_short":"sfo-3","host":"sfo-1.us.uncletopia.com","port":27035,"enabled":true,"region":"us-west","cc":"us","latitude":37.77397,"longitude":-122.4313,"reserved":0,"last_update":"0001-01-01T00:00:00Z","name_a2s":"Uncletopia | San Francisco | 3 | Stopwatch Beta","protocol":17,"map":"koth_lakeside_final","folder":"tf","game":"Team Fortress","app_id":440,"player_count":0,"max_players":24,"Bots":0,"server_type":"Dedicated","server_os":"Linux","password":true,"vac":true,"version":"7932396","steam_id":85568392924742824,"keywords":["cp","nocrits","nodmgspread","uncletopia"],"game_id":440,"stv_port":27036,"stv_name":"Uncletopia | San Francisco | 3 | Stopwatch Beta | STV","players":null},{"server_id":20,"name":"Uncletopia | San Francisco | 4 | Community","name_short":"sfo-4","host":"sfo-1.us.uncletopia.com","port":27045,"enabled":true,"region":"us-west","cc":"us","latitude":37.77397,"longitude":-122.4313,"reserved":0,"last_update":"0001-01-01T00:00:00Z","name_a2s":"Uncletopia | San Francisco | 4 | Community","protocol":17,"map":"pl_borneo","folder":"tf","game":"Team Fortress","app_id":440,"player_count":0,"max_players":24,"Bots":0,"server_type":"Dedicated","server_os":"Linux","password":true,"vac":true,"version":"7932396","steam_id":85568392924742826,"keywords":["nocrits","nodmgspread","payload","uncletopia"],"game_id":440,"stv_port":27046,"stv_name":"Uncletopia | San Francisco | 4 | Community | STV","players":null},{"server_id":141,"name":"Uncletopia | Sydney | 1 | All Maps","name_short":"syd-1","host":"syd-1.au.uncletopia.com","port":27015,"enabled":true,"region":"au","cc":"au","latitude":-33.865143,"longitude":151.2099,"reserved":0,"last_update":"0001-01-01T00:00:00Z","name_a2s":"Uncletopia | Sydney | 1 | All Maps","protocol":17,"map":"koth_highpass","folder":"tf","game":"Team Fortress","app_id":440,"player_count":0,"max_players":24,"Bots":0,"server_type":"Dedicated","server_os":"Linux","password":true,"vac":true,"version":"7961495","steam_id":85568392924470001,"keywords":["cp","nocrits","nodmgspread","uncletopia"],"game_id":440,"stv_port":27016,"stv_name":"Uncletopia | Sydney | 1 | All Maps | STV","players":null},{"server_id":123,"name":"Uncletopia | Sydney | 2 | All Maps","name_short":"syd-2","host":"syd-1.au.uncletopia.com","port":27025,"enabled":true,"region":"au","cc":"au","latitude":-33.865143,"longitude":151.2099,"reserved":0,"last_update":"0001-01-01T00:00:00Z","name_a2s":"Uncletopia | Sydney | 2 | All Maps","protocol":17,"map":"koth_viaduct","folder":"tf","game":"Team Fortress","app_id":440,"player_count":0,"max_players":24,"Bots":0,"server_type":"Dedicated","server_os":"Linux","password":true,"vac":true,"version":"7961495","steam_id":85568392924470002,"keywords":["cp","nocrits","nodmgspread","uncletopia"],"game_id":440,"stv_port":27026,"stv_name":"Uncletopia | Sydney | 2 | All Maps | STV","players":null},{"server_id":395,"name":"Uncletopia | Sydney | 3 | All Maps","name_short":"syd-3","host":"syd-1.au.uncletopia.com","port":27035,"enabled":true,"region":"au","cc":"au","latitude":-33.865143,"longitude":151.2099,"reserved":0,"last_update":"0001-01-01T00:00:00Z","name_a2s":"Uncletopia | Sydney | 3 | All Maps","protocol":17,"map":"koth_harvest_final","folder":"tf","game":"Team Fortress","app_id":440,"player_count":3,"max_players":24,"Bots":0,"server_type":"Dedicated","server_os":"Linux","password":true,"vac":true,"version":"7961495","steam_id":85568392925194467,"keywords":["cp","nocrits","nodmgspread","uncletopia"],"game_id":440,"stv_port":27036,"stv_name":"Uncletopia | Sydney | 3 | All Maps | STV","players":[{"user_id":35,"name":"็็ ็็","steam_id":76561198241303512,"connected_time":395000000000,"state":"active","ping":59},{"user_id":36,"name":"SilverPenguin","steam_id":76561199025744213,"connected_time":394000000000,"state":"active","ping":99},{"user_id":37,"name":"Sterlingpace","steam_id":76561198217945053,"connected_time":328000000000,"state":"active","ping":97}]},{"server_id":396,"name":"Uncletopia | Sydney | 4 | All Maps","name_short":"syd-4","host":"syd-1.au.uncletopia.com","port":27045,"enabled":true,"region":"au","cc":"au","latitude":-33.865143,"longitude":151.2099,"reserved":0,"last_update":"0001-01-01T00:00:00Z","name_a2s":"Uncletopia | Sydney | 4 | All Maps","protocol":17,"map":"koth_cascade","folder":"tf","game":"Team Fortress","app_id":440,"player_count":0,"max_players":24,"Bots":0,"server_type":"Dedicated","server_os":"Linux","password":true,"vac":true,"version":"7961495","steam_id":85568392925397958,"keywords":["cp","nocrits","nodmgspread","uncletopia"],"game_id":440,"stv_port":27046,"stv_name":"Uncletopia | Sydney | 4 | All Maps | STV","players":null},{"server_id":58,"name":"Uncletopia | Sydney | 5 | Stopwatch Beta","name_short":"syd-5","host":"syd-1.au.uncletopia.com","port":27055,"enabled":true,"region":"au","cc":"au","latitude":-33.865143,"longitude":151.2099,"reserved":0,"last_update":"0001-01-01T00:00:00Z","name_a2s":"Uncletopia | Sydney | 5 | Stopwatch Beta","protocol":17,"map":"koth_viaduct","folder":"tf","game":"Team Fortress","app_id":440,"player_count":0,"max_players":24,"Bots":0,"server_type":"Dedicated","server_os":"Linux","password":true,"vac":true,"version":"7961495","steam_id":85568392925397959,"keywords":["cp","nocrits","nodmgspread","uncletopia"],"game_id":440,"stv_port":27056,"stv_name":"Uncletopia | Sydney | 5 | Stopwatch Beta | STV","players":null},{"server_id":59,"name":"Uncletopia | Sydney | 6 | Community","name_short":"syd-6","host":"syd-1.au.uncletopia.com","port":27065,"enabled":true,"region":"au","cc":"au","latitude":-33.865143,"longitude":151.2099,"reserved":0,"last_update":"0001-01-01T00:00:00Z","name_a2s":"Uncletopia | Sydney | 6 | Community","protocol":17,"map":"pl_barnblitz","folder":"tf","game":"Team Fortress","app_id":440,"player_count":0,"max_players":24,"Bots":0,"server_type":"Dedicated","server_os":"Linux","password":true,"vac":true,"version":"7961495","steam_id":85568392925397960,"keywords":["nocrits","nodmgspread","payload","uncletopia"],"game_id":440,"stv_port":27066,"stv_name":"Uncletopia | Sydney | 6 | Community | STV","players":null},{"server_id":49,"name":"Uncletopia | Warsaw | 1 | All Maps","name_short":"waw-1","host":"waw-1.pl.uncletopia.com","port":27015,"enabled":true,"region":"eu","cc":"pl","latitude":52.2297,"longitude":21.017532,"reserved":0,"last_update":"0001-01-01T00:00:00Z","name_a2s":"","protocol":0,"map":"","folder":"","game":"","app_id":0,"player_count":0,"max_players":0,"Bots":0,"server_type":"","server_os":"","password":false,"vac":false,"version":"","steam_id":0,"keywords":null,"game_id":0,"stv_port":0,"stv_name":"","players":null},{"server_id":50,"name":"Uncletopia | Warsaw | 2 | All Maps","name_short":"waw-2","host":"waw-1.pl.uncletopia.com","port":27025,"enabled":true,"region":"eu","cc":"pl","latitude":52.2297,"longitude":21.017532,"reserved":0,"last_update":"0001-01-01T00:00:00Z","name_a2s":"Uncletopia | Warsaw | 2 | All Maps","protocol":17,"map":"koth_lakeside_final","folder":"tf","game":"Team Fortress","app_id":440,"player_count":0,"max_players":24,"Bots":0,"server_type":"Dedicated","server_os":"Linux","password":true,"vac":true,"version":"7961495","steam_id":85568392925397851,"keywords":["cp","nocrits","nodmgspread","uncletopia"],"game_id":440,"stv_port":27026,"stv_name":"Uncletopia | Warsaw | 2 | All Maps | STV","players":null},{"server_id":51,"name":"Uncletopia | Warsaw | 3 | All Maps","name_short":"waw-3","host":"waw-1.pl.uncletopia.com","port":27035,"enabled":true,"region":"eu","cc":"pl","latitude":52.2297,"longitude":21.017532,"reserved":0,"last_update":"0001-01-01T00:00:00Z","name_a2s":"Uncletopia | Warsaw | 3 | All Maps","protocol":17,"map":"pl_swiftwater_final1","folder":"tf","game":"Team Fortress","app_id":440,"player_count":5,"max_players":24,"Bots":0,"server_type":"Dedicated","server_os":"Linux","password":true,"vac":true,"version":"7961495","steam_id":85568392925397852,"keywords":["nocrits","nodmgspread","payload","uncletopia"],"game_id":440,"stv_port":27036,"stv_name":"Uncletopia | Warsaw | 3 | All Maps | STV","players":[{"user_id":37,"name":"Kjat","steam_id":76561198839433592,"connected_time":6705000000000,"state":"active","ping":64},{"user_id":43,"name":"lolman","steam_id":76561199443152879,"connected_time":3919000000000,"state":"active","ping":191},{"user_id":46,"name":"nakedpee","steam_id":76561198064345980,"connected_time":2097000000000,"state":"active","ping":75},{"user_id":49,"name":"J1lka","steam_id":76561198966298400,"connected_time":886000000000,"state":"active","ping":52},{"user_id":50,"name":"merc gaming","steam_id":76561199470530432,"connected_time":767000000000,"state":"active","ping":252}]},{"server_id":52,"name":"Uncletopia | Warsaw | 4 | All Maps","name_short":"waw-4","host":"waw-1.pl.uncletopia.com","port":27045,"enabled":true,"region":"eu","cc":"pl","latitude":52.2297,"longitude":21.017532,"reserved":0,"last_update":"0001-01-01T00:00:00Z","name_a2s":"Uncletopia | Warsaw | 4 | All Maps","protocol":17,"map":"koth_cascade","folder":"tf","game":"Team Fortress","app_id":440,"player_count":0,"max_players":24,"Bots":0,"server_type":"Dedicated","server_os":"Linux","password":true,"vac":true,"version":"7961495","steam_id":85568392925397853,"keywords":["cp","nocrits","nodmgspread","uncletopia"],"game_id":440,"stv_port":27046,"stv_name":"Uncletopia | Warsaw | 4 | All Maps | STV","players":null},{"server_id":53,"name":"Uncletopia | Warsaw | 5 | Stopwatch Beta","name_short":"waw-5","host":"waw-1.pl.uncletopia.com","port":27055,"enabled":true,"region":"eu","cc":"pl","latitude":52.2297,"longitude":21.017532,"reserved":0,"last_update":"0001-01-01T00:00:00Z","name_a2s":"Uncletopia | Warsaw | 5 | Stopwatch Beta","protocol":17,"map":"workshop/pl_summercoast_rc8e.ugc1761528829","folder":"tf","game":"Team Fortress","app_id":440,"player_count":0,"max_players":24,"Bots":0,"server_type":"Dedicated","server_os":"Linux","password":true,"vac":true,"version":"7961495","steam_id":85568392925397854,"keywords":["nocrits","nodmgspread","payload","uncletopia"],"game_id":440,"stv_port":27056,"stv_name":"Uncletopia | Warsaw | 5 | Stopwatch Beta | STV","players":null},{"server_id":54,"name":"Uncletopia | Warsaw | 6 | Community","name_short":"waw-6","host":"waw-1.pl.uncletopia.com","port":27065,"enabled":true,"region":"eu","cc":"pl","latitude":52.2297,"longitude":21.017532,"reserved":0,"last_update":"0001-01-01T00:00:00Z","name_a2s":"Uncletopia | Warsaw | 6 | Community","protocol":17,"map":"workshop/cp_reckoner_rc6.ugc674719999","folder":"tf","game":"Team Fortress","app_id":440,"player_count":0,"max_players":24,"Bots":0,"server_type":"Dedicated","server_os":"Linux","password":true,"vac":true,"version":"7961495","steam_id":85568392925397856,"keywords":["cp","nocrits","nodmgspread","uncletopia"],"game_id":440,"stv_port":27066,"stv_name":"Uncletopia | Warsaw | 6 | Community | STV","players":null}]}