{"status":true,"message":"","result":[{"server_id":9,"name":"Uncletopia | Atlanta | 1 | All Maps","name_short":"atl-1","host":"atl-1.us.uncletopia.com","port":27015,"enabled":true,"region":"us-east","cc":"us","latitude":33.753746,"longitude":-84.38633,"reserved":0,"last_update":"0001-01-01T00:00:00Z","name_a2s":"Uncletopia | Atlanta | 1 | All Maps","protocol":17,"map":"cp_process_final","folder":"tf","game":"Team Fortress","app_id":440,"player_count":15,"max_players":24,"Bots":0,"server_type":"Dedicated","server_os":"Linux","password":true,"vac":true,"version":"7961495","steam_id":85568392924469982,"keywords":["cp","nocrits","nodmgspread","uncletopia"],"game_id":440,"stv_port":27016,"stv_name":"Uncletopia | Atlanta | 1 | All Maps | STV","players":[{"user_id":728,"name":"eisendrache","steam_id":76561197994268675,"connected_time":3132000000000,"state":"active","ping":179},{"user_id":754,"name":"meep :3","steam_id":76561198211781375,"connected_time":536000000000,"state":"active","ping":69},{"user_id":747,"name":"BIG HOG","steam_id":76561198079923652,"connected_time":2120000000000,"state":"active","ping":60},{"user_id":760,"name":"ash","steam_id":76561198127890645,"connected_time":23000000000,"state":"spawning","ping":64},{"user_id":755,"name":"mayor of cool person city","steam_id":76561198048882285,"connected_time":523000000000,"state":"active","ping":60},{"user_id":756,"name":"rat","steam_id":76561198146602622,"connected_time":456000000000,"state":"active","ping":45},{"user_id":758,"name":"night.s","steam_id":76561198326287823,"connected_time":346000000000,"state":"active","ping":150},{"user_id":735,"name":"--_Cook_--","steam_id":76561198080855748,"connected_time":2496000000000,"state":"active","ping":59},{"user_id":705,"name":"mechiimi ‚òÖ","steam_id":76561198321627268,"connected_time":4694000000000,"state":"active","ping":99},{"user_id":741,"name":"üçíbutaüçí","steam_id":76561198135538212,"connected_time":2341000000000,"state":"active","ping":71},{"user_id":753,"name":"Temina","steam_id":76561198978778718,"connected_time":926000000000,"state":"active","ping":114},{"user_id":721,"name":"lionel messi","steam_id":76561198138455706,"connected_time":3794000000000,"state":"active","ping":75},{"user_id":714,"name":"lemono","steam_id":76561198806651001,"connected_time":4084000000000,"state":"active","ping":87},{"user_id":740,"name":"KYLE KYLESON","steam_id":76561198021920887,"connected_time":2413000000000,"state":"active","ping":60},{"user_id":746,"name":"lil hog","steam_id":76561199230929836,"connected_time":2155000000000,"state":"active","ping":84}]},{"server_id":104,"name":"Uncletopia | Atlanta | 2 | All Maps","name_short":"atl-2","host":"atl-1.us.uncletopia.com","port":27025,"enabled":true,"region":"us-east","cc":"us","latitude":33.753746,"longitude":-84.38633,"reserved":0,"last_update":"0001-01-01T00:00:00Z","name_a2s":"Uncletopia | Atlanta | 2 | All Maps","protocol":17,"map":"cp_dustbowl","folder":"tf","game":"Team Fortress","app_id":440,"player_count":5,"max_players":24,"Bots":0,"server_type":"Dedicated","server_os":"Linux","password":true,"vac":true,"version":"7961495","steam_id":85568392924469983,"keywords":["cp","nocrits","nodmgspread","uncletopia"],"game_id":440,"stv_port":27026,"stv_name":"Uncletopia | Atlanta | 2 | All Maps | STV","players":[{"user_id":717,"name":"Pie Eater 9000","steam_id":76561198003791564,"connected_time":1590000000000,"state":"active","ping":79},{"user_id":718,"name":"God's Silliest Soldier","steam_id":76561198894037033,"connected_time":1510000000000,"state":"active","ping":108},{"user_id":719,"name":"Dedo Dewalker","steam_id":76561199508007302,"connected_time":1283000000000,"state":"active","ping":57},{"user_id":720,"name":"have blue","steam_id":76561198054260599,"connected_time":1024000000000,"state":"active","ping":71},{"user_id":700,"name":"Azazellotl","steam_id":76561198824814392,"connected_time":5350000000000,"state":"active","ping":53}]},{"server_id":400,"name":"Uncletopia | Atlanta | 3 | Stopwatch","name_short":"atl-3","host":"atl-1.us.uncletopia.com","port":27035,"enabled":true,"region":"us-east","cc":"us","latitude":33.753746,"longitude":-84.38633,"reserved":0,"last_update":"0001-01-01T00:00:00Z","name_a2s":"Uncletopia | Atlanta | 3 | Stopwatch","protocol":17,"map":"workshop/koth_jamram_rc1a.ugc2964065613","folder":"tf","game":"Team Fortress","app_id":440,"player_count":2,"max_players":24,"Bots":0,"server_type":"Dedicated","server_os":"Linux","password":true,"vac":true,"version":"7961495","steam_id":85568392924515187,"keywords":["cp","nocrits","nodmgspread","uncletopia"],"game_id":440,"stv_port":27036,"stv_name":"Uncletopia | Atlanta | 3 | Stopwatch | STV","players":[{"user_id":310,"name":"Cannon Fodder 668","steam_id":76561199242093570,"connected_time":3485000000000,"state":"active","ping":67},{"user_id":311,"name":"the milk man","steam_id":76561199247476314,"connected_time":3480000000000,"state":"active","ping":67}]},{"server_id":401,"name":"Uncletopia | Atlanta | 4 | Community","name_short":"atl-4","host":"atl-1.us.uncletopia.com","port":27045,"enabled":true,"region":"us-east","cc":"us","latitude":33.753746,"longitude":-84.38633,"reserved":0,"last_update":"0001-01-01T00:00:00Z","name_a2s":"Uncletopia | Atlanta | 4 | Community","protocol":17,"map":"workshop/koth_product_final.ugc454272353","folder":"tf","game":"Team Fortress","app_id":440,"player_count":0,"max_players":24,"Bots":0,"server_type":"Dedicated","server_os":"Linux","password":true,"vac":true,"version":"7961495","steam_id":85568392924515188,"keywords":["cp","nocrits","nodmgspread","uncletopia"],"game_id":440,"stv_port":27046,"stv_name":"Uncletopia | Atlanta | 4 | Community | STV","players":null},{"server_id":2,"name":"Uncletopia | Chicago | 1 | All Maps","name_short":"chi-1","host":"chi-1.us.uncletopia.com","port":27015,"enabled":true,"region":"us-central","cc":"us","latitude":41.881832,"longitude":-87.62318,"reserved":0,"last_update":"0001-01-01T00:00:00Z","name_a2s":"Uncletopia | Chicago | 1 | All Maps","protocol":17,"map":"pl_pier","folder":"tf","game":"Team Fortress","app_id":440,"player_count":23,"max_players":24,"Bots":0,"server_type":"Dedicated","server_os":"Linux","password":true,"vac":true,"version":"7961495","steam_id":85568392924469984,"keywords":["nocrits","nodmgspread","payload","uncletopia"],"game_id":440,"stv_port":27016,"stv_name":"Uncletopia | Chicago | 1 | All Maps | STV","players":[{"user_id":962,"name":"Goredude","steam_id":76561198041048764,"connected_time":1545000000000,"state":"active","ping":60},{"user_id":896,"name":"just call me joe","steam_id":76561198043911582,"connected_time":4736000000000,"state":"active","ping":66},{"user_id":981,"name":"ThatOnePersonCalledCaine","steam_id":76561198089836391,"connected_time":258000000000,"state":"active","ping":49},{"user_id":947,"name":"je'mond #JOYCONBOYZ","steam_id":76561198113990147,"connected_time":2990000000000,"state":"active","ping":59},{"user_id":980,"name":"Ignalis","steam_id":76561198025662927,"connected_time":491000000000,"state":"active","ping":59},{"user_id":951,"name":"Zoramine Fae","steam_id":76561198346753422,"connected_time":2865000000000,"state":"active","ping":34},{"user_id":976,"name":"KATSURB","steam_id":76561199172118456,"connected_time":693000000000,"state":"active","ping":61},{"user_id":956,"name":"Traceback","steam_id":76561197993212340,"connected_time":2624000000000,"state":"active","ping":64},{"user_id":973,"name":"MantisToboggan","steam_id":76561197969447887,"connected_time":912000000000,"state":"active","ping":136},{"user_id":860,"name":"Siz","steam_id":76561198072962154,"connected_time":7010000000000,"state":"active","ping":63},{"user_id":970,"name":"THEY DONT KNOWWWWWW","steam_id":76561198062991744,"connected_time":1132000000000,"state":"active","ping":65},{"user_id":890,"name":"Omle","steam_id":76561198873603097,"connected_time":5214000000000,"state":"active","ping":76},{"user_id":974,"name":"AttackCommander","steam_id":76561198111522679,"connected_time":790000000000,"state":"active","ping":67},{"user_id":949,"name":"Fridgidaere @bowie.gg","steam_id":76561198131467867,"connected_time":2907000000000,"state":"active","ping":92},{"user_id":915,"name":"crewmate456","steam_id":76561198115458307,"connected_time":4012000000000,"state":"active","ping":125},{"user_id":936,"name":"Underscorn","steam_id":76561198374209415,"connected_time":3441000000000,"state":"active","ping":54},{"user_id":977,"name":"Pixelated Pussy","steam_id":76561198002511088,"connected_time":674000000000,"state":"active","ping":102},{"user_id":959,"name":"._.","steam_id":76561198820617005,"connected_time":2293000000000,"state":"active","ping":138},{"user_id":953,"name":"Noobert McGlitchington the 3st","steam_id":76561198073176682,"connected_time":2835000000000,"state":"active","ping":64},{"user_id":957,"name":"‚úß.*Remzy‚úß.*","steam_id":76561199239412094,"connected_time":2486000000000,"state":"active","ping":142},{"user_id":982,"name":"Slowdive w/ EATEOF","steam_id":76561198047856328,"connected_time":201000000000,"state":"active","ping":144},{"user_id":978,"name":"SleepyTrout (Charging My PsP)","steam_id":76561198118082897,"connected_time":555000000000,"state":"active","ping":91},{"user_id":979,"name":"AstralLucario","steam_id":76561198075427665,"connected_time":519000000000,"state":"active","ping":60}]},{"server_id":106,"name":"Uncletopia | Chicago | 2 | All Maps","name_short":"chi-2","host":"chi-1.us.uncletopia.com","port":27025,"enabled":true,"region":"us-central","cc":"us","latitude":41.881832,"longitude":-87.62318,"reserved":0,"last_update":"0001-01-01T00:00:00Z","name_a2s":"Uncletopia | Chicago | 2 | All Maps","protocol":17,"map":"pl_badwater","folder":"tf","game":"Team Fortress","app_id":440,"player_count":24,"max_players":24,"Bots":0,"server_type":"Dedicated","server_os":"Linux","password":true,"vac":true,"version":"7961495","steam_id":85568392924469985,"keywords":["nocrits","nodmgspread","payload","uncletopia"],"game_id":440,"stv_port":27026,"stv_name":"Uncletopia | Chicago | 2 | All Maps | STV","players":[{"user_id":740,"name":"Sprinx","steam_id":76561198112614381,"connected_time":13407000000000,"state":"active","ping":64},{"user_id":918,"name":"wizard cate","steam_id":76561198083907105,"connected_time":1297000000000,"state":"active","ping":85},{"user_id":887,"name":"engineer engineering","steam_id":76561198110198881,"connected_time":3435000000000,"state":"active","ping":150},{"user_id":925,"name":"Papiomike","steam_id":76561198090837047,"connected_time":542000000000,"state":"active","ping":62},{"user_id":874,"name":"Goober","steam_id":76561198988863807,"connected_time":4974000000000,"state":"active","ping":61},{"user_id":936,"name":"The Ferg","steam_id":76561197984579630,"connected_time":95000000000,"state":"active","ping":104},{"user_id":923,"name":"None of that $9.99 bullshit","steam_id":76561198116169903,"connected_time":771000000000,"state":"active","ping":45},{"user_id":932,"name":"my letter","steam_id":76561198277979851,"connected_time":272000000000,"state":"active","ping":88},{"user_id":890,"name":"Outlander","steam_id":76561199032887232,"connected_time":3284000000000,"state":"active","ping":62},{"user_id":933,"name":"Jade","steam_id":76561198092408457,"connected_time":251000000000,"state":"active","ping":97},{"user_id":901,"name":"zpalmtree","steam_id":76561198134307620,"connected_time":2718000000000,"state":"active","ping":55},{"user_id":419,"name":"runescape legend","steam_id":76561198077791373,"connected_time":29358000000000,"state":"active","ping":46},{"user_id":904,"name":"Supur","steam_id":76561198051814355,"connected_time":2561000000000,"state":"active","ping":76},{"user_id":926,"name":"Gordon R. laz","steam_id":76561198133102865,"connected_time":494000000000,"state":"active","ping":67},{"user_id":927,"name":"Gram Tokers Count Doinkula","steam_id":76561198112811565,"connected_time":477000000000,"state":"active","ping":72},{"user_id":937,"name":"Pop","steam_id":76561199012562851,"connected_time":18000000000,"state":"active","ping":72},{"user_id":928,"name":"Teal Tactics","steam_id":76561198259958929,"connected_time":465000000000,"state":"active","ping":99},{"user_id":934,"name":"Give It Up","steam_id":76561199245789353,"connected_time":233000000000,"state":"active","ping":77},{"user_id":915,"name":"solitaire","steam_id":76561198964025682,"connected_time":1834000000000,"state":"active","ping":97},{"user_id":879,"name":"Wang of Wall St","steam_id":76561198047460598,"connected_time":4868000000000,"state":"active","ping":61},{"user_id":929,"name":"Urzine","steam_id":76561198085418111,"connected_time":458000000000,"state":"active","ping":141},{"user_id":919,"name":"Father","steam_id":76561198055542054,"connected_time":1218000000000,"state":"active","ping":97},{"user_id":898,"name":"Ashton","steam_id":76561198300590302,"connected_time":3125000000000,"state":"active","ping":54},{"user_id":935,"name":"Scott Pilgrim's hairy gusto","steam_id":76561198045061232,"connected_time":184000000000,"state":"active","ping":87}]},{"server_id":402,"name":"Uncletopia | Chicago | 3 | All Maps","name_short":"chi-3","host":"chi-1.us.uncletopia.com","port":27035,"enabled":true,"region":"us-central","cc":"us","latitude":41.881832,"longitude":-87.62318,"reserved":0,"last_update":"0001-01-01T00:00:00Z","name_a2s":"Uncletopia | Chicago | 3 | All Maps","protocol":17,"map":"koth_viaduct","folder":"tf","game":"Team Fortress","app_id":440,"player_count":20,"max_players":24,"Bots":0,"server_type":"Dedicated","server_os":"Linux","password":true,"vac":true,"version":"7961495","steam_id":85568392924515191,"keywords":["cp","nocrits","nodmgspread","uncletopia"],"game_id":440,"stv_port":27036,"stv_name":"Uncletopia | Chicago | 3 | All Maps | STV","players":[{"user_id":519,"name":"Trundlini","steam_id":76561198810160534,"connected_time":2580000000000,"state":"active","ping":95},{"user_id":520,"name":"Kepa","steam_id":76561198091975728,"connected_time":2579000000000,"state":"active","ping":73},{"user_id":521,"name":"ZemkJval","steam_id":76561198154464008,"connected_time":2564000000000,"state":"active","ping":72},{"user_id":522,"name":"Derpydude2002","steam_id":76561198811719519,"connected_time":2535000000000,"state":"active","ping":45},{"user_id":524,"name":"TheGerg","steam_id":76561198257099217,"connected_time":2468000000000,"state":"active","ping":67},{"user_id":559,"name":"Stev","steam_id":76561198061516631,"connected_time":164000000000,"state":"active","ping":45},{"user_id":560,"name":"The Khronicles of Keith","steam_id":76561198056622157,"connected_time":158000000000,"state":"active","ping":60},{"user_id":544,"name":"Blobbyfish","steam_id":76561198822962650,"connected_time":1308000000000,"state":"active","ping":54},{"user_id":561,"name":"carnage519","steam_id":76561199231295945,"connected_time":157000000000,"state":"active","ping":61},{"user_id":530,"name":"„ÄéJeskar„Äè","steam_id":76561199036464302,"connected_time":1913000000000,"state":"active","ping":59},{"user_id":495,"name":"ifuruna","steam_id":76561199506882366,"connected_time":5410000000000,"state":"active","ping":122},{"user_id":562,"name":"the cranston dart huffer","steam_id":76561198041938330,"connected_time":136000000000,"state":"active","ping":77},{"user_id":563,"name":"Andy","steam_id":76561198043115724,"connected_time":126000000000,"state":"active","ping":84},{"user_id":558,"name":"Xyverle","steam_id":76561198799726415,"connected_time":289000000000,"state":"active","ping":61},{"user_id":537,"name":"marlow","steam_id":76561198094408360,"connected_time":1579000000000,"state":"active","ping":110},{"user_id":538,"name":"take a shot every time i die","steam_id":76561198041348890,"connected_time":1532000000000,"state":"active","ping":81},{"user_id":555,"name":"Nathan Yeet","steam_id":76561198883966591,"connected_time":727000000000,"state":"active","ping":56},{"user_id":556,"name":"Banana connoisseur","steam_id":76561199156630225,"connected_time":725000000000,"state":"active","ping":69},{"user_id":552,"name":"him/her","steam_id":76561198122238340,"connected_time":932000000000,"state":"active","ping":77},{"user_id":549,"name":"cy","steam_id":76561198885893295,"connected_time":1173000000000,"state":"active","ping":57}]},{"server_id":403,"name":"Uncletopia | Chicago | 4 | All Maps","name_short":"chi-4","host":"chi-1.us.uncletopia.com","port":27045,"enabled":true,"region":"us-central","cc":"us","latitude":41.881832,"longitude":-87.62318,"reserved":0,"last_update":"0001-01-01T00:00:00Z","name_a2s":"Uncletopia | Chicago | 4 | All Maps","protocol":17,"map":"pl_snowycoast","folder":"tf","game":"Team Fortress","app_id":440,"player_count":3,"max_players":24,"Bots":0,"server_type":"Dedicated","server_os":"Linux","password":true,"vac":true,"version":"7961495","steam_id":85568392924515193,"keywords":["nocrits","nodmgspread","payload","uncletopia"],"game_id":440,"stv_port":27046,"stv_name":"Uncletopia | Chicago | 4 | All Maps | STV","players":[{"user_id":696,"name":"Six Piece Chicken McNobody","steam_id":76561198129848222,"connected_time":4629000000000,"state":"active","ping":55},{"user_id":679,"name":"Cactus","steam_id":76561198149762619,"connected_time":7689000000000,"state":"active","ping":96},{"user_id":681,"name":"Rusty","steam_id":76561198178868626,"connected_time":7622000000000,"state":"active","ping":89}]},{"server_id":36,"name":"Uncletopia | Chicago | 5 | All Maps","name_short":"chi-5","host":"chi-2.us.uncletopia.com","port":27015,"enabled":true,"region":"us-central","cc":"us","latitude":41.881832,"longitude":-87.62318,"reserved":0,"last_update":"0001-01-01T00:00:00Z","name_a2s":"Uncletopia | Chicago | 5 | All Maps","protocol":17,"map":"pl_upward","folder":"tf","game":"Team Fortress","app_id":440,"player_count":24,"max_players":24,"Bots":0,"server_type":"Dedicated","server_os":"Linux","password":true,"vac":true,"version":"7961495","steam_id":85568392924866362,"keywords":["nocrits","nodmgspread","payload","uncletopia"],"game_id":440,"stv_port":27016,"stv_name":"Uncletopia | Chicago | 5 | All Maps | STV","players":[{"user_id":696,"name":"9gon Danmar33","steam_id":76561198056453091,"connected_time":973000000000,"state":"active","ping":47},{"user_id":652,"name":"BonBonBon","steam_id":76561198016307916,"connected_time":4097000000000,"state":"active","ping":104},{"user_id":689,"name":"TyranoFlamesaurus-Rex","steam_id":76561198187188506,"connected_time":1399000000000,"state":"active","ping":65},{"user_id":631,"name":"thezranger","steam_id":76561198454086460,"connected_time":5391000000000,"state":"active","ping":97},{"user_id":712,"name":"zzzz","steam_id":76561198310495200,"connected_time":115000000000,"state":"active","ping":60},{"user_id":680,"name":"MortGrim","steam_id":76561198027156235,"connected_time":2194000000000,"state":"active","ping":61},{"user_id":679,"name":"ziggy","steam_id":76561199097683320,"connected_time":2215000000000,"state":"active","ping":66},{"user_id":690,"name":"Blue Zuben","steam_id":76561198106447025,"connected_time":1381000000000,"state":"active","ping":93},{"user_id":686,"name":"psyk0smurf","steam_id":76561199077856919,"connected_time":1820000000000,"state":"active","ping":53},{"user_id":694,"name":"Galactamarx","steam_id":76561198028065755,"connected_time":1050000000000,"state":"active","ping":104},{"user_id":660,"name":"Lickity Split","steam_id":76561198132051047,"connected_time":3517000000000,"state":"active","ping":125},{"user_id":697,"name":"Rez LeRoux","steam_id":76561198451503538,"connected_time":968000000000,"state":"active","ping":79},{"user_id":709,"name":"frank","steam_id":76561198137777483,"connected_time":186000000000,"state":"active","ping":65},{"user_id":713,"name":"IBA Chandler","steam_id":76561198403649648,"connected_time":113000000000,"state":"active","ping":51},{"user_id":698,"name":"A Mysterious Gift","steam_id":76561198077838946,"connected_time":936000000000,"state":"active","ping":61},{"user_id":708,"name":"step bro","steam_id":76561198048942475,"connected_time":302000000000,"state":"active","ping":67},{"user_id":705,"name":"*Gage*","steam_id":76561197975233869,"connected_time":341000000000,"state":"active","ping":90},{"user_id":703,"name":"for the king","steam_id":76561197973488858,"connected_time":402000000000,"state":"active","ping":67},{"user_id":704,"name":"endwalker simp","steam_id":76561198066177299,"connected_time":389000000000,"state":"active","ping":109},{"user_id":687,"name":"Real","steam_id":76561198119315680,"connected_time":1604000000000,"state":"active","ping":47},{"user_id":691,"name":"Primelotus","steam_id":76561198086618284,"connected_time":1380000000000,"state":"active","ping":102},{"user_id":672,"name":"lalman","steam_id":76561198196605887,"connected_time":3262000000000,"state":"active","ping":70},{"user_id":706,"name":"GuyGoom","steam_id":76561198254522178,"connected_time":335000000000,"state":"active","ping":62},{"user_id":714,"name":"TheHumanTaco119","steam_id":76561198996107520,"connected_time":25000000000,"state":"active","ping":124}]},{"server_id":37,"name":"Uncletopia | Chicago | 6 | All Maps","name_short":"chi-6","host":"chi-2.us.uncletopia.com","port":27025,"enabled":true,"region":"us-central","cc":"us","latitude":41.881832,"longitude":-87.62318,"reserved":0,"last_update":"0001-01-01T00:00:00Z","name_a2s":"Uncletopia | Chicago | 6 | All Maps","protocol":17,"map":"pl_barnblitz","folder":"tf","game":"Team Fortress","app_id":440,"player_count":23,"max_players":24,"Bots":0,"server_type":"Dedicated","server_os":"Linux","password":true,"vac":true,"version":"7961495","steam_id":85568392924866363,"keywords":["nocrits","nodmgspread","payload","uncletopia"],"game_id":440,"stv_port":27026,"stv_name":"Uncletopia | Chicago | 6 | All Maps | STV","players":[{"user_id":534,"name":"JesusDicks","steam_id":76561198066393631,"connected_time":2855000000000,"state":"active","ping":62},{"user_id":528,"name":"Private Sloppy","steam_id":76561198019861196,"connected_time":3559000000000,"state":"active","ping":55},{"user_id":500,"name":"‡∏∏","steam_id":76561198170624701,"connected_time":5507000000000,"state":"active","ping":76},{"user_id":496,"name":"baunter","steam_id":76561198024311871,"connected_time":6519000000000,"state":"active","ping":82},{"user_id":542,"name":"Hamster","steam_id":76561198079599992,"connected_time":1221000000000,"state":"active","ping":30},{"user_id":547,"name":"Cookie_Crab","steam_id":76561198088116479,"connected_time":964000000000,"state":"active","ping":69},{"user_id":548,"name":"Nilantive","steam_id":76561198177565082,"connected_time":723000000000,"state":"active","ping":67},{"user_id":554,"name":"Ghost","steam_id":76561198110914180,"connected_time":123000000000,"state":"active","ping":190},{"user_id":518,"name":"Retro","steam_id":76561198445362325,"connected_time":4668000000000,"state":"active","ping":80},{"user_id":531,"name":"Nestor","steam_id":76561198070782619,"connected_time":3428000000000,"state":"active","ping":47},{"user_id":497,"name":"lobster","steam_id":76561198147417707,"connected_time":6507000000000,"state":"active","ping":78},{"user_id":541,"name":"phantom","steam_id":76561197963860777,"connected_time":1851000000000,"state":"active","ping":46},{"user_id":551,"name":"SoggyMonkey","steam_id":76561198825057450,"connected_time":434000000000,"state":"active","ping":76},{"user_id":468,"name":"D(b) Hell","steam_id":76561198067869016,"connected_time":8784000000000,"state":"active","ping":45},{"user_id":549,"name":"Colonel Sanders jr.","steam_id":76561197990168787,"connected_time":705000000000,"state":"active","ping":97},{"user_id":520,"name":"ClownTown","steam_id":76561199350870177,"connected_time":4621000000000,"state":"active","ping":60},{"user_id":521,"name":"DarthVader","steam_id":76561199061259359,"connected_time":4555000000000,"state":"active","ping":91},{"user_id":522,"name":"FacelessJoker","steam_id":76561198835832351,"connected_time":4529000000000,"state":"active","ping":80},{"user_id":538,"name":"Spy_Gaming_66","steam_id":76561198307532189,"connected_time":2756000000000,"state":"active","ping":88},{"user_id":550,"name":"ninja_dray","steam_id":76561199235773615,"connected_time":700000000000,"state":"active","ping":120},{"user_id":533,"name":"U œâ U","steam_id":76561198118802562,"connected_time":3347000000000,"state":"active","ping":105},{"user_id":552,"name":"DreamKiller","steam_id":76561198028580715,"connected_time":400000000000,"state":"active","ping":119},{"user_id":524,"name":"Dark Knight","steam_id":76561199167544782,"connected_time":4466000000000,"state":"active","ping":58}]},{"server_id":38,"name":"Uncletopia | Chicago | 7 | Stopwatch","name_short":"chi-7","host":"chi-2.us.uncletopia.com","port":27035,"enabled":true,"region":"us-central","cc":"us","latitude":41.881832,"longitude":-87.62318,"reserved":0,"last_update":"0001-01-01T00:00:00Z","name_a2s":"Uncletopia | Chicago | 7 | Stopwatch","protocol":17,"map":"cp_process_final","folder":"tf","game":"Team Fortress","app_id":440,"player_count":0,"max_players":24,"Bots":0,"server_type":"Dedicated","server_os":"Linux","password":true,"vac":true,"version":"7961495","steam_id":85568392924866364,"keywords":["cp","nocrits","nodmgspread","uncletopia"],"game_id":440,"stv_port":27036,"stv_name":"Uncletopia | Chicago | 7 | Stopwatch | STV","players":null},{"server_id":39,"name":"Uncletopia | Chicago | 8 | Community","name_short":"chi-8","host":"chi-2.us.uncletopia.com","port":27045,"enabled":true,"region":"us-central","cc":"us","latitude":41.881832,"longitude":-87.62318,"reserved":0,"last_update":"0001-01-01T00:00:00Z","name_a2s":"Uncletopia | Chicago | 8 | Community","protocol":17,"map":"workshop/cp_glassworks_rc7a.ugc454118349","folder":"tf","game":"Team Fortress","app_id":440,"player_count":0,"max_players":24,"Bots":0,"server_type":"Dedicated","server_os":"Linux","password":true,"vac":true,"version":"7961495","steam_id":85568392924866365,"keywords":["cp","nocrits","nodmgspread","uncletopia"],"game_id":440,"stv_port":27046,"stv_name":"Uncletopia | Chicago | 8 | Community | STV","players":null},{"server_id":8,"name":"Uncletopia | Dallas | 1 | All Maps","name_short":"dal-1","host":"dal-1.us.uncletopia.com","port":27015,"enabled":true,"region":"us-central","cc":"us","latitude":32.779167,"longitude":-96.80889,"reserved":0,"last_update":"0001-01-01T00:00:00Z","name_a2s":"Uncletopia | Dallas | 1 | All Maps","protocol":17,"map":"cp_sunshine","folder":"tf","game":"Team Fortress","app_id":440,"player_count":0,"max_players":24,"Bots":0,"server_type":"Dedicated","server_os":"Linux","password":true,"vac":true,"version":"7961495","steam_id":85568392924469986,"keywords":["cp","nocrits","nodmgspread","uncletopia"],"game_id":440,"stv_port":27016,"stv_name":"Uncletopia | Dallas | 1 | All Maps | STV","players":null},{"server_id":108,"name":"Uncletopia | Dallas | 2 | All Maps","name_short":"dal-2","host":"dal-1.us.uncletopia.com","port":27025,"enabled":true,"region":"us-central","cc":"us","latitude":32.779167,"longitude":-96.80889,"reserved":0,"last_update":"0001-01-01T00:00:00Z","name_a2s":"Uncletopia | Dallas | 2 | All Maps","protocol":17,"map":"cp_powerhouse","folder":"tf","game":"Team Fortress","app_id":440,"player_count":17,"max_players":24,"Bots":0,"server_type":"Dedicated","server_os":"Linux","password":true,"vac":true,"version":"7961495","steam_id":85568392924469988,"keywords":["cp","nocrits","nodmgspread","uncletopia"],"game_id":440,"stv_port":27026,"stv_name":"Uncletopia | Dallas | 2 | All Maps | STV","players":[{"user_id":604,"name":"Dravenation","steam_id":76561198012411483,"connected_time":3513000000000,"state":"active","ping":80},{"user_id":650,"name":"Pidgenn","steam_id":76561198367926202,"connected_time":300000000000,"state":"active","ping":40},{"user_id":651,"name":"Andrew's Taint","steam_id":76561198131400543,"connected_time":196000000000,"state":"active","ping":66},{"user_id":621,"name":"sonylea10","steam_id":76561198080723679,"connected_time":2989000000000,"state":"active","ping":45},{"user_id":647,"name":"RMTRE212","steam_id":76561199145573038,"connected_time":843000000000,"state":"active","ping":103},{"user_id":597,"name":"ectoBiologist [EB]","steam_id":76561198849405426,"connected_time":3833000000000,"state":"active","ping":50},{"user_id":637,"name":"DeckofDragons","steam_id":76561198057398213,"connected_time":1940000000000,"state":"active","ping":58},{"user_id":649,"name":"JuanMC45","steam_id":76561198106690944,"connected_time":586000000000,"state":"active","ping":120},{"user_id":652,"name":"soldlemon","steam_id":76561199034747133,"connected_time":179000000000,"state":"active","ping":73},{"user_id":653,"name":"ErikG65USA","steam_id":76561199381735619,"connected_time":46000000000,"state":"active","ping":60},{"user_id":615,"name":"bansheerubber","steam_id":76561198042009362,"connected_time":3196000000000,"state":"active","ping":70},{"user_id":562,"name":"Tea Leaf","steam_id":76561198123549027,"connected_time":6419000000000,"state":"active","ping":59},{"user_id":544,"name":"MD","steam_id":76561197976300679,"connected_time":7240000000000,"state":"active","ping":46},{"user_id":654,"name":"GatorAIDS","steam_id":76561198043220092,"connected_time":24000000000,"state":"active","ping":57},{"user_id":578,"name":"Grungus","steam_id":76561198149206391,"connected_time":5182000000000,"state":"active","ping":76},{"user_id":581,"name":"Dwebus","steam_id":76561198086559045,"connected_time":5144000000000,"state":"active","ping":66},{"user_id":594,"name":"rat","steam_id":76561198130412963,"connected_time":4028000000000,"state":"active","ping":69}]},{"server_id":404,"name":"Uncletopia | Dallas | 3 | All Maps","name_short":"dal-3","host":"dal-1.us.uncletopia.com","port":27035,"enabled":true,"region":"us-central","cc":"us","latitude":32.779167,"longitude":-96.80889,"reserved":0,"last_update":"0001-01-01T00:00:00Z","name_a2s":"Uncletopia | Dallas | 3 | All Maps","protocol":17,"map":"cp_gorge","folder":"tf","game":"Team Fortress","app_id":440,"player_count":24,"max_players":24,"Bots":0,"server_type":"Dedicated","server_os":"Linux","password":true,"vac":true,"version":"7961495","steam_id":85568392924515219,"keywords":["cp","nocrits","nodmgspread","uncletopia"],"game_id":440,"stv_port":27036,"stv_name":"Uncletopia | Dallas | 3 | All Maps | STV","players":[{"user_id":371,"name":"Not Muscle Man","steam_id":76561198010460535,"connected_time":3273000000000,"state":"active","ping":73},{"user_id":331,"name":"riSygneD","steam_id":76561198331618687,"connected_time":8113000000000,"state":"active","ping":69},{"user_id":378,"name":"poggerchamp","steam_id":76561199145124973,"connected_time":2245000000000,"state":"active","ping":49},{"user_id":387,"name":"Sku11yy","steam_id":76561198378094265,"connected_time":1154000000000,"state":"active","ping":67},{"user_id":341,"name":"Aeon","steam_id":76561198079117315,"connected_time":6707000000000,"state":"active","ping":77},{"user_id":363,"name":"Baconator","steam_id":76561198941700660,"connected_time":4002000000000,"state":"active","ping":106},{"user_id":388,"name":"Bucky Garage","steam_id":76561197995185343,"connected_time":1085000000000,"state":"active","ping":74},{"user_id":389,"name":"BigBubble42","steam_id":76561198136286123,"connected_time":1033000000000,"state":"active","ping":76},{"user_id":353,"name":"guts' theme (Cut \u0026 Looped)","steam_id":76561198012829728,"connected_time":5890000000000,"state":"active","ping":54},{"user_id":390,"name":"jade","steam_id":76561198055611029,"connected_time":1024000000000,"state":"active","ping":59},{"user_id":344,"name":"Erin","steam_id":76561198040333168,"connected_time":6559000000000,"state":"active","ping":99},{"user_id":385,"name":"Criptonic","steam_id":76561198840841130,"connected_time":1317000000000,"state":"active","ping":91},{"user_id":392,"name":"(„Éé=w=)„Éé‚åíÔΩ•*ÔΩ•ÔΩ•*‚òÜ","steam_id":76561198119714880,"connected_time":965000000000,"state":"active","ping":115},{"user_id":381,"name":"Veluxcion","steam_id":76561198080527107,"connected_time":1731000000000,"state":"active","ping":58},{"user_id":393,"name":"Code","steam_id":76561198084509974,"connected_time":902000000000,"state":"active","ping":86},{"user_id":356,"name":"CeLeb144","steam_id":76561199089907740,"connected_time":5836000000000,"state":"active","ping":54},{"user_id":346,"name":"Spare(8)Ball","steam_id":76561197982432995,"connected_time":6537000000000,"state":"active","ping":94},{"user_id":382,"name":"TheDragoniar","steam_id":76561198347102664,"connected_time":1729000000000,"state":"active","ping":178},{"user_id":398,"name":"Can You Feel It Mr.Krabs","steam_id":76561198128302414,"connected_time":440000000000,"state":"active","ping":64},{"user_id":399,"name":"Violent Videogamer","steam_id":76561198286287293,"connected_time":400000000000,"state":"active","ping":59},{"user_id":293,"name":"Marzbee115","steam_id":76561198095821025,"connected_time":10871000000000,"state":"active","ping":72},{"user_id":401,"name":"SloppySulking","steam_id":76561198866538571,"connected_time":264000000000,"state":"active","ping":46},{"user_id":400,"name":"Riko","steam_id":76561198028097118,"connected_time":393000000000,"state":"active","ping":75},{"user_id":373,"name":"Bogey","steam_id":76561198096227944,"connected_time":3029000000000,"state":"active","ping":51}]},{"server_id":405,"name":"Uncletopia | Dallas | 4 | Community","name_short":"dal-4","host":"dal-1.us.uncletopia.com","port":27045,"enabled":true,"region":"us-central","cc":"us","latitude":32.779167,"longitude":-96.80889,"reserved":0,"last_update":"0001-01-01T00:00:00Z","name_a2s":"Uncletopia | Dallas | 4 | Community","protocol":17,"map":"workshop/koth_product_final.ugc454272353","folder":"tf","game":"Team Fortress","app_id":440,"player_count":0,"max_players":24,"Bots":0,"server_type":"Dedicated","server_os":"Linux","password":true,"vac":true,"version":"7961495","steam_id":85568392924515220,"keywords":["cp","nocrits","nodmgspread","uncletopia"],"game_id":440,"stv_port":27046,"stv_name":"Uncletopia | Dallas | 4 | Community | STV","players":null},{"server_id":5,"name":"Uncletopia | Frankfurt | 1 | All Maps","name_short":"frk-1","host":"frk-1.de.uncletopia.com","port":27015,"enabled":true,"region":"eu","cc":"de","latitude":50.110924,"longitude":8.682127,"reserved":0,"last_update":"0001-01-01T00:00:00Z","name_a2s":"Uncletopia | Frankfurt | 1 | All Maps","protocol":17,"map":"cp_badlands","folder":"tf","game":"Team Fortress","app_id":440,"player_count":0,"max_players":24,"Bots":0,"server_type":"Dedicated","server_os":"Linux","password":true,"vac":true,"version":"7961495","steam_id":85568392924469989,"keywords":["cp","nocrits","nodmgspread","uncletopia"],"game_id":440,"stv_port":27016,"stv_name":"Uncletopia | Frankfurt | 1 | All Maps | STV","players":null},{"server_id":110,"name":"Uncletopia | Frankfurt | 2 | All Maps","name_short":"frk-2","host":"frk-1.de.uncletopia.com","port":27025,"enabled":true,"region":"eu","cc":"de","latitude":50.110924,"longitude":8.682127,"reserved":0,"last_update":"0001-01-01T00:00:00Z","name_a2s":"Uncletopia | Frankfurt | 2 | All Maps","protocol":17,"map":"plr_hightower","folder":"tf","game":"Team Fortress","app_id":440,"player_count":0,"max_players":24,"Bots":0,"server_type":"Dedicated","server_os":"Linux","password":true,"vac":true,"version":"7961495","steam_id":85568392924469990,"keywords":["nocrits","nodmgspread","payload","uncletopia"],"game_id":440,"stv_port":27026,"stv_name":"Uncletopia | Frankfurt | 2 | All Maps | STV","players":null},{"server_id":308,"name":"Uncletopia | Frankfurt | 3 | All Maps","name_short":"frk-3","host":"frk-1.de.uncletopia.com","port":27035,"enabled":true,"region":"eu","cc":"de","latitude":50.110924,"longitude":8.682127,"reserved":0,"last_update":"0001-01-01T00:00:00Z","name_a2s":"Uncletopia | Frankfurt | 3 | All Maps","protocol":17,"map":"cp_metalworks","folder":"tf","game":"Team Fortress","app_id":440,"player_count":0,"max_players":24,"Bots":0,"server_type":"Dedicated","server_os":"Linux","password":true,"vac":true,"version":"7961495","steam_id":85568392924504274,"keywords":["cp","nocrits","nodmgspread","uncletopia"],"game_id":440,"stv_port":27036,"stv_name":"Uncletopia | Frankfurt | 3 | All Maps | STV","players":null},{"server_id":309,"name":"Uncletopia | Frankfurt | 4 | All Maps","name_short":"frk-4","host":"frk-1.de.uncletopia.com","port":27045,"enabled":true,"region":"eu","cc":"de","latitude":50.110924,"longitude":8.682127,"reserved":0,"last_update":"0001-01-01T00:00:00Z","name_a2s":"Uncletopia | Frankfurt | 4 | All Maps","protocol":17,"map":"cp_gorge","folder":"tf","game":"Team Fortress","app_id":440,"player_count":0,"max_players":24,"Bots":0,"server_type":"Dedicated","server_os":"Linux","password":true,"vac":true,"version":"7961495","steam_id":85568392924504275,"keywords":["cp","nocrits","nodmgspread","uncletopia"],"game_id":440,"stv_port":27046,"stv_name":"Uncletopia | Frankfurt | 4 | All Maps | STV","players":null},{"server_id":310,"name":"Uncletopia | Frankfurt | 5 | All Maps","name_short":"frk-5","host":"frk-1.de.uncletopia.com","port":27055,"enabled":true,"region":"eu","cc":"de","latitude":50.110924,"longitude":8.682127,"reserved":0,"last_update":"0001-01-01T00:00:00Z","name_a2s":"Uncletopia | Frankfurt | 5 | All Maps","protocol":17,"map":"cp_mountainlab","folder":"tf","game":"Team Fortress","app_id":440,"player_count":0,"max_players":24,"Bots":0,"server_type":"Dedicated","server_os":"Linux","password":true,"vac":true,"version":"7961495","steam_id":85568392924504277,"keywords":["cp","nocrits","nodmgspread","uncletopia"],"game_id":440,"stv_port":27056,"stv_name":"Uncletopia | Frankfurt | 5 | All Maps | STV","players":null},{"server_id":311,"name":"Uncletopia | Frankfurt | 6 | All Maps","name_short":"frk-6","host":"frk-1.de.uncletopia.com","port":27065,"enabled":true,"region":"eu","cc":"de","latitude":50.110924,"longitude":8.682127,"reserved":0,"last_update":"0001-01-01T00:00:00Z","name_a2s":"Uncletopia | Frankfurt | 6 | All Maps","protocol":17,"map":"cp_coldfront","folder":"tf","game":"Team Fortress","app_id":440,"player_count":0,"max_players":24,"Bots":0,"server_type":"Dedicated","server_os":"Linux","password":true,"vac":true,"version":"7961495","steam_id":85568392924504278,"keywords":["cp","nocrits","nodmgspread","uncletopia"],"game_id":440,"stv_port":27066,"stv_name":"Uncletopia | Frankfurt | 6 | All Maps | STV","players":null},{"server_id":23,"name":"Uncletopia | Frankfurt | 7 | Stopwatch","name_short":"frk-7","host":"frk-1.de.uncletopia.com","port":27075,"enabled":true,"region":"eu","cc":"de","latitude":50.110924,"longitude":8.682127,"reserved":0,"last_update":"0001-01-01T00:00:00Z","name_a2s":"Uncletopia | Frankfurt | 7 | Stopwatch","protocol":17,"map":"cp_sunshine","folder":"tf","game":"Team Fortress","app_id":440,"player_count":0,"max_players":24,"Bots":0,"server_type":"Dedicated","server_os":"Linux","password":true,"vac":true,"version":"7961495","steam_id":85568392924742827,"keywords":["cp","nocrits","nodmgspread","uncletopia"],"game_id":440,"stv_port":27076,"stv_name":"Uncletopia | Frankfurt | 7 | Stopwatch | STV","players":null},{"server_id":24,"name":"Uncletopia | Frankfurt | 8 | Community","name_short":"frk-8","host":"frk-1.de.uncletopia.com","port":27085,"enabled":true,"region":"eu","cc":"de","latitude":50.110924,"longitude":8.682127,"reserved":0,"last_update":"0001-01-01T00:00:00Z","name_a2s":"Uncletopia | Frankfurt | 8 | Community","protocol":17,"map":"workshop/pl_boundary_final1.ugc456799153","folder":"tf","game":"Team Fortress","app_id":440,"player_count":0,"max_players":24,"Bots":0,"server_type":"Dedicated","server_os":"Linux","password":true,"vac":true,"version":"7961495","steam_id":85568392924742828,"keywords":["nocrits","nodmgspread","payload","uncletopia"],"game_id":440,"stv_port":27086,"stv_name":"Uncletopia | Frankfurt | 8 | Community | STV","players":null},{"server_id":202,"name":"Uncletopia | Hong Kong | 1 | All Maps","name_short":"hgk-1","host":"hgk-1.hk.uncletopia.com","port":27015,"enabled":true,"region":"asia","cc":"hk","latitude":22.302711,"longitude":114.177216,"reserved":0,"last_update":"0001-01-01T00:00:00Z","name_a2s":"Uncletopia | Hong Kong | 1 | All Maps","protocol":17,"map":"ctf_2fort","folder":"tf","game":"Team Fortress","app_id":440,"player_count":10,"max_players":24,"Bots":0,"server_type":"Dedicated","server_os":"Linux","password":true,"vac":true,"version":"7961495","steam_id":85568392924494504,"keywords":["ctf","nocrits","nodmgspread","uncletopia"],"game_id":440,"stv_port":27016,"stv_name":"Uncletopia | Hong Kong | 1 | All Maps | STV","players":[{"user_id":54,"name":"AIvy","steam_id":76561198144336956,"connected_time":282000000000,"state":"active","ping":120},{"user_id":23,"name":"i am a F2P and my aim is shit","steam_id":76561199475974790,"connected_time":2637000000000,"state":"active","ping":54},{"user_id":49,"name":"Kernel","steam_id":76561198402985446,"connected_time":543000000000,"state":"active","ping":60},{"user_id":43,"name":"water tastes good","steam_id":76561199375947670,"connected_time":875000000000,"state":"active","ping":70},{"user_id":44,"name":"Goro Onjima","steam_id":76561198449452640,"connected_time":842000000000,"state":"active","ping":105},{"user_id":45,"name":"Teddie","steam_id":76561198150433935,"connected_time":799000000000,"state":"active","ping":100},{"user_id":34,"name":"Gul'dan","steam_id":76561198240466940,"connected_time":1681000000000,"state":"active","ping":228},{"user_id":37,"name":"Spy CrŒªb F2P","steam_id":76561199090200486,"connected_time":1507000000000,"state":"active","ping":61},{"user_id":52,"name":"HorizoneARC","steam_id":76561199042244775,"connected_time":419000000000,"state":"active","ping":134}]},{"server_id":1,"name":"Uncletopia | Los Angeles | 1 | All Maps","name_short":"lax-1","host":"lax-1.us.uncletopia.com","port":27015,"enabled":true,"region":"us-west","cc":"us","latitude":33.94279,"longitude":-118.41004,"reserved":0,"last_update":"0001-01-01T00:00:00Z","name_a2s":"Uncletopia | Los Angeles | 1 | All Maps","protocol":17,"map":"pl_swiftwater_final1","folder":"tf","game":"Team Fortress","app_id":440,"player_count":0,"max_players":24,"Bots":0,"server_type":"Dedicated","server_os":"Linux","password":true,"vac":true,"version":"7961495","steam_id":85568392924469991,"keywords":["nocrits","nodmgspread","payload","uncletopia"],"game_id":440,"stv_port":27016,"stv_name":"Uncletopia | Los Angeles | 1 | All Maps | STV","players":null},{"server_id":112,"name":"Uncletopia | Los Angeles | 2 | All Maps","name_short":"lax-2","host":"lax-1.us.uncletopia.com","port":27025,"enabled":true,"region":"us-west","cc":"us","latitude":33.94279,"longitude":-118.41004,"reserved":0,"last_update":"0001-01-01T00:00:00Z","name_a2s":"Uncletopia | Los Angeles | 2 | All Maps","protocol":17,"map":"pl_pier","folder":"tf","game":"Team Fortress","app_id":440,"player_count":19,"max_players":24,"Bots":0,"server_type":"Dedicated","server_os":"Linux","password":true,"vac":true,"version":"7961495","steam_id":85568392924469992,"keywords":["nocrits","nodmgspread","payload","uncletopia"],"game_id":440,"stv_port":27026,"stv_name":"Uncletopia | Los Angeles | 2 | All Maps | STV","players":[{"user_id":11,"name":"Orion 1 | Glitch","steam_id":76561198101234226,"connected_time":4577000000000,"state":"active","ping":101},{"user_id":38,"name":"Hawksgamer","steam_id":76561198152405941,"connected_time":3324000000000,"state":"active","ping":73},{"user_id":65,"name":"Lord Pretty Flocko Jordye","steam_id":76561198962880749,"connected_time":243000000000,"state":"active","ping":68},{"user_id":14,"name":"when?","steam_id":76561199379152580,"connected_time":4125000000000,"state":"active","ping":104},{"user_id":66,"name":"Petrivus","steam_id":76561198202152453,"connected_time":49000000000,"state":"active","ping":67},{"user_id":17,"name":"Soggy Zogg","steam_id":76561198836316052,"connected_time":3836000000000,"state":"active","ping":48},{"user_id":18,"name":"goth witch","steam_id":76561198069605283,"connected_time":3832000000000,"state":"active","ping":45},{"user_id":19,"name":"Soda","steam_id":76561198108363656,"connected_time":3829000000000,"state":"active","ping":56},{"user_id":20,"name":"Shazzy","steam_id":76561198145460523,"connected_time":3796000000000,"state":"active","ping":70},{"user_id":21,"name":"Spy Main","steam_id":76561198154715380,"connected_time":3723000000000,"state":"active","ping":54},{"user_id":31,"name":"trackpad gaming | f2p","steam_id":76561198840414371,"connected_time":3503000000000,"state":"active","ping":73},{"user_id":24,"name":"JPika","steam_id":76561198058711361,"connected_time":3620000000000,"state":"active","ping":58},{"user_id":62,"name":"Stroop","steam_id":76561198138687730,"connected_time":1260000000000,"state":"active","ping":67},{"user_id":59,"name":"dude","steam_id":76561198042851124,"connected_time":1438000000000,"state":"active","ping":52},{"user_id":56,"name":"Cobalt","steam_id":76561198063223347,"connected_time":1871000000000,"state":"active","ping":54},{"user_id":46,"name":"Batso","steam_id":76561198106589452,"connected_time":2314000000000,"state":"active","ping":56},{"user_id":35,"name":"wugmup","steam_id":76561199096287734,"connected_time":3393000000000,"state":"active","ping":50},{"user_id":43,"name":"Templar Senpai","steam_id":76561198105659850,"connected_time":3004000000000,"state":"active","ping":68},{"user_id":58,"name":"grickslayer","steam_id":76561198835774649,"connected_time":1462000000000,"state":"active","ping":59}]},{"server_id":324,"name":"Uncletopia | Los Angeles | 3 | All Maps","name_short":"lax-3","host":"lax-1.us.uncletopia.com","port":27035,"enabled":true,"region":"us-west","cc":"us","latitude":33.94279,"longitude":-118.41004,"reserved":0,"last_update":"0001-01-01T00:00:00Z","name_a2s":"Uncletopia | Los Angeles | 3 | All Maps","protocol":17,"map":"cp_dustbowl","folder":"tf","game":"Team Fortress","app_id":440,"player_count":24,"max_players":24,"Bots":0,"server_type":"Dedicated","server_os":"Linux","password":true,"vac":true,"version":"7961495","steam_id":85568392924510198,"keywords":["cp","nocrits","nodmgspread","uncletopia"],"game_id":440,"stv_port":27036,"stv_name":"Uncletopia | Los Angeles | 3 | All Maps | STV","players":[{"user_id":387,"name":"lol","steam_id":76561198026491738,"connected_time":1598000000000,"state":"active","ping":68},{"user_id":409,"name":"spider","steam_id":76561199476364315,"connected_time":603000000000,"state":"active","ping":41},{"user_id":399,"name":"john.","steam_id":76561198982939658,"connected_time":1389000000000,"state":"active","ping":49},{"user_id":414,"name":"Your angry stepdad","steam_id":76561199148273340,"connected_time":372000000000,"state":"active","ping":167},{"user_id":405,"name":"Big Boy Beni","steam_id":76561197995469460,"connected_time":825000000000,"state":"active","ping":36},{"user_id":411,"name":"Irony is pretty cringy","steam_id":76561198120391460,"connected_time":457000000000,"state":"active","ping":47},{"user_id":421,"name":"GriddyCity1","steam_id":76561199228634040,"connected_time":150000000000,"state":"active","ping":54},{"user_id":413,"name":"Fat Cat","steam_id":76561197995995344,"connected_time":413000000000,"state":"active","ping":83},{"user_id":390,"name":"Antking14","steam_id":76561198188971771,"connected_time":1524000000000,"state":"active","ping":66},{"user_id":396,"name":"Amazing476","steam_id":76561198103937489,"connected_time":1443000000000,"state":"active","ping":133},{"user_id":422,"name":"El Gato Paranoico","steam_id":76561198116567116,"connected_time":118000000000,"state":"active","ping":95},{"user_id":406,"name":"GarboBadgerBenis","steam_id":76561198007892807,"connected_time":819000000000,"state":"active","ping":84},{"user_id":418,"name":"Red Velveeta Cake","steam_id":76561198073764084,"connected_time":286000000000,"state":"active","ping":106},{"user_id":382,"name":"Cup Of Joey","steam_id":76561198271159832,"connected_time":2084000000000,"state":"active","ping":59},{"user_id":416,"name":"Wendall555","steam_id":76561198985637603,"connected_time":334000000000,"state":"active","ping":47},{"user_id":417,"name":"chesterwnimitz","steam_id":76561198062664377,"connected_time":312000000000,"state":"active","ping":79},{"user_id":357,"name":"milk","steam_id":76561198053410877,"connected_time":3475000000000,"state":"active","ping":47},{"user_id":419,"name":"Whisper!","steam_id":76561198119609795,"connected_time":266000000000,"state":"active","ping":50},{"user_id":420,"name":"SneekiCheekiQbone","steam_id":76561198045077980,"connected_time":265000000000,"state":"active","ping":45},{"user_id":408,"name":"Cactus","steam_id":76561198828480120,"connected_time":768000000000,"state":"active","ping":83},{"user_id":330,"name":"Korn Dawg graduated!","steam_id":76561198026941076,"connected_time":7169000000000,"state":"active","ping":63},{"user_id":395,"name":"Humble Learner","steam_id":76561198066091050,"connected_time":1463000000000,"state":"active","ping":85},{"user_id":398,"name":"Dogg wader","steam_id":76561199090314340,"connected_time":1420000000000,"state":"active","ping":82},{"user_id":423,"name":"ballmuncher29","steam_id":76561199122915452,"connected_time":101000000000,"state":"active","ping":82}]},{"server_id":25,"name":"Uncletopia | Los Angeles | 4 | Stopwatch","name_short":"lax-4","host":"lax-1.us.uncletopia.com","port":27045,"enabled":true,"region":"us-west","cc":"us","latitude":33.94279,"longitude":-118.41004,"reserved":0,"last_update":"0001-01-01T00:00:00Z","name_a2s":"Uncletopia | Los Angeles | 4 | Stopwatch","protocol":17,"map":"koth_highpass","folder":"tf","game":"Team Fortress","app_id":440,"player_count":2,"max_players":24,"Bots":0,"server_type":"Dedicated","server_os":"Linux","password":true,"vac":true,"version":"7961495","steam_id":85568392924510199,"keywords":["cp","nocrits","nodmgspread","uncletopia"],"game_id":440,"stv_port":27046,"stv_name":"Uncletopia | Los Angeles | 4 | Stopwatch | STV","players":[{"user_id":25,"name":"Spuunster","steam_id":76561199070008096,"connected_time":235000000000,"state":"active","ping":49},{"user_id":26,"name":"gecko","steam_id":76561199227575961,"connected_time":184000000000,"state":"active","ping":58}]},{"server_id":11,"name":"Uncletopia | London | 1 | All Maps","name_short":"lon-1","host":"lon-1.uk.uncletopia.com","port":27015,"enabled":true,"region":"eu","cc":"gb","latitude":51.509865,"longitude":-0.118092,"reserved":0,"last_update":"0001-01-01T00:00:00Z","name_a2s":"Uncletopia | London | 1 | All Maps","protocol":17,"map":"cp_snakewater_final1","folder":"tf","game":"Team Fortress","app_id":440,"player_count":0,"max_players":24,"Bots":0,"server_type":"Dedicated","server_os":"Linux","password":true,"vac":true,"version":"7961495","steam_id":85568392924367362,"keywords":["cp","nocrits","nodmgspread","uncletopia"],"game_id":440,"stv_port":27016,"stv_name":"Uncletopia | London | 1 | All Maps | STV","players":null},{"server_id":114,"name":"Uncletopia | London | 2 | All Maps","name_short":"lon-2","host":"lon-1.uk.uncletopia.com","port":27025,"enabled":true,"region":"eu","cc":"gb","latitude":51.509865,"longitude":-0.118092,"reserved":0,"last_update":"0001-01-01T00:00:00Z","name_a2s":"Uncletopia | London | 2 | All Maps","protocol":17,"map":"pl_snowycoast","folder":"tf","game":"Team Fortress","app_id":440,"player_count":0,"max_players":24,"Bots":0,"server_type":"Dedicated","server_os":"Linux","password":true,"vac":true,"version":"7961495","steam_id":85568392924470941,"keywords":["nocrits","nodmgspread","payload","uncletopia"],"game_id":440,"stv_port":27026,"stv_name":"Uncletopia | London | 2 | All Maps | STV","players":null},{"server_id":320,"name":"Uncletopia | London | 3 | All Maps","name_short":"lon-3","host":"lon-1.uk.uncletopia.com","port":27035,"enabled":true,"region":"eu","cc":"gb","latitude":51.509865,"longitude":-0.118092,"reserved":0,"last_update":"0001-01-01T00:00:00Z","name_a2s":"Uncletopia | London | 3 | All Maps","protocol":17,"map":"koth_lakeside_final","folder":"tf","game":"Team Fortress","app_id":440,"player_count":0,"max_players":24,"Bots":0,"server_type":"Dedicated","server_os":"Linux","password":true,"vac":true,"version":"7961495","steam_id":85568392924510192,"keywords":["cp","nocrits","nodmgspread","uncletopia"],"game_id":440,"stv_port":27036,"stv_name":"Uncletopia | London | 3 | All Maps | STV","players":null},{"server_id":321,"name":"Uncletopia | London | 4 | All Maps","name_short":"lon-4","host":"lon-1.uk.uncletopia.com","port":27045,"enabled":true,"region":"eu","cc":"gb","latitude":51.509865,"longitude":-0.118092,"reserved":0,"last_update":"0001-01-01T00:00:00Z","name_a2s":"Uncletopia | London | 4 | All Maps","protocol":17,"map":"pl_badwater","folder":"tf","game":"Team Fortress","app_id":440,"player_count":0,"max_players":24,"Bots":0,"server_type":"Dedicated","server_os":"Linux","password":true,"vac":true,"version":"7961495","steam_id":85568392924510193,"keywords":["nocrits","nodmgspread","payload","uncletopia"],"game_id":440,"stv_port":27046,"stv_name":"Uncletopia | London | 4 | All Maps | STV","players":null},{"server_id":21,"name":"Uncletopia | London | 5 | All Maps","name_short":"lon-5","host":"lon-1.uk.uncletopia.com","port":27055,"enabled":true,"region":"eu","cc":"gb","latitude":51.509865,"longitude":-0.118092,"reserved":0,"last_update":"0001-01-01T00:00:00Z","name_a2s":"Uncletopia | London | 5 | All Maps","protocol":17,"map":"koth_lazarus","folder":"tf","game":"Team Fortress","app_id":440,"player_count":0,"max_players":24,"Bots":0,"server_type":"Dedicated","server_os":"Linux","password":true,"vac":true,"version":"7961495","steam_id":85568392924742829,"keywords":["cp","nocrits","nodmgspread","uncletopia"],"game_id":440,"stv_port":27056,"stv_name":"Uncletopia | London | 5 | All Maps | STV","players":null},{"server_id":22,"name":"Uncletopia | London | 6 | All Maps","name_short":"lon-6","host":"lon-1.uk.uncletopia.com","port":27065,"enabled":true,"region":"eu","cc":"gb","latitude":51.509865,"longitude":-0.118092,"reserved":0,"last_update":"0001-01-01T00:00:00Z","name_a2s":"Uncletopia | London | 6 | All Maps","protocol":17,"map":"cp_snakewater_final1","folder":"tf","game":"Team Fortress","app_id":440,"player_count":0,"max_players":24,"Bots":0,"server_type":"Dedicated","server_os":"Linux","password":true,"vac":true,"version":"7961495","steam_id":85568392924742830,"keywords":["cp","nocrits","nodmgspread","uncletopia"],"game_id":440,"stv_port":27066,"stv_name":"Uncletopia | London | 6 | All Maps | STV","players":null},{"server_id":40,"name":"Uncletopia | London | 7 | Stopwatch","name_short":"lon-7","host":"lon-1.uk.uncletopia.com","port":27075,"enabled":true,"region":"eu","cc":"gb","latitude":51.509865,"longitude":-0.118092,"reserved":0,"last_update":"0001-01-01T00:00:00Z","name_a2s":"Uncletopia | London | 7 | Stopwatch","protocol":17,"map":"workshop/pl_badwater_pro_v12.ugc2142942074","folder":"tf","game":"Team Fortress","app_id":440,"player_count":0,"max_players":24,"Bots":0,"server_type":"Dedicated","server_os":"Linux","password":true,"vac":true,"version":"7961495","steam_id":85568392924964314,"keywords":["nocrits","nodmgspread","payload","uncletopia"],"game_id":440,"stv_port":27076,"stv_name":"Uncletopia | London | 7 | Stopwatch | STV","players":null},{"server_id":41,"name":"Uncletopia | London | 8 | Community","name_short":"lon-8","host":"lon-1.uk.uncletopia.com","port":27085,"enabled":true,"region":"eu","cc":"gb","latitude":51.509865,"longitude":-0.118092,"reserved":0,"last_update":"0001-01-01T00:00:00Z","name_a2s":"Uncletopia | London | 8 | Community","protocol":17,"map":"workshop/cp_villa_b19.ugc2113052569","folder":"tf","game":"Team Fortress","app_id":440,"player_count":0,"max_players":24,"Bots":0,"server_type":"Dedicated","server_os":"Linux","password":true,"vac":true,"version":"7961495","steam_id":85568392924964315,"keywords":["cp","nocrits","nodmgspread","uncletopia"],"game_id":440,"stv_port":27086,"stv_name":"Uncletopia | London | 8 | Community | STV","players":null},{"server_id":300,"name":"Uncletopia | Montr√©al | 1 | One Thousand Uncles","name_short":"mtl-1","host":"mtl-1.ca.uncletopia.com","port":27015,"enabled":true,"region":"us-east","cc":"ca","latitude":45.50889,"longitude":-73.56167,"reserved":0,"last_update":"0001-01-01T00:00:00Z","name_a2s":"Uncletopia | Montr√©al | 1 | One Thousand Uncles","protocol":17,"map":"pl_badwater","folder":"tf","game":"Team Fortress","app_id":440,"player_count":0,"max_players":32,"Bots":0,"server_type":"Dedicated","server_os":"Linux","password":true,"vac":true,"version":"7961495","steam_id":85568392924500087,"keywords":["alltalk","danepve","increased_maxplayers","norespawntime","payload","uncletopia"],"game_id":440,"stv_port":0,"stv_name":"","players":null},{"server_id":301,"name":"Uncletopia | Montr√©al | 2 | One Thousand Uncles","name_short":"mtl-2","host":"mtl-1.ca.uncletopia.com","port":27025,"enabled":true,"region":"us-east","cc":"ca","latitude":45.50889,"longitude":-73.56167,"reserved":0,"last_update":"0001-01-01T00:00:00Z","name_a2s":"Uncletopia | Montr√©al | 2 | One Thousand Uncles","protocol":17,"map":"pl_chilly","folder":"tf","game":"Team Fortress","app_id":440,"player_count":0,"max_players":32,"Bots":0,"server_type":"Dedicated","server_os":"Linux","password":true,"vac":true,"version":"7961495","steam_id":85568392924500088,"keywords":["alltalk","danepve","increased_maxplayers","norespawntime","payload","uncletopia"],"game_id":440,"stv_port":0,"stv_name":"","players":null},{"server_id":302,"name":"Uncletopia | Montr√©al | 3 | One Thousand Uncles","name_short":"mtl-3","host":"mtl-1.ca.uncletopia.com","port":27035,"enabled":true,"region":"us-east","cc":"ca","latitude":45.50889,"longitude":-73.56167,"reserved":0,"last_update":"0001-01-01T00:00:00Z","name_a2s":"Uncletopia | Montr√©al | 3 | One Thousand Uncles","protocol":17,"map":"cp_mossrock","folder":"tf","game":"Team Fortress","app_id":440,"player_count":0,"max_players":32,"Bots":0,"server_type":"Dedicated","server_os":"Linux","password":true,"vac":true,"version":"7961495","steam_id":85568392924500089,"keywords":["alltalk","cp","danepve","increased_maxplayers","norespawntime","uncletopia"],"game_id":440,"stv_port":0,"stv_name":"","players":null},{"server_id":13,"name":"Uncletopia | New York City | 1 | All Maps","name_short":"nyc-1","host":"nyc-1.us.uncletopia.com","port":27015,"enabled":true,"region":"us-east","cc":"us","latitude":40.73061,"longitude":-73.93524,"reserved":0,"last_update":"0001-01-01T00:00:00Z","name_a2s":"Uncletopia | New York City | 1 | All Maps","protocol":17,"map":"koth_lakeside_final","folder":"tf","game":"Team Fortress","app_id":440,"player_count":0,"max_players":24,"Bots":0,"server_type":"Dedicated","server_os":"Linux","password":true,"vac":true,"version":"7961495","steam_id":85568392924469993,"keywords":["cp","nocrits","nodmgspread","uncletopia"],"game_id":440,"stv_port":27016,"stv_name":"Uncletopia | New York City | 1 | All Maps | STV","players":null},{"server_id":14,"name":"Uncletopia | New York City | 2 | All Maps","name_short":"nyc-2","host":"nyc-1.us.uncletopia.com","port":27025,"enabled":true,"region":"us-east","cc":"us","latitude":40.73061,"longitude":-73.93524,"reserved":0,"last_update":"0001-01-01T00:00:00Z","name_a2s":"Uncletopia | New York City | 2 | All Maps","protocol":17,"map":"cp_process_final","folder":"tf","game":"Team Fortress","app_id":440,"player_count":16,"max_players":24,"Bots":0,"server_type":"Dedicated","server_os":"Linux","password":true,"vac":true,"version":"7961495","steam_id":85568392924469994,"keywords":["cp","nocrits","nodmgspread","uncletopia"],"game_id":440,"stv_port":27026,"stv_name":"Uncletopia | New York City | 2 | All Maps | STV","players":[{"user_id":459,"name":"Tiberius Bingleton","steam_id":76561198855873744,"connected_time":171000000000,"state":"active","ping":119},{"user_id":456,"name":"nikeshoe92","steam_id":76561197973093864,"connected_time":441000000000,"state":"active","ping":90},{"user_id":441,"name":"sagejay","steam_id":76561198118149530,"connected_time":1841000000000,"state":"active","ping":46},{"user_id":457,"name":"-natalexei","steam_id":76561198100477765,"connected_time":411000000000,"state":"active","ping":64},{"user_id":448,"name":"natalielover52","steam_id":76561198248461754,"connected_time":1425000000000,"state":"active","ping":119},{"user_id":458,"name":"DinkyDoink","steam_id":76561198240026004,"connected_time":252000000000,"state":"active","ping":62},{"user_id":460,"name":"Jacknerik","steam_id":76561198041365662,"connected_time":22000000000,"state":"active","ping":49},{"user_id":450,"name":"Hotdog_Gentleman","steam_id":76561199309867837,"connected_time":1392000000000,"state":"active","ping":163},{"user_id":440,"name":"Delta","steam_id":76561198158985472,"connected_time":2178000000000,"state":"active","ping":116},{"user_id":401,"name":"kaputon","steam_id":76561198146299782,"connected_time":5474000000000,"state":"active","ping":75},{"user_id":423,"name":"Bunni","steam_id":76561198065169997,"connected_time":3816000000000,"state":"active","ping":63},{"user_id":442,"name":"cc.ktaeoh","steam_id":76561198300888156,"connected_time":1735000000000,"state":"active","ping":116},{"user_id":415,"name":"Fever Dreams","steam_id":76561198116614620,"connected_time":4881000000000,"state":"active","ping":60},{"user_id":433,"name":"King Kalo","steam_id":76561198387671992,"connected_time":2500000000000,"state":"active","ping":71},{"user_id":451,"name":"el Sombrero Mexicano","steam_id":76561198114094157,"connected_time":1369000000000,"state":"active","ping":107},{"user_id":452,"name":"GoodleShoes/ttv","steam_id":76561198030993521,"connected_time":1342000000000,"state":"active","ping":66}]},{"server_id":15,"name":"Uncletopia | New York City | 3 | Stopwatch","name_short":"nyc-3","host":"nyc-1.us.uncletopia.com","port":27035,"enabled":true,"region":"us-east","cc":"us","latitude":40.73061,"longitude":-73.93524,"reserved":0,"last_update":"0001-01-01T00:00:00Z","name_a2s":"Uncletopia | New York City | 3 | Stopwatch","protocol":17,"map":"cp_sunshine","folder":"tf","game":"Team Fortress","app_id":440,"player_count":0,"max_players":24,"Bots":0,"server_type":"Dedicated","server_os":"Linux","password":true,"vac":true,"version":"7961495","steam_id":85568392924742820,"keywords":["cp","nocrits","nodmgspread","uncletopia"],"game_id":440,"stv_port":27036,"stv_name":"Uncletopia | New York City | 3 | Stopwatch | STV","players":null},{"server_id":16,"name":"Uncletopia | New York City | 4 | Community","name_short":"nyc-4","host":"nyc-1.us.uncletopia.com","port":27045,"enabled":true,"region":"us-east","cc":"us","latitude":40.73061,"longitude":-73.93524,"reserved":0,"last_update":"0001-01-01T00:00:00Z","name_a2s":"Uncletopia | New York City | 4 | Community","protocol":17,"map":"workshop/cp_propaganda_b18.ugc1603743849","folder":"tf","game":"Team Fortress","app_id":440,"player_count":0,"max_players":24,"Bots":0,"server_type":"Dedicated","server_os":"Linux","password":true,"vac":true,"version":"7961495","steam_id":85568392924742821,"keywords":["cp","nocrits","nodmgspread","uncletopia"],"game_id":440,"stv_port":27046,"stv_name":"Uncletopia | New York City | 4 | Community | STV","players":null},{"server_id":142,"name":"Uncletopia | S√£o Paulo | 1 | All Maps","name_short":"sao-1","host":"sao-1.br.uncletopia.com","port":27015,"enabled":true,"region":"sa","cc":"br","latitude":-23.533773,"longitude":-46.62529,"reserved":0,"last_update":"0001-01-01T00:00:00Z","name_a2s":"Uncletopia | S√£o Paulo | 1 | All Maps","protocol":17,"map":"koth_cascade","folder":"tf","game":"Team Fortress","app_id":440,"player_count":0,"max_players":24,"Bots":0,"server_type":"Dedicated","server_os":"Linux","password":true,"vac":true,"version":"7961495","steam_id":85568392924469996,"keywords":["cp","nocrits","nodmgspread","uncletopia"],"game_id":440,"stv_port":27016,"stv_name":"Uncletopia | S√£o Paulo | 1 | All Maps | STV","players":null},{"server_id":143,"name":"Uncletopia | S√£o Paulo | 2 | Community","name_short":"sao-2","host":"sao-2.br.uncletopia.com","port":27015,"enabled":true,"region":"sa","cc":"br","latitude":-23.533773,"longitude":-46.62529,"reserved":0,"last_update":"0001-01-01T00:00:00Z","name_a2s":"Uncletopia | S√£o Paulo | 2 | Community","protocol":17,"map":"workshop/koth_product_final.ugc454272353","folder":"tf","game":"Team Fortress","app_id":440,"player_count":0,"max_players":24,"Bots":0,"server_type":"Dedicated","server_os":"Linux","password":true,"vac":true,"version":"7961495","steam_id":85568392924485349,"keywords":["cp","nocrits","nodmgspread","uncletopia"],"game_id":440,"stv_port":27016,"stv_name":"Uncletopia | S√£o Paulo | 2 | Community | STV","players":null},{"server_id":7,"name":"Uncletopia | Seattle | 1 | All Maps","name_short":"sea-1","host":"sea-1.us.uncletopia.com","port":27015,"enabled":true,"region":"us-west","cc":"us","latitude":47.608013,"longitude":-122.33517,"reserved":0,"last_update":"0001-01-01T00:00:00Z","name_a2s":"Uncletopia | Seattle | 1 | All Maps","protocol":17,"map":"pl_frontier_final","folder":"tf","game":"Team Fortress","app_id":440,"player_count":25,"max_players":24,"Bots":0,"server_type":"Dedicated","server_os":"Linux","password":true,"vac":true,"version":"7961495","steam_id":85568392924469997,"keywords":["nocrits","nodmgspread","payload","uncletopia"],"game_id":440,"stv_port":27016,"stv_name":"Uncletopia | Seattle | 1 | All Maps | STV","players":[{"user_id":773,"name":"mega","steam_id":76561198089520959,"connected_time":4010000000000,"state":"active","ping":92},{"user_id":805,"name":"Grill Skills","steam_id":76561198053575147,"connected_time":839000000000,"state":"active","ping":41},{"user_id":806,"name":"I_Want_A_Soft_Taco","steam_id":76561198225561352,"connected_time":839000000000,"state":"active","ping":94},{"user_id":756,"name":"Grassman (Cc)","steam_id":76561198026488532,"connected_time":5901000000000,"state":"active","ping":60},{"user_id":735,"name":"Luca","steam_id":76561198125087140,"connected_time":7462000000000,"state":"active","ping":46},{"user_id":768,"name":"fungi@bowie.gg","steam_id":76561198169755734,"connected_time":4396000000000,"state":"active","ping":60},{"user_id":788,"name":"Racecar_Driver","steam_id":76561198054176223,"connected_time":2280000000000,"state":"active","ping":52},{"user_id":810,"name":"jorts","steam_id":76561199041179985,"connected_time":778000000000,"state":"active","ping":50},{"user_id":809,"name":"pyrotechnic","steam_id":76561198043558709,"connected_time":824000000000,"state":"active","ping":46},{"user_id":781,"name":"Muscle Man","steam_id":76561198248325252,"connected_time":2786000000000,"state":"active","ping":76},{"user_id":791,"name":"a","steam_id":76561198074209737,"connected_time":1695000000000,"state":"active","ping":90},{"user_id":801,"name":"smeasly","steam_id":76561198028718812,"connected_time":857000000000,"state":"active","ping":28},{"user_id":795,"name":"Bcuz","steam_id":76561197981318027,"connected_time":1391000000000,"state":"active","ping":90},{"user_id":719,"name":"rat gets the cheese","steam_id":76561198031234032,"connected_time":8486000000000,"state":"active","ping":99},{"user_id":771,"name":"Sniff","steam_id":76561198010270922,"connected_time":4242000000000,"state":"active","ping":44},{"user_id":792,"name":"delight","steam_id":76561197980280272,"connected_time":1442000000000,"state":"active","ping":45},{"user_id":808,"name":"Henchie!","steam_id":76561198047567464,"connected_time":829000000000,"state":"active","ping":89},{"user_id":811,"name":"rorywashere /·ê† - Àï -„Éû ‚≥ä","steam_id":76561198065825165,"connected_time":742000000000,"state":"active","ping":117},{"user_id":761,"name":"hatred","steam_id":76561198904209270,"connected_time":5109000000000,"state":"active","ping":59},{"user_id":755,"name":"allahsdroptop (Bag/Chaser)","steam_id":76561198133195238,"connected_time":5957000000000,"state":"active","ping":67},{"user_id":812,"name":"Dog","steam_id":76561198041841128,"connected_time":408000000000,"state":"active","ping":89},{"user_id":804,"name":"gorlab","steam_id":76561198025089694,"connected_time":841000000000,"state":"active","ping":74},{"user_id":798,"name":"NEBULA","steam_id":76561198086878595,"connected_time":889000000000,"state":"active","ping":74},{"user_id":802,"name":"resh","steam_id":76561198239598834,"connected_time":857000000000,"state":"active","ping":141},{"user_id":799,"name":"severe fjord withdrawals","steam_id":76561198131166135,"connected_time":888000000000,"state":"active","ping":44}]},{"server_id":119,"name":"Uncletopia | Seattle | 2 | All Maps","name_short":"sea-2","host":"sea-1.us.uncletopia.com","port":27025,"enabled":true,"region":"us-west","cc":"us","latitude":47.608013,"longitude":-122.33517,"reserved":0,"last_update":"0001-01-01T00:00:00Z","name_a2s":"Uncletopia | Seattle | 2 | All Maps","protocol":17,"map":"ctf_sawmill","folder":"tf","game":"Team Fortress","app_id":440,"player_count":24,"max_players":24,"Bots":0,"server_type":"Dedicated","server_os":"Linux","password":true,"vac":true,"version":"7961495","steam_id":85568392924469998,"keywords":["ctf","nocrits","nodmgspread","uncletopia"],"game_id":440,"stv_port":27026,"stv_name":"Uncletopia | Seattle | 2 | All Maps | STV","players":[{"user_id":240,"name":"UltimaA","steam_id":76561198083618022,"connected_time":390000000000,"state":"active","ping":60},{"user_id":235,"name":"Maid 'n' China","steam_id":76561198423392976,"connected_time":483000000000,"state":"active","ping":56},{"user_id":217,"name":"dodecadron","steam_id":76561198027397222,"connected_time":1465000000000,"state":"active","ping":61},{"user_id":202,"name":"evil jesus 05","steam_id":76561198419315893,"connected_time":2112000000000,"state":"active","ping":90},{"user_id":239,"name":"Sharky","steam_id":76561198012238028,"connected_time":409000000000,"state":"active","ping":54},{"user_id":228,"name":"Maximum","steam_id":76561198868983813,"connected_time":877000000000,"state":"active","ping":55},{"user_id":205,"name":"chocolatkey","steam_id":76561198092466325,"connected_time":1855000000000,"state":"active","ping":42},{"user_id":206,"name":"Skronky","steam_id":76561198093326810,"connected_time":1837000000000,"state":"active","ping":33},{"user_id":236,"name":"Muselk, but mexican","steam_id":76561199289676387,"connected_time":448000000000,"state":"active","ping":109},{"user_id":209,"name":"Drink My Viscera","steam_id":76561198164782653,"connected_time":1613000000000,"state":"active","ping":120},{"user_id":66,"name":"Katie XXII","steam_id":76561198135534297,"connected_time":12609000000000,"state":"active","ping":46},{"user_id":176,"name":"Warhawk","steam_id":76561198008892743,"connected_time":3985000000000,"state":"active","ping":51},{"user_id":154,"name":"Obersteuermann","steam_id":76561198044468707,"connected_time":5301000000000,"state":"active","ping":52},{"user_id":178,"name":"the pizza","steam_id":76561198221331476,"connected_time":3798000000000,"state":"active","ping":54},{"user_id":207,"name":"miguelrodriguez2013","steam_id":76561198269253587,"connected_time":1812000000000,"state":"active","ping":63},{"user_id":210,"name":"gerg","steam_id":76561197997127387,"connected_time":1611000000000,"state":"active","ping":73},{"user_id":237,"name":"weed lesbian","steam_id":76561198042263805,"connected_time":447000000000,"state":"active","ping":51},{"user_id":231,"name":"bug","steam_id":76561198381048942,"connected_time":732000000000,"state":"active","ping":54},{"user_id":211,"name":"social distance warrior","steam_id":76561198128992994,"connected_time":1605000000000,"state":"active","ping":48},{"user_id":139,"name":"squart guy","steam_id":76561199411560141,"connected_time":6238000000000,"state":"active","ping":48},{"user_id":212,"name":"sadlaxx","steam_id":76561198061354919,"connected_time":1601000000000,"state":"active","ping":72},{"user_id":221,"name":"Im Groot","steam_id":76561198294943420,"connected_time":1117000000000,"state":"active","ping":58},{"user_id":218,"name":"Rusty","steam_id":76561198055585129,"connected_time":1391000000000,"state":"active","ping":45},{"user_id":233,"name":"Houdini Cache","steam_id":76561198045506970,"connected_time":662000000000,"state":"active","ping":45}]},{"server_id":406,"name":"Uncletopia | Seattle | 3 | Stopwatch","name_short":"sea-3","host":"sea-1.us.uncletopia.com","port":27035,"enabled":true,"region":"us-west","cc":"us","latitude":47.608013,"longitude":-122.33517,"reserved":0,"last_update":"0001-01-01T00:00:00Z","name_a2s":"Uncletopia | Seattle | 3 | Stopwatch","protocol":17,"map":"workshop/koth_product_final.ugc454272353","folder":"tf","game":"Team Fortress","app_id":440,"player_count":0,"max_players":24,"Bots":0,"server_type":"Dedicated","server_os":"Linux","password":true,"vac":true,"version":"7961495","steam_id":85568392924515217,"keywords":["cp","nocrits","nodmgspread","uncletopia"],"game_id":440,"stv_port":27036,"stv_name":"Uncletopia | Seattle | 3 | Stopwatch | STV","players":null},{"server_id":17,"name":"Uncletopia | San Francisco | 1 | All Maps","name_short":"sfo-1","host":"sfo-1.us.uncletopia.com","port":27015,"enabled":true,"region":"us-west","cc":"us","latitude":37.77397,"longitude":-122.4313,"reserved":0,"last_update":"0001-01-01T00:00:00Z","name_a2s":"Uncletopia | San Francisco | 1 | All Maps","protocol":17,"map":"pl_upward","folder":"tf","game":"Team Fortress","app_id":440,"player_count":23,"max_players":24,"Bots":0,"server_type":"Dedicated","server_os":"Linux","password":true,"vac":true,"version":"7961495","steam_id":85568392924469999,"keywords":["nocrits","nodmgspread","payload","uncletopia"],"game_id":440,"stv_port":27016,"stv_name":"Uncletopia | San Francisco | 1 | All Maps | STV","players":[{"user_id":238,"name":"[√òWQJ√ò]chubacaalatake","steam_id":76561198136201697,"connected_time":8907000000000,"state":"active","ping":107},{"user_id":344,"name":"Puskinti","steam_id":76561198032120688,"connected_time":123000000000,"state":"active","ping":64},{"user_id":340,"name":"hooch","steam_id":76561198006892781,"connected_time":641000000000,"state":"active","ping":89},{"user_id":334,"name":"dunkeroni","steam_id":76561198066114874,"connected_time":938000000000,"state":"active","ping":75},{"user_id":335,"name":"I'm gay","steam_id":76561198076645019,"connected_time":932000000000,"state":"active","ping":81},{"user_id":248,"name":"SolarusD","steam_id":76561198029279861,"connected_time":8244000000000,"state":"active","ping":52},{"user_id":308,"name":"sobaka","steam_id":76561198116008934,"connected_time":3634000000000,"state":"active","ping":44},{"user_id":318,"name":"One Frame","steam_id":76561198143287731,"connected_time":2299000000000,"state":"active","ping":60},{"user_id":300,"name":"N√º√æ","steam_id":76561198043956703,"connected_time":4736000000000,"state":"active","ping":61},{"user_id":328,"name":"ATLS1 | Strange Festive","steam_id":76561198050385093,"connected_time":2016000000000,"state":"active","ping":119},{"user_id":134,"name":"Lambchop","steam_id":76561198043900363,"connected_time":17273000000000,"state":"active","ping":60},{"user_id":315,"name":"estrogen in my vape juice","steam_id":76561198068387373,"connected_time":2396000000000,"state":"active","ping":45},{"user_id":319,"name":"Buswolley","steam_id":76561197995205571,"connected_time":2278000000000,"state":"active","ping":38},{"user_id":336,"name":"The_Pacific_gamer","steam_id":76561198089491446,"connected_time":832000000000,"state":"active","ping":57},{"user_id":338,"name":"Truce","steam_id":76561198044334346,"connected_time":732000000000,"state":"active","ping":75},{"user_id":339,"name":"Skip Hop Doo Bop","steam_id":76561199161571849,"connected_time":710000000000,"state":"active","ping":44},{"user_id":331,"name":"vanillain","steam_id":76561198058617608,"connected_time":1531000000000,"state":"active","ping":60},{"user_id":312,"name":"just took estrogen ama :3","steam_id":76561198039225492,"connected_time":3026000000000,"state":"active","ping":49},{"user_id":341,"name":"kitty","steam_id":76561199001918194,"connected_time":550000000000,"state":"active","ping":60},{"user_id":342,"name":"RectalExam","steam_id":76561197970502312,"connected_time":547000000000,"state":"active","ping":104},{"user_id":330,"name":"mango sorbet","steam_id":76561198143371128,"connected_time":1687000000000,"state":"active","ping":54},{"user_id":327,"name":"ùíØùíΩùíæùìáùìâùìé ùí©\ufffd\ufffd","steam_id":76561198111878431,"connected_time":2042000000000,"state":"active","ping":93},{"user_id":329,"name":"mk ultra sissy ray victim","steam_id":76561198013215955,"connected_time":1993000000000,"state":"active","ping":53}]},{"server_id":18,"name":"Uncletopia | San Francisco | 2 | All Maps","name_short":"sfo-2","host":"sfo-1.us.uncletopia.com","port":27025,"enabled":true,"region":"us-west","cc":"us","latitude":37.77397,"longitude":-122.4313,"reserved":0,"last_update":"0001-01-01T00:00:00Z","name_a2s":"Uncletopia | San Francisco | 2 | All Maps","protocol":17,"map":"koth_viaduct","folder":"tf","game":"Team Fortress","app_id":440,"player_count":0,"max_players":24,"Bots":0,"server_type":"Dedicated","server_os":"Linux","password":true,"vac":true,"version":"7961495","steam_id":85568392924470000,"keywords":["cp","nocrits","nodmgspread","uncletopia"],"game_id":440,"stv_port":27026,"stv_name":"Uncletopia | San Francisco | 2 | All Maps | STV","players":null},{"server_id":19,"name":"Uncletopia | San Francisco | 3 | Stopwatch","name_short":"sfo-3","host":"sfo-1.us.uncletopia.com","port":27035,"enabled":true,"region":"us-west","cc":"us","latitude":37.77397,"longitude":-122.4313,"reserved":0,"last_update":"0001-01-01T00:00:00Z","name_a2s":"Uncletopia | San Francisco | 3 | Stopwatch","protocol":17,"map":"pl_swiftwater_final1","folder":"tf","game":"Team Fortress","app_id":440,"player_count":0,"max_players":24,"Bots":0,"server_type":"Dedicated","server_os":"Linux","password":true,"vac":true,"version":"7961495","steam_id":85568392924742824,"keywords":["nocrits","nodmgspread","payload","uncletopia"],"game_id":440,"stv_port":27036,"stv_name":"Uncletopia | San Francisco | 3 | Stopwatch | STV","players":null},{"server_id":20,"name":"Uncletopia | San Francisco | 4 | Community","name_short":"sfo-4","host":"sfo-1.us.uncletopia.com","port":27045,"enabled":true,"region":"us-west","cc":"us","latitude":37.77397,"longitude":-122.4313,"reserved":0,"last_update":"0001-01-01T00:00:00Z","name_a2s":"Uncletopia | San Francisco | 4 | Community","protocol":17,"map":"workshop/pl_shoreleave_rc2.ugc1238849347","folder":"tf","game":"Team Fortress","app_id":440,"player_count":0,"max_players":24,"Bots":0,"server_type":"Dedicated","server_os":"Linux","password":true,"vac":true,"version":"7961495","steam_id":85568392924742826,"keywords":["nocrits","nodmgspread","payload","uncletopia"],"game_id":440,"stv_port":27046,"stv_name":"Uncletopia | San Francisco | 4 | Community | STV","players":null},{"server_id":141,"name":"Uncletopia | Sydney | 1 | All Maps","name_short":"syd-1","host":"syd-1.au.uncletopia.com","port":27015,"enabled":true,"region":"au","cc":"au","latitude":-33.865143,"longitude":151.2099,"reserved":0,"last_update":"0001-01-01T00:00:00Z","name_a2s":"Uncletopia | Sydney | 1 | All Maps","protocol":17,"map":"pl_frontier_final","folder":"tf","game":"Team Fortress","app_id":440,"player_count":12,"max_players":24,"Bots":0,"server_type":"Dedicated","server_os":"Linux","password":true,"vac":true,"version":"7961495","steam_id":85568392924470001,"keywords":["nocrits","nodmgspread","payload","uncletopia"],"game_id":440,"stv_port":27016,"stv_name":"Uncletopia | Sydney | 1 | All Maps | STV","players":[{"user_id":6,"name":"Entralink","steam_id":76561198137562689,"connected_time":2158000000000,"state":"active","ping":51},{"user_id":9,"name":"HJGuard","steam_id":76561199275636067,"connected_time":1856000000000,"state":"active","ping":66},{"user_id":10,"name":"Bad Medicine","steam_id":76561199396024219,"connected_time":1804000000000,"state":"active","ping":64},{"user_id":24,"name":"Dot","steam_id":76561198064534661,"connected_time":273000000000,"state":"active","ping":58},{"user_id":14,"name":"CypressFluff (she/her)","steam_id":76561198174667818,"connected_time":1383000000000,"state":"active","ping":36},{"user_id":25,"name":"Daddy-O Dizzy","steam_id":76561198292349348,"connected_time":188000000000,"state":"active","ping":278},{"user_id":27,"name":"{Azura Sarah}","steam_id":76561197989210208,"connected_time":119000000000,"state":"active","ping":45},{"user_id":18,"name":"Snuky","steam_id":76561198117902338,"connected_time":709000000000,"state":"active","ping":42},{"user_id":20,"name":"da fox in da box","steam_id":76561199190532952,"connected_time":582000000000,"state":"active","ping":44},{"user_id":21,"name":"...","steam_id":76561198309750355,"connected_time":503000000000,"state":"active","ping":56},{"user_id":22,"name":"JGuy_850","steam_id":76561199157185906,"connected_time":448000000000,"state":"active","ping":42},{"user_id":28,"name":"Spellstutter","steam_id":76561198046620609,"connected_time":107000000000,"state":"active","ping":32}]},{"server_id":123,"name":"Uncletopia | Sydney | 2 | All Maps","name_short":"syd-2","host":"syd-1.au.uncletopia.com","port":27025,"enabled":true,"region":"au","cc":"au","latitude":-33.865143,"longitude":151.2099,"reserved":0,"last_update":"0001-01-01T00:00:00Z","name_a2s":"Uncletopia | Sydney | 2 | All Maps","protocol":17,"map":"cp_fastlane","folder":"tf","game":"Team Fortress","app_id":440,"player_count":0,"max_players":24,"Bots":0,"server_type":"Dedicated","server_os":"Linux","password":true,"vac":true,"version":"7961495","steam_id":85568392924470002,"keywords":["cp","nocrits","nodmgspread","uncletopia"],"game_id":440,"stv_port":27026,"stv_name":"Uncletopia | Sydney | 2 | All Maps | STV","players":null},{"server_id":395,"name":"Uncletopia | Sydney | 3 | All Maps","name_short":"syd-3","host":"syd-1.au.uncletopia.com","port":27035,"enabled":true,"region":"au","cc":"au","latitude":-33.865143,"longitude":151.2099,"reserved":0,"last_update":"0001-01-01T00:00:00Z","name_a2s":"Uncletopia | Sydney | 3 | All Maps","protocol":17,"map":"cp_metalworks","folder":"tf","game":"Team Fortress","app_id":440,"player_count":0,"max_players":24,"Bots":0,"server_type":"Dedicated","server_os":"Linux","password":true,"vac":true,"version":"7961495","steam_id":85568392925194467,"keywords":["cp","nocrits","nodmgspread","uncletopia"],"game_id":440,"stv_port":27036,"stv_name":"Uncletopia | Sydney | 3 | All Maps | STV","players":null},{"server_id":396,"name":"Uncletopia | Sydney | 4 | All Maps","name_short":"syd-4","host":"syd-1.au.uncletopia.com","port":27045,"enabled":true,"region":"au","cc":"au","latitude":-33.865143,"longitude":151.2099,"reserved":0,"last_update":"0001-01-01T00:00:00Z","name_a2s":"Uncletopia | Sydney | 4 | All Maps","protocol":17,"map":"koth_cascade","folder":"tf","game":"Team Fortress","app_id":440,"player_count":0,"max_players":24,"Bots":0,"server_type":"Dedicated","server_os":"Linux","password":true,"vac":true,"version":"7961495","steam_id":85568392925397958,"keywords":["cp","nocrits","nodmgspread","uncletopia"],"game_id":440,"stv_port":27046,"stv_name":"Uncletopia | Sydney | 4 | All Maps | STV","players":null},{"server_id":58,"name":"Uncletopia | Sydney | 5 | Stopwatch","name_short":"syd-5","host":"syd-1.au.uncletopia.com","port":27055,"enabled":true,"region":"au","cc":"au","latitude":-33.865143,"longitude":151.2099,"reserved":0,"last_update":"0001-01-01T00:00:00Z","name_a2s":"Uncletopia | Sydney | 5 | Stopwatch","protocol":17,"map":"workshop/koth_product_final.ugc454272353","folder":"tf","game":"Team Fortress","app_id":440,"player_count":0,"max_players":24,"Bots":0,"server_type":"Dedicated","server_os":"Linux","password":true,"vac":true,"version":"7961495","steam_id":85568392925397959,"keywords":["cp","nocrits","nodmgspread","uncletopia"],"game_id":440,"stv_port":27056,"stv_name":"Uncletopia | Sydney | 5 | Stopwatch | STV","players":null},{"server_id":59,"name":"Uncletopia | Sydney | 6 | Community","name_short":"syd-6","host":"syd-1.au.uncletopia.com","port":27065,"enabled":true,"region":"au","cc":"au","latitude":-33.865143,"longitude":151.2099,"reserved":0,"last_update":"0001-01-01T00:00:00Z","name_a2s":"Uncletopia | Sydney | 6 | Community","protocol":17,"map":"workshop/koth_trenchfoot_ab1.ugc731436616","folder":"tf","game":"Team Fortress","app_id":440,"player_count":0,"max_players":24,"Bots":0,"server_type":"Dedicated","server_os":"Linux","password":true,"vac":true,"version":"7961495","steam_id":85568392925397960,"keywords":["cp","nocrits","nodmgspread","uncletopia"],"game_id":440,"stv_port":27066,"stv_name":"Uncletopia | Sydney | 6 | Community | STV","players":null},{"server_id":49,"name":"Uncletopia | Warsaw | 1 | One Thousand Uncles","name_short":"waw-1","host":"waw-1.pl.uncletopia.com","port":27015,"enabled":true,"region":"eu","cc":"pl","latitude":52.2297,"longitude":21.017532,"reserved":0,"last_update":"0001-01-01T00:00:00Z","name_a2s":"Uncletopia | Warsaw | 1 | One Thousand Uncles","protocol":17,"map":"cp_mercenarypark","folder":"tf","game":"Team Fortress","app_id":440,"player_count":0,"max_players":32,"Bots":0,"server_type":"Dedicated","server_os":"Linux","password":true,"vac":true,"version":"7961495","steam_id":85568392925397850,"keywords":["alltalk","cp","danepve","increased_maxplayers","norespawntime","uncletopia"],"game_id":440,"stv_port":0,"stv_name":"","players":null},{"server_id":50,"name":"Uncletopia | Warsaw | 2 | One Thousand Uncles","name_short":"waw-2","host":"waw-1.pl.uncletopia.com","port":27025,"enabled":true,"region":"eu","cc":"pl","latitude":52.2297,"longitude":21.017532,"reserved":0,"last_update":"0001-01-01T00:00:00Z","name_a2s":"Uncletopia | Warsaw | 2 | One Thousand Uncles","protocol":17,"map":"cp_egypt_final","folder":"tf","game":"Team Fortress","app_id":440,"player_count":0,"max_players":32,"Bots":0,"server_type":"Dedicated","server_os":"Linux","password":true,"vac":true,"version":"7961495","steam_id":85568392925397851,"keywords":["alltalk","cp","danepve","increased_maxplayers","norespawntime","uncletopia"],"game_id":440,"stv_port":0,"stv_name":"","players":null},{"server_id":51,"name":"Uncletopia | Warsaw | 3 | All Maps","name_short":"waw-3","host":"waw-1.pl.uncletopia.com","port":27035,"enabled":true,"region":"eu","cc":"pl","latitude":52.2297,"longitude":21.017532,"reserved":0,"last_update":"0001-01-01T00:00:00Z","name_a2s":"Uncletopia | Warsaw | 3 | All Maps","protocol":17,"map":"pl_snowycoast","folder":"tf","game":"Team Fortress","app_id":440,"player_count":0,"max_players":24,"Bots":0,"server_type":"Dedicated","server_os":"Linux","password":true,"vac":true,"version":"7961495","steam_id":85568392925397852,"keywords":["nocrits","nodmgspread","payload","uncletopia"],"game_id":440,"stv_port":27036,"stv_name":"Uncletopia | Warsaw | 3 | All Maps | STV","players":null},{"server_id":52,"name":"Uncletopia | Warsaw | 4 | All Maps","name_short":"waw-4","host":"waw-1.pl.uncletopia.com","port":27045,"enabled":true,"region":"eu","cc":"pl","latitude":52.2297,"longitude":21.017532,"reserved":0,"last_update":"0001-01-01T00:00:00Z","name_a2s":"Uncletopia | Warsaw | 4 | All Maps","protocol":17,"map":"cp_fastlane","folder":"tf","game":"Team Fortress","app_id":440,"player_count":0,"max_players":24,"Bots":0,"server_type":"Dedicated","server_os":"Linux","password":true,"vac":true,"version":"7961495","steam_id":85568392925397853,"keywords":["cp","nocrits","nodmgspread","uncletopia"],"game_id":440,"stv_port":27046,"stv_name":"Uncletopia | Warsaw | 4 | All Maps | STV","players":null},{"server_id":53,"name":"Uncletopia | Warsaw | 5 | Stopwatch","name_short":"waw-5","host":"waw-1.pl.uncletopia.com","port":27055,"enabled":true,"region":"eu","cc":"pl","latitude":52.2297,"longitude":21.017532,"reserved":0,"last_update":"0001-01-01T00:00:00Z","name_a2s":"Uncletopia | Warsaw | 5 | Stopwatch","protocol":17,"map":"cp_gullywash_final1","folder":"tf","game":"Team Fortress","app_id":440,"player_count":0,"max_players":24,"Bots":0,"server_type":"Dedicated","server_os":"Linux","password":true,"vac":true,"version":"7961495","steam_id":85568392925397854,"keywords":["cp","nocrits","nodmgspread","uncletopia"],"game_id":440,"stv_port":27056,"stv_name":"Uncletopia | Warsaw | 5 | Stopwatch | STV","players":null},{"server_id":54,"name":"Uncletopia | Warsaw | 6 | Community","name_short":"waw-6","host":"waw-1.pl.uncletopia.com","port":27065,"enabled":true,"region":"eu","cc":"pl","latitude":52.2297,"longitude":21.017532,"reserved":0,"last_update":"0001-01-01T00:00:00Z","name_a2s":"Uncletopia | Warsaw | 6 | Community","protocol":17,"map":"workshop/cp_fulgur_rc2a.ugc2068252300","folder":"tf","game":"Team Fortress","app_id":440,"player_count":0,"max_players":24,"Bots":0,"server_type":"Dedicated","server_os":"Linux","password":true,"vac":true,"version":"7961495","steam_id":85568392925397856,"keywords":["cp","nocrits","nodmgspread","uncletopia"],"game_id":440,"stv_port":27066,"stv_name":"Uncletopia | Warsaw | 6 | Community | STV","players":null}]}