{"status":true,"message":"","result":[{"server_id":9,"name":"Uncletopia | Atlanta | 1 | All Maps","name_short":"atl-1","host":"atl-1.us.uncletopia.com","port":27015,"enabled":true,"region":"us-east","cc":"us","latitude":33.753746,"longitude":-84.38633,"reserved":0,"last_update":"0001-01-01T00:00:00Z","name_a2s":"Uncletopia | Atlanta | 1 | All Maps","protocol":17,"map":"pl_borneo","folder":"tf","game":"Team Fortress","app_id":440,"player_count":23,"max_players":24,"Bots":0,"server_type":"Dedicated","server_os":"Linux","password":true,"vac":true,"version":"7757534","steam_id":85568392924469982,"keywords":["nocrits","nodmgspread","payload","uncletopia"],"game_id":440,"stv_port":27016,"stv_name":"Uncletopia | Atlanta | 1 | All Maps | STV","players":[{"user_id":232,"name":"Onyx","steam_id":76561198275349640,"connected_time":2176000000000,"state":"active","ping":76},{"user_id":191,"name":"Oxyclean","steam_id":76561198042954813,"connected_time":7656000000000,"state":"active","ping":69},{"user_id":236,"name":"avant","steam_id":76561198104921055,"connected_time":1492000000000,"state":"active","ping":72},{"user_id":246,"name":"BLU1 | Flint","steam_id":76561198066547582,"connected_time":149000000000,"state":"active","ping":108},{"user_id":237,"name":"loot","steam_id":76561198069954956,"connected_time":1490000000000,"state":"active","ping":47},{"user_id":244,"name":"Oddball","steam_id":76561198040440984,"connected_time":316000000000,"state":"active","ping":87},{"user_id":201,"name":"MyamE","steam_id":76561198133278462,"connected_time":6652000000000,"state":"active","ping":76},{"user_id":247,"name":"quality_ch3ck","steam_id":76561198361132101,"connected_time":110000000000,"state":"active","ping":81},{"user_id":238,"name":"ATL1 | LuckyZero-_-","steam_id":76561198139891051,"connected_time":1490000000000,"state":"active","ping":67},{"user_id":234,"name":"Uganda Knuckles lll","steam_id":76561199121276474,"connected_time":1503000000000,"state":"active","ping":68},{"user_id":196,"name":"RED1 | Le4n!!!","steam_id":76561198045522596,"connected_time":7072000000000,"state":"active","ping":66},{"user_id":197,"name":"ATL1 | Bandicario","steam_id":76561198432036026,"connected_time":6971000000000,"state":"active","ping":54},{"user_id":221,"name":"melancholy","steam_id":76561198024301465,"connected_time":3226000000000,"state":"active","ping":42},{"user_id":230,"name":"RED1 | p4ka","steam_id":76561198315291317,"connected_time":2810000000000,"state":"active","ping":75},{"user_id":239,"name":"Johnny Lawrence #JohnnyMaxxing","steam_id":76561199367141671,"connected_time":1489000000000,"state":"active","ping":69},{"user_id":240,"name":"[AD THE ZEBRA!]","steam_id":76561198084121940,"connected_time":1489000000000,"state":"active","ping":97},{"user_id":227,"name":"DuckMann","steam_id":76561198197058638,"connected_time":3052000000000,"state":"active","ping":63},{"user_id":214,"name":"Bottom Trans Cowgirl","steam_id":76561198304239680,"connected_time":4376000000000,"state":"active","ping":75},{"user_id":243,"name":"the-willy12","steam_id":76561199145029672,"connected_time":480000000000,"state":"active","ping":92},{"user_id":215,"name":"Marshy","steam_id":76561198421784454,"connected_time":4375000000000,"state":"active","ping":116},{"user_id":229,"name":"SamFec","steam_id":76561198414538682,"connected_time":3049000000000,"state":"active","ping":108},{"user_id":217,"name":"CheesySpectre","steam_id":76561198332606276,"connected_time":4044000000000,"state":"active","ping":122},{"user_id":199,"name":"lil hog","steam_id":76561199230929836,"connected_time":6772000000000,"state":"active","ping":80}]},{"server_id":400,"name":"Uncletopia | Atlanta | 3 | Community","name_short":"atl-3","host":"atl-1.us.uncletopia.com","port":27035,"enabled":true,"region":"us-east","cc":"us","latitude":33.753746,"longitude":-84.38633,"reserved":0,"last_update":"0001-01-01T00:00:00Z","name_a2s":"Uncletopia | Atlanta | 3 | Community","protocol":17,"map":"workshop/pl_divulgence_b4b.ugc2884808746","folder":"tf","game":"Team Fortress","app_id":440,"player_count":0,"max_players":24,"Bots":0,"server_type":"Dedicated","server_os":"Linux","password":true,"vac":true,"version":"7757534","steam_id":85568392924515187,"keywords":["nocrits","nodmgspread","payload","uncletopia"],"game_id":440,"stv_port":27036,"stv_name":"Uncletopia | Atlanta | 3 | Community | STV","players":null},{"server_id":401,"name":"Uncletopia | Atlanta | 4 | No Payload","name_short":"atl-4","host":"atl-1.us.uncletopia.com","port":27045,"enabled":true,"region":"us-east","cc":"us","latitude":33.753746,"longitude":-84.38633,"reserved":0,"last_update":"0001-01-01T00:00:00Z","name_a2s":"","protocol":0,"map":"","folder":"","game":"","app_id":0,"player_count":0,"max_players":0,"Bots":0,"server_type":"","server_os":"","password":false,"vac":false,"version":"","steam_id":0,"keywords":null,"game_id":0,"stv_port":0,"stv_name":"","players":null},{"server_id":2,"name":"Uncletopia | Chicago | 1 | All Maps","name_short":"chi-1","host":"chi-1.us.uncletopia.com","port":27015,"enabled":true,"region":"us-central","cc":"us","latitude":41.881832,"longitude":-87.62318,"reserved":0,"last_update":"0001-01-01T00:00:00Z","name_a2s":"Uncletopia | Chicago | 1 | All Maps","protocol":17,"map":"pl_swiftwater_final1","folder":"tf","game":"Team Fortress","app_id":440,"player_count":24,"max_players":24,"Bots":0,"server_type":"Dedicated","server_os":"Linux","password":true,"vac":true,"version":"7757534","steam_id":85568392924469984,"keywords":["nocrits","nodmgspread","payload","uncletopia"],"game_id":440,"stv_port":27016,"stv_name":"Uncletopia | Chicago | 1 | All Maps | STV","players":[{"user_id":499,"name":"hamster.assassination","steam_id":76561199419949968,"connected_time":397000000000,"state":"active","ping":159},{"user_id":438,"name":"the deadliest pyroshark","steam_id":76561198374227766,"connected_time":5458000000000,"state":"active","ping":70},{"user_id":480,"name":"Sentry Gun (American)","steam_id":76561198313770809,"connected_time":2346000000000,"state":"active","ping":60},{"user_id":498,"name":"Huevo Frito","steam_id":76561198896811394,"connected_time":674000000000,"state":"active","ping":57},{"user_id":439,"name":"Big Phony","steam_id":76561199092395311,"connected_time":5446000000000,"state":"active","ping":62},{"user_id":428,"name":"PKBEAST_7","steam_id":76561198177136537,"connected_time":6217000000000,"state":"active","ping":84},{"user_id":502,"name":"Niterux","steam_id":76561198101291574,"connected_time":204000000000,"state":"active","ping":76},{"user_id":503,"name":"Michaelpc1","steam_id":76561198088365519,"connected_time":200000000000,"state":"active","ping":72},{"user_id":485,"name":"spooky kabuki","steam_id":76561198030361635,"connected_time":1691000000000,"state":"active","ping":50},{"user_id":505,"name":"LazyKoala99","steam_id":76561199183623672,"connected_time":164000000000,"state":"active","ping":122},{"user_id":510,"name":"Eins","steam_id":76561199030343810,"connected_time":35000000000,"state":"active","ping":54},{"user_id":493,"name":"deskmedic","steam_id":76561198295640486,"connected_time":904000000000,"state":"active","ping":105},{"user_id":482,"name":"gasparmx","steam_id":76561197998611994,"connected_time":2122000000000,"state":"active","ping":108},{"user_id":487,"name":"Jado","steam_id":76561198380340779,"connected_time":1664000000000,"state":"active","ping":62},{"user_id":506,"name":"WILD BRADY pov","steam_id":76561198146255593,"connected_time":150000000000,"state":"active","ping":65},{"user_id":508,"name":"soundwave | sfm comms open!","steam_id":76561198454725718,"connected_time":73000000000,"state":"active","ping":46},{"user_id":469,"name":"B45Guy","steam_id":76561198117290531,"connected_time":3061000000000,"state":"active","ping":59},{"user_id":464,"name":"Macko","steam_id":76561198452005461,"connected_time":3446000000000,"state":"active","ping":82},{"user_id":511,"name":"Par1234","steam_id":76561198317503389,"connected_time":24000000000,"state":"active","ping":82},{"user_id":471,"name":"FiveStryker","steam_id":76561198366172207,"connected_time":2888000000000,"state":"active","ping":31},{"user_id":449,"name":"{bee gaming}","steam_id":76561198103194393,"connected_time":4469000000000,"state":"active","ping":81},{"user_id":501,"name":"Asomn","steam_id":76561198951916467,"connected_time":324000000000,"state":"active","ping":42},{"user_id":507,"name":"tavi alert!","steam_id":76561198050192689,"connected_time":140000000000,"state":"active","ping":103},{"user_id":437,"name":"bary","steam_id":76561197988317087,"connected_time":5599000000000,"state":"active","ping":66}]},{"server_id":106,"name":"Uncletopia | Chicago | 2 | All Maps","name_short":"chi-2","host":"chi-1.us.uncletopia.com","port":27025,"enabled":true,"region":"us-central","cc":"us","latitude":41.881832,"longitude":-87.62318,"reserved":0,"last_update":"0001-01-01T00:00:00Z","name_a2s":"Uncletopia | Chicago | 2 | All Maps","protocol":17,"map":"pl_upward","folder":"tf","game":"Team Fortress","app_id":440,"player_count":24,"max_players":24,"Bots":0,"server_type":"Dedicated","server_os":"Linux","password":true,"vac":true,"version":"7757534","steam_id":85568392924469985,"keywords":["nocrits","nodmgspread","payload","uncletopia"],"game_id":440,"stv_port":27026,"stv_name":"Uncletopia | Chicago | 2 | All Maps | STV","players":[{"user_id":392,"name":"gamer girl looking for a bf","steam_id":76561198279901162,"connected_time":795000000000,"state":"active","ping":71},{"user_id":380,"name":"Sunvaar","steam_id":76561198852679851,"connected_time":1414000000000,"state":"active","ping":61},{"user_id":398,"name":"MeatwadMeatwad","steam_id":76561198202194160,"connected_time":511000000000,"state":"active","ping":44},{"user_id":298,"name":"Kase","steam_id":76561198055510230,"connected_time":7076000000000,"state":"active","ping":61},{"user_id":382,"name":"KiltTickled","steam_id":76561198859288002,"connected_time":1271000000000,"state":"active","ping":101},{"user_id":388,"name":"tabasco","steam_id":76561198355094896,"connected_time":943000000000,"state":"active","ping":75},{"user_id":403,"name":"TallBit","steam_id":76561199059748976,"connected_time":261000000000,"state":"active","ping":47},{"user_id":399,"name":"howtobepker","steam_id":76561198115053865,"connected_time":465000000000,"state":"active","ping":85},{"user_id":356,"name":"spimtmot733","steam_id":76561199029189825,"connected_time":2585000000000,"state":"active","ping":69},{"user_id":369,"name":"Shock Trooper","steam_id":76561199086731683,"connected_time":2015000000000,"state":"active","ping":80},{"user_id":315,"name":"Schwagz","steam_id":76561198038330649,"connected_time":6024000000000,"state":"active","ping":81},{"user_id":374,"name":"Midnight-AG","steam_id":76561198115714484,"connected_time":1680000000000,"state":"active","ping":104},{"user_id":402,"name":"e","steam_id":76561198131245396,"connected_time":414000000000,"state":"active","ping":49},{"user_id":376,"name":"JennaShinx","steam_id":76561198074773762,"connected_time":1597000000000,"state":"active","ping":73},{"user_id":345,"name":"Tofu","steam_id":76561198056736463,"connected_time":3324000000000,"state":"active","ping":74},{"user_id":401,"name":"Mara Roo","steam_id":76561198279341789,"connected_time":424000000000,"state":"active","ping":66},{"user_id":393,"name":"Kartyac","steam_id":76561197991069005,"connected_time":791000000000,"state":"active","ping":80},{"user_id":383,"name":"Sexual Scottish Skullcutting","steam_id":76561197995583747,"connected_time":1271000000000,"state":"active","ping":82},{"user_id":396,"name":"TimTam Tom","steam_id":76561198045988062,"connected_time":735000000000,"state":"active","ping":73},{"user_id":303,"name":"auby","steam_id":76561198088024854,"connected_time":6956000000000,"state":"active","ping":81},{"user_id":360,"name":"the grungler!","steam_id":76561198058485742,"connected_time":2559000000000,"state":"active","ping":53},{"user_id":397,"name":"Every death is 5 push ups","steam_id":76561198162170585,"connected_time":728000000000,"state":"active","ping":91},{"user_id":367,"name":"North","steam_id":76561199173696836,"connected_time":2212000000000,"state":"active","ping":86},{"user_id":340,"name":"Starlie","steam_id":76561198102100102,"connected_time":4290000000000,"state":"active","ping":121}]},{"server_id":402,"name":"Uncletopia | Chicago | 3 | All Maps","name_short":"chi-3","host":"chi-1.us.uncletopia.com","port":27035,"enabled":true,"region":"us-central","cc":"us","latitude":41.881832,"longitude":-87.62318,"reserved":0,"last_update":"0001-01-01T00:00:00Z","name_a2s":"Uncletopia | Chicago | 3 | All Maps","protocol":17,"map":"pl_frontier_final","folder":"tf","game":"Team Fortress","app_id":440,"player_count":24,"max_players":24,"Bots":0,"server_type":"Dedicated","server_os":"Linux","password":true,"vac":true,"version":"7757534","steam_id":85568392924515191,"keywords":["nocrits","nodmgspread","payload","uncletopia"],"game_id":440,"stv_port":27036,"stv_name":"Uncletopia | Chicago | 3 | All Maps | STV","players":[{"user_id":79,"name":"Hugh Mann","steam_id":76561198212049401,"connected_time":3043000000000,"state":"active","ping":88},{"user_id":111,"name":"The_Gilded_Warrior","steam_id":76561199055082197,"connected_time":474000000000,"state":"active","ping":104},{"user_id":75,"name":"Fresh0c0","steam_id":76561198271933283,"connected_time":3198000000000,"state":"active","ping":60},{"user_id":115,"name":"ILOVEHOTMOMS","steam_id":76561198232617936,"connected_time":160000000000,"state":"active","ping":48},{"user_id":113,"name":"LocaKola","steam_id":76561198173435430,"connected_time":194000000000,"state":"active","ping":70},{"user_id":82,"name":"Uncle Meat","steam_id":76561198012534850,"connected_time":2801000000000,"state":"active","ping":65},{"user_id":112,"name":"firefly","steam_id":76561198151308698,"connected_time":308000000000,"state":"active","ping":64},{"user_id":47,"name":"LordOfTheNoobs","steam_id":76561197962697523,"connected_time":4249000000000,"state":"active","ping":79},{"user_id":114,"name":"Sniper Wolf Odie","steam_id":76561198074476774,"connected_time":182000000000,"state":"active","ping":63},{"user_id":116,"name":"Cement Drinker","steam_id":76561198143315013,"connected_time":141000000000,"state":"active","ping":59},{"user_id":117,"name":"WatchWill #NerfNurse","steam_id":76561198157237945,"connected_time":134000000000,"state":"active","ping":80},{"user_id":99,"name":"Pi Guy","steam_id":76561199071784224,"connected_time":1712000000000,"state":"active","ping":70},{"user_id":101,"name":"Esteban Delsin","steam_id":76561199470243169,"connected_time":1189000000000,"state":"active","ping":122},{"user_id":104,"name":"Kelpy G","steam_id":76561198105330587,"connected_time":953000000000,"state":"active","ping":76},{"user_id":123,"name":"dakota__","steam_id":76561198076596506,"connected_time":27000000000,"state":"active","ping":73},{"user_id":88,"name":"DumplingDestroyer","steam_id":76561199071371893,"connected_time":2429000000000,"state":"active","ping":80},{"user_id":118,"name":"Mug Moment Gaming","steam_id":76561198233098136,"connected_time":122000000000,"state":"active","ping":68},{"user_id":119,"name":"megastim","steam_id":76561198099591549,"connected_time":109000000000,"state":"active","ping":76},{"user_id":120,"name":"greg","steam_id":76561198113531917,"connected_time":94000000000,"state":"active","ping":45},{"user_id":121,"name":"LJ PRODUCTIONS","steam_id":76561198061697475,"connected_time":91000000000,"state":"active","ping":72},{"user_id":106,"name":"Pheasant President","steam_id":76561198315295873,"connected_time":869000000000,"state":"active","ping":101},{"user_id":122,"name":"VeloCity","steam_id":76561198148688626,"connected_time":84000000000,"state":"active","ping":70},{"user_id":124,"name":"TheBoy","steam_id":76561198810447604,"connected_time":14000000000,"state":"spawning","ping":286},{"user_id":110,"name":"Tobibus300","steam_id":76561199379083988,"connected_time":721000000000,"state":"active","ping":137}]},{"server_id":403,"name":"Uncletopia | Chicago | 4 | All Maps","name_short":"chi-4","host":"chi-1.us.uncletopia.com","port":27045,"enabled":true,"region":"us-central","cc":"us","latitude":41.881832,"longitude":-87.62318,"reserved":0,"last_update":"0001-01-01T00:00:00Z","name_a2s":"Uncletopia | Chicago | 4 | All Maps","protocol":17,"map":"cp_process_final","folder":"tf","game":"Team Fortress","app_id":440,"player_count":24,"max_players":24,"Bots":0,"server_type":"Dedicated","server_os":"Linux","password":true,"vac":true,"version":"7757534","steam_id":85568392924515193,"keywords":["cp","nocrits","nodmgspread","uncletopia"],"game_id":440,"stv_port":27046,"stv_name":"Uncletopia | Chicago | 4 | All Maps | STV","players":[{"user_id":140,"name":"cozy times","steam_id":76561198147391779,"connected_time":4652000000000,"state":"active","ping":76},{"user_id":212,"name":"beethan","steam_id":76561198148199120,"connected_time":268000000000,"state":"active","ping":94},{"user_id":187,"name":"All Tomorrow's Parties","steam_id":76561197995936212,"connected_time":1694000000000,"state":"active","ping":45},{"user_id":204,"name":"garfield","steam_id":76561198114119308,"connected_time":572000000000,"state":"active","ping":60},{"user_id":186,"name":"vivi","steam_id":76561199027530775,"connected_time":1703000000000,"state":"active","ping":99},{"user_id":213,"name":"Rusty","steam_id":76561197972625397,"connected_time":257000000000,"state":"active","ping":71},{"user_id":183,"name":"Andraw","steam_id":76561198057499385,"connected_time":1767000000000,"state":"active","ping":58},{"user_id":207,"name":"rip souplantation","steam_id":76561198135633918,"connected_time":402000000000,"state":"active","ping":102},{"user_id":205,"name":"Sous-Chef","steam_id":76561198075705827,"connected_time":569000000000,"state":"active","ping":70},{"user_id":200,"name":"Wwaz","steam_id":76561198000240092,"connected_time":732000000000,"state":"active","ping":46},{"user_id":191,"name":"Stupid frogs!","steam_id":76561198069415057,"connected_time":1588000000000,"state":"active","ping":60},{"user_id":203,"name":"motherfucker 2.0","steam_id":76561198141189209,"connected_time":639000000000,"state":"active","ping":63},{"user_id":197,"name":"peanut butter","steam_id":76561198117839474,"connected_time":860000000000,"state":"active","ping":105},{"user_id":198,"name":"Cheese4Everyone","steam_id":76561198022333985,"connected_time":840000000000,"state":"active","ping":74},{"user_id":178,"name":"helloyes_123","steam_id":76561198184669555,"connected_time":2105000000000,"state":"active","ping":92},{"user_id":208,"name":"dyce.","steam_id":76561199273443432,"connected_time":362000000000,"state":"active","ping":68},{"user_id":214,"name":"the horse from schenectady?","steam_id":76561198142756572,"connected_time":255000000000,"state":"active","ping":60},{"user_id":190,"name":"FOX927011","steam_id":76561198117831095,"connected_time":1631000000000,"state":"active","ping":80},{"user_id":161,"name":"the zoo","steam_id":76561198013732450,"connected_time":3397000000000,"state":"active","ping":54},{"user_id":210,"name":"ToughGuy311","steam_id":76561198131458027,"connected_time":359000000000,"state":"active","ping":73},{"user_id":215,"name":"glug slug","steam_id":76561197988690273,"connected_time":111000000000,"state":"active","ping":61},{"user_id":211,"name":"Snimca","steam_id":76561198453519709,"connected_time":340000000000,"state":"active","ping":89},{"user_id":193,"name":"Lemur2016","steam_id":76561198194372906,"connected_time":1556000000000,"state":"active","ping":77},{"user_id":163,"name":"Lennu","steam_id":76561198060730154,"connected_time":3395000000000,"state":"active","ping":78}]},{"server_id":36,"name":"Uncletopia | Chicago | 5 | All Maps","name_short":"chi-5","host":"chi-2.us.uncletopia.com","port":27015,"enabled":true,"region":"us-central","cc":"us","latitude":41.881832,"longitude":-87.62318,"reserved":0,"last_update":"0001-01-01T00:00:00Z","name_a2s":"Uncletopia | Chicago | 5 | All Maps","protocol":17,"map":"pl_barnblitz","folder":"tf","game":"Team Fortress","app_id":440,"player_count":24,"max_players":24,"Bots":0,"server_type":"Dedicated","server_os":"Linux","password":true,"vac":true,"version":"7757534","steam_id":85568392924866362,"keywords":["nocrits","nodmgspread","payload","uncletopia"],"game_id":440,"stv_port":27016,"stv_name":"Uncletopia | Chicago | 5 | All Maps | STV","players":[{"user_id":234,"name":"ShitsandGiggles™","steam_id":76561198058708019,"connected_time":2892000000000,"state":"active","ping":56},{"user_id":148,"name":"teaf","steam_id":76561198406252824,"connected_time":7733000000000,"state":"active","ping":99},{"user_id":205,"name":"Foomfa","steam_id":76561198007033616,"connected_time":4494000000000,"state":"active","ping":75},{"user_id":230,"name":"wobba wobba","steam_id":76561198249206656,"connected_time":2904000000000,"state":"active","ping":78},{"user_id":229,"name":"plushie","steam_id":76561198088103572,"connected_time":2916000000000,"state":"active","ping":93},{"user_id":258,"name":"PenutButterPirate","steam_id":76561198252962312,"connected_time":230000000000,"state":"active","ping":75},{"user_id":236,"name":"coochie smoochies","steam_id":76561198103496593,"connected_time":2660000000000,"state":"active","ping":84},{"user_id":259,"name":"Starlight788","steam_id":76561198859074810,"connected_time":225000000000,"state":"active","ping":108},{"user_id":143,"name":"sean","steam_id":76561198354473513,"connected_time":8127000000000,"state":"active","ping":59},{"user_id":251,"name":"g00bur","steam_id":76561197993622520,"connected_time":1027000000000,"state":"active","ping":71},{"user_id":257,"name":"bocchi la roca","steam_id":76561198025668771,"connected_time":316000000000,"state":"active","ping":132},{"user_id":243,"name":"moe","steam_id":76561198929586245,"connected_time":1702000000000,"state":"active","ping":93},{"user_id":252,"name":"Sev","steam_id":76561198248814700,"connected_time":1014000000000,"state":"active","ping":90},{"user_id":238,"name":"Glory","steam_id":76561198013975080,"connected_time":2371000000000,"state":"active","ping":74},{"user_id":241,"name":"Huge","steam_id":76561199030987614,"connected_time":1739000000000,"state":"active","ping":84},{"user_id":237,"name":"HOLY SHIT! ITS SLENDERMAN","steam_id":76561198085815757,"connected_time":2611000000000,"state":"active","ping":75},{"user_id":256,"name":"Tyrone","steam_id":76561198189429665,"connected_time":424000000000,"state":"active","ping":76},{"user_id":216,"name":"backflipping trans woman","steam_id":76561198100189571,"connected_time":3562000000000,"state":"active","ping":65},{"user_id":254,"name":"ai generated names","steam_id":76561198079603532,"connected_time":645000000000,"state":"active","ping":92},{"user_id":192,"name":"group frotting session","steam_id":76561198239286750,"connected_time":5308000000000,"state":"active","ping":67},{"user_id":253,"name":"Do Moose go Moo?","steam_id":76561198073550620,"connected_time":1004000000000,"state":"active","ping":45},{"user_id":223,"name":"Agent Orange Soda","steam_id":76561198099296029,"connected_time":3383000000000,"state":"active","ping":63},{"user_id":204,"name":"Icaras","steam_id":76561198416724843,"connected_time":4531000000000,"state":"active","ping":127},{"user_id":247,"name":"Spy of 83","steam_id":76561199062242958,"connected_time":1272000000000,"state":"active","ping":108}]},{"server_id":37,"name":"Uncletopia | Chicago | 6 | All Maps","name_short":"chi-6","host":"chi-2.us.uncletopia.com","port":27025,"enabled":true,"region":"us-central","cc":"us","latitude":41.881832,"longitude":-87.62318,"reserved":0,"last_update":"0001-01-01T00:00:00Z","name_a2s":"Uncletopia | Chicago | 6 | All Maps","protocol":17,"map":"cp_dustbowl","folder":"tf","game":"Team Fortress","app_id":440,"player_count":23,"max_players":24,"Bots":0,"server_type":"Dedicated","server_os":"Linux","password":true,"vac":true,"version":"7757534","steam_id":85568392924866363,"keywords":["cp","nocrits","nodmgspread","uncletopia"],"game_id":440,"stv_port":27026,"stv_name":"Uncletopia | Chicago | 6 | All Maps | STV","players":[{"user_id":341,"name":"gaming elliptical","steam_id":76561198013456569,"connected_time":2050000000000,"state":"active","ping":45},{"user_id":294,"name":"John Dungus (the real one)","steam_id":76561198049191027,"connected_time":4515000000000,"state":"active","ping":61},{"user_id":349,"name":"Bwizz245","steam_id":76561198151474774,"connected_time":1916000000000,"state":"active","ping":62},{"user_id":350,"name":"starfungus","steam_id":76561198158312789,"connected_time":1915000000000,"state":"active","ping":83},{"user_id":347,"name":"Arttur","steam_id":76561199080503175,"connected_time":1989000000000,"state":"active","ping":187},{"user_id":336,"name":"Infinity","steam_id":76561199134919099,"connected_time":2112000000000,"state":"active","ping":72},{"user_id":342,"name":"Dr Smeggman","steam_id":76561197966614845,"connected_time":2033000000000,"state":"active","ping":154},{"user_id":337,"name":"Tannenbaum Trotsky","steam_id":76561199101638460,"connected_time":2110000000000,"state":"active","ping":75},{"user_id":377,"name":"JUUL IS CUUL","steam_id":76561198053896023,"connected_time":963000000000,"state":"active","ping":96},{"user_id":378,"name":"♥ bug eater ♥","steam_id":76561198291044316,"connected_time":856000000000,"state":"active","ping":76},{"user_id":379,"name":"cam","steam_id":76561198154583854,"connected_time":592000000000,"state":"active","ping":73},{"user_id":310,"name":"rude boi","steam_id":76561198006783260,"connected_time":3897000000000,"state":"active","ping":59},{"user_id":366,"name":"FreonAddict9x19","steam_id":76561198060010824,"connected_time":1249000000000,"state":"active","ping":77},{"user_id":343,"name":"Magnus Rex","steam_id":76561197987091236,"connected_time":2030000000000,"state":"active","ping":80},{"user_id":312,"name":"wG dogmeat","steam_id":76561198964002142,"connected_time":3847000000000,"state":"active","ping":107},{"user_id":380,"name":"Chromatic Bliss","steam_id":76561198252604816,"connected_time":424000000000,"state":"active","ping":79},{"user_id":331,"name":"Xuey","steam_id":76561199120960187,"connected_time":2379000000000,"state":"active","ping":62},{"user_id":381,"name":"WackyDogVinny","steam_id":76561198851442007,"connected_time":394000000000,"state":"active","ping":84},{"user_id":352,"name":"Jeck","steam_id":76561198012275276,"connected_time":1907000000000,"state":"active","ping":91},{"user_id":359,"name":"Worse","steam_id":76561198043778324,"connected_time":1467000000000,"state":"active","ping":70},{"user_id":368,"name":"-","steam_id":76561198057717934,"connected_time":1221000000000,"state":"active","ping":44},{"user_id":369,"name":"CastratoRapper","steam_id":76561199194237622,"connected_time":1212000000000,"state":"active","ping":57},{"user_id":375,"name":"Ginger Jesus","steam_id":76561198052386458,"connected_time":1097000000000,"state":"active","ping":70}]},{"server_id":38,"name":"Uncletopia | Chicago | 7 | Stopwatch Beta","name_short":"chi-7","host":"chi-2.us.uncletopia.com","port":27035,"enabled":true,"region":"us-central","cc":"us","latitude":41.881832,"longitude":-87.62318,"reserved":0,"last_update":"0001-01-01T00:00:00Z","name_a2s":"Uncletopia | Chicago | 7 | Stopwatch Beta","protocol":17,"map":"pl_upward","folder":"tf","game":"Team Fortress","app_id":440,"player_count":0,"max_players":24,"Bots":0,"server_type":"Dedicated","server_os":"Linux","password":true,"vac":true,"version":"7757534","steam_id":85568392924866364,"keywords":["nocrits","nodmgspread","payload","uncletopia"],"game_id":440,"stv_port":27036,"stv_name":"Uncletopia | Chicago | 7 | Stopwatch Beta | STV","players":null},{"server_id":39,"name":"Uncletopia | Chicago | 8 | Community","name_short":"chi-8","host":"chi-2.us.uncletopia.com","port":27045,"enabled":true,"region":"us-central","cc":"us","latitude":41.881832,"longitude":-87.62318,"reserved":0,"last_update":"0001-01-01T00:00:00Z","name_a2s":"Uncletopia | Chicago | 8 | Community","protocol":17,"map":"workshop/pl_cashworks_final1.ugc2904065412","folder":"tf","game":"Team Fortress","app_id":440,"player_count":21,"max_players":24,"Bots":0,"server_type":"Dedicated","server_os":"Linux","password":true,"vac":true,"version":"7757534","steam_id":85568392924866365,"keywords":["nocrits","nodmgspread","payload","uncletopia"],"game_id":440,"stv_port":27046,"stv_name":"Uncletopia | Chicago | 8 | Community | STV","players":[{"user_id":97,"name":"TrustyGun","steam_id":76561198022854020,"connected_time":579000000000,"state":"active","ping":62},{"user_id":33,"name":"Yayifications","steam_id":76561198066227208,"connected_time":5266000000000,"state":"active","ping":62},{"user_id":100,"name":"Raydn","steam_id":76561198418414338,"connected_time":331000000000,"state":"active","ping":78},{"user_id":73,"name":"Meet The Kill","steam_id":76561197967650566,"connected_time":1386000000000,"state":"active","ping":56},{"user_id":40,"name":"annoying scout","steam_id":76561199051955859,"connected_time":4198000000000,"state":"active","ping":169},{"user_id":62,"name":"asm_ghost","steam_id":76561199205363547,"connected_time":2262000000000,"state":"active","ping":128},{"user_id":72,"name":"robert","steam_id":76561198001196512,"connected_time":1411000000000,"state":"active","ping":56},{"user_id":77,"name":"Johni3FireFly","steam_id":76561198089760607,"connected_time":1171000000000,"state":"active","ping":73},{"user_id":75,"name":"Lord Scrubling","steam_id":76561198263744445,"connected_time":1350000000000,"state":"active","ping":77},{"user_id":78,"name":"Aerox","steam_id":76561198871081935,"connected_time":1134000000000,"state":"active","ping":58},{"user_id":70,"name":"Communist Party of Wutville","steam_id":76561198844003641,"connected_time":1429000000000,"state":"active","ping":114},{"user_id":71,"name":"RokkitFrog","steam_id":76561198046465850,"connected_time":1424000000000,"state":"active","ping":77},{"user_id":83,"name":"dwnkins","steam_id":76561198856016840,"connected_time":983000000000,"state":"active","ping":70},{"user_id":76,"name":"Rex","steam_id":76561198138365053,"connected_time":1299000000000,"state":"active","ping":117},{"user_id":102,"name":"silver","steam_id":76561199020503397,"connected_time":116000000000,"state":"active","ping":89},{"user_id":81,"name":"Sammich","steam_id":76561198010543087,"connected_time":1073000000000,"state":"active","ping":89},{"user_id":82,"name":"BlazeHX","steam_id":76561198827408017,"connected_time":1056000000000,"state":"active","ping":88},{"user_id":101,"name":"Catcow","steam_id":76561198025329176,"connected_time":246000000000,"state":"active","ping":86},{"user_id":104,"name":"JimmySquid","steam_id":76561198254242530,"connected_time":91000000000,"state":"active","ping":69},{"user_id":103,"name":"ColeIsRegular","steam_id":76561198817822853,"connected_time":100000000000,"state":"active","ping":71},{"user_id":105,"name":"Rez","steam_id":76561198410598772,"connected_time":70000000000,"state":"active","ping":146}]},{"server_id":8,"name":"Uncletopia | Dallas | 1 | All Maps","name_short":"dal-1","host":"dal-1.us.uncletopia.com","port":27015,"enabled":true,"region":"us-central","cc":"us","latitude":32.779167,"longitude":-96.80889,"reserved":0,"last_update":"0001-01-01T00:00:00Z","name_a2s":"Uncletopia | Dallas | 1 | All Maps","protocol":17,"map":"koth_suijin","folder":"tf","game":"Team Fortress","app_id":440,"player_count":24,"max_players":24,"Bots":0,"server_type":"Dedicated","server_os":"Linux","password":true,"vac":true,"version":"7757534","steam_id":85568392924469986,"keywords":["cp","nocrits","nodmgspread","uncletopia"],"game_id":440,"stv_port":27016,"stv_name":"Uncletopia | Dallas | 1 | All Maps | STV","players":[{"user_id":297,"name":"vncnt","steam_id":76561198046113319,"connected_time":101000000000,"state":"active","ping":42},{"user_id":274,"name":"JIBA","steam_id":76561198141315991,"connected_time":1447000000000,"state":"active","ping":76},{"user_id":294,"name":"radiohead enjoyer","steam_id":76561198397662124,"connected_time":355000000000,"state":"active","ping":62},{"user_id":286,"name":"Will SFM for MVM tickets","steam_id":76561198315655301,"connected_time":758000000000,"state":"active","ping":91},{"user_id":267,"name":"The New Jersey Devils","steam_id":76561198970380577,"connected_time":2354000000000,"state":"active","ping":73},{"user_id":277,"name":"elyk37","steam_id":76561198124135253,"connected_time":1240000000000,"state":"active","ping":99},{"user_id":283,"name":"Sworddemonboggle","steam_id":76561198295526535,"connected_time":839000000000,"state":"active","ping":111},{"user_id":270,"name":"jodie.blend","steam_id":76561198140701807,"connected_time":2252000000000,"state":"active","ping":53},{"user_id":288,"name":"skantz","steam_id":76561198005325674,"connected_time":585000000000,"state":"active","ping":87},{"user_id":264,"name":"Baked_Bread","steam_id":76561198842106628,"connected_time":2527000000000,"state":"active","ping":54},{"user_id":278,"name":"Back with the milk","steam_id":76561199020105501,"connected_time":1133000000000,"state":"active","ping":91},{"user_id":273,"name":"Pink","steam_id":76561198042140694,"connected_time":1472000000000,"state":"active","ping":50},{"user_id":292,"name":"gnomasaur","steam_id":76561197987322699,"connected_time":461000000000,"state":"active","ping":82},{"user_id":258,"name":"Fishstall","steam_id":76561198038126034,"connected_time":3402000000000,"state":"active","ping":62},{"user_id":154,"name":"LegendaryMister151","steam_id":76561198064890524,"connected_time":12051000000000,"state":"active","ping":87},{"user_id":272,"name":"inzang","steam_id":76561198088318074,"connected_time":2012000000000,"state":"active","ping":56},{"user_id":290,"name":"Lotusberry","steam_id":76561198058506867,"connected_time":569000000000,"state":"active","ping":98},{"user_id":243,"name":"Wallem","steam_id":76561198052361822,"connected_time":4974000000000,"state":"active","ping":99},{"user_id":250,"name":"wiiblob","steam_id":76561198109106242,"connected_time":4247000000000,"state":"active","ping":142},{"user_id":293,"name":"anipe10","steam_id":76561199084698417,"connected_time":441000000000,"state":"active","ping":76},{"user_id":255,"name":"axis","steam_id":76561198065535856,"connected_time":3818000000000,"state":"active","ping":91},{"user_id":295,"name":"Dr. Ludwig","steam_id":76561198110246392,"connected_time":332000000000,"state":"active","ping":71},{"user_id":262,"name":"Hephaesta13","steam_id":76561199026788557,"connected_time":3331000000000,"state":"active","ping":92},{"user_id":259,"name":"Derply","steam_id":76561198871211642,"connected_time":3399000000000,"state":"active","ping":72}]},{"server_id":108,"name":"Uncletopia | Dallas | 2 | All Maps","name_short":"dal-2","host":"dal-1.us.uncletopia.com","port":27025,"enabled":true,"region":"us-central","cc":"us","latitude":32.779167,"longitude":-96.80889,"reserved":0,"last_update":"0001-01-01T00:00:00Z","name_a2s":"Uncletopia | Dallas | 2 | All Maps","protocol":17,"map":"pl_frontier_final","folder":"tf","game":"Team Fortress","app_id":440,"player_count":24,"max_players":24,"Bots":0,"server_type":"Dedicated","server_os":"Linux","password":true,"vac":true,"version":"7757534","steam_id":85568392924469988,"keywords":["nocrits","nodmgspread","payload","uncletopia"],"game_id":440,"stv_port":27026,"stv_name":"Uncletopia | Dallas | 2 | All Maps | STV","players":[{"user_id":415,"name":"Painkiller","steam_id":76561198049787400,"connected_time":320000000000,"state":"active","ping":62},{"user_id":409,"name":"Try Gardening","steam_id":76561198120311340,"connected_time":1719000000000,"state":"active","ping":64},{"user_id":418,"name":"xD","steam_id":76561198070315008,"connected_time":224000000000,"state":"active","ping":59},{"user_id":411,"name":"Eeshton","steam_id":76561198018309077,"connected_time":1207000000000,"state":"active","ping":57},{"user_id":391,"name":"TheRiGuy21","steam_id":76561199466243640,"connected_time":2877000000000,"state":"active","ping":82},{"user_id":408,"name":"Funtimeshadow","steam_id":76561199254055123,"connected_time":1761000000000,"state":"active","ping":66},{"user_id":394,"name":"Hsepirn","steam_id":76561198152395431,"connected_time":2718000000000,"state":"active","ping":88},{"user_id":413,"name":"Pharmaceutical Enthusiast","steam_id":76561198344998550,"connected_time":683000000000,"state":"active","ping":97},{"user_id":400,"name":"Lightfeather57","steam_id":76561198353851502,"connected_time":2588000000000,"state":"active","ping":75},{"user_id":424,"name":"Pumpkin Hugger","steam_id":76561198834875100,"connected_time":91000000000,"state":"active","ping":57},{"user_id":393,"name":"Iroquois Pliskin","steam_id":76561198056704533,"connected_time":2817000000000,"state":"active","ping":81},{"user_id":419,"name":"PooPyMayonaise","steam_id":76561198984339111,"connected_time":212000000000,"state":"active","ping":85},{"user_id":384,"name":"bottom pride burger","steam_id":76561198322247602,"connected_time":3651000000000,"state":"active","ping":88},{"user_id":370,"name":"Gyr0sphere","steam_id":76561198183900735,"connected_time":4692000000000,"state":"active","ping":93},{"user_id":420,"name":"META.exe","steam_id":76561199067098696,"connected_time":209000000000,"state":"active","ping":96},{"user_id":354,"name":"i eat sawdust","steam_id":76561199153238395,"connected_time":5741000000000,"state":"active","ping":100},{"user_id":356,"name":"Rin \"Hindwing\" Redtail","steam_id":76561199074865638,"connected_time":5615000000000,"state":"active","ping":49},{"user_id":423,"name":"Zenthloc","steam_id":76561198066435036,"connected_time":135000000000,"state":"active","ping":45},{"user_id":385,"name":"rumes","steam_id":76561198349219467,"connected_time":3646000000000,"state":"active","ping":68},{"user_id":357,"name":"Socialism Enjoyer","steam_id":76561197991817974,"connected_time":5614000000000,"state":"active","ping":100},{"user_id":422,"name":"Sup m8","steam_id":76561198081659121,"connected_time":176000000000,"state":"active","ping":60},{"user_id":412,"name":"Recursive Gamer","steam_id":76561198042102952,"connected_time":772000000000,"state":"active","ping":89},{"user_id":399,"name":"BluyBubble","steam_id":76561199071705710,"connected_time":2673000000000,"state":"active","ping":112},{"user_id":405,"name":"FunGi","steam_id":76561198881418662,"connected_time":1902000000000,"state":"active","ping":80}]},{"server_id":5,"name":"Uncletopia | Frankfurt | 1 | All Maps","name_short":"frk-1","host":"frk-1.de.uncletopia.com","port":27015,"enabled":true,"region":"eu","cc":"de","latitude":50.110924,"longitude":8.682127,"reserved":0,"last_update":"0001-01-01T00:00:00Z","name_a2s":"Uncletopia | Frankfurt | 1 | All Maps","protocol":17,"map":"pl_badwater","folder":"tf","game":"Team Fortress","app_id":440,"player_count":24,"max_players":24,"Bots":0,"server_type":"Dedicated","server_os":"Linux","password":true,"vac":true,"version":"7757534","steam_id":85568392924469989,"keywords":["nocrits","nodmgspread","payload","uncletopia"],"game_id":440,"stv_port":27016,"stv_name":"Uncletopia | Frankfurt | 1 | All Maps | STV","players":[{"user_id":420,"name":"restloud","steam_id":76561198265722644,"connected_time":3984000000000,"state":"active","ping":90},{"user_id":364,"name":"LarsInABox","steam_id":76561198028329262,"connected_time":6566000000000,"state":"active","ping":72},{"user_id":365,"name":"Mach |=|20BB|)","steam_id":76561198952487564,"connected_time":6501000000000,"state":"active","ping":84},{"user_id":460,"name":"Bumblebee","steam_id":76561198033551105,"connected_time":915000000000,"state":"active","ping":68},{"user_id":455,"name":"Pyr0s_Fx","steam_id":76561198057201503,"connected_time":1041000000000,"state":"active","ping":54},{"user_id":466,"name":"GuSkand","steam_id":76561198043775605,"connected_time":410000000000,"state":"active","ping":74},{"user_id":441,"name":"Videogamer","steam_id":76561198106012909,"connected_time":2634000000000,"state":"active","ping":70},{"user_id":456,"name":"weSt","steam_id":76561198000913325,"connected_time":1026000000000,"state":"active","ping":60},{"user_id":444,"name":"Carl","steam_id":76561198045638738,"connected_time":2274000000000,"state":"active","ping":69},{"user_id":464,"name":"Spam ゴ ゴ","steam_id":76561198038118301,"connected_time":453000000000,"state":"active","ping":86},{"user_id":470,"name":"Bl_ue2th","steam_id":76561198804551869,"connected_time":161000000000,"state":"active","ping":104},{"user_id":454,"name":"julie (girlboss)","steam_id":76561198105576123,"connected_time":1656000000000,"state":"active","ping":76},{"user_id":463,"name":"yush","steam_id":76561198121688934,"connected_time":667000000000,"state":"active","ping":73},{"user_id":462,"name":"Brass beast heavy","steam_id":76561198274197623,"connected_time":830000000000,"state":"active","ping":60},{"user_id":458,"name":"FR3Dski","steam_id":76561198063944894,"connected_time":959000000000,"state":"active","ping":67},{"user_id":398,"name":"minn","steam_id":76561198099101232,"connected_time":5380000000000,"state":"active","ping":65},{"user_id":472,"name":"a fresh pan of lemon squares","steam_id":76561197984071376,"connected_time":11000000000,"state":"active","ping":70},{"user_id":411,"name":"theo von","steam_id":76561198125381319,"connected_time":4485000000000,"state":"active","ping":90},{"user_id":471,"name":"jones","steam_id":76561198044434971,"connected_time":150000000000,"state":"active","ping":59},{"user_id":433,"name":"I jazzed myself","steam_id":76561198203016603,"connected_time":3031000000000,"state":"active","ping":71},{"user_id":439,"name":"Fatty_McFatFat [NL]","steam_id":76561198073362707,"connected_time":2908000000000,"state":"active","ping":45},{"user_id":468,"name":"a black bishop from chess","steam_id":76561199226943577,"connected_time":382000000000,"state":"active","ping":68},{"user_id":445,"name":"shall we?","steam_id":76561198110706893,"connected_time":1938000000000,"state":"active","ping":60},{"user_id":469,"name":"agravar","steam_id":76561198105654330,"connected_time":326000000000,"state":"active","ping":53}]},{"server_id":110,"name":"Uncletopia | Frankfurt | 2 | All Maps","name_short":"frk-2","host":"frk-1.de.uncletopia.com","port":27025,"enabled":true,"region":"eu","cc":"de","latitude":50.110924,"longitude":8.682127,"reserved":0,"last_update":"0001-01-01T00:00:00Z","name_a2s":"Uncletopia | Frankfurt | 2 | All Maps","protocol":17,"map":"koth_harvest_final","folder":"tf","game":"Team Fortress","app_id":440,"player_count":22,"max_players":24,"Bots":0,"server_type":"Dedicated","server_os":"Linux","password":true,"vac":true,"version":"7757534","steam_id":85568392924469990,"keywords":["cp","nocrits","nodmgspread","uncletopia"],"game_id":440,"stv_port":27026,"stv_name":"Uncletopia | Frankfurt | 2 | All Maps | STV","players":[{"user_id":569,"name":"man door hand hook car door","steam_id":76561198334042273,"connected_time":2901000000000,"state":"active","ping":97},{"user_id":628,"name":"B4R10N","steam_id":76561198047167954,"connected_time":114000000000,"state":"active","ping":59},{"user_id":607,"name":"yurkur","steam_id":76561198407108497,"connected_time":1625000000000,"state":"active","ping":48},{"user_id":564,"name":"Garden Freeman","steam_id":76561199073314677,"connected_time":3548000000000,"state":"active","ping":71},{"user_id":629,"name":"Dragul","steam_id":76561198032885938,"connected_time":106000000000,"state":"active","ping":59},{"user_id":630,"name":"Sunshine Moon","steam_id":76561198022604491,"connected_time":91000000000,"state":"active","ping":67},{"user_id":610,"name":"Zenos","steam_id":76561198058829310,"connected_time":1559000000000,"state":"active","ping":43},{"user_id":631,"name":"true","steam_id":76561198031145243,"connected_time":55000000000,"state":"active","ping":84},{"user_id":617,"name":"❥Shinru","steam_id":76561198285951918,"connected_time":1192000000000,"state":"active","ping":80},{"user_id":572,"name":"John Fortress","steam_id":76561198043743881,"connected_time":2871000000000,"state":"active","ping":46},{"user_id":611,"name":"cockwater","steam_id":76561198209101861,"connected_time":1440000000000,"state":"active","ping":60},{"user_id":632,"name":"Kurage","steam_id":76561198021221288,"connected_time":51000000000,"state":"active","ping":65},{"user_id":634,"name":"steakman10","steam_id":76561198152584691,"connected_time":25000000000,"state":"active","ping":73},{"user_id":616,"name":"The Power","steam_id":76561198060566884,"connected_time":1224000000000,"state":"active","ping":56},{"user_id":633,"name":"zaleek69","steam_id":76561198058877595,"connected_time":48000000000,"state":"active","ping":67},{"user_id":624,"name":"kbbq","steam_id":76561198346638308,"connected_time":956000000000,"state":"active","ping":59},{"user_id":635,"name":"Grape Juice","steam_id":76561198380337568,"connected_time":24000000000,"state":"active","ping":181},{"user_id":626,"name":"Use The Finger","steam_id":76561198050203563,"connected_time":499000000000,"state":"active","ping":69},{"user_id":627,"name":"Oförståndig ämbetsman","steam_id":76561197993151792,"connected_time":430000000000,"state":"active","ping":78},{"user_id":621,"name":"Mr.O #deletesniper","steam_id":76561198039567498,"connected_time":1061000000000,"state":"active","ping":59},{"user_id":606,"name":"yyny","steam_id":76561198066287297,"connected_time":1745000000000,"state":"active","ping":45},{"user_id":609,"name":"fogings","steam_id":76561198044165284,"connected_time":1592000000000,"state":"active","ping":44}]},{"server_id":308,"name":"Uncletopia | Frankfurt | 3 | All Maps","name_short":"frk-3","host":"frk-1.de.uncletopia.com","port":27035,"enabled":true,"region":"eu","cc":"de","latitude":50.110924,"longitude":8.682127,"reserved":0,"last_update":"0001-01-01T00:00:00Z","name_a2s":"Uncletopia | Frankfurt | 3 | All Maps","protocol":17,"map":"pl_badwater","folder":"tf","game":"Team Fortress","app_id":440,"player_count":23,"max_players":24,"Bots":0,"server_type":"Dedicated","server_os":"Linux","password":true,"vac":true,"version":"7757534","steam_id":85568392924504274,"keywords":["nocrits","nodmgspread","payload","uncletopia"],"game_id":440,"stv_port":27036,"stv_name":"Uncletopia | Frankfurt | 3 | All Maps | STV","players":[{"user_id":327,"name":"Heavy (poggers)","steam_id":76561199128282369,"connected_time":610000000000,"state":"active","ping":88},{"user_id":301,"name":"Yangus","steam_id":76561198147796010,"connected_time":4316000000000,"state":"active","ping":64},{"user_id":257,"name":"Bajas","steam_id":76561198179339326,"connected_time":6978000000000,"state":"active","ping":75},{"user_id":321,"name":"gpupdate","steam_id":76561198154677956,"connected_time":2174000000000,"state":"active","ping":74},{"user_id":287,"name":"akakez","steam_id":76561198095432821,"connected_time":5492000000000,"state":"active","ping":115},{"user_id":329,"name":"penisfinger","steam_id":76561198103904286,"connected_time":382000000000,"state":"active","ping":65},{"user_id":295,"name":"Pilaarius","steam_id":76561198120273212,"connected_time":5236000000000,"state":"active","ping":110},{"user_id":284,"name":"Vershal Smershal","steam_id":76561198116223995,"connected_time":5527000000000,"state":"active","ping":60},{"user_id":277,"name":"Jonathan","steam_id":76561198087988880,"connected_time":6466000000000,"state":"active","ping":46},{"user_id":324,"name":"Ffamran","steam_id":76561198143529110,"connected_time":1558000000000,"state":"active","ping":98},{"user_id":302,"name":"player","steam_id":76561198054474684,"connected_time":4255000000000,"state":"active","ping":72},{"user_id":325,"name":"BSantos57","steam_id":76561198000597094,"connected_time":805000000000,"state":"active","ping":93},{"user_id":317,"name":"Arthur","steam_id":76561198114107421,"connected_time":2419000000000,"state":"active","ping":79},{"user_id":308,"name":"Sixten the Pale","steam_id":76561197981806008,"connected_time":4016000000000,"state":"active","ping":81},{"user_id":328,"name":"Gen","steam_id":76561198021775885,"connected_time":520000000000,"state":"active","ping":50},{"user_id":309,"name":"Fat Pigeon","steam_id":76561198817940142,"connected_time":4007000000000,"state":"active","ping":48},{"user_id":300,"name":"PizzaPete123","steam_id":76561198089478290,"connected_time":4589000000000,"state":"active","ping":68},{"user_id":296,"name":"@_@","steam_id":76561198076494034,"connected_time":5027000000000,"state":"active","ping":55},{"user_id":290,"name":"rabbitface26","steam_id":76561198327540113,"connected_time":5369000000000,"state":"active","ping":58},{"user_id":320,"name":"Merca #savetf2","steam_id":76561198088782472,"connected_time":2375000000000,"state":"active","ping":50},{"user_id":271,"name":"Udinese Dion","steam_id":76561198067931573,"connected_time":6781000000000,"state":"active","ping":47},{"user_id":322,"name":"dochris.2","steam_id":76561198026478625,"connected_time":2086000000000,"state":"active","ping":44},{"user_id":323,"name":"sareena","steam_id":76561198810194062,"connected_time":2066000000000,"state":"active","ping":77}]},{"server_id":309,"name":"Uncletopia | Frankfurt | 4 | All Maps","name_short":"frk-4","host":"frk-1.de.uncletopia.com","port":27045,"enabled":true,"region":"eu","cc":"de","latitude":50.110924,"longitude":8.682127,"reserved":0,"last_update":"0001-01-01T00:00:00Z","name_a2s":"Uncletopia | Frankfurt | 4 | All Maps","protocol":17,"map":"pl_frontier_final","folder":"tf","game":"Team Fortress","app_id":440,"player_count":24,"max_players":24,"Bots":0,"server_type":"Dedicated","server_os":"Linux","password":true,"vac":true,"version":"7757534","steam_id":85568392924504275,"keywords":["nocrits","nodmgspread","payload","uncletopia"],"game_id":440,"stv_port":27046,"stv_name":"Uncletopia | Frankfurt | 4 | All Maps | STV","players":[{"user_id":219,"name":"XXDANTEFANXX","steam_id":76561198197910725,"connected_time":3895000000000,"state":"active","ping":80},{"user_id":273,"name":"the joy of recycling","steam_id":76561198415564349,"connected_time":279000000000,"state":"active","ping":61},{"user_id":268,"name":"somedud","steam_id":76561198037911271,"connected_time":401000000000,"state":"active","ping":73},{"user_id":263,"name":"Martt","steam_id":76561198067363871,"connected_time":700000000000,"state":"active","ping":65},{"user_id":267,"name":"Scipionemiliano","steam_id":76561198027646559,"connected_time":454000000000,"state":"active","ping":124},{"user_id":278,"name":"Chargles","steam_id":76561198205386247,"connected_time":158000000000,"state":"active","ping":106},{"user_id":274,"name":"edgar","steam_id":76561198212862423,"connected_time":273000000000,"state":"active","ping":45},{"user_id":270,"name":"CAKIR69","steam_id":76561198089560908,"connected_time":344000000000,"state":"active","ping":91},{"user_id":249,"name":"Lama Del Rey","steam_id":76561198098862242,"connected_time":1811000000000,"state":"active","ping":56},{"user_id":257,"name":"Elon Ma","steam_id":76561199018053264,"connected_time":1314000000000,"state":"active","ping":69},{"user_id":227,"name":"Baspla","steam_id":76561198066260876,"connected_time":3318000000000,"state":"active","ping":54},{"user_id":215,"name":"Spoody #JustPassing","steam_id":76561198031523769,"connected_time":4163000000000,"state":"active","ping":88},{"user_id":238,"name":"Savlon","steam_id":76561198011597274,"connected_time":2751000000000,"state":"active","ping":45},{"user_id":271,"name":"Highnachtsmann","steam_id":76561198044784226,"connected_time":318000000000,"state":"active","ping":57},{"user_id":216,"name":"Volterion #SaveTf2","steam_id":76561198293088484,"connected_time":4087000000000,"state":"active","ping":85},{"user_id":250,"name":"Shovelhalfrusty","steam_id":76561198346447513,"connected_time":1701000000000,"state":"active","ping":68},{"user_id":272,"name":"greg","steam_id":76561198047388059,"connected_time":297000000000,"state":"active","ping":80},{"user_id":275,"name":"triangle","steam_id":76561198046838168,"connected_time":235000000000,"state":"active","ping":49},{"user_id":258,"name":"CHIUSO #savetf2","steam_id":76561198398264944,"connected_time":997000000000,"state":"active","ping":76},{"user_id":232,"name":"SuntanPikachu","steam_id":76561198121242476,"connected_time":2914000000000,"state":"active","ping":78},{"user_id":276,"name":"Spoingus","steam_id":76561198161402859,"connected_time":234000000000,"state":"active","ping":81},{"user_id":255,"name":"[BROBOT] Nergal","steam_id":76561198098172161,"connected_time":1331000000000,"state":"active","ping":67},{"user_id":277,"name":"Bingus","steam_id":76561198149152939,"connected_time":218000000000,"state":"active","ping":80},{"user_id":241,"name":"blue","steam_id":76561198216200092,"connected_time":2508000000000,"state":"active","ping":64}]},{"server_id":310,"name":"Uncletopia | Frankfurt | 5 | All Maps","name_short":"frk-5","host":"frk-1.de.uncletopia.com","port":27055,"enabled":true,"region":"eu","cc":"de","latitude":50.110924,"longitude":8.682127,"reserved":0,"last_update":"0001-01-01T00:00:00Z","name_a2s":"Uncletopia | Frankfurt | 5 | All Maps","protocol":17,"map":"pl_pier","folder":"tf","game":"Team Fortress","app_id":440,"player_count":0,"max_players":24,"Bots":0,"server_type":"Dedicated","server_os":"Linux","password":true,"vac":true,"version":"7757534","steam_id":85568392924504277,"keywords":["nocrits","nodmgspread","payload","uncletopia"],"game_id":440,"stv_port":27056,"stv_name":"Uncletopia | Frankfurt | 5 | All Maps | STV","players":null},{"server_id":311,"name":"Uncletopia | Frankfurt | 6 | All Maps","name_short":"frk-6","host":"frk-1.de.uncletopia.com","port":27065,"enabled":true,"region":"eu","cc":"de","latitude":50.110924,"longitude":8.682127,"reserved":0,"last_update":"0001-01-01T00:00:00Z","name_a2s":"Uncletopia | Frankfurt | 6 | All Maps","protocol":17,"map":"koth_highpass","folder":"tf","game":"Team Fortress","app_id":440,"player_count":0,"max_players":24,"Bots":0,"server_type":"Dedicated","server_os":"Linux","password":true,"vac":true,"version":"7757534","steam_id":85568392924504278,"keywords":["cp","nocrits","nodmgspread","uncletopia"],"game_id":440,"stv_port":27066,"stv_name":"Uncletopia | Frankfurt | 6 | All Maps | STV","players":null},{"server_id":23,"name":"Uncletopia | Frankfurt | 7 | Stopwatch Beta","name_short":"frk-7","host":"frk-1.de.uncletopia.com","port":27075,"enabled":true,"region":"eu","cc":"de","latitude":50.110924,"longitude":8.682127,"reserved":0,"last_update":"0001-01-01T00:00:00Z","name_a2s":"Uncletopia | Frankfurt | 7 | Stopwatch Beta","protocol":17,"map":"pl_frontier_final","folder":"tf","game":"Team Fortress","app_id":440,"player_count":0,"max_players":24,"Bots":0,"server_type":"Dedicated","server_os":"Linux","password":true,"vac":true,"version":"7757534","steam_id":85568392924742827,"keywords":["nocrits","nodmgspread","payload","uncletopia"],"game_id":440,"stv_port":27076,"stv_name":"Uncletopia | Frankfurt | 7 | Stopwatch Beta | STV","players":null},{"server_id":24,"name":"Uncletopia | Frankfurt | 8 | Community","name_short":"frk-8","host":"frk-1.de.uncletopia.com","port":27085,"enabled":true,"region":"eu","cc":"de","latitude":50.110924,"longitude":8.682127,"reserved":0,"last_update":"0001-01-01T00:00:00Z","name_a2s":"Uncletopia | Frankfurt | 8 | Community","protocol":17,"map":"workshop/koth_product_final.ugc454272353","folder":"tf","game":"Team Fortress","app_id":440,"player_count":0,"max_players":24,"Bots":0,"server_type":"Dedicated","server_os":"Linux","password":true,"vac":true,"version":"7757534","steam_id":85568392924742828,"keywords":["cp","nocrits","nodmgspread","uncletopia"],"game_id":440,"stv_port":27086,"stv_name":"Uncletopia | Frankfurt | 8 | Community | STV","players":null},{"server_id":202,"name":"Uncletopia | Hong Kong | 1 | All Maps","name_short":"hgk-1","host":"hgk-1.hk.uncletopia.com","port":27015,"enabled":true,"region":"asia","cc":"hk","latitude":22.302711,"longitude":114.177216,"reserved":0,"last_update":"0001-01-01T00:00:00Z","name_a2s":"Uncletopia | Hong Kong | 1 | All Maps","protocol":17,"map":"cp_dustbowl","folder":"tf","game":"Team Fortress","app_id":440,"player_count":0,"max_players":24,"Bots":0,"server_type":"Dedicated","server_os":"Linux","password":true,"vac":true,"version":"7757534","steam_id":85568392924494504,"keywords":["cp","nocrits","nodmgspread","uncletopia"],"game_id":440,"stv_port":27016,"stv_name":"Uncletopia | Hong Kong | 1 | All Maps | STV","players":null},{"server_id":1,"name":"Uncletopia | Los Angeles | 1 | All Maps","name_short":"lax-1","host":"lax-1.us.uncletopia.com","port":27015,"enabled":true,"region":"us-west","cc":"us","latitude":33.94279,"longitude":-118.41004,"reserved":0,"last_update":"0001-01-01T00:00:00Z","name_a2s":"Uncletopia | Los Angeles | 1 | All Maps","protocol":17,"map":"koth_cascade","folder":"tf","game":"Team Fortress","app_id":440,"player_count":0,"max_players":24,"Bots":0,"server_type":"Dedicated","server_os":"Linux","password":true,"vac":true,"version":"7757534","steam_id":85568392924469991,"keywords":["cp","nocrits","nodmgspread","uncletopia"],"game_id":440,"stv_port":27016,"stv_name":"Uncletopia | Los Angeles | 1 | All Maps | STV","players":null},{"server_id":112,"name":"Uncletopia | Los Angeles | 2 | All Maps","name_short":"lax-2","host":"lax-1.us.uncletopia.com","port":27025,"enabled":true,"region":"us-west","cc":"us","latitude":33.94279,"longitude":-118.41004,"reserved":0,"last_update":"0001-01-01T00:00:00Z","name_a2s":"Uncletopia | Los Angeles | 2 | All Maps","protocol":17,"map":"koth_cascade","folder":"tf","game":"Team Fortress","app_id":440,"player_count":0,"max_players":24,"Bots":0,"server_type":"Dedicated","server_os":"Linux","password":true,"vac":true,"version":"7757534","steam_id":85568392924469992,"keywords":["cp","nocrits","nodmgspread","uncletopia"],"game_id":440,"stv_port":27026,"stv_name":"Uncletopia | Los Angeles | 2 | All Maps | STV","players":null},{"server_id":324,"name":"Uncletopia | Los Angeles | 3 | All Maps","name_short":"lax-3","host":"lax-1.us.uncletopia.com","port":27035,"enabled":true,"region":"us-west","cc":"us","latitude":33.94279,"longitude":-118.41004,"reserved":0,"last_update":"0001-01-01T00:00:00Z","name_a2s":"Uncletopia | Los Angeles | 3 | All Maps","protocol":17,"map":"pl_swiftwater_final1","folder":"tf","game":"Team Fortress","app_id":440,"player_count":23,"max_players":24,"Bots":0,"server_type":"Dedicated","server_os":"Linux","password":true,"vac":true,"version":"7757534","steam_id":85568392924510198,"keywords":["nocrits","nodmgspread","payload","uncletopia"],"game_id":440,"stv_port":27036,"stv_name":"Uncletopia | Los Angeles | 3 | All Maps | STV","players":[{"user_id":147,"name":"/r/circumcision","steam_id":76561198045926594,"connected_time":1056000000000,"state":"active","ping":65},{"user_id":156,"name":"SpaghettiMaster420","steam_id":76561199024321120,"connected_time":590000000000,"state":"active","ping":62},{"user_id":142,"name":"Coffee","steam_id":76561198154646418,"connected_time":1392000000000,"state":"active","ping":78},{"user_id":157,"name":"The Wise Guy","steam_id":76561198031080216,"connected_time":549000000000,"state":"active","ping":94},{"user_id":137,"name":"Thaberii","steam_id":76561198275818707,"connected_time":2022000000000,"state":"active","ping":77},{"user_id":117,"name":"hoOmIN","steam_id":76561198334947079,"connected_time":3149000000000,"state":"active","ping":44},{"user_id":131,"name":"TeCon","steam_id":76561198049127236,"connected_time":2390000000000,"state":"active","ping":52},{"user_id":152,"name":"ilMoose","steam_id":76561198827275420,"connected_time":653000000000,"state":"active","ping":88},{"user_id":64,"name":"Superman123389","steam_id":76561198267472539,"connected_time":5775000000000,"state":"active","ping":83},{"user_id":143,"name":"HRT","steam_id":76561198013781132,"connected_time":1362000000000,"state":"active","ping":141},{"user_id":84,"name":"potty trained","steam_id":76561198141557766,"connected_time":5067000000000,"state":"active","ping":120},{"user_id":144,"name":"Lord_Durango","steam_id":76561199097564514,"connected_time":1329000000000,"state":"active","ping":70},{"user_id":158,"name":"They could be starlings","steam_id":76561198441020995,"connected_time":530000000000,"state":"active","ping":70},{"user_id":163,"name":"FriskyDemon","steam_id":76561198043684646,"connected_time":188000000000,"state":"active","ping":72},{"user_id":132,"name":"shadow wizard money gang","steam_id":76561198150406851,"connected_time":2379000000000,"state":"active","ping":59},{"user_id":107,"name":"icarly enjoyer","steam_id":76561198161199653,"connected_time":3848000000000,"state":"active","ping":109},{"user_id":161,"name":"Deputy Dog","steam_id":76561197960441667,"connected_time":357000000000,"state":"active","ping":99},{"user_id":155,"name":"Infentdegree211","steam_id":76561198385234127,"connected_time":609000000000,"state":"active","ping":57},{"user_id":141,"name":"Watt Dafuq","steam_id":76561198194402925,"connected_time":1452000000000,"state":"active","ping":110},{"user_id":162,"name":"zig","steam_id":76561199020345303,"connected_time":241000000000,"state":"active","ping":60},{"user_id":116,"name":"jean","steam_id":76561198986534519,"connected_time":3437000000000,"state":"active","ping":60},{"user_id":138,"name":"Zetaleu","steam_id":76561198149673080,"connected_time":1847000000000,"state":"active","ping":57},{"user_id":164,"name":"Magical.Puffin","steam_id":76561198129039275,"connected_time":177000000000,"state":"active","ping":67}]},{"server_id":25,"name":"Uncletopia | Los Angeles | 4 | Stopwatch Beta","name_short":"lax-4","host":"lax-1.us.uncletopia.com","port":27045,"enabled":true,"region":"us-west","cc":"us","latitude":33.94279,"longitude":-118.41004,"reserved":0,"last_update":"0001-01-01T00:00:00Z","name_a2s":"Uncletopia | Los Angeles | 4 | Stopwatch Beta","protocol":17,"map":"pl_frontier_final","folder":"tf","game":"Team Fortress","app_id":440,"player_count":0,"max_players":24,"Bots":0,"server_type":"Dedicated","server_os":"Linux","password":true,"vac":true,"version":"7757534","steam_id":85568392924510199,"keywords":["nocrits","nodmgspread","payload","uncletopia"],"game_id":440,"stv_port":27046,"stv_name":"Uncletopia | Los Angeles | 4 | Stopwatch Beta | STV","players":null},{"server_id":11,"name":"Uncletopia | London | 1 | All Maps","name_short":"lon-1","host":"lon-1.uk.uncletopia.com","port":27015,"enabled":true,"region":"eu","cc":"gb","latitude":51.509865,"longitude":-0.118092,"reserved":0,"last_update":"0001-01-01T00:00:00Z","name_a2s":"Uncletopia | London | 1 | All Maps","protocol":17,"map":"pl_swiftwater_final1","folder":"tf","game":"Team Fortress","app_id":440,"player_count":24,"max_players":24,"Bots":0,"server_type":"Dedicated","server_os":"Linux","password":true,"vac":true,"version":"7757534","steam_id":85568392924367362,"keywords":["nocrits","nodmgspread","payload","uncletopia"],"game_id":440,"stv_port":27016,"stv_name":"Uncletopia | London | 1 | All Maps | STV","players":[{"user_id":727,"name":"Pintarolas","steam_id":76561198124839451,"connected_time":3361000000000,"state":"active","ping":112},{"user_id":731,"name":"Trash Spy","steam_id":76561198071224721,"connected_time":2785000000000,"state":"active","ping":60},{"user_id":739,"name":"Kolar","steam_id":76561198108583895,"connected_time":1732000000000,"state":"active","ping":61},{"user_id":726,"name":"tiktok vasectomy","steam_id":76561198260363522,"connected_time":3490000000000,"state":"active","ping":109},{"user_id":711,"name":"Posho","steam_id":76561198062396436,"connected_time":4204000000000,"state":"active","ping":40},{"user_id":737,"name":"Wedgeridoo","steam_id":76561198082813907,"connected_time":1748000000000,"state":"active","ping":136},{"user_id":746,"name":"rez777ka","steam_id":76561198107605938,"connected_time":647000000000,"state":"active","ping":91},{"user_id":733,"name":"teddy_!","steam_id":76561198396274438,"connected_time":2540000000000,"state":"active","ping":45},{"user_id":732,"name":"Åberg","steam_id":76561198160537076,"connected_time":2776000000000,"state":"active","ping":79},{"user_id":734,"name":"Silent Person","steam_id":76561198107763537,"connected_time":2530000000000,"state":"active","ping":76},{"user_id":718,"name":"Founder","steam_id":76561198193763778,"connected_time":3931000000000,"state":"active","ping":62},{"user_id":634,"name":"ciliorkun18","steam_id":76561198228942500,"connected_time":8932000000000,"state":"active","ping":90},{"user_id":719,"name":"schizophrenia","steam_id":76561198308439257,"connected_time":3578000000000,"state":"active","ping":50},{"user_id":740,"name":"Aaron","steam_id":76561197990046953,"connected_time":1731000000000,"state":"active","ping":72},{"user_id":742,"name":"aspect","steam_id":76561198315032412,"connected_time":1717000000000,"state":"active","ping":62},{"user_id":717,"name":"Raulca25","steam_id":76561199068256964,"connected_time":3950000000000,"state":"active","ping":76},{"user_id":713,"name":"Frazzle","steam_id":76561198262577951,"connected_time":4172000000000,"state":"active","ping":69},{"user_id":672,"name":"Farao Ramses II","steam_id":76561198078722712,"connected_time":6614000000000,"state":"active","ping":46},{"user_id":715,"name":"vi","steam_id":76561198303147966,"connected_time":4046000000000,"state":"active","ping":45},{"user_id":743,"name":"Koi-Koi","steam_id":76561198045527771,"connected_time":1714000000000,"state":"active","ping":55},{"user_id":749,"name":"✪ Danny","steam_id":76561198104483241,"connected_time":162000000000,"state":"active","ping":55},{"user_id":745,"name":"Mysteryred12","steam_id":76561199206772814,"connected_time":892000000000,"state":"active","ping":189},{"user_id":725,"name":"Indigolake","steam_id":76561198202215807,"connected_time":3502000000000,"state":"active","ping":130},{"user_id":736,"name":"gerg","steam_id":76561198041663219,"connected_time":2264000000000,"state":"active","ping":51}]},{"server_id":114,"name":"Uncletopia | London | 2 | All Maps","name_short":"lon-2","host":"lon-1.uk.uncletopia.com","port":27025,"enabled":true,"region":"eu","cc":"gb","latitude":51.509865,"longitude":-0.118092,"reserved":0,"last_update":"0001-01-01T00:00:00Z","name_a2s":"Uncletopia | London | 2 | All Maps","protocol":17,"map":"pl_badwater","folder":"tf","game":"Team Fortress","app_id":440,"player_count":24,"max_players":24,"Bots":0,"server_type":"Dedicated","server_os":"Linux","password":true,"vac":true,"version":"7757534","steam_id":85568392924470941,"keywords":["nocrits","nodmgspread","payload","uncletopia"],"game_id":440,"stv_port":27026,"stv_name":"Uncletopia | London | 2 | All Maps | STV","players":[{"user_id":580,"name":"buying quickfixes","steam_id":76561198410955546,"connected_time":461000000000,"state":"active","ping":82},{"user_id":524,"name":"Thalgorock","steam_id":76561198195315022,"connected_time":6123000000000,"state":"active","ping":69},{"user_id":563,"name":"Mankor","steam_id":76561198020439322,"connected_time":1379000000000,"state":"active","ping":62},{"user_id":483,"name":"KittyKate ❤","steam_id":76561198116340817,"connected_time":8666000000000,"state":"active","ping":61},{"user_id":542,"name":"Rezkey","steam_id":76561198206079048,"connected_time":4964000000000,"state":"active","ping":60},{"user_id":569,"name":"Butt Hurling","steam_id":76561198093229786,"connected_time":1101000000000,"state":"active","ping":84},{"user_id":555,"name":"Cheshie cdna","steam_id":76561198067204908,"connected_time":3925000000000,"state":"active","ping":53},{"user_id":499,"name":"ellie","steam_id":76561198134650962,"connected_time":7640000000000,"state":"active","ping":45},{"user_id":474,"name":"BuzzBees ❤","steam_id":76561198101502273,"connected_time":8935000000000,"state":"active","ping":45},{"user_id":564,"name":"alb aner","steam_id":76561198325405090,"connected_time":1359000000000,"state":"active","ping":62},{"user_id":578,"name":"Caesium_R4","steam_id":76561198432410602,"connected_time":484000000000,"state":"active","ping":45},{"user_id":577,"name":"GogsCrunchyNuts","steam_id":76561198150599213,"connected_time":559000000000,"state":"active","ping":94},{"user_id":581,"name":"risco1bolota","steam_id":76561198323074603,"connected_time":416000000000,"state":"active","ping":85},{"user_id":553,"name":"DeadpoolDealsDamage","steam_id":76561198399472908,"connected_time":4188000000000,"state":"active","ping":56},{"user_id":567,"name":"macironi and chesse","steam_id":76561199098060805,"connected_time":1183000000000,"state":"active","ping":156},{"user_id":568,"name":"MrrPickle","steam_id":76561198122046514,"connected_time":1136000000000,"state":"active","ping":119},{"user_id":501,"name":"gwen","steam_id":76561198006680814,"connected_time":7621000000000,"state":"active","ping":41},{"user_id":575,"name":"trolldier gaming","steam_id":76561198854358215,"connected_time":847000000000,"state":"active","ping":57},{"user_id":510,"name":"MAKENTAKEN","steam_id":76561199127359587,"connected_time":6971000000000,"state":"active","ping":103},{"user_id":532,"name":"Laurie","steam_id":76561198082951750,"connected_time":5664000000000,"state":"active","ping":47},{"user_id":576,"name":"Eleren","steam_id":76561198123361225,"connected_time":815000000000,"state":"active","ping":46},{"user_id":579,"name":"wheelie bin","steam_id":76561198040040328,"connected_time":483000000000,"state":"active","ping":45},{"user_id":561,"name":"eddiehobbs","steam_id":76561198384635410,"connected_time":2268000000000,"state":"active","ping":87},{"user_id":541,"name":"Xie Xil Ling","steam_id":76561198053394831,"connected_time":5107000000000,"state":"active","ping":60}]},{"server_id":320,"name":"Uncletopia | London | 3 | All Maps","name_short":"lon-3","host":"lon-1.uk.uncletopia.com","port":27035,"enabled":true,"region":"eu","cc":"gb","latitude":51.509865,"longitude":-0.118092,"reserved":0,"last_update":"0001-01-01T00:00:00Z","name_a2s":"Uncletopia | London | 3 | All Maps","protocol":17,"map":"pl_borneo","folder":"tf","game":"Team Fortress","app_id":440,"player_count":24,"max_players":24,"Bots":0,"server_type":"Dedicated","server_os":"Linux","password":true,"vac":true,"version":"7757534","steam_id":85568392924510192,"keywords":["nocrits","nodmgspread","payload","uncletopia"],"game_id":440,"stv_port":27036,"stv_name":"Uncletopia | London | 3 | All Maps | STV","players":[{"user_id":495,"name":"OutOfDucks","steam_id":76561198166376227,"connected_time":4313000000000,"state":"active","ping":57},{"user_id":546,"name":"102ping","steam_id":76561199000963772,"connected_time":1610000000000,"state":"active","ping":67},{"user_id":562,"name":"P Diddy","steam_id":76561198829344838,"connected_time":247000000000,"state":"active","ping":65},{"user_id":535,"name":"It's a me Malario","steam_id":76561198176546013,"connected_time":2099000000000,"state":"active","ping":48},{"user_id":550,"name":"jo","steam_id":76561198109074418,"connected_time":1364000000000,"state":"active","ping":62},{"user_id":537,"name":"Why","steam_id":76561198350857075,"connected_time":1997000000000,"state":"active","ping":58},{"user_id":528,"name":"Premysl","steam_id":76561198075584825,"connected_time":2226000000000,"state":"active","ping":62},{"user_id":551,"name":"•stepbro•","steam_id":76561198119607160,"connected_time":1354000000000,"state":"active","ping":75},{"user_id":558,"name":"Lukas","steam_id":76561198009118452,"connected_time":515000000000,"state":"active","ping":70},{"user_id":515,"name":"NeonNewt","steam_id":76561198066699212,"connected_time":3197000000000,"state":"active","ping":59},{"user_id":557,"name":"Miss Bari","steam_id":76561198365286092,"connected_time":581000000000,"state":"active","ping":40},{"user_id":529,"name":"boo!","steam_id":76561198444424053,"connected_time":2225000000000,"state":"active","ping":77},{"user_id":530,"name":"Mefuu","steam_id":76561198287729818,"connected_time":2209000000000,"state":"active","ping":116},{"user_id":555,"name":"Medieval Doktor","steam_id":76561198075373362,"connected_time":899000000000,"state":"active","ping":39},{"user_id":553,"name":"Dumbzilla","steam_id":76561198031304349,"connected_time":956000000000,"state":"active","ping":50},{"user_id":532,"name":"not drunk","steam_id":76561199184873889,"connected_time":2196000000000,"state":"active","ping":64},{"user_id":556,"name":"_wake [HUN] 🇭🇺 (Hungary)","steam_id":76561198067055238,"connected_time":895000000000,"state":"active","ping":67},{"user_id":549,"name":"X45Y","steam_id":76561198112534025,"connected_time":1497000000000,"state":"active","ping":47},{"user_id":560,"name":"LunarCrumb","steam_id":76561199209979126,"connected_time":324000000000,"state":"active","ping":59},{"user_id":559,"name":"Anemia","steam_id":76561198071595988,"connected_time":359000000000,"state":"active","ping":43},{"user_id":541,"name":"Volcyy","steam_id":76561198063979124,"connected_time":1918000000000,"state":"active","ping":55},{"user_id":542,"name":"Boltingstorm","steam_id":76561199068433052,"connected_time":1882000000000,"state":"active","ping":71},{"user_id":543,"name":"Djingis Khan","steam_id":76561197967864460,"connected_time":1836000000000,"state":"active","ping":59},{"user_id":481,"name":"Lyra","steam_id":76561198043601838,"connected_time":5680000000000,"state":"active","ping":60}]},{"server_id":321,"name":"Uncletopia | London | 4 | All Maps","name_short":"lon-4","host":"lon-1.uk.uncletopia.com","port":27045,"enabled":true,"region":"eu","cc":"gb","latitude":51.509865,"longitude":-0.118092,"reserved":0,"last_update":"0001-01-01T00:00:00Z","name_a2s":"Uncletopia | London | 4 | All Maps","protocol":17,"map":"cp_snakewater_final1","folder":"tf","game":"Team Fortress","app_id":440,"player_count":0,"max_players":24,"Bots":0,"server_type":"Dedicated","server_os":"Linux","password":true,"vac":true,"version":"7757534","steam_id":85568392924510193,"keywords":["cp","nocrits","nodmgspread","uncletopia"],"game_id":440,"stv_port":27046,"stv_name":"Uncletopia | London | 4 | All Maps | STV","players":null},{"server_id":21,"name":"Uncletopia | London | 5 | All Maps","name_short":"lon-5","host":"lon-1.uk.uncletopia.com","port":27055,"enabled":true,"region":"eu","cc":"gb","latitude":51.509865,"longitude":-0.118092,"reserved":0,"last_update":"0001-01-01T00:00:00Z","name_a2s":"Uncletopia | London | 5 | All Maps","protocol":17,"map":"pl_upward","folder":"tf","game":"Team Fortress","app_id":440,"player_count":22,"max_players":24,"Bots":0,"server_type":"Dedicated","server_os":"Linux","password":true,"vac":true,"version":"7757534","steam_id":85568392924742829,"keywords":["nocrits","nodmgspread","payload","uncletopia"],"game_id":440,"stv_port":27056,"stv_name":"Uncletopia | London | 5 | All Maps | STV","players":[{"user_id":350,"name":"Kenny","steam_id":76561198107911141,"connected_time":3720000000000,"state":"active","ping":63},{"user_id":341,"name":"group chat","steam_id":76561198083615367,"connected_time":3910000000000,"state":"active","ping":37},{"user_id":399,"name":"Drunk russian with pyromania","steam_id":76561198195527328,"connected_time":340000000000,"state":"active","ping":44},{"user_id":401,"name":"ChPerette","steam_id":76561198060004887,"connected_time":295000000000,"state":"active","ping":45},{"user_id":381,"name":"Zhongding Construction Group Lt","steam_id":76561198065915748,"connected_time":1786000000000,"state":"active","ping":52},{"user_id":338,"name":"BreadCrab","steam_id":76561198364062723,"connected_time":4168000000000,"state":"active","ping":52},{"user_id":400,"name":"Matteo Besho","steam_id":76561199159657855,"connected_time":330000000000,"state":"active","ping":69},{"user_id":396,"name":"Alexa, unshit my pants.","steam_id":76561198329640236,"connected_time":646000000000,"state":"active","ping":50},{"user_id":368,"name":"Citrus","steam_id":76561198090650837,"connected_time":3048000000000,"state":"active","ping":55},{"user_id":390,"name":"Rezzarezz","steam_id":76561198092020043,"connected_time":1038000000000,"state":"active","ping":73},{"user_id":391,"name":"Abysl","steam_id":76561198991216341,"connected_time":994000000000,"state":"active","ping":179},{"user_id":392,"name":"sad and flaccid","steam_id":76561198107978481,"connected_time":973000000000,"state":"active","ping":89},{"user_id":370,"name":"Skyfoogle","steam_id":76561198027177883,"connected_time":2730000000000,"state":"active","ping":60},{"user_id":303,"name":"feed","steam_id":76561198311512285,"connected_time":6750000000000,"state":"active","ping":115},{"user_id":402,"name":"E","steam_id":76561198166340115,"connected_time":175000000000,"state":"active","ping":57},{"user_id":385,"name":"MaypulSoyrup","steam_id":76561199213966821,"connected_time":1507000000000,"state":"active","ping":86},{"user_id":395,"name":"slnc","steam_id":76561198041151496,"connected_time":746000000000,"state":"active","ping":74},{"user_id":388,"name":"Sqilluy","steam_id":76561198130993466,"connected_time":1391000000000,"state":"active","ping":180},{"user_id":398,"name":".Aq","steam_id":76561198043376092,"connected_time":556000000000,"state":"active","ping":96},{"user_id":397,"name":"__‾_","steam_id":76561198056895683,"connected_time":614000000000,"state":"active","ping":60},{"user_id":394,"name":"auto","steam_id":76561198062247888,"connected_time":954000000000,"state":"active","ping":62},{"user_id":378,"name":"jose maria gonzales","steam_id":76561198054244573,"connected_time":2342000000000,"state":"active","ping":105}]},{"server_id":22,"name":"Uncletopia | London | 6 | All Maps","name_short":"lon-6","host":"lon-1.uk.uncletopia.com","port":27065,"enabled":true,"region":"eu","cc":"gb","latitude":51.509865,"longitude":-0.118092,"reserved":0,"last_update":"0001-01-01T00:00:00Z","name_a2s":"Uncletopia | London | 6 | All Maps","protocol":17,"map":"pl_swiftwater_final1","folder":"tf","game":"Team Fortress","app_id":440,"player_count":24,"max_players":24,"Bots":0,"server_type":"Dedicated","server_os":"Linux","password":true,"vac":true,"version":"7757534","steam_id":85568392924742830,"keywords":["nocrits","nodmgspread","payload","uncletopia"],"game_id":440,"stv_port":27066,"stv_name":"Uncletopia | London | 6 | All Maps | STV","players":[{"user_id":425,"name":"Okonell[HUN]","steam_id":76561198032216617,"connected_time":1819000000000,"state":"active","ping":82},{"user_id":436,"name":"betterthanyou'lleverbe-AA-","steam_id":76561198102195119,"connected_time":1008000000000,"state":"active","ping":31},{"user_id":450,"name":"Welder","steam_id":76561198355300561,"connected_time":241000000000,"state":"active","ping":67},{"user_id":443,"name":"LizaЯdlЧ","steam_id":76561198176750238,"connected_time":664000000000,"state":"active","ping":67},{"user_id":437,"name":"Samus","steam_id":76561198045943019,"connected_time":978000000000,"state":"active","ping":60},{"user_id":438,"name":"Adopted?","steam_id":76561198118667043,"connected_time":863000000000,"state":"active","ping":50},{"user_id":451,"name":"TylowStar","steam_id":76561198357107806,"connected_time":207000000000,"state":"active","ping":79},{"user_id":410,"name":"All Muted, no hard feelings...","steam_id":76561198094862469,"connected_time":3451000000000,"state":"active","ping":103},{"user_id":431,"name":"toe bias","steam_id":76561199084996146,"connected_time":1498000000000,"state":"active","ping":68},{"user_id":452,"name":"rummy","steam_id":76561197997573379,"connected_time":197000000000,"state":"active","ping":51},{"user_id":433,"name":"PilloF","steam_id":76561198088635943,"connected_time":1456000000000,"state":"active","ping":84},{"user_id":411,"name":"Pineapple Okanつ ◕_◕ ༽\ufffd\ufffd","steam_id":76561198069199449,"connected_time":3450000000000,"state":"active","ping":110},{"user_id":444,"name":"Phalcon","steam_id":76561197987051394,"connected_time":660000000000,"state":"active","ping":81},{"user_id":439,"name":"amjadgx9","steam_id":76561199388681087,"connected_time":859000000000,"state":"active","ping":119},{"user_id":440,"name":"Redkiller","steam_id":76561199453655288,"connected_time":832000000000,"state":"active","ping":127},{"user_id":424,"name":"Mj12","steam_id":76561198044346572,"connected_time":1884000000000,"state":"active","ping":104},{"user_id":453,"name":"siarczan (VI) miedzi (II)","steam_id":76561198327848460,"connected_time":188000000000,"state":"active","ping":84},{"user_id":454,"name":"Daga","steam_id":76561198055450219,"connected_time":158000000000,"state":"active","ping":38},{"user_id":455,"name":"Bisago!","steam_id":76561198181794353,"connected_time":154000000000,"state":"active","ping":45},{"user_id":448,"name":"jestermaxxing whimsypill","steam_id":76561198104896547,"connected_time":408000000000,"state":"active","ping":85},{"user_id":416,"name":"gRocc0","steam_id":76561198283840637,"connected_time":3362000000000,"state":"active","ping":104},{"user_id":456,"name":"hut hut","steam_id":76561198088426580,"connected_time":144000000000,"state":"active","ping":62},{"user_id":458,"name":"Charles McGill","steam_id":76561199064850836,"connected_time":86000000000,"state":"active","ping":52},{"user_id":449,"name":"Leonor Bolek","steam_id":76561198295052334,"connected_time":396000000000,"state":"active","ping":77}]},{"server_id":40,"name":"Uncletopia | London | 7 | No Payload","name_short":"lon-7","host":"lon-1.uk.uncletopia.com","port":27075,"enabled":true,"region":"eu","cc":"gb","latitude":51.509865,"longitude":-0.118092,"reserved":0,"last_update":"0001-01-01T00:00:00Z","name_a2s":"Uncletopia | London | 7 | No Payload","protocol":17,"map":"koth_badlands","folder":"tf","game":"Team Fortress","app_id":440,"player_count":2,"max_players":24,"Bots":0,"server_type":"Dedicated","server_os":"Linux","password":true,"vac":true,"version":"7757534","steam_id":85568392924964314,"keywords":["cp","nocrits","nodmgspread","uncletopia"],"game_id":440,"stv_port":27076,"stv_name":"Uncletopia | London | 7 | No Payload | STV","players":[{"user_id":38,"name":"spiderfat","steam_id":76561198957917221,"connected_time":1642000000000,"state":"active","ping":192},{"user_id":39,"name":"RoboticPyroRobo","steam_id":76561198355732200,"connected_time":1601000000000,"state":"active","ping":168}]},{"server_id":41,"name":"Uncletopia | London | 8 | Community","name_short":"lon-8","host":"lon-1.uk.uncletopia.com","port":27085,"enabled":true,"region":"eu","cc":"gb","latitude":51.509865,"longitude":-0.118092,"reserved":0,"last_update":"0001-01-01T00:00:00Z","name_a2s":"Uncletopia | London | 8 | Community","protocol":17,"map":"workshop/pl_boundary_final1.ugc456799153","folder":"tf","game":"Team Fortress","app_id":440,"player_count":0,"max_players":24,"Bots":0,"server_type":"Dedicated","server_os":"Linux","password":true,"vac":true,"version":"7757534","steam_id":85568392924964315,"keywords":["nocrits","nodmgspread","payload","uncletopia"],"game_id":440,"stv_port":27086,"stv_name":"Uncletopia | London | 8 | Community | STV","players":null},{"server_id":300,"name":"Uncletopia | Montréal | 1 | All Maps","name_short":"mtl-1","host":"mtl-1.ca.uncletopia.com","port":27015,"enabled":true,"region":"us-east","cc":"ca","latitude":45.50889,"longitude":-73.56167,"reserved":0,"last_update":"0001-01-01T00:00:00Z","name_a2s":"Uncletopia | Montréal | 1 | All Maps","protocol":17,"map":"pl_snowycoast","folder":"tf","game":"Team Fortress","app_id":440,"player_count":0,"max_players":24,"Bots":0,"server_type":"Dedicated","server_os":"Linux","password":true,"vac":true,"version":"7757534","steam_id":85568392924500087,"keywords":["nocrits","nodmgspread","payload","uncletopia"],"game_id":440,"stv_port":27016,"stv_name":"Uncletopia | Montréal | 1 | All Maps | STV","players":null},{"server_id":301,"name":"Uncletopia | Montréal | 2 | All Maps","name_short":"mtl-2","host":"mtl-1.ca.uncletopia.com","port":27025,"enabled":true,"region":"us-east","cc":"ca","latitude":45.50889,"longitude":-73.56167,"reserved":0,"last_update":"0001-01-01T00:00:00Z","name_a2s":"Uncletopia | Montréal | 2 | All Maps","protocol":17,"map":"pl_snowycoast","folder":"tf","game":"Team Fortress","app_id":440,"player_count":0,"max_players":24,"Bots":0,"server_type":"Dedicated","server_os":"Linux","password":true,"vac":true,"version":"7757534","steam_id":85568392924500088,"keywords":["nocrits","nodmgspread","payload","uncletopia"],"game_id":440,"stv_port":27026,"stv_name":"Uncletopia | Montréal | 2 | All Maps | STV","players":null},{"server_id":302,"name":"Uncletopia | Montréal | 3 | All Maps","name_short":"mtl-3","host":"mtl-1.ca.uncletopia.com","port":27035,"enabled":true,"region":"us-east","cc":"ca","latitude":45.50889,"longitude":-73.56167,"reserved":0,"last_update":"0001-01-01T00:00:00Z","name_a2s":"Uncletopia | Montréal | 3 | All Maps","protocol":17,"map":"cp_mountainlab","folder":"tf","game":"Team Fortress","app_id":440,"player_count":0,"max_players":24,"Bots":0,"server_type":"Dedicated","server_os":"Linux","password":true,"vac":true,"version":"7757534","steam_id":85568392924500089,"keywords":["cp","nocrits","nodmgspread","uncletopia"],"game_id":440,"stv_port":27036,"stv_name":"Uncletopia | Montréal | 3 | All Maps | STV","players":null},{"server_id":303,"name":"Uncletopia | Montréal | 4 | No Payload","name_short":"mtl-4","host":"mtl-1.ca.uncletopia.com","port":27045,"enabled":true,"region":"us-east","cc":"ca","latitude":45.50889,"longitude":-73.56167,"reserved":0,"last_update":"0001-01-01T00:00:00Z","name_a2s":"Uncletopia | Montréal | 4 | No Payload","protocol":17,"map":"koth_brazil","folder":"tf","game":"Team Fortress","app_id":440,"player_count":0,"max_players":24,"Bots":0,"server_type":"Dedicated","server_os":"Linux","password":true,"vac":true,"version":"7757534","steam_id":85568392924500090,"keywords":["cp","nocrits","nodmgspread","uncletopia"],"game_id":440,"stv_port":27046,"stv_name":"Uncletopia | Montréal | 4 | No Payload | STV","players":null},{"server_id":13,"name":"Uncletopia | New York City | 1 | All Maps","name_short":"nyc-1","host":"nyc-1.us.uncletopia.com","port":27015,"enabled":true,"region":"us-east","cc":"us","latitude":40.73061,"longitude":-73.93524,"reserved":0,"last_update":"0001-01-01T00:00:00Z","name_a2s":"Uncletopia | New York City | 1 | All Maps","protocol":17,"map":"cp_dustbowl","folder":"tf","game":"Team Fortress","app_id":440,"player_count":24,"max_players":24,"Bots":0,"server_type":"Dedicated","server_os":"Linux","password":true,"vac":true,"version":"7757534","steam_id":85568392924469993,"keywords":["cp","nocrits","nodmgspread","uncletopia"],"game_id":440,"stv_port":27016,"stv_name":"Uncletopia | New York City | 1 | All Maps | STV","players":[{"user_id":426,"name":"¡ayudame!","steam_id":76561198071421094,"connected_time":795000000000,"state":"active","ping":97},{"user_id":415,"name":"Moody","steam_id":76561199013442105,"connected_time":1509000000000,"state":"active","ping":41},{"user_id":414,"name":"Ferrin","steam_id":76561198071757444,"connected_time":1533000000000,"state":"active","ping":102},{"user_id":392,"name":"Grundle Thunder","steam_id":76561197960790338,"connected_time":3158000000000,"state":"active","ping":64},{"user_id":427,"name":"Cheeki","steam_id":76561198024375176,"connected_time":706000000000,"state":"active","ping":38},{"user_id":417,"name":"izzo","steam_id":76561198206306996,"connected_time":1418000000000,"state":"active","ping":45},{"user_id":432,"name":"-W3E- grim10465","steam_id":76561198045698581,"connected_time":535000000000,"state":"active","ping":31},{"user_id":418,"name":"mm","steam_id":76561198841559088,"connected_time":1414000000000,"state":"active","ping":48},{"user_id":397,"name":"ITSDIVVY","steam_id":76561198879236561,"connected_time":3062000000000,"state":"active","ping":79},{"user_id":433,"name":"Horse","steam_id":76561199112075552,"connected_time":431000000000,"state":"active","ping":47},{"user_id":431,"name":"Big kahuna","steam_id":76561198142024812,"connected_time":632000000000,"state":"active","ping":65},{"user_id":419,"name":"Jookson","steam_id":76561198413604994,"connected_time":1407000000000,"state":"active","ping":79},{"user_id":435,"name":"minimum wage fast food worker","steam_id":76561198816473593,"connected_time":96000000000,"state":"active","ping":47},{"user_id":434,"name":"Room","steam_id":76561199174579733,"connected_time":207000000000,"state":"active","ping":97},{"user_id":428,"name":"CoffeeTail","steam_id":76561197983995302,"connected_time":702000000000,"state":"active","ping":118},{"user_id":412,"name":"Just Luke","steam_id":76561198072134257,"connected_time":1665000000000,"state":"active","ping":56},{"user_id":402,"name":"silentpieceofbacon","steam_id":76561198869323351,"connected_time":2723000000000,"state":"active","ping":84},{"user_id":405,"name":"RazE","steam_id":76561198074181336,"connected_time":2457000000000,"state":"active","ping":58},{"user_id":344,"name":"Prinz Eugen","steam_id":76561198129154766,"connected_time":7767000000000,"state":"active","ping":121},{"user_id":390,"name":"Amelia","steam_id":76561198051011524,"connected_time":3789000000000,"state":"active","ping":67},{"user_id":422,"name":"H₂SeGamez","steam_id":76561198250471340,"connected_time":1395000000000,"state":"active","ping":68},{"user_id":429,"name":"Kaluka","steam_id":76561198036861445,"connected_time":685000000000,"state":"active","ping":61},{"user_id":388,"name":"Mr. May","steam_id":76561198132112804,"connected_time":3984000000000,"state":"active","ping":83},{"user_id":403,"name":"Law","steam_id":76561198320282310,"connected_time":2706000000000,"state":"active","ping":108}]},{"server_id":14,"name":"Uncletopia | New York City | 2 | All Maps","name_short":"nyc-2","host":"nyc-1.us.uncletopia.com","port":27025,"enabled":true,"region":"us-east","cc":"us","latitude":40.73061,"longitude":-73.93524,"reserved":0,"last_update":"0001-01-01T00:00:00Z","name_a2s":"Uncletopia | New York City | 2 | All Maps","protocol":17,"map":"cp_sunshine","folder":"tf","game":"Team Fortress","app_id":440,"player_count":24,"max_players":24,"Bots":0,"server_type":"Dedicated","server_os":"Linux","password":true,"vac":true,"version":"7757534","steam_id":85568392924469994,"keywords":["cp","nocrits","nodmgspread","uncletopia"],"game_id":440,"stv_port":27026,"stv_name":"Uncletopia | New York City | 2 | All Maps | STV","players":[{"user_id":244,"name":"-|FG|- Hamilkar Barca","steam_id":76561198091666474,"connected_time":3610000000000,"state":"active","ping":46},{"user_id":266,"name":"a1ex","steam_id":76561198341411993,"connected_time":1490000000000,"state":"active","ping":58},{"user_id":253,"name":"Nigel_S","steam_id":76561198037191990,"connected_time":2332000000000,"state":"active","ping":92},{"user_id":276,"name":"Nikofreaker","steam_id":76561198320604061,"connected_time":541000000000,"state":"active","ping":84},{"user_id":273,"name":"Chemo","steam_id":76561197961308370,"connected_time":628000000000,"state":"active","ping":51},{"user_id":283,"name":"SofaKingWetoded","steam_id":76561198212762789,"connected_time":374000000000,"state":"active","ping":84},{"user_id":288,"name":"terrapieseven","steam_id":76561198072062415,"connected_time":78000000000,"state":"active","ping":58},{"user_id":269,"name":"bladee","steam_id":76561198209795841,"connected_time":1087000000000,"state":"active","ping":74},{"user_id":254,"name":"Zarik","steam_id":76561197967269007,"connected_time":2228000000000,"state":"active","ping":45},{"user_id":275,"name":"AAAAAAAAAAAAAAAAAAAAAAAAAAAAAAA","steam_id":76561198817866879,"connected_time":577000000000,"state":"active","ping":64},{"user_id":243,"name":"FAC","steam_id":76561198009818412,"connected_time":3651000000000,"state":"active","ping":77},{"user_id":284,"name":"Literally a Trans Woman","steam_id":76561198054639925,"connected_time":372000000000,"state":"active","ping":52},{"user_id":265,"name":"SpinetinglingToast","steam_id":76561198099470670,"connected_time":1513000000000,"state":"active","ping":52},{"user_id":278,"name":"Thog","steam_id":76561198093699060,"connected_time":494000000000,"state":"active","ping":48},{"user_id":259,"name":"Sigiferd","steam_id":76561198148788110,"connected_time":2101000000000,"state":"active","ping":123},{"user_id":289,"name":"Jinxx","steam_id":76561199089438997,"connected_time":38000000000,"state":"active","ping":82},{"user_id":280,"name":"D.LeBlanc","steam_id":76561198119483989,"connected_time":448000000000,"state":"active","ping":123},{"user_id":210,"name":"D9","steam_id":76561197999151357,"connected_time":5834000000000,"state":"active","ping":95},{"user_id":281,"name":"leumas","steam_id":76561198240408540,"connected_time":423000000000,"state":"active","ping":63},{"user_id":239,"name":"☼ kevin \"berserker\" hall","steam_id":76561198074180953,"connected_time":4030000000000,"state":"active","ping":59},{"user_id":282,"name":"AirtimeExpress","steam_id":76561197976351651,"connected_time":414000000000,"state":"active","ping":70},{"user_id":263,"name":"dodge1214","steam_id":76561198020431237,"connected_time":1834000000000,"state":"active","ping":50},{"user_id":285,"name":"WhistlingFox04","steam_id":76561198381509938,"connected_time":341000000000,"state":"active","ping":124},{"user_id":286,"name":"localization files","steam_id":76561197997139225,"connected_time":334000000000,"state":"active","ping":45}]},{"server_id":15,"name":"Uncletopia | New York City | 3 | Stopwatch Beta","name_short":"nyc-3","host":"nyc-1.us.uncletopia.com","port":27035,"enabled":true,"region":"us-east","cc":"us","latitude":40.73061,"longitude":-73.93524,"reserved":0,"last_update":"0001-01-01T00:00:00Z","name_a2s":"Uncletopia | New York City | 3 | Stopwatch Beta","protocol":17,"map":"pl_swiftwater_final1","folder":"tf","game":"Team Fortress","app_id":440,"player_count":0,"max_players":24,"Bots":0,"server_type":"Dedicated","server_os":"Linux","password":true,"vac":true,"version":"7757534","steam_id":85568392924742820,"keywords":["nocrits","nodmgspread","payload","uncletopia"],"game_id":440,"stv_port":27036,"stv_name":"Uncletopia | New York City | 3 | Stopwatch Beta | STV","players":null},{"server_id":16,"name":"Uncletopia | New York City | 4 | Community","name_short":"nyc-4","host":"nyc-1.us.uncletopia.com","port":27045,"enabled":true,"region":"us-east","cc":"us","latitude":40.73061,"longitude":-73.93524,"reserved":0,"last_update":"0001-01-01T00:00:00Z","name_a2s":"Uncletopia | New York City | 4 | Community","protocol":17,"map":"workshop/koth_product_final.ugc454272353","folder":"tf","game":"Team Fortress","app_id":440,"player_count":1,"max_players":24,"Bots":0,"server_type":"Dedicated","server_os":"Linux","password":true,"vac":true,"version":"7757534","steam_id":85568392924742821,"keywords":["cp","nocrits","nodmgspread","uncletopia"],"game_id":440,"stv_port":27046,"stv_name":"Uncletopia | New York City | 4 | Community | STV","players":[{"user_id":11,"name":"Asriel","steam_id":76561198243188782,"connected_time":144000000000,"state":"spawning","ping":367}]},{"server_id":142,"name":"Uncletopia | São Paulo | 1 | All Maps","name_short":"sao-1","host":"sao-1.br.uncletopia.com","port":27015,"enabled":true,"region":"sa","cc":"br","latitude":-23.533773,"longitude":-46.62529,"reserved":0,"last_update":"0001-01-01T00:00:00Z","name_a2s":"Uncletopia | São Paulo | 1 | All Maps","protocol":17,"map":"koth_viaduct","folder":"tf","game":"Team Fortress","app_id":440,"player_count":0,"max_players":24,"Bots":0,"server_type":"Dedicated","server_os":"Linux","password":true,"vac":true,"version":"7757534","steam_id":85568392924469996,"keywords":["cp","nocrits","nodmgspread","uncletopia"],"game_id":440,"stv_port":27016,"stv_name":"Uncletopia | São Paulo | 1 | All Maps | STV","players":null},{"server_id":143,"name":"Uncletopia | São Paulo | 2 | All Maps","name_short":"sao-2","host":"sao-2.br.uncletopia.com","port":27015,"enabled":true,"region":"sa","cc":"br","latitude":-23.533773,"longitude":-46.62529,"reserved":0,"last_update":"0001-01-01T00:00:00Z","name_a2s":"Uncletopia | São Paulo | 2 | All Maps","protocol":17,"map":"pl_borneo","folder":"tf","game":"Team Fortress","app_id":440,"player_count":0,"max_players":24,"Bots":0,"server_type":"Dedicated","server_os":"Linux","password":true,"vac":true,"version":"7757534","steam_id":85568392924485349,"keywords":["nocrits","nodmgspread","payload","uncletopia"],"game_id":440,"stv_port":27016,"stv_name":"Uncletopia | São Paulo | 2 | All Maps | STV","players":null},{"server_id":7,"name":"Uncletopia | Seattle | 1 | All Maps","name_short":"sea-1","host":"sea-1.us.uncletopia.com","port":27015,"enabled":true,"region":"us-west","cc":"us","latitude":47.608013,"longitude":-122.33517,"reserved":0,"last_update":"0001-01-01T00:00:00Z","name_a2s":"Uncletopia | Seattle | 1 | All Maps","protocol":17,"map":"pl_upward","folder":"tf","game":"Team Fortress","app_id":440,"player_count":25,"max_players":24,"Bots":0,"server_type":"Dedicated","server_os":"Linux","password":true,"vac":true,"version":"7757534","steam_id":85568392924469997,"keywords":["nocrits","nodmgspread","payload","uncletopia"],"game_id":440,"stv_port":27016,"stv_name":"Uncletopia | Seattle | 1 | All Maps | STV","players":[{"user_id":427,"name":"Eric Cartman","steam_id":76561198850898505,"connected_time":594000000000,"state":"active","ping":45},{"user_id":401,"name":"parrot1002924","steam_id":76561199443882275,"connected_time":3285000000000,"state":"active","ping":50},{"user_id":364,"name":"girl (evil)","steam_id":76561198010361897,"connected_time":5289000000000,"state":"active","ping":61},{"user_id":432,"name":"my monitor is off","steam_id":76561198074499537,"connected_time":333000000000,"state":"active","ping":72},{"user_id":350,"name":"No Sound","steam_id":76561198011675372,"connected_time":6386000000000,"state":"active","ping":57},{"user_id":421,"name":"D(b) Hell","steam_id":76561198067869016,"connected_time":1821000000000,"state":"active","ping":70},{"user_id":433,"name":"Confirmed Bachelor","steam_id":76561198441041496,"connected_time":288000000000,"state":"active","ping":53},{"user_id":386,"name":"Sloppy John (Extra Sauce)","steam_id":76561198359703432,"connected_time":4149000000000,"state":"active","ping":75},{"user_id":391,"name":"toodles","steam_id":76561198025463883,"connected_time":3875000000000,"state":"active","ping":49},{"user_id":429,"name":"weed boner","steam_id":76561198034131572,"connected_time":579000000000,"state":"active","ping":44},{"user_id":362,"name":"jacix3 [gay wolfgirl]{she/it}","steam_id":76561198205004165,"connected_time":5575000000000,"state":"active","ping":64},{"user_id":404,"name":"〣dust〣 -she/her-","steam_id":76561198045218909,"connected_time":3236000000000,"state":"active","ping":40},{"user_id":435,"name":"InfernoFlower64","steam_id":76561198181097391,"connected_time":10000000000,"state":"spawning","ping":140},{"user_id":436,"name":"Julien","steam_id":76561199389584938,"connected_time":4000000000,"state":"spawning","ping":39},{"user_id":387,"name":"bronk","steam_id":76561198181109553,"connected_time":4113000000000,"state":"active","ping":62},{"user_id":407,"name":"Dr. Karl, the AUS Science Guy","steam_id":76561198031278747,"connected_time":2783000000000,"state":"active","ping":45},{"user_id":413,"name":"AmiableNebula","steam_id":76561198094306627,"connected_time":2176000000000,"state":"active","ping":76},{"user_id":424,"name":"lost in the sauce","steam_id":76561199043827112,"connected_time":1412000000000,"state":"active","ping":115},{"user_id":373,"name":"THE NUT","steam_id":76561198067813626,"connected_time":4577000000000,"state":"active","ping":48},{"user_id":383,"name":"ohio","steam_id":76561198097637080,"connected_time":4367000000000,"state":"active","ping":124},{"user_id":414,"name":"KingTinkerer","steam_id":76561198226856548,"connected_time":1939000000000,"state":"active","ping":69},{"user_id":426,"name":"Morse","steam_id":76561198039944542,"connected_time":1026000000000,"state":"active","ping":48},{"user_id":434,"name":"pizzaguy4","steam_id":76561198058821622,"connected_time":288000000000,"state":"active","ping":95},{"user_id":437,"name":"MORE BOUNCE TO THE OUNCE","steam_id":76561198243399336,"connected_time":3000000000,"state":"spawning","ping":73},{"user_id":420,"name":"the bandit","steam_id":76561199158540950,"connected_time":1906000000000,"state":"active","ping":67}]},{"server_id":119,"name":"Uncletopia | Seattle | 2 | All Maps","name_short":"sea-2","host":"sea-1.us.uncletopia.com","port":27025,"enabled":true,"region":"us-west","cc":"us","latitude":47.608013,"longitude":-122.33517,"reserved":0,"last_update":"0001-01-01T00:00:00Z","name_a2s":"Uncletopia | Seattle | 2 | All Maps","protocol":17,"map":"pl_borneo","folder":"tf","game":"Team Fortress","app_id":440,"player_count":24,"max_players":24,"Bots":0,"server_type":"Dedicated","server_os":"Linux","password":true,"vac":true,"version":"7757534","steam_id":85568392924469998,"keywords":["nocrits","nodmgspread","payload","uncletopia"],"game_id":440,"stv_port":27026,"stv_name":"Uncletopia | Seattle | 2 | All Maps | STV","players":[{"user_id":139,"name":"mudunit","steam_id":76561198811544015,"connected_time":1938000000000,"state":"active","ping":78},{"user_id":151,"name":"KittyToy","steam_id":76561198043990701,"connected_time":650000000000,"state":"active","ping":63},{"user_id":127,"name":"McLovin","steam_id":76561198114934503,"connected_time":3193000000000,"state":"active","ping":58},{"user_id":150,"name":"Tomplaysgames","steam_id":76561198936527316,"connected_time":688000000000,"state":"active","ping":98},{"user_id":162,"name":"Mike's Pimento Cheese Sandwich","steam_id":76561198978499219,"connected_time":373000000000,"state":"active","ping":75},{"user_id":148,"name":"Village","steam_id":76561198402089732,"connected_time":894000000000,"state":"active","ping":65},{"user_id":163,"name":"Joe Burning","steam_id":76561198208623275,"connected_time":313000000000,"state":"active","ping":127},{"user_id":145,"name":"TheOnlyItchy","steam_id":76561198964202303,"connected_time":1382000000000,"state":"active","ping":53},{"user_id":79,"name":"Goat","steam_id":76561198130683707,"connected_time":7335000000000,"state":"active","ping":76},{"user_id":166,"name":"LACTAID","steam_id":76561198276585202,"connected_time":257000000000,"state":"active","ping":83},{"user_id":154,"name":"mobtownUSA","steam_id":76561198393054672,"connected_time":532000000000,"state":"active","ping":103},{"user_id":155,"name":"Danny Fentanyl","steam_id":76561197970791798,"connected_time":530000000000,"state":"active","ping":41},{"user_id":98,"name":"jello","steam_id":76561198149683030,"connected_time":5748000000000,"state":"active","ping":62},{"user_id":161,"name":"NOM","steam_id":76561198362874591,"connected_time":392000000000,"state":"active","ping":79},{"user_id":159,"name":"spgettiboi","steam_id":76561198449371959,"connected_time":410000000000,"state":"active","ping":90},{"user_id":132,"name":"STrong Bomber","steam_id":76561198805051139,"connected_time":2960000000000,"state":"active","ping":46},{"user_id":169,"name":"frozenwasanokmovie","steam_id":76561198157407952,"connected_time":53000000000,"state":"active","ping":79},{"user_id":170,"name":"SLUMBER","steam_id":76561198095013394,"connected_time":1000000000,"state":"spawning","ping":90},{"user_id":164,"name":"robinhood","steam_id":76561198090995027,"connected_time":311000000000,"state":"active","ping":117},{"user_id":165,"name":"Greed","steam_id":76561198041628318,"connected_time":289000000000,"state":"active","ping":64},{"user_id":120,"name":"Flooder","steam_id":76561198043792818,"connected_time":3610000000000,"state":"active","ping":61},{"user_id":147,"name":"Colonel Chikara","steam_id":76561198010021087,"connected_time":1089000000000,"state":"active","ping":69},{"user_id":167,"name":"VPratt","steam_id":76561198351195424,"connected_time":190000000000,"state":"active","ping":104},{"user_id":168,"name":"deepwoken","steam_id":76561198055439054,"connected_time":157000000000,"state":"active","ping":127}]},{"server_id":406,"name":"Uncletopia | Seattle | 3 | Stopwatch Beta","name_short":"sea-3","host":"sea-1.us.uncletopia.com","port":27035,"enabled":true,"region":"us-west","cc":"us","latitude":47.608013,"longitude":-122.33517,"reserved":0,"last_update":"0001-01-01T00:00:00Z","name_a2s":"Uncletopia | Seattle | 3 | Stopwatch Beta","protocol":17,"map":"pl_barnblitz","folder":"tf","game":"Team Fortress","app_id":440,"player_count":0,"max_players":24,"Bots":0,"server_type":"Dedicated","server_os":"Linux","password":true,"vac":true,"version":"7757534","steam_id":85568392924515217,"keywords":["nocrits","nodmgspread","payload","uncletopia"],"game_id":440,"stv_port":27036,"stv_name":"Uncletopia | Seattle | 3 | Stopwatch Beta | STV","players":null},{"server_id":17,"name":"Uncletopia | San Francisco | 1 | All Maps","name_short":"sfo-1","host":"sfo-1.us.uncletopia.com","port":27015,"enabled":true,"region":"us-west","cc":"us","latitude":37.77397,"longitude":-122.4313,"reserved":0,"last_update":"0001-01-01T00:00:00Z","name_a2s":"Uncletopia | San Francisco | 1 | All Maps","protocol":17,"map":"pl_barnblitz","folder":"tf","game":"Team Fortress","app_id":440,"player_count":24,"max_players":24,"Bots":0,"server_type":"Dedicated","server_os":"Linux","password":true,"vac":true,"version":"7757534","steam_id":85568392924469999,"keywords":["nocrits","nodmgspread","payload","uncletopia"],"game_id":440,"stv_port":27016,"stv_name":"Uncletopia | San Francisco | 1 | All Maps | STV","players":[{"user_id":307,"name":"Locrian","steam_id":76561198356159602,"connected_time":360000000000,"state":"active","ping":67},{"user_id":305,"name":"Murgatroyd","steam_id":76561198077350331,"connected_time":505000000000,"state":"active","ping":153},{"user_id":270,"name":"Sparrow","steam_id":76561199122118959,"connected_time":3202000000000,"state":"active","ping":47},{"user_id":288,"name":"Walter","steam_id":76561198176428878,"connected_time":2263000000000,"state":"active","ping":73},{"user_id":306,"name":"Frisk Weatherfield","steam_id":76561198146435800,"connected_time":459000000000,"state":"active","ping":115},{"user_id":267,"name":"Green_GarBear","steam_id":76561199468912415,"connected_time":3278000000000,"state":"active","ping":54},{"user_id":260,"name":"Course Brains","steam_id":76561198349105723,"connected_time":3501000000000,"state":"active","ping":61},{"user_id":295,"name":"Green Icicle","steam_id":76561198069624529,"connected_time":1690000000000,"state":"active","ping":57},{"user_id":294,"name":"Kingofthem","steam_id":76561198866197308,"connected_time":1960000000000,"state":"active","ping":53},{"user_id":300,"name":"Spiffle","steam_id":76561199089811047,"connected_time":1108000000000,"state":"active","ping":60},{"user_id":301,"name":"Klip","steam_id":76561198316254429,"connected_time":1100000000000,"state":"active","ping":98},{"user_id":265,"name":"rucier197","steam_id":76561199005536159,"connected_time":3353000000000,"state":"active","ping":54},{"user_id":298,"name":"Delimeat","steam_id":76561198043824595,"connected_time":1489000000000,"state":"active","ping":71},{"user_id":303,"name":"Livin' Like Larry","steam_id":76561198313360974,"connected_time":677000000000,"state":"active","ping":38},{"user_id":309,"name":"neurotic","steam_id":76561198081545480,"connected_time":81000000000,"state":"active","ping":165},{"user_id":296,"name":"Frazzer","steam_id":76561198088679707,"connected_time":1596000000000,"state":"active","ping":52},{"user_id":308,"name":"Bullet_Phobia","steam_id":76561198052754267,"connected_time":271000000000,"state":"active","ping":121},{"user_id":290,"name":"AiroBirb","steam_id":76561198370692243,"connected_time":2227000000000,"state":"active","ping":58},{"user_id":275,"name":"FULCRUM faded than a ho","steam_id":76561198274959371,"connected_time":3053000000000,"state":"active","ping":119},{"user_id":276,"name":"Frogzilla","steam_id":76561198077657538,"connected_time":3051000000000,"state":"active","ping":83},{"user_id":302,"name":"Maid 'n' China","steam_id":76561198423392976,"connected_time":757000000000,"state":"active","ping":52},{"user_id":278,"name":"BionicApe","steam_id":76561198154637711,"connected_time":3047000000000,"state":"active","ping":67},{"user_id":204,"name":"Alunatic14","steam_id":76561198309321593,"connected_time":6197000000000,"state":"active","ping":121},{"user_id":304,"name":"The Rascal","steam_id":76561198151319763,"connected_time":580000000000,"state":"active","ping":97}]},{"server_id":18,"name":"Uncletopia | San Francisco | 2 | All Maps","name_short":"sfo-2","host":"sfo-1.us.uncletopia.com","port":27025,"enabled":true,"region":"us-west","cc":"us","latitude":37.77397,"longitude":-122.4313,"reserved":0,"last_update":"0001-01-01T00:00:00Z","name_a2s":"Uncletopia | San Francisco | 2 | All Maps","protocol":17,"map":"cp_mountainlab","folder":"tf","game":"Team Fortress","app_id":440,"player_count":0,"max_players":24,"Bots":0,"server_type":"Dedicated","server_os":"Linux","password":true,"vac":true,"version":"7757534","steam_id":85568392924470000,"keywords":["cp","nocrits","nodmgspread","uncletopia"],"game_id":440,"stv_port":27026,"stv_name":"Uncletopia | San Francisco | 2 | All Maps | STV","players":null},{"server_id":19,"name":"Uncletopia | San Francisco | 3 | Stopwatch Beta","name_short":"sfo-3","host":"sfo-1.us.uncletopia.com","port":27035,"enabled":true,"region":"us-west","cc":"us","latitude":37.77397,"longitude":-122.4313,"reserved":0,"last_update":"0001-01-01T00:00:00Z","name_a2s":"Uncletopia | San Francisco | 3 | Stopwatch Beta","protocol":17,"map":"pl_borneo","folder":"tf","game":"Team Fortress","app_id":440,"player_count":0,"max_players":24,"Bots":0,"server_type":"Dedicated","server_os":"Linux","password":true,"vac":true,"version":"7757534","steam_id":85568392924742824,"keywords":["nocrits","nodmgspread","payload","uncletopia"],"game_id":440,"stv_port":27036,"stv_name":"Uncletopia | San Francisco | 3 | Stopwatch Beta | STV","players":null},{"server_id":20,"name":"Uncletopia | San Francisco | 4 | Community","name_short":"sfo-4","host":"sfo-1.us.uncletopia.com","port":27045,"enabled":true,"region":"us-west","cc":"us","latitude":37.77397,"longitude":-122.4313,"reserved":0,"last_update":"0001-01-01T00:00:00Z","name_a2s":"Uncletopia | San Francisco | 4 | Community","protocol":17,"map":"workshop/koth_ramjam_rc1.ugc459778887","folder":"tf","game":"Team Fortress","app_id":440,"player_count":0,"max_players":24,"Bots":0,"server_type":"Dedicated","server_os":"Linux","password":true,"vac":true,"version":"7757534","steam_id":85568392924742826,"keywords":["cp","nocrits","nodmgspread","uncletopia"],"game_id":440,"stv_port":27046,"stv_name":"Uncletopia | San Francisco | 4 | Community | STV","players":null},{"server_id":141,"name":"Uncletopia | Sydney | 1 | All Maps","name_short":"syd-1","host":"syd-1.au.uncletopia.com","port":27015,"enabled":true,"region":"au","cc":"au","latitude":-33.865143,"longitude":151.2099,"reserved":0,"last_update":"0001-01-01T00:00:00Z","name_a2s":"Uncletopia | Sydney | 1 | All Maps","protocol":17,"map":"pl_barnblitz","folder":"tf","game":"Team Fortress","app_id":440,"player_count":0,"max_players":24,"Bots":0,"server_type":"Dedicated","server_os":"Linux","password":true,"vac":true,"version":"7757534","steam_id":85568392924470001,"keywords":["nocrits","nodmgspread","payload","uncletopia"],"game_id":440,"stv_port":27016,"stv_name":"Uncletopia | Sydney | 1 | All Maps | STV","players":null},{"server_id":123,"name":"Uncletopia | Sydney | 2 | All Maps","name_short":"syd-2","host":"syd-1.au.uncletopia.com","port":27025,"enabled":true,"region":"au","cc":"au","latitude":-33.865143,"longitude":151.2099,"reserved":0,"last_update":"0001-01-01T00:00:00Z","name_a2s":"Uncletopia | Sydney | 2 | All Maps","protocol":17,"map":"koth_viaduct","folder":"tf","game":"Team Fortress","app_id":440,"player_count":0,"max_players":24,"Bots":0,"server_type":"Dedicated","server_os":"Linux","password":true,"vac":true,"version":"7757534","steam_id":85568392924470002,"keywords":["cp","nocrits","nodmgspread","uncletopia"],"game_id":440,"stv_port":27026,"stv_name":"Uncletopia | Sydney | 2 | All Maps | STV","players":null},{"server_id":395,"name":"Uncletopia | Sydney | 3 | All Maps","name_short":"syd-3","host":"syd-1.au.uncletopia.com","port":27035,"enabled":true,"region":"au","cc":"au","latitude":-33.865143,"longitude":151.2099,"reserved":0,"last_update":"0001-01-01T00:00:00Z","name_a2s":"Uncletopia | Sydney | 3 | All Maps","protocol":17,"map":"pl_upward","folder":"tf","game":"Team Fortress","app_id":440,"player_count":0,"max_players":24,"Bots":0,"server_type":"Dedicated","server_os":"Linux","password":true,"vac":true,"version":"7757534","steam_id":85568392925194467,"keywords":["nocrits","nodmgspread","payload","uncletopia"],"game_id":440,"stv_port":27036,"stv_name":"Uncletopia | Sydney | 3 | All Maps | STV","players":null},{"server_id":396,"name":"Uncletopia | Sydney | 4 | All Maps","name_short":"syd-4","host":"syd-1.au.uncletopia.com","port":27045,"enabled":true,"region":"au","cc":"au","latitude":-33.865143,"longitude":151.2099,"reserved":0,"last_update":"0001-01-01T00:00:00Z","name_a2s":"Uncletopia | Sydney | 4 | All Maps","protocol":17,"map":"koth_lakeside_final","folder":"tf","game":"Team Fortress","app_id":440,"player_count":0,"max_players":24,"Bots":0,"server_type":"Dedicated","server_os":"Linux","password":true,"vac":true,"version":"7757534","steam_id":85568392925397958,"keywords":["cp","nocrits","nodmgspread","uncletopia"],"game_id":440,"stv_port":27046,"stv_name":"Uncletopia | Sydney | 4 | All Maps | STV","players":null},{"server_id":58,"name":"Uncletopia | Sydney | 5 | Stopwatch Beta","name_short":"syd-5","host":"syd-1.au.uncletopia.com","port":27055,"enabled":true,"region":"au","cc":"au","latitude":-33.865143,"longitude":151.2099,"reserved":0,"last_update":"0001-01-01T00:00:00Z","name_a2s":"Uncletopia | Sydney | 5 | Stopwatch Beta","protocol":17,"map":"koth_highpass","folder":"tf","game":"Team Fortress","app_id":440,"player_count":0,"max_players":24,"Bots":0,"server_type":"Dedicated","server_os":"Linux","password":true,"vac":true,"version":"7757534","steam_id":85568392925397959,"keywords":["cp","nocrits","nodmgspread","uncletopia"],"game_id":440,"stv_port":27056,"stv_name":"Uncletopia | Sydney | 5 | Stopwatch Beta | STV","players":null},{"server_id":59,"name":"Uncletopia | Sydney | 6 | Community","name_short":"syd-6","host":"syd-1.au.uncletopia.com","port":27065,"enabled":true,"region":"au","cc":"au","latitude":-33.865143,"longitude":151.2099,"reserved":0,"last_update":"0001-01-01T00:00:00Z","name_a2s":"Uncletopia | Sydney | 6 | Community","protocol":17,"map":"workshop/koth_synthetic_rc6a.ugc1549817316","folder":"tf","game":"Team Fortress","app_id":440,"player_count":0,"max_players":24,"Bots":0,"server_type":"Dedicated","server_os":"Linux","password":true,"vac":true,"version":"7757534","steam_id":85568392925397960,"keywords":["cp","nocrits","nodmgspread","uncletopia"],"game_id":440,"stv_port":27066,"stv_name":"Uncletopia | Sydney | 6 | Community | STV","players":null},{"server_id":49,"name":"Uncletopia | Warsaw | 1 | All Maps","name_short":"waw-1","host":"waw-1.pl.uncletopia.com","port":27015,"enabled":true,"region":"eu","cc":"pl","latitude":52.2297,"longitude":21.017532,"reserved":0,"last_update":"0001-01-01T00:00:00Z","name_a2s":"","protocol":0,"map":"","folder":"","game":"","app_id":0,"player_count":0,"max_players":0,"Bots":0,"server_type":"","server_os":"","password":false,"vac":false,"version":"","steam_id":0,"keywords":null,"game_id":0,"stv_port":0,"stv_name":"","players":null},{"server_id":50,"name":"Uncletopia | Warsaw | 2 | All Maps","name_short":"waw-2","host":"waw-1.pl.uncletopia.com","port":27025,"enabled":true,"region":"eu","cc":"pl","latitude":52.2297,"longitude":21.017532,"reserved":0,"last_update":"0001-01-01T00:00:00Z","name_a2s":"Uncletopia | Warsaw | 2 | All Maps","protocol":17,"map":"pl_barnblitz","folder":"tf","game":"Team Fortress","app_id":440,"player_count":0,"max_players":24,"Bots":0,"server_type":"Dedicated","server_os":"Linux","password":true,"vac":true,"version":"7757534","steam_id":85568392925397851,"keywords":["nocrits","nodmgspread","payload","uncletopia"],"game_id":440,"stv_port":27026,"stv_name":"Uncletopia | Warsaw | 2 | All Maps | STV","players":null},{"server_id":51,"name":"Uncletopia | Warsaw | 3 | All Maps","name_short":"waw-3","host":"waw-1.pl.uncletopia.com","port":27035,"enabled":true,"region":"eu","cc":"pl","latitude":52.2297,"longitude":21.017532,"reserved":0,"last_update":"0001-01-01T00:00:00Z","name_a2s":"Uncletopia | Warsaw | 3 | All Maps","protocol":17,"map":"pl_pier","folder":"tf","game":"Team Fortress","app_id":440,"player_count":0,"max_players":24,"Bots":0,"server_type":"Dedicated","server_os":"Linux","password":true,"vac":true,"version":"7757534","steam_id":85568392925397852,"keywords":["nocrits","nodmgspread","payload","uncletopia"],"game_id":440,"stv_port":27036,"stv_name":"Uncletopia | Warsaw | 3 | All Maps | STV","players":null},{"server_id":52,"name":"Uncletopia | Warsaw | 4 | All Maps","name_short":"waw-4","host":"waw-1.pl.uncletopia.com","port":27045,"enabled":true,"region":"eu","cc":"pl","latitude":52.2297,"longitude":21.017532,"reserved":0,"last_update":"0001-01-01T00:00:00Z","name_a2s":"Uncletopia | Warsaw | 4 | All Maps","protocol":17,"map":"koth_cascade","folder":"tf","game":"Team Fortress","app_id":440,"player_count":0,"max_players":24,"Bots":0,"server_type":"Dedicated","server_os":"Linux","password":true,"vac":true,"version":"7757534","steam_id":85568392925397853,"keywords":["cp","nocrits","nodmgspread","uncletopia"],"game_id":440,"stv_port":27046,"stv_name":"Uncletopia | Warsaw | 4 | All Maps | STV","players":null},{"server_id":53,"name":"Uncletopia | Warsaw | 5 | Stopwatch Beta","name_short":"waw-5","host":"waw-1.pl.uncletopia.com","port":27055,"enabled":true,"region":"eu","cc":"pl","latitude":52.2297,"longitude":21.017532,"reserved":0,"last_update":"0001-01-01T00:00:00Z","name_a2s":"Uncletopia | Warsaw | 5 | Stopwatch Beta","protocol":17,"map":"pl_barnblitz","folder":"tf","game":"Team Fortress","app_id":440,"player_count":0,"max_players":24,"Bots":0,"server_type":"Dedicated","server_os":"Linux","password":true,"vac":true,"version":"7757534","steam_id":85568392925397854,"keywords":["nocrits","nodmgspread","payload","uncletopia"],"game_id":440,"stv_port":27056,"stv_name":"Uncletopia | Warsaw | 5 | Stopwatch Beta | STV","players":null},{"server_id":54,"name":"Uncletopia | Warsaw | 6 | Community","name_short":"waw-6","host":"waw-1.pl.uncletopia.com","port":27065,"enabled":true,"region":"eu","cc":"pl","latitude":52.2297,"longitude":21.017532,"reserved":0,"last_update":"0001-01-01T00:00:00Z","name_a2s":"Uncletopia | Warsaw | 6 | Community","protocol":17,"map":"workshop/cp_bruhstbowl_b5.ugc2878604990","folder":"tf","game":"Team Fortress","app_id":440,"player_count":0,"max_players":24,"Bots":0,"server_type":"Dedicated","server_os":"Linux","password":true,"vac":true,"version":"7757534","steam_id":85568392925397856,"keywords":["cp","nocrits","nodmgspread","uncletopia"],"game_id":440,"stv_port":27066,"stv_name":"Uncletopia | Warsaw | 6 | Community | STV","players":null}]}