{"status":true,"message":"","result":[{"server_id":2,"name":"Uncletopia | Chicago | 1 | All Maps","name_short":"chi-1","host":"chi-1.us.uncletopia.com","port":27015,"enabled":true,"region":"us-central","cc":"us","latitude":41.881832,"longitude":-87.62318,"reserved":0,"last_update":"0001-01-01T00:00:00Z","name_a2s":"Uncletopia | Chicago | 1 | All Maps","protocol":17,"map":"pl_upward","folder":"tf","game":"Team Fortress","app_id":440,"player_count":24,"max_players":24,"Bots":0,"server_type":"Dedicated","server_os":"Linux","password":true,"vac":true,"version":"7932396","steam_id":85568392924469984,"keywords":["nocrits","nodmgspread","payload","uncletopia"],"game_id":440,"stv_port":27016,"stv_name":"Uncletopia | Chicago | 1 | All Maps | STV","players":[{"user_id":449,"name":"Cheesi","steam_id":76561199417190840,"connected_time":175000000000,"state":"active","ping":67},{"user_id":412,"name":"Oddball","steam_id":76561198040440984,"connected_time":1762000000000,"state":"active","ping":73},{"user_id":453,"name":"OneTrueCorvid","steam_id":76561199012953221,"connected_time":71000000000,"state":"active","ping":92},{"user_id":450,"name":"`o2","steam_id":76561197992030936,"connected_time":146000000000,"state":"active","ping":66},{"user_id":415,"name":"Furry Trash \u003c3","steam_id":76561198141538566,"connected_time":1543000000000,"state":"active","ping":66},{"user_id":454,"name":"Snoogs","steam_id":76561198444880931,"connected_time":55000000000,"state":"active","ping":72},{"user_id":445,"name":"Word To Your Mothership","steam_id":76561198034329138,"connected_time":538000000000,"state":"active","ping":90},{"user_id":441,"name":"metal pipe","steam_id":76561198849461209,"connected_time":778000000000,"state":"active","ping":63},{"user_id":448,"name":"The Notorious P.U.E.R.","steam_id":76561198046715542,"connected_time":301000000000,"state":"active","ping":64},{"user_id":431,"name":"Rad","steam_id":76561198413125750,"connected_time":1088000000000,"state":"active","ping":68},{"user_id":434,"name":"Space","steam_id":76561198350489754,"connected_time":940000000000,"state":"active","ping":46},{"user_id":440,"name":"Intro Bonito","steam_id":76561198119478838,"connected_time":790000000000,"state":"active","ping":68},{"user_id":383,"name":"Nehammer","steam_id":76561198260743692,"connected_time":4393000000000,"state":"active","ping":97},{"user_id":430,"name":"automaticflight","steam_id":76561198099462784,"connected_time":1145000000000,"state":"active","ping":60},{"user_id":447,"name":"Meerkat","steam_id":76561199245435539,"connected_time":465000000000,"state":"active","ping":98},{"user_id":396,"name":"Thundermonkey (SMOKE)","steam_id":76561198017631728,"connected_time":3270000000000,"state":"active","ping":59},{"user_id":426,"name":"i like trains","steam_id":76561198090531755,"connected_time":1413000000000,"state":"active","ping":63},{"user_id":410,"name":"Lavendr1001","steam_id":76561199058468170,"connected_time":1935000000000,"state":"active","ping":119},{"user_id":451,"name":"sir_shroomer","steam_id":76561199073946769,"connected_time":133000000000,"state":"active","ping":172},{"user_id":455,"name":"the_wolfman111","steam_id":76561198880434275,"connected_time":20000000000,"state":"spawning","ping":50},{"user_id":435,"name":"Snom","steam_id":76561198333827920,"connected_time":935000000000,"state":"active","ping":170},{"user_id":438,"name":"roo the observer","steam_id":76561198120684348,"connected_time":836000000000,"state":"active","ping":57},{"user_id":456,"name":"Aristotle Voulton","steam_id":76561198100174923,"connected_time":7000000000,"state":"spawning","ping":678},{"user_id":427,"name":"Ademar","steam_id":76561199391802581,"connected_time":1404000000000,"state":"active","ping":62}]},{"server_id":106,"name":"Uncletopia | Chicago | 2 | All Maps","name_short":"chi-2","host":"chi-1.us.uncletopia.com","port":27025,"enabled":true,"region":"us-central","cc":"us","latitude":41.881832,"longitude":-87.62318,"reserved":0,"last_update":"0001-01-01T00:00:00Z","name_a2s":"Uncletopia | Chicago | 2 | All Maps","protocol":17,"map":"cp_snakewater_final1","folder":"tf","game":"Team Fortress","app_id":440,"player_count":24,"max_players":24,"Bots":0,"server_type":"Dedicated","server_os":"Linux","password":true,"vac":true,"version":"7932396","steam_id":85568392924469985,"keywords":["cp","nocrits","nodmgspread","uncletopia"],"game_id":440,"stv_port":27026,"stv_name":"Uncletopia | Chicago | 2 | All Maps | STV","players":[{"user_id":772,"name":"minecraft","steam_id":76561198104345201,"connected_time":1220000000000,"state":"active","ping":65},{"user_id":773,"name":"Whorse","steam_id":76561198114141445,"connected_time":1217000000000,"state":"active","ping":73},{"user_id":723,"name":"Power-Fusion","steam_id":76561197981220590,"connected_time":5740000000000,"state":"active","ping":75},{"user_id":774,"name":"ThatOneKnight","steam_id":76561198388583650,"connected_time":1216000000000,"state":"active","ping":60},{"user_id":775,"name":"❄Admiral Pete❄ The Penguin","steam_id":76561198452656581,"connected_time":1208000000000,"state":"active","ping":71},{"user_id":765,"name":"littlesack","steam_id":76561197960270526,"connected_time":2033000000000,"state":"active","ping":83},{"user_id":782,"name":"Real Scrungus","steam_id":76561198101825154,"connected_time":1154000000000,"state":"active","ping":82},{"user_id":676,"name":"ObsessedNerd505","steam_id":76561199045531456,"connected_time":8820000000000,"state":"active","ping":70},{"user_id":776,"name":"Kazmirl","steam_id":76561198116008410,"connected_time":1208000000000,"state":"active","ping":109},{"user_id":777,"name":"dnaak","steam_id":76561197960489193,"connected_time":1199000000000,"state":"active","ping":45},{"user_id":781,"name":"Colin102004","steam_id":76561198202384334,"connected_time":1167000000000,"state":"active","ping":56},{"user_id":756,"name":"Gabagool","steam_id":76561198365935179,"connected_time":2382000000000,"state":"active","ping":85},{"user_id":789,"name":"skipper","steam_id":76561198395965181,"connected_time":337000000000,"state":"active","ping":68},{"user_id":778,"name":"Coach Twig","steam_id":76561198058831591,"connected_time":1195000000000,"state":"active","ping":58},{"user_id":779,"name":"Burny Sanders","steam_id":76561197961879048,"connected_time":1183000000000,"state":"active","ping":75},{"user_id":753,"name":"wiz","steam_id":76561198045731206,"connected_time":2402000000000,"state":"active","ping":91},{"user_id":787,"name":"troll","steam_id":76561198040890252,"connected_time":727000000000,"state":"active","ping":68},{"user_id":752,"name":"Rein","steam_id":76561198300340427,"connected_time":3320000000000,"state":"active","ping":61},{"user_id":790,"name":"dr worm","steam_id":76561198105515914,"connected_time":143000000000,"state":"active","ping":58},{"user_id":788,"name":"St. Michael","steam_id":76561198037611052,"connected_time":695000000000,"state":"active","ping":68},{"user_id":791,"name":"JtsRes","steam_id":76561197994809241,"connected_time":85000000000,"state":"active","ping":65},{"user_id":784,"name":"RaixaR","steam_id":76561198025289430,"connected_time":1127000000000,"state":"active","ping":73},{"user_id":785,"name":"solidus","steam_id":76561199215320827,"connected_time":1122000000000,"state":"active","ping":60},{"user_id":673,"name":"Horrizan","steam_id":76561197965028480,"connected_time":8953000000000,"state":"active","ping":88}]},{"server_id":402,"name":"Uncletopia | Chicago | 3 | All Maps","name_short":"chi-3","host":"chi-1.us.uncletopia.com","port":27035,"enabled":true,"region":"us-central","cc":"us","latitude":41.881832,"longitude":-87.62318,"reserved":0,"last_update":"0001-01-01T00:00:00Z","name_a2s":"Uncletopia | Chicago | 3 | All Maps","protocol":17,"map":"pl_thundermountain","folder":"tf","game":"Team Fortress","app_id":440,"player_count":24,"max_players":24,"Bots":0,"server_type":"Dedicated","server_os":"Linux","password":true,"vac":true,"version":"7932396","steam_id":85568392924515191,"keywords":["nocrits","nodmgspread","payload","uncletopia"],"game_id":440,"stv_port":27036,"stv_name":"Uncletopia | Chicago | 3 | All Maps | STV","players":[{"user_id":222,"name":"super clickteam fusion","steam_id":76561198275101482,"connected_time":4250000000000,"state":"active","ping":137},{"user_id":259,"name":"Tanna Tuver","steam_id":76561198382485444,"connected_time":1480000000000,"state":"active","ping":60},{"user_id":199,"name":"AlcoholicDad454","steam_id":76561198157414556,"connected_time":5741000000000,"state":"active","ping":81},{"user_id":236,"name":"Dr Nefario","steam_id":76561198254646194,"connected_time":2853000000000,"state":"active","ping":60},{"user_id":207,"name":"JDM Street Cred","steam_id":76561198033035560,"connected_time":4684000000000,"state":"active","ping":62},{"user_id":238,"name":"Quark","steam_id":76561198328155605,"connected_time":2836000000000,"state":"active","ping":54},{"user_id":269,"name":"Toottoot","steam_id":76561197992404836,"connected_time":463000000000,"state":"active","ping":49},{"user_id":263,"name":"grongler","steam_id":76561198971081316,"connected_time":1062000000000,"state":"active","ping":79},{"user_id":234,"name":"Moth Beam","steam_id":76561198005069202,"connected_time":2902000000000,"state":"active","ping":74},{"user_id":237,"name":"SgtHotLead","steam_id":76561197995477998,"connected_time":2847000000000,"state":"active","ping":90},{"user_id":260,"name":"ThePizzaBoy","steam_id":76561198275797198,"connected_time":1312000000000,"state":"active","ping":67},{"user_id":253,"name":"sweaterfan","steam_id":76561199389567214,"connected_time":2463000000000,"state":"active","ping":353},{"user_id":205,"name":"Prog Rug","steam_id":76561197998665860,"connected_time":5319000000000,"state":"active","ping":47},{"user_id":187,"name":"notdoxed","steam_id":76561197992591404,"connected_time":6822000000000,"state":"active","ping":50},{"user_id":270,"name":"Sideways Whoopi Goldberg","steam_id":76561198003736560,"connected_time":122000000000,"state":"active","ping":60},{"user_id":228,"name":"on that zaza?","steam_id":76561198038713198,"connected_time":3804000000000,"state":"active","ping":67},{"user_id":265,"name":"walterfishing_17","steam_id":76561198976904099,"connected_time":1015000000000,"state":"active","ping":72},{"user_id":231,"name":"AlbinoRhino","steam_id":76561199192140783,"connected_time":3653000000000,"state":"active","ping":75},{"user_id":268,"name":"Pakidude","steam_id":76561198142093134,"connected_time":526000000000,"state":"active","ping":71},{"user_id":261,"name":"Obese Pete","steam_id":76561198203443358,"connected_time":1111000000000,"state":"active","ping":90},{"user_id":262,"name":"Wheaties","steam_id":76561198060909578,"connected_time":1076000000000,"state":"active","ping":130},{"user_id":271,"name":"sylve","steam_id":76561198124784697,"connected_time":58000000000,"state":"active","ping":98},{"user_id":266,"name":"[TMG] AG_KrowBass","steam_id":76561198185119311,"connected_time":1009000000000,"state":"active","ping":102},{"user_id":267,"name":"thecal","steam_id":76561198307893384,"connected_time":611000000000,"state":"active","ping":59}]},{"server_id":403,"name":"Uncletopia | Chicago | 4 | All Maps","name_short":"chi-4","host":"chi-1.us.uncletopia.com","port":27045,"enabled":true,"region":"us-central","cc":"us","latitude":41.881832,"longitude":-87.62318,"reserved":0,"last_update":"0001-01-01T00:00:00Z","name_a2s":"Uncletopia | Chicago | 4 | All Maps","protocol":17,"map":"pl_badwater","folder":"tf","game":"Team Fortress","app_id":440,"player_count":24,"max_players":24,"Bots":0,"server_type":"Dedicated","server_os":"Linux","password":true,"vac":true,"version":"7932396","steam_id":85568392924515193,"keywords":["nocrits","nodmgspread","payload","uncletopia"],"game_id":440,"stv_port":27046,"stv_name":"Uncletopia | Chicago | 4 | All Maps | STV","players":[{"user_id":412,"name":"Kommandant Silent","steam_id":76561197971983179,"connected_time":931000000000,"state":"active","ping":56},{"user_id":406,"name":"Mally","steam_id":76561198025013765,"connected_time":1699000000000,"state":"active","ping":79},{"user_id":413,"name":"ElatedYokai","steam_id":76561198438788729,"connected_time":913000000000,"state":"active","ping":54},{"user_id":388,"name":"teafy","steam_id":76561198406252824,"connected_time":2400000000000,"state":"active","ping":105},{"user_id":352,"name":"InchMan","steam_id":76561198272658825,"connected_time":5374000000000,"state":"active","ping":85},{"user_id":408,"name":"L0b5terlick","steam_id":76561198134990930,"connected_time":1501000000000,"state":"active","ping":52},{"user_id":405,"name":"Robin","steam_id":76561198121165149,"connected_time":1769000000000,"state":"active","ping":37},{"user_id":380,"name":"Calypso","steam_id":76561199015827567,"connected_time":3006000000000,"state":"active","ping":84},{"user_id":423,"name":"shmoney maker","steam_id":76561198241948526,"connected_time":14000000000,"state":"active","ping":63},{"user_id":415,"name":"Lesser Edgelord","steam_id":76561198800339067,"connected_time":895000000000,"state":"active","ping":127},{"user_id":410,"name":"Space Lizard","steam_id":76561198056798193,"connected_time":1254000000000,"state":"active","ping":74},{"user_id":391,"name":"dudescore","steam_id":76561199091453555,"connected_time":2375000000000,"state":"active","ping":88},{"user_id":420,"name":"Fimbulvetr","steam_id":76561198108264202,"connected_time":396000000000,"state":"active","ping":69},{"user_id":404,"name":"Walkiing","steam_id":76561198074473413,"connected_time":1794000000000,"state":"active","ping":42},{"user_id":392,"name":"Puke Skyfucker","steam_id":76561198012846213,"connected_time":2362000000000,"state":"active","ping":71},{"user_id":417,"name":"Rix FPV","steam_id":76561198299320893,"connected_time":858000000000,"state":"active","ping":60},{"user_id":409,"name":"Hey","steam_id":76561199489391928,"connected_time":1445000000000,"state":"active","ping":56},{"user_id":323,"name":"Sick The Disease","steam_id":76561199054591319,"connected_time":6674000000000,"state":"active","ping":85},{"user_id":381,"name":"Critscare","steam_id":76561198087712508,"connected_time":3005000000000,"state":"active","ping":45},{"user_id":424,"name":"bonk","steam_id":76561198821774697,"connected_time":5000000000,"state":"spawning","ping":48},{"user_id":418,"name":"no brain","steam_id":76561198451032322,"connected_time":852000000000,"state":"active","ping":83},{"user_id":411,"name":"Luther_51","steam_id":76561198042994473,"connected_time":1037000000000,"state":"active","ping":82},{"user_id":419,"name":"franky","steam_id":76561198070903328,"connected_time":850000000000,"state":"active","ping":68},{"user_id":422,"name":"NotSoCool_Guy","steam_id":76561199307230135,"connected_time":182000000000,"state":"active","ping":187}]},{"server_id":36,"name":"Uncletopia | Chicago | 5 | All Maps","name_short":"chi-5","host":"chi-2.us.uncletopia.com","port":27015,"enabled":true,"region":"us-central","cc":"us","latitude":41.881832,"longitude":-87.62318,"reserved":0,"last_update":"0001-01-01T00:00:00Z","name_a2s":"Uncletopia | Chicago | 5 | All Maps","protocol":17,"map":"pl_pier","folder":"tf","game":"Team Fortress","app_id":440,"player_count":24,"max_players":24,"Bots":0,"server_type":"Dedicated","server_os":"Linux","password":true,"vac":true,"version":"7932396","steam_id":85568392924866362,"keywords":["nocrits","nodmgspread","payload","uncletopia"],"game_id":440,"stv_port":27016,"stv_name":"Uncletopia | Chicago | 5 | All Maps | STV","players":[{"user_id":721,"name":"Tommy","steam_id":76561198798158647,"connected_time":1736000000000,"state":"active","ping":67},{"user_id":672,"name":"paetho YT (new vid!)","steam_id":76561198152690003,"connected_time":4771000000000,"state":"active","ping":52},{"user_id":728,"name":"gamerlegend47","steam_id":76561198122776598,"connected_time":1381000000000,"state":"active","ping":75},{"user_id":706,"name":"gaming gerald","steam_id":76561198011707083,"connected_time":2075000000000,"state":"active","ping":59},{"user_id":705,"name":"stick","steam_id":76561198049489094,"connected_time":2326000000000,"state":"active","ping":60},{"user_id":717,"name":"DoubleX2000","steam_id":76561198164134387,"connected_time":1989000000000,"state":"active","ping":113},{"user_id":743,"name":"oxbudy","steam_id":76561198022120207,"connected_time":127000000000,"state":"active","ping":76},{"user_id":742,"name":"Marsupial Jones","steam_id":76561198058963406,"connected_time":262000000000,"state":"active","ping":101},{"user_id":719,"name":"Wet Deer","steam_id":76561198145045927,"connected_time":1873000000000,"state":"active","ping":84},{"user_id":734,"name":"swan","steam_id":76561198012569200,"connected_time":364000000000,"state":"active","ping":74},{"user_id":699,"name":"Boomerish","steam_id":76561198083946878,"connected_time":2684000000000,"state":"active","ping":75},{"user_id":735,"name":"Waddlehi","steam_id":76561198072553840,"connected_time":363000000000,"state":"active","ping":60},{"user_id":710,"name":"eWVra2Vy","steam_id":76561198453565942,"connected_time":2037000000000,"state":"active","ping":81},{"user_id":736,"name":"Spooks","steam_id":76561198295582418,"connected_time":333000000000,"state":"active","ping":72},{"user_id":612,"name":"III","steam_id":76561198976434426,"connected_time":10222000000000,"state":"active","ping":53},{"user_id":737,"name":"Yap","steam_id":76561198079405234,"connected_time":332000000000,"state":"active","ping":59},{"user_id":738,"name":"J21","steam_id":76561198066590783,"connected_time":323000000000,"state":"active","ping":75},{"user_id":739,"name":"scrapheap","steam_id":76561198202407087,"connected_time":321000000000,"state":"active","ping":75},{"user_id":740,"name":"Slashes","steam_id":76561197968573499,"connected_time":304000000000,"state":"active","ping":58},{"user_id":720,"name":"Jar Jar Kinks","steam_id":76561199087748803,"connected_time":1870000000000,"state":"active","ping":88},{"user_id":741,"name":"jibby","steam_id":76561198046872382,"connected_time":302000000000,"state":"active","ping":58},{"user_id":697,"name":"Jabawakai","steam_id":76561198088881254,"connected_time":3610000000000,"state":"active","ping":58},{"user_id":744,"name":"tyg","steam_id":76561198056246867,"connected_time":91000000000,"state":"active","ping":75},{"user_id":638,"name":"Gay Healthcliff","steam_id":76561198044288534,"connected_time":9203000000000,"state":"active","ping":88}]},{"server_id":37,"name":"Uncletopia | Chicago | 6 | All Maps","name_short":"chi-6","host":"chi-2.us.uncletopia.com","port":27025,"enabled":true,"region":"us-central","cc":"us","latitude":41.881832,"longitude":-87.62318,"reserved":0,"last_update":"0001-01-01T00:00:00Z","name_a2s":"Uncletopia | Chicago | 6 | All Maps","protocol":17,"map":"pl_borneo","folder":"tf","game":"Team Fortress","app_id":440,"player_count":16,"max_players":24,"Bots":0,"server_type":"Dedicated","server_os":"Linux","password":true,"vac":true,"version":"7932396","steam_id":85568392924866363,"keywords":["nocrits","nodmgspread","payload","uncletopia"],"game_id":440,"stv_port":27026,"stv_name":"Uncletopia | Chicago | 6 | All Maps | STV","players":[{"user_id":209,"name":"Grilled Jizo","steam_id":76561199250875340,"connected_time":305000000000,"state":"active","ping":79},{"user_id":213,"name":"manbearswineflu","steam_id":76561198083945137,"connected_time":40000000000,"state":"active","ping":62},{"user_id":200,"name":"Dr Oshawott","steam_id":76561198042021629,"connected_time":1953000000000,"state":"active","ping":56},{"user_id":210,"name":"Fumohuxi Viriphyto","steam_id":76561198369395636,"connected_time":139000000000,"state":"active","ping":90},{"user_id":211,"name":"Amoxicilina","steam_id":76561198168486429,"connected_time":102000000000,"state":"active","ping":116},{"user_id":212,"name":"PINGAS DISPENSER™","steam_id":76561198014868070,"connected_time":95000000000,"state":"active","ping":105},{"user_id":178,"name":"SiltyStar85","steam_id":76561198309175923,"connected_time":3230000000000,"state":"active","ping":86},{"user_id":166,"name":"[DEEP] Roz257","steam_id":76561198842844532,"connected_time":4165000000000,"state":"active","ping":75},{"user_id":197,"name":"Sloshed","steam_id":76561197993054175,"connected_time":1994000000000,"state":"active","ping":72},{"user_id":147,"name":"Danmar33","steam_id":76561198056453091,"connected_time":5397000000000,"state":"active","ping":47},{"user_id":174,"name":"corncakecoolcat","steam_id":76561198090716968,"connected_time":3324000000000,"state":"active","ping":71},{"user_id":199,"name":"Induce Salt","steam_id":76561198116645978,"connected_time":1986000000000,"state":"active","ping":54},{"user_id":182,"name":"Hoxcit","steam_id":76561198166872339,"connected_time":3174000000000,"state":"active","ping":127},{"user_id":204,"name":"*","steam_id":76561198173047169,"connected_time":1223000000000,"state":"active","ping":56},{"user_id":208,"name":"ratific","steam_id":76561199060774318,"connected_time":490000000000,"state":"active","ping":50},{"user_id":192,"name":"BeauCanadien","steam_id":76561198026363284,"connected_time":2750000000000,"state":"active","ping":71}]},{"server_id":38,"name":"Uncletopia | Chicago | 7 | Stopwatch Beta","name_short":"chi-7","host":"chi-2.us.uncletopia.com","port":27035,"enabled":true,"region":"us-central","cc":"us","latitude":41.881832,"longitude":-87.62318,"reserved":0,"last_update":"0001-01-01T00:00:00Z","name_a2s":"Uncletopia | Chicago | 7 | Stopwatch Beta","protocol":17,"map":"pl_borneo","folder":"tf","game":"Team Fortress","app_id":440,"player_count":0,"max_players":24,"Bots":0,"server_type":"Dedicated","server_os":"Linux","password":true,"vac":true,"version":"7932396","steam_id":85568392924866364,"keywords":["nocrits","nodmgspread","payload","uncletopia"],"game_id":440,"stv_port":27036,"stv_name":"Uncletopia | Chicago | 7 | Stopwatch Beta | STV","players":null},{"server_id":39,"name":"Uncletopia | Chicago | 8 | Community","name_short":"chi-8","host":"chi-2.us.uncletopia.com","port":27045,"enabled":true,"region":"us-central","cc":"us","latitude":41.881832,"longitude":-87.62318,"reserved":0,"last_update":"0001-01-01T00:00:00Z","name_a2s":"Uncletopia | Chicago | 8 | Community","protocol":17,"map":"workshop/koth_trenchfoot_b1a.ugc731436616","folder":"tf","game":"Team Fortress","app_id":440,"player_count":24,"max_players":24,"Bots":0,"server_type":"Dedicated","server_os":"Linux","password":true,"vac":true,"version":"7932396","steam_id":85568392924866365,"keywords":["cp","nocrits","nodmgspread","uncletopia"],"game_id":440,"stv_port":27046,"stv_name":"Uncletopia | Chicago | 8 | Community | STV","players":[{"user_id":267,"name":"OHGODBEES!","steam_id":76561198000653374,"connected_time":1163000000000,"state":"active","ping":141},{"user_id":261,"name":"Doof","steam_id":76561198034031819,"connected_time":1408000000000,"state":"active","ping":60},{"user_id":256,"name":"king dedede","steam_id":76561198965562679,"connected_time":2052000000000,"state":"active","ping":82},{"user_id":253,"name":"funnyapple123","steam_id":76561198264301270,"connected_time":2272000000000,"state":"active","ping":69},{"user_id":270,"name":"xiaolongxiao2003","steam_id":76561198854539627,"connected_time":865000000000,"state":"active","ping":116},{"user_id":280,"name":"Crabo Stabbo","steam_id":76561198061227228,"connected_time":260000000000,"state":"active","ping":61},{"user_id":271,"name":"xiaomm2007","steam_id":76561199231677250,"connected_time":855000000000,"state":"active","ping":97},{"user_id":232,"name":"AJTarcza","steam_id":76561198070800190,"connected_time":3807000000000,"state":"active","ping":82},{"user_id":260,"name":"kat","steam_id":76561198099191938,"connected_time":1523000000000,"state":"active","ping":96},{"user_id":272,"name":"TinCanDim","steam_id":76561198184039682,"connected_time":834000000000,"state":"active","ping":100},{"user_id":281,"name":"Gustavo_Banana","steam_id":76561198387866587,"connected_time":241000000000,"state":"active","ping":182},{"user_id":59,"name":"Hindmost","steam_id":76561199081837220,"connected_time":15117000000000,"state":"active","ping":82},{"user_id":242,"name":"Wiener Hole Paper Cut","steam_id":76561198000808203,"connected_time":3249000000000,"state":"active","ping":73},{"user_id":274,"name":"desdodo","steam_id":76561198137862492,"connected_time":798000000000,"state":"active","ping":101},{"user_id":275,"name":"Charles Barley","steam_id":76561198397072609,"connected_time":788000000000,"state":"active","ping":102},{"user_id":234,"name":"The Orre Region","steam_id":76561198089647315,"connected_time":3760000000000,"state":"active","ping":81},{"user_id":249,"name":"NonfatYeti","steam_id":76561198200074882,"connected_time":2432000000000,"state":"active","ping":67},{"user_id":245,"name":"Squirrel with a Wrench","steam_id":76561198334035413,"connected_time":2542000000000,"state":"active","ping":63},{"user_id":243,"name":"5mech","steam_id":76561198979167520,"connected_time":2913000000000,"state":"active","ping":52},{"user_id":254,"name":"monkeycake","steam_id":76561198272061915,"connected_time":2214000000000,"state":"active","ping":59},{"user_id":276,"name":"Jasper Zawn","steam_id":76561198077651204,"connected_time":784000000000,"state":"active","ping":58},{"user_id":283,"name":"EvilsConscience","steam_id":76561198073451760,"connected_time":137000000000,"state":"active","ping":57},{"user_id":135,"name":"Flowers","steam_id":76561198031669899,"connected_time":11331000000000,"state":"active","ping":84},{"user_id":282,"name":"Butters495","steam_id":76561197998689042,"connected_time":223000000000,"state":"active","ping":74}]},{"server_id":8,"name":"Uncletopia | Dallas | 1 | All Maps","name_short":"dal-1","host":"dal-1.us.uncletopia.com","port":27015,"enabled":true,"region":"us-central","cc":"us","latitude":32.779167,"longitude":-96.80889,"reserved":0,"last_update":"0001-01-01T00:00:00Z","name_a2s":"Uncletopia | Dallas | 1 | All Maps","protocol":17,"map":"koth_sawmill","folder":"tf","game":"Team Fortress","app_id":440,"player_count":24,"max_players":24,"Bots":0,"server_type":"Dedicated","server_os":"Linux","password":true,"vac":true,"version":"7932396","steam_id":85568392924469986,"keywords":["cp","nocrits","nodmgspread","uncletopia"],"game_id":440,"stv_port":27016,"stv_name":"Uncletopia | Dallas | 1 | All Maps | STV","players":[{"user_id":807,"name":"Slippin' Jimmy","steam_id":76561198324749126,"connected_time":1018000000000,"state":"active","ping":108},{"user_id":812,"name":"schmuck","steam_id":76561198143789773,"connected_time":726000000000,"state":"active","ping":46},{"user_id":765,"name":"webaline","steam_id":76561199052450127,"connected_time":3272000000000,"state":"active","ping":74},{"user_id":803,"name":"Ame","steam_id":76561198063597985,"connected_time":1209000000000,"state":"active","ping":83},{"user_id":809,"name":"Kaiju","steam_id":76561198035703156,"connected_time":993000000000,"state":"active","ping":52},{"user_id":758,"name":"♿","steam_id":76561198296145819,"connected_time":3431000000000,"state":"active","ping":108},{"user_id":776,"name":"Cassius Money","steam_id":76561197979696414,"connected_time":2725000000000,"state":"active","ping":68},{"user_id":779,"name":"dailyspesh","steam_id":76561197988072369,"connected_time":2367000000000,"state":"active","ping":95},{"user_id":755,"name":"beyond","steam_id":76561198051009126,"connected_time":3440000000000,"state":"active","ping":89},{"user_id":804,"name":"Lezabel","steam_id":76561198970753261,"connected_time":1063000000000,"state":"active","ping":73},{"user_id":810,"name":"LampMan","steam_id":76561198079857527,"connected_time":820000000000,"state":"active","ping":52},{"user_id":772,"name":"Acidasaur","steam_id":76561198424179969,"connected_time":2919000000000,"state":"active","ping":76},{"user_id":822,"name":"Tommy Provolone","steam_id":76561198170062377,"connected_time":21000000000,"state":"active","ping":68},{"user_id":777,"name":"Satan's Salad","steam_id":76561198043965827,"connected_time":2711000000000,"state":"active","ping":87},{"user_id":802,"name":"Kaui","steam_id":76561198052249003,"connected_time":1255000000000,"state":"active","ping":97},{"user_id":795,"name":"Ringo Barrs","steam_id":76561198043906449,"connected_time":1646000000000,"state":"active","ping":84},{"user_id":799,"name":"i am clinically insane","steam_id":76561199013323529,"connected_time":1476000000000,"state":"active","ping":99},{"user_id":783,"name":"Fightin Cow","steam_id":76561198080941486,"connected_time":2164000000000,"state":"active","ping":53},{"user_id":786,"name":"trash beast","steam_id":76561198015792736,"connected_time":2114000000000,"state":"active","ping":77},{"user_id":769,"name":"LJBLJB™","steam_id":76561198166782022,"connected_time":3123000000000,"state":"active","ping":73},{"user_id":771,"name":"Saltail","steam_id":76561198063053039,"connected_time":2935000000000,"state":"active","ping":92},{"user_id":821,"name":"honor in defeat","steam_id":76561198013735714,"connected_time":142000000000,"state":"active","ping":308},{"user_id":793,"name":"get with it","steam_id":76561198286627157,"connected_time":1810000000000,"state":"active","ping":79},{"user_id":819,"name":"citrus spiders","steam_id":76561198082415277,"connected_time":201000000000,"state":"active","ping":91}]},{"server_id":108,"name":"Uncletopia | Dallas | 2 | All Maps","name_short":"dal-2","host":"dal-1.us.uncletopia.com","port":27025,"enabled":true,"region":"us-central","cc":"us","latitude":32.779167,"longitude":-96.80889,"reserved":0,"last_update":"0001-01-01T00:00:00Z","name_a2s":"Uncletopia | Dallas | 2 | All Maps","protocol":17,"map":"cp_powerhouse","folder":"tf","game":"Team Fortress","app_id":440,"player_count":24,"max_players":24,"Bots":0,"server_type":"Dedicated","server_os":"Linux","password":true,"vac":true,"version":"7932396","steam_id":85568392924469988,"keywords":["cp","nocrits","nodmgspread","uncletopia"],"game_id":440,"stv_port":27026,"stv_name":"Uncletopia | Dallas | 2 | All Maps | STV","players":[{"user_id":409,"name":"robertJMP","steam_id":76561199066260919,"connected_time":920000000000,"state":"active","ping":73},{"user_id":419,"name":"St. Bobson Q Dugnutt III Esq Sr","steam_id":76561197993459985,"connected_time":326000000000,"state":"active","ping":99},{"user_id":408,"name":"Pwnzer","steam_id":76561198057735725,"connected_time":929000000000,"state":"active","ping":76},{"user_id":420,"name":"0","steam_id":76561198046065237,"connected_time":310000000000,"state":"active","ping":78},{"user_id":421,"name":"Hayd3nQ","steam_id":76561198124849736,"connected_time":264000000000,"state":"active","ping":112},{"user_id":383,"name":"Fredfredfood","steam_id":76561198072824802,"connected_time":2582000000000,"state":"active","ping":70},{"user_id":422,"name":"PileofPolygons","steam_id":76561199321343460,"connected_time":207000000000,"state":"active","ping":69},{"user_id":320,"name":"DuragGod69","steam_id":76561198067814426,"connected_time":7396000000000,"state":"active","ping":84},{"user_id":417,"name":"Ubermedic101","steam_id":76561198126211793,"connected_time":369000000000,"state":"active","ping":60},{"user_id":387,"name":"AlexLovesYou","steam_id":76561199163263543,"connected_time":2152000000000,"state":"active","ping":103},{"user_id":285,"name":"LittleFieryOne","steam_id":76561198107463724,"connected_time":9895000000000,"state":"active","ping":85},{"user_id":406,"name":"Rubeb","steam_id":76561198179489037,"connected_time":1035000000000,"state":"active","ping":75},{"user_id":423,"name":"Eins","steam_id":76561199030343810,"connected_time":177000000000,"state":"active","ping":59},{"user_id":393,"name":"reptar","steam_id":76561198070164185,"connected_time":1603000000000,"state":"active","ping":61},{"user_id":410,"name":"Video Game Andy Reid","steam_id":76561198202195792,"connected_time":712000000000,"state":"active","ping":82},{"user_id":424,"name":"Quietsharp","steam_id":76561198277968438,"connected_time":164000000000,"state":"active","ping":83},{"user_id":301,"name":"No_Dictators","steam_id":76561199065777321,"connected_time":9323000000000,"state":"active","ping":60},{"user_id":411,"name":"Q","steam_id":76561199019647814,"connected_time":697000000000,"state":"active","ping":54},{"user_id":426,"name":"MeMyBongusAndTheGreatOutdoors","steam_id":76561198097708978,"connected_time":123000000000,"state":"active","ping":53},{"user_id":416,"name":"hihohe","steam_id":76561197987823936,"connected_time":388000000000,"state":"active","ping":65},{"user_id":427,"name":"OneTrueNarwhal","steam_id":76561198288042952,"connected_time":122000000000,"state":"active","ping":115},{"user_id":277,"name":"Wiggee","steam_id":76561197972792989,"connected_time":10436000000000,"state":"active","ping":46},{"user_id":428,"name":"KennytheHedgehog","steam_id":76561198094607721,"connected_time":98000000000,"state":"active","ping":57},{"user_id":413,"name":"mkl","steam_id":76561197986401685,"connected_time":442000000000,"state":"active","ping":60}]},{"server_id":5,"name":"Uncletopia | Frankfurt | 1 | All Maps","name_short":"frk-1","host":"frk-1.de.uncletopia.com","port":27015,"enabled":true,"region":"eu","cc":"de","latitude":50.110924,"longitude":8.682127,"reserved":0,"last_update":"0001-01-01T00:00:00Z","name_a2s":"Uncletopia | Frankfurt | 1 | All Maps","protocol":17,"map":"koth_viaduct","folder":"tf","game":"Team Fortress","app_id":440,"player_count":0,"max_players":24,"Bots":0,"server_type":"Dedicated","server_os":"Linux","password":true,"vac":true,"version":"7932396","steam_id":85568392924469989,"keywords":["cp","nocrits","nodmgspread","uncletopia"],"game_id":440,"stv_port":27016,"stv_name":"Uncletopia | Frankfurt | 1 | All Maps | STV","players":null},{"server_id":110,"name":"Uncletopia | Frankfurt | 2 | All Maps","name_short":"frk-2","host":"frk-1.de.uncletopia.com","port":27025,"enabled":true,"region":"eu","cc":"de","latitude":50.110924,"longitude":8.682127,"reserved":0,"last_update":"0001-01-01T00:00:00Z","name_a2s":"Uncletopia | Frankfurt | 2 | All Maps","protocol":17,"map":"pl_frontier_final","folder":"tf","game":"Team Fortress","app_id":440,"player_count":0,"max_players":24,"Bots":0,"server_type":"Dedicated","server_os":"Linux","password":true,"vac":true,"version":"7932396","steam_id":85568392924469990,"keywords":["nocrits","nodmgspread","payload","uncletopia"],"game_id":440,"stv_port":27026,"stv_name":"Uncletopia | Frankfurt | 2 | All Maps | STV","players":null},{"server_id":308,"name":"Uncletopia | Frankfurt | 3 | All Maps","name_short":"frk-3","host":"frk-1.de.uncletopia.com","port":27035,"enabled":true,"region":"eu","cc":"de","latitude":50.110924,"longitude":8.682127,"reserved":0,"last_update":"0001-01-01T00:00:00Z","name_a2s":"Uncletopia | Frankfurt | 3 | All Maps","protocol":17,"map":"pl_frontier_final","folder":"tf","game":"Team Fortress","app_id":440,"player_count":0,"max_players":24,"Bots":0,"server_type":"Dedicated","server_os":"Linux","password":true,"vac":true,"version":"7932396","steam_id":85568392924504274,"keywords":["nocrits","nodmgspread","payload","uncletopia"],"game_id":440,"stv_port":27036,"stv_name":"Uncletopia | Frankfurt | 3 | All Maps | STV","players":null},{"server_id":309,"name":"Uncletopia | Frankfurt | 4 | All Maps","name_short":"frk-4","host":"frk-1.de.uncletopia.com","port":27045,"enabled":true,"region":"eu","cc":"de","latitude":50.110924,"longitude":8.682127,"reserved":0,"last_update":"0001-01-01T00:00:00Z","name_a2s":"Uncletopia | Frankfurt | 4 | All Maps","protocol":17,"map":"cp_process_final","folder":"tf","game":"Team Fortress","app_id":440,"player_count":0,"max_players":24,"Bots":0,"server_type":"Dedicated","server_os":"Linux","password":true,"vac":true,"version":"7932396","steam_id":85568392924504275,"keywords":["cp","nocrits","nodmgspread","uncletopia"],"game_id":440,"stv_port":27046,"stv_name":"Uncletopia | Frankfurt | 4 | All Maps | STV","players":null},{"server_id":310,"name":"Uncletopia | Frankfurt | 5 | All Maps","name_short":"frk-5","host":"frk-1.de.uncletopia.com","port":27055,"enabled":true,"region":"eu","cc":"de","latitude":50.110924,"longitude":8.682127,"reserved":0,"last_update":"0001-01-01T00:00:00Z","name_a2s":"Uncletopia | Frankfurt | 5 | All Maps","protocol":17,"map":"pl_badwater","folder":"tf","game":"Team Fortress","app_id":440,"player_count":0,"max_players":24,"Bots":0,"server_type":"Dedicated","server_os":"Linux","password":true,"vac":true,"version":"7932396","steam_id":85568392924504277,"keywords":["nocrits","nodmgspread","payload","uncletopia"],"game_id":440,"stv_port":27056,"stv_name":"Uncletopia | Frankfurt | 5 | All Maps | STV","players":null},{"server_id":311,"name":"Uncletopia | Frankfurt | 6 | All Maps","name_short":"frk-6","host":"frk-1.de.uncletopia.com","port":27065,"enabled":true,"region":"eu","cc":"de","latitude":50.110924,"longitude":8.682127,"reserved":0,"last_update":"0001-01-01T00:00:00Z","name_a2s":"Uncletopia | Frankfurt | 6 | All Maps","protocol":17,"map":"koth_viaduct","folder":"tf","game":"Team Fortress","app_id":440,"player_count":0,"max_players":24,"Bots":0,"server_type":"Dedicated","server_os":"Linux","password":true,"vac":true,"version":"7932396","steam_id":85568392924504278,"keywords":["cp","nocrits","nodmgspread","uncletopia"],"game_id":440,"stv_port":27066,"stv_name":"Uncletopia | Frankfurt | 6 | All Maps | STV","players":null},{"server_id":23,"name":"Uncletopia | Frankfurt | 7 | Stopwatch Beta","name_short":"frk-7","host":"frk-1.de.uncletopia.com","port":27075,"enabled":true,"region":"eu","cc":"de","latitude":50.110924,"longitude":8.682127,"reserved":0,"last_update":"0001-01-01T00:00:00Z","name_a2s":"Uncletopia | Frankfurt | 7 | Stopwatch Beta","protocol":17,"map":"pl_snowycoast","folder":"tf","game":"Team Fortress","app_id":440,"player_count":0,"max_players":24,"Bots":0,"server_type":"Dedicated","server_os":"Linux","password":true,"vac":true,"version":"7932396","steam_id":85568392924742827,"keywords":["nocrits","nodmgspread","payload","uncletopia"],"game_id":440,"stv_port":27076,"stv_name":"Uncletopia | Frankfurt | 7 | Stopwatch Beta | STV","players":null},{"server_id":24,"name":"Uncletopia | Frankfurt | 8 | Community","name_short":"frk-8","host":"frk-1.de.uncletopia.com","port":27085,"enabled":true,"region":"eu","cc":"de","latitude":50.110924,"longitude":8.682127,"reserved":0,"last_update":"0001-01-01T00:00:00Z","name_a2s":"Uncletopia | Frankfurt | 8 | Community","protocol":17,"map":"workshop/cp_alloy_rc3.ugc592805587","folder":"tf","game":"Team Fortress","app_id":440,"player_count":0,"max_players":24,"Bots":0,"server_type":"Dedicated","server_os":"Linux","password":true,"vac":true,"version":"7932396","steam_id":85568392924742828,"keywords":["cp","nocrits","nodmgspread","uncletopia"],"game_id":440,"stv_port":27086,"stv_name":"Uncletopia | Frankfurt | 8 | Community | STV","players":null},{"server_id":202,"name":"Uncletopia | Hong Kong | 1 | All Maps","name_short":"hgk-1","host":"hgk-1.hk.uncletopia.com","port":27015,"enabled":true,"region":"asia","cc":"hk","latitude":22.302711,"longitude":114.177216,"reserved":0,"last_update":"0001-01-01T00:00:00Z","name_a2s":"Uncletopia | Hong Kong | 1 | All Maps","protocol":17,"map":"pl_snowycoast","folder":"tf","game":"Team Fortress","app_id":440,"player_count":0,"max_players":24,"Bots":0,"server_type":"Dedicated","server_os":"Linux","password":true,"vac":true,"version":"7932396","steam_id":85568392924494504,"keywords":["nocrits","nodmgspread","payload","uncletopia"],"game_id":440,"stv_port":27016,"stv_name":"Uncletopia | Hong Kong | 1 | All Maps | STV","players":null},{"server_id":1,"name":"Uncletopia | Los Angeles | 1 | All Maps","name_short":"lax-1","host":"lax-1.us.uncletopia.com","port":27015,"enabled":true,"region":"us-west","cc":"us","latitude":33.94279,"longitude":-118.41004,"reserved":0,"last_update":"0001-01-01T00:00:00Z","name_a2s":"Uncletopia | Los Angeles | 1 | All Maps","protocol":17,"map":"pl_pier","folder":"tf","game":"Team Fortress","app_id":440,"player_count":20,"max_players":24,"Bots":0,"server_type":"Dedicated","server_os":"Linux","password":true,"vac":true,"version":"7932396","steam_id":85568392924469991,"keywords":["nocrits","nodmgspread","payload","uncletopia"],"game_id":440,"stv_port":27016,"stv_name":"Uncletopia | Los Angeles | 1 | All Maps | STV","players":[{"user_id":304,"name":"Billy Yank","steam_id":76561199059733640,"connected_time":2905000000000,"state":"active","ping":56},{"user_id":308,"name":"el wokismo","steam_id":76561198058617608,"connected_time":2542000000000,"state":"active","ping":48},{"user_id":301,"name":"fonz!E","steam_id":76561197987165510,"connected_time":3020000000000,"state":"active","ping":51},{"user_id":347,"name":"snek","steam_id":76561198124848994,"connected_time":700000000000,"state":"active","ping":77},{"user_id":356,"name":"Yoyos","steam_id":76561198061035695,"connected_time":148000000000,"state":"active","ping":44},{"user_id":357,"name":"HiddenEgg","steam_id":76561199045105518,"connected_time":115000000000,"state":"active","ping":45},{"user_id":300,"name":"Mr. Carfox","steam_id":76561198041664428,"connected_time":3076000000000,"state":"active","ping":47},{"user_id":309,"name":"Master John Thursday","steam_id":76561197987593154,"connected_time":2517000000000,"state":"active","ping":69},{"user_id":351,"name":"(retro)","steam_id":76561199039424313,"connected_time":612000000000,"state":"active","ping":84},{"user_id":348,"name":"skyslicer","steam_id":76561198075960578,"connected_time":689000000000,"state":"active","ping":55},{"user_id":334,"name":"Dale Earnhardt, Jr.","steam_id":76561198096344570,"connected_time":995000000000,"state":"active","ping":94},{"user_id":353,"name":"Your Favorite Fearless Hero","steam_id":76561199127590316,"connected_time":346000000000,"state":"active","ping":78},{"user_id":340,"name":"RichardIcecube","steam_id":76561198069728290,"connected_time":880000000000,"state":"active","ping":99},{"user_id":338,"name":"spherewithahat","steam_id":76561199122192660,"connected_time":935000000000,"state":"active","ping":119},{"user_id":323,"name":"Mocha Josie","steam_id":76561198066452726,"connected_time":1764000000000,"state":"active","ping":46},{"user_id":339,"name":"_cza","steam_id":76561198079793576,"connected_time":901000000000,"state":"active","ping":75},{"user_id":346,"name":"Schnitz","steam_id":76561198265484253,"connected_time":727000000000,"state":"active","ping":49},{"user_id":305,"name":"Spuunster","steam_id":76561199070008096,"connected_time":2903000000000,"state":"active","ping":64},{"user_id":355,"name":"VicLoL","steam_id":76561198045580784,"connected_time":294000000000,"state":"active","ping":59},{"user_id":354,"name":"Acedia","steam_id":76561199011373463,"connected_time":321000000000,"state":"active","ping":53}]},{"server_id":112,"name":"Uncletopia | Los Angeles | 2 | All Maps","name_short":"lax-2","host":"lax-1.us.uncletopia.com","port":27025,"enabled":true,"region":"us-west","cc":"us","latitude":33.94279,"longitude":-118.41004,"reserved":0,"last_update":"0001-01-01T00:00:00Z","name_a2s":"Uncletopia | Los Angeles | 2 | All Maps","protocol":17,"map":"pl_upward","folder":"tf","game":"Team Fortress","app_id":440,"player_count":22,"max_players":24,"Bots":0,"server_type":"Dedicated","server_os":"Linux","password":true,"vac":true,"version":"7932396","steam_id":85568392924469992,"keywords":["nocrits","nodmgspread","payload","uncletopia"],"game_id":440,"stv_port":27026,"stv_name":"Uncletopia | Los Angeles | 2 | All Maps | STV","players":[{"user_id":514,"name":"The Horselords and Animal Gods","steam_id":76561197975094050,"connected_time":1244000000000,"state":"active","ping":48},{"user_id":519,"name":"June","steam_id":76561198141803658,"connected_time":935000000000,"state":"active","ping":46},{"user_id":525,"name":"DeathSushi","steam_id":76561199156131540,"connected_time":437000000000,"state":"active","ping":84},{"user_id":496,"name":"I'mFromSpace","steam_id":76561198808969653,"connected_time":1867000000000,"state":"active","ping":70},{"user_id":518,"name":"flo rida","steam_id":76561198226169704,"connected_time":986000000000,"state":"active","ping":54},{"user_id":523,"name":"cran","steam_id":76561198178840075,"connected_time":623000000000,"state":"active","ping":84},{"user_id":401,"name":"BrightOrangeMango","steam_id":76561198023144607,"connected_time":8115000000000,"state":"active","ping":60},{"user_id":526,"name":"MNIJ","steam_id":76561199209509468,"connected_time":255000000000,"state":"active","ping":54},{"user_id":500,"name":"Waffle Boy","steam_id":76561198404883652,"connected_time":1724000000000,"state":"active","ping":48},{"user_id":521,"name":"basilberry","steam_id":76561198145275937,"connected_time":690000000000,"state":"active","ping":96},{"user_id":472,"name":"Esteban Delsin","steam_id":76561198433519639,"connected_time":3812000000000,"state":"active","ping":102},{"user_id":463,"name":"Maid 'n' China","steam_id":76561198423392976,"connected_time":4294000000000,"state":"active","ping":56},{"user_id":461,"name":"Maid Knight","steam_id":76561198214370515,"connected_time":4579000000000,"state":"active","ping":114},{"user_id":501,"name":"BumberQuest","steam_id":76561198273025294,"connected_time":1702000000000,"state":"active","ping":84},{"user_id":489,"name":"least lesbian tf2 player","steam_id":76561198428584717,"connected_time":3238000000000,"state":"active","ping":81},{"user_id":522,"name":"Imabox","steam_id":76561199206177858,"connected_time":636000000000,"state":"active","ping":77},{"user_id":520,"name":"ThatGuyNamedWil","steam_id":76561198400336801,"connected_time":921000000000,"state":"active","ping":86},{"user_id":455,"name":"Zaiah","steam_id":76561198377588247,"connected_time":4855000000000,"state":"active","ping":76},{"user_id":513,"name":"Ceol","steam_id":76561198003955789,"connected_time":1255000000000,"state":"active","ping":102},{"user_id":488,"name":"Grassman (Cc)","steam_id":76561198026488532,"connected_time":3259000000000,"state":"active","ping":57},{"user_id":516,"name":"meme","steam_id":76561199170771700,"connected_time":1130000000000,"state":"active","ping":70},{"user_id":507,"name":"Talulah","steam_id":76561198348354629,"connected_time":1635000000000,"state":"active","ping":47}]},{"server_id":324,"name":"Uncletopia | Los Angeles | 3 | All Maps","name_short":"lax-3","host":"lax-1.us.uncletopia.com","port":27035,"enabled":true,"region":"us-west","cc":"us","latitude":33.94279,"longitude":-118.41004,"reserved":0,"last_update":"0001-01-01T00:00:00Z","name_a2s":"Uncletopia | Los Angeles | 3 | All Maps","protocol":17,"map":"plr_pipeline","folder":"tf","game":"Team Fortress","app_id":440,"player_count":24,"max_players":24,"Bots":0,"server_type":"Dedicated","server_os":"Linux","password":true,"vac":true,"version":"7932396","steam_id":85568392924510198,"keywords":["nocrits","nodmgspread","payload","uncletopia"],"game_id":440,"stv_port":27036,"stv_name":"Uncletopia | Los Angeles | 3 | All Maps | STV","players":[{"user_id":179,"name":"miguelrodriguez2013","steam_id":76561198269253587,"connected_time":781000000000,"state":"active","ping":51},{"user_id":170,"name":"Snake600rr","steam_id":76561198272347474,"connected_time":1241000000000,"state":"active","ping":75},{"user_id":181,"name":"Timewaves","steam_id":76561198000186054,"connected_time":759000000000,"state":"active","ping":50},{"user_id":188,"name":"Drakeo","steam_id":76561198068214572,"connected_time":147000000000,"state":"active","ping":40},{"user_id":120,"name":"Electric Owl","steam_id":76561198318126190,"connected_time":5975000000000,"state":"active","ping":158},{"user_id":182,"name":"The IRS","steam_id":76561199258337165,"connected_time":700000000000,"state":"active","ping":56},{"user_id":121,"name":"Sprit ♥","steam_id":76561198268780781,"connected_time":5934000000000,"state":"active","ping":91},{"user_id":175,"name":"TheEmeraldDuck","steam_id":76561197999692032,"connected_time":1044000000000,"state":"active","ping":106},{"user_id":168,"name":"Pyrotek⁴","steam_id":76561198072747672,"connected_time":1470000000000,"state":"active","ping":42},{"user_id":178,"name":"1 Great Wooden Dad","steam_id":76561198377126974,"connected_time":790000000000,"state":"active","ping":120},{"user_id":159,"name":"Saul Catman","steam_id":76561199228539914,"connected_time":1872000000000,"state":"active","ping":65},{"user_id":183,"name":"Poland 1940s","steam_id":76561198396351275,"connected_time":694000000000,"state":"active","ping":55},{"user_id":160,"name":"MrFrost","steam_id":76561198800061541,"connected_time":1852000000000,"state":"active","ping":66},{"user_id":190,"name":"Windows Vista Home Premium","steam_id":76561198043764863,"connected_time":84000000000,"state":"active","ping":42},{"user_id":180,"name":"lshot23432","steam_id":76561199122349101,"connected_time":778000000000,"state":"active","ping":75},{"user_id":163,"name":"°Creamy Gilligan","steam_id":76561198001569384,"connected_time":1734000000000,"state":"active","ping":106},{"user_id":189,"name":"Ice cream sandwich","steam_id":76561198172748357,"connected_time":128000000000,"state":"active","ping":61},{"user_id":192,"name":"Obrodai","steam_id":76561199465783209,"connected_time":10000000000,"state":"spawning","ping":29},{"user_id":172,"name":"绵羊游戏","steam_id":76561198048013802,"connected_time":1223000000000,"state":"active","ping":76},{"user_id":191,"name":"boomer","steam_id":76561198108761337,"connected_time":31000000000,"state":"active","ping":52},{"user_id":118,"name":"Goldensliv","steam_id":76561198161673891,"connected_time":6168000000000,"state":"active","ping":35},{"user_id":186,"name":"donkeyballs2007","steam_id":76561199466298683,"connected_time":550000000000,"state":"active","ping":45},{"user_id":177,"name":"BallBreaker","steam_id":76561198237263498,"connected_time":975000000000,"state":"active","ping":106},{"user_id":146,"name":"Puskinti","steam_id":76561198032120688,"connected_time":3491000000000,"state":"active","ping":85}]},{"server_id":25,"name":"Uncletopia | Los Angeles | 4 | Stopwatch Beta","name_short":"lax-4","host":"lax-1.us.uncletopia.com","port":27045,"enabled":true,"region":"us-west","cc":"us","latitude":33.94279,"longitude":-118.41004,"reserved":0,"last_update":"0001-01-01T00:00:00Z","name_a2s":"Uncletopia | Los Angeles | 4 | Stopwatch Beta","protocol":17,"map":"workshop/koth_clearcut_b15.ugc2107050255","folder":"tf","game":"Team Fortress","app_id":440,"player_count":0,"max_players":24,"Bots":0,"server_type":"Dedicated","server_os":"Linux","password":true,"vac":true,"version":"7932396","steam_id":85568392924510199,"keywords":["cp","nocrits","nodmgspread","uncletopia"],"game_id":440,"stv_port":27046,"stv_name":"Uncletopia | Los Angeles | 4 | Stopwatch Beta | STV","players":null},{"server_id":11,"name":"Uncletopia | London | 1 | All Maps","name_short":"lon-1","host":"lon-1.uk.uncletopia.com","port":27015,"enabled":true,"region":"eu","cc":"gb","latitude":51.509865,"longitude":-0.118092,"reserved":0,"last_update":"0001-01-01T00:00:00Z","name_a2s":"Uncletopia | London | 1 | All Maps","protocol":17,"map":"cp_snakewater_final1","folder":"tf","game":"Team Fortress","app_id":440,"player_count":0,"max_players":24,"Bots":0,"server_type":"Dedicated","server_os":"Linux","password":true,"vac":true,"version":"7932396","steam_id":85568392924367362,"keywords":["cp","nocrits","nodmgspread","uncletopia"],"game_id":440,"stv_port":27016,"stv_name":"Uncletopia | London | 1 | All Maps | STV","players":null},{"server_id":114,"name":"Uncletopia | London | 2 | All Maps","name_short":"lon-2","host":"lon-1.uk.uncletopia.com","port":27025,"enabled":true,"region":"eu","cc":"gb","latitude":51.509865,"longitude":-0.118092,"reserved":0,"last_update":"0001-01-01T00:00:00Z","name_a2s":"Uncletopia | London | 2 | All Maps","protocol":17,"map":"pl_upward","folder":"tf","game":"Team Fortress","app_id":440,"player_count":10,"max_players":24,"Bots":0,"server_type":"Dedicated","server_os":"Linux","password":true,"vac":true,"version":"7932396","steam_id":85568392924470941,"keywords":["nocrits","nodmgspread","payload","uncletopia"],"game_id":440,"stv_port":27026,"stv_name":"Uncletopia | London | 2 | All Maps | STV","players":[{"user_id":857,"name":"Jarl SwagDog","steam_id":76561198097553711,"connected_time":1618000000000,"state":"active","ping":119},{"user_id":844,"name":"goofBall1984","steam_id":76561198131020285,"connected_time":2495000000000,"state":"active","ping":51},{"user_id":865,"name":"Iatots","steam_id":76561198074349620,"connected_time":531000000000,"state":"active","ping":65},{"user_id":848,"name":"Blood Bucket","steam_id":76561198371739250,"connected_time":2102000000000,"state":"active","ping":196},{"user_id":845,"name":"sofa king","steam_id":76561198175456289,"connected_time":2294000000000,"state":"active","ping":113},{"user_id":847,"name":"Decaying Chpok","steam_id":76561198112855332,"connected_time":2190000000000,"state":"active","ping":160},{"user_id":863,"name":"Riba-biba","steam_id":76561198840443328,"connected_time":953000000000,"state":"active","ping":125},{"user_id":866,"name":"Beta","steam_id":76561198429409394,"connected_time":430000000000,"state":"active","ping":94},{"user_id":856,"name":"snowycaost","steam_id":76561198346638308,"connected_time":1726000000000,"state":"active","ping":58},{"user_id":828,"name":"fredu","steam_id":76561198107605938,"connected_time":3882000000000,"state":"active","ping":102}]},{"server_id":320,"name":"Uncletopia | London | 3 | All Maps","name_short":"lon-3","host":"lon-1.uk.uncletopia.com","port":27035,"enabled":true,"region":"eu","cc":"gb","latitude":51.509865,"longitude":-0.118092,"reserved":0,"last_update":"0001-01-01T00:00:00Z","name_a2s":"Uncletopia | London | 3 | All Maps","protocol":17,"map":"pl_upward","folder":"tf","game":"Team Fortress","app_id":440,"player_count":0,"max_players":24,"Bots":0,"server_type":"Dedicated","server_os":"Linux","password":true,"vac":true,"version":"7932396","steam_id":85568392924510192,"keywords":["nocrits","nodmgspread","payload","uncletopia"],"game_id":440,"stv_port":27036,"stv_name":"Uncletopia | London | 3 | All Maps | STV","players":null},{"server_id":321,"name":"Uncletopia | London | 4 | All Maps","name_short":"lon-4","host":"lon-1.uk.uncletopia.com","port":27045,"enabled":true,"region":"eu","cc":"gb","latitude":51.509865,"longitude":-0.118092,"reserved":0,"last_update":"0001-01-01T00:00:00Z","name_a2s":"Uncletopia | London | 4 | All Maps","protocol":17,"map":"koth_lakeside_final","folder":"tf","game":"Team Fortress","app_id":440,"player_count":2,"max_players":24,"Bots":0,"server_type":"Dedicated","server_os":"Linux","password":true,"vac":true,"version":"7932396","steam_id":85568392924510193,"keywords":["cp","nocrits","nodmgspread","uncletopia"],"game_id":440,"stv_port":27046,"stv_name":"Uncletopia | London | 4 | All Maps | STV","players":[{"user_id":295,"name":"Samael Legionarius Helel","steam_id":76561198138510369,"connected_time":1474000000000,"state":"active","ping":68},{"user_id":296,"name":"TEXAN DREAM","steam_id":76561198119067958,"connected_time":983000000000,"state":"active","ping":163}]},{"server_id":21,"name":"Uncletopia | London | 5 | All Maps","name_short":"lon-5","host":"lon-1.uk.uncletopia.com","port":27055,"enabled":true,"region":"eu","cc":"gb","latitude":51.509865,"longitude":-0.118092,"reserved":0,"last_update":"0001-01-01T00:00:00Z","name_a2s":"Uncletopia | London | 5 | All Maps","protocol":17,"map":"koth_lakeside_final","folder":"tf","game":"Team Fortress","app_id":440,"player_count":0,"max_players":24,"Bots":0,"server_type":"Dedicated","server_os":"Linux","password":true,"vac":true,"version":"7932396","steam_id":85568392924742829,"keywords":["cp","nocrits","nodmgspread","uncletopia"],"game_id":440,"stv_port":27056,"stv_name":"Uncletopia | London | 5 | All Maps | STV","players":null},{"server_id":22,"name":"Uncletopia | London | 6 | All Maps","name_short":"lon-6","host":"lon-1.uk.uncletopia.com","port":27065,"enabled":true,"region":"eu","cc":"gb","latitude":51.509865,"longitude":-0.118092,"reserved":0,"last_update":"0001-01-01T00:00:00Z","name_a2s":"Uncletopia | London | 6 | All Maps","protocol":17,"map":"pl_upward","folder":"tf","game":"Team Fortress","app_id":440,"player_count":19,"max_players":24,"Bots":0,"server_type":"Dedicated","server_os":"Linux","password":true,"vac":true,"version":"7932396","steam_id":85568392924742830,"keywords":["nocrits","nodmgspread","payload","uncletopia"],"game_id":440,"stv_port":27066,"stv_name":"Uncletopia | London | 6 | All Maps | STV","players":[{"user_id":436,"name":"yuck","steam_id":76561197987249568,"connected_time":377000000000,"state":"active","ping":102},{"user_id":422,"name":"Neco-arc Astolfo","steam_id":76561198989682540,"connected_time":1355000000000,"state":"active","ping":50},{"user_id":335,"name":"Steen","steam_id":76561198122992510,"connected_time":6682000000000,"state":"active","ping":44},{"user_id":417,"name":"Qdarks","steam_id":76561198013391340,"connected_time":1714000000000,"state":"active","ping":146},{"user_id":430,"name":"Othmix","steam_id":76561198144291048,"connected_time":680000000000,"state":"active","ping":73},{"user_id":433,"name":"Oni_Nas","steam_id":76561198422064804,"connected_time":410000000000,"state":"active","ping":67},{"user_id":408,"name":"in the house like carpet","steam_id":76561199480942903,"connected_time":2879000000000,"state":"active","ping":75},{"user_id":412,"name":"Panique","steam_id":76561197993239675,"connected_time":2189000000000,"state":"active","ping":58},{"user_id":431,"name":"killbind irl","steam_id":76561198180637374,"connected_time":516000000000,"state":"active","ping":94},{"user_id":405,"name":"Refurbished Boy","steam_id":76561197995834697,"connected_time":3025000000000,"state":"active","ping":98},{"user_id":332,"name":"idenburg","steam_id":76561198063574956,"connected_time":6834000000000,"state":"active","ping":51},{"user_id":429,"name":"Zylon","steam_id":76561198073269221,"connected_time":783000000000,"state":"active","ping":57},{"user_id":376,"name":"gravity displeases me","steam_id":76561198342570528,"connected_time":4541000000000,"state":"active","ping":68},{"user_id":432,"name":"TheNinjaSpy","steam_id":76561198069268528,"connected_time":470000000000,"state":"active","ping":72},{"user_id":421,"name":"supershyguy147","steam_id":76561199208965131,"connected_time":1444000000000,"state":"active","ping":174},{"user_id":435,"name":"Xer0","steam_id":76561199080637715,"connected_time":389000000000,"state":"active","ping":166},{"user_id":415,"name":"Moonkey","steam_id":76561199013741389,"connected_time":1899000000000,"state":"active","ping":108},{"user_id":440,"name":"Jnet","steam_id":76561198001282720,"connected_time":261000000000,"state":"active","ping":80},{"user_id":428,"name":"Glitch","steam_id":76561198081895538,"connected_time":953000000000,"state":"active","ping":55}]},{"server_id":40,"name":"Uncletopia | London | 7 | No Payload","name_short":"lon-7","host":"lon-1.uk.uncletopia.com","port":27075,"enabled":true,"region":"eu","cc":"gb","latitude":51.509865,"longitude":-0.118092,"reserved":0,"last_update":"0001-01-01T00:00:00Z","name_a2s":"Uncletopia | London | 7 | No Payload","protocol":17,"map":"koth_nucleus","folder":"tf","game":"Team Fortress","app_id":440,"player_count":0,"max_players":24,"Bots":0,"server_type":"Dedicated","server_os":"Linux","password":true,"vac":true,"version":"7932396","steam_id":85568392924964314,"keywords":["cp","nocrits","nodmgspread","uncletopia"],"game_id":440,"stv_port":27076,"stv_name":"Uncletopia | London | 7 | No Payload | STV","players":null},{"server_id":41,"name":"Uncletopia | London | 8 | Community","name_short":"lon-8","host":"lon-1.uk.uncletopia.com","port":27085,"enabled":true,"region":"eu","cc":"gb","latitude":51.509865,"longitude":-0.118092,"reserved":0,"last_update":"0001-01-01T00:00:00Z","name_a2s":"Uncletopia | London | 8 | Community","protocol":17,"map":"workshop/cp_glassworks_rc6a.ugc454118349","folder":"tf","game":"Team Fortress","app_id":440,"player_count":0,"max_players":24,"Bots":0,"server_type":"Dedicated","server_os":"Linux","password":true,"vac":true,"version":"7932396","steam_id":85568392924964315,"keywords":["cp","nocrits","nodmgspread","uncletopia"],"game_id":440,"stv_port":27086,"stv_name":"Uncletopia | London | 8 | Community | STV","players":null},{"server_id":300,"name":"Uncletopia | Montréal | 1 | All Maps","name_short":"mtl-1","host":"mtl-1.ca.uncletopia.com","port":27015,"enabled":true,"region":"us-east","cc":"ca","latitude":45.50889,"longitude":-73.56167,"reserved":0,"last_update":"0001-01-01T00:00:00Z","name_a2s":"Uncletopia | Montréal | 1 | All Maps","protocol":17,"map":"cp_altitude","folder":"tf","game":"Team Fortress","app_id":440,"player_count":0,"max_players":24,"Bots":0,"server_type":"Dedicated","server_os":"Linux","password":true,"vac":true,"version":"7932396","steam_id":85568392924500087,"keywords":["cp","nocrits","nodmgspread","uncletopia"],"game_id":440,"stv_port":27016,"stv_name":"Uncletopia | Montréal | 1 | All Maps | STV","players":null},{"server_id":301,"name":"Uncletopia | Montréal | 2 | All Maps","name_short":"mtl-2","host":"mtl-1.ca.uncletopia.com","port":27025,"enabled":true,"region":"us-east","cc":"ca","latitude":45.50889,"longitude":-73.56167,"reserved":0,"last_update":"0001-01-01T00:00:00Z","name_a2s":"Uncletopia | Montréal | 2 | All Maps","protocol":17,"map":"cp_sunshine","folder":"tf","game":"Team Fortress","app_id":440,"player_count":13,"max_players":24,"Bots":0,"server_type":"Dedicated","server_os":"Linux","password":true,"vac":true,"version":"7932396","steam_id":85568392924500088,"keywords":["cp","nocrits","nodmgspread","uncletopia"],"game_id":440,"stv_port":27026,"stv_name":"Uncletopia | Montréal | 2 | All Maps | STV","players":[{"user_id":224,"name":"Kdash","steam_id":76561198043829155,"connected_time":305000000000,"state":"active","ping":97},{"user_id":203,"name":"BestMommyGF","steam_id":76561198054824490,"connected_time":808000000000,"state":"active","ping":63},{"user_id":226,"name":"Sketch","steam_id":76561199433138612,"connected_time":125000000000,"state":"active","ping":187},{"user_id":169,"name":"Bee_Pirate","steam_id":76561199000599111,"connected_time":3725000000000,"state":"active","ping":47},{"user_id":225,"name":"i dont know what im doing","steam_id":76561198445249255,"connected_time":283000000000,"state":"active","ping":69},{"user_id":206,"name":"Vollux","steam_id":76561198003378847,"connected_time":770000000000,"state":"active","ping":83},{"user_id":209,"name":"Big Dick Slapper","steam_id":76561197994487533,"connected_time":636000000000,"state":"active","ping":115},{"user_id":217,"name":"Gibi","steam_id":76561198070327381,"connected_time":470000000000,"state":"active","ping":78},{"user_id":199,"name":"lost in spaaaaace","steam_id":76561199085974120,"connected_time":1218000000000,"state":"active","ping":61},{"user_id":215,"name":"Armpit!","steam_id":76561197978095727,"connected_time":511000000000,"state":"active","ping":128},{"user_id":218,"name":"lisa","steam_id":76561198077865043,"connected_time":435000000000,"state":"active","ping":69},{"user_id":222,"name":"\u003e:3 Muiramme εїз","steam_id":76561197994458543,"connected_time":373000000000,"state":"active","ping":105},{"user_id":223,"name":"kree","steam_id":76561197979960008,"connected_time":336000000000,"state":"active","ping":31}]},{"server_id":302,"name":"Uncletopia | Montréal | 3 | All Maps","name_short":"mtl-3","host":"mtl-1.ca.uncletopia.com","port":27035,"enabled":true,"region":"us-east","cc":"ca","latitude":45.50889,"longitude":-73.56167,"reserved":0,"last_update":"0001-01-01T00:00:00Z","name_a2s":"Uncletopia | Montréal | 3 | All Maps","protocol":17,"map":"pl_upward","folder":"tf","game":"Team Fortress","app_id":440,"player_count":0,"max_players":24,"Bots":0,"server_type":"Dedicated","server_os":"Linux","password":true,"vac":true,"version":"7932396","steam_id":85568392924500089,"keywords":["nocrits","nodmgspread","payload","uncletopia"],"game_id":440,"stv_port":27036,"stv_name":"Uncletopia | Montréal | 3 | All Maps | STV","players":null},{"server_id":303,"name":"Uncletopia | Montréal | 4 | No Payload","name_short":"mtl-4","host":"mtl-1.ca.uncletopia.com","port":27045,"enabled":true,"region":"us-east","cc":"ca","latitude":45.50889,"longitude":-73.56167,"reserved":0,"last_update":"0001-01-01T00:00:00Z","name_a2s":"Uncletopia | Montréal | 4 | No Payload","protocol":17,"map":"koth_king","folder":"tf","game":"Team Fortress","app_id":440,"player_count":2,"max_players":24,"Bots":0,"server_type":"Dedicated","server_os":"Linux","password":true,"vac":true,"version":"7932396","steam_id":85568392924500090,"keywords":["cp","nocrits","nodmgspread","uncletopia"],"game_id":440,"stv_port":27046,"stv_name":"Uncletopia | Montréal | 4 | No Payload | STV","players":[{"user_id":9,"name":"Lord Sam Sinister","steam_id":76561198997398391,"connected_time":679000000000,"state":"active","ping":130},{"user_id":10,"name":"Horace","steam_id":76561199072844128,"connected_time":664000000000,"state":"active","ping":143}]},{"server_id":13,"name":"Uncletopia | New York City | 1 | All Maps","name_short":"nyc-1","host":"nyc-1.us.uncletopia.com","port":27015,"enabled":true,"region":"us-east","cc":"us","latitude":40.73061,"longitude":-73.93524,"reserved":0,"last_update":"0001-01-01T00:00:00Z","name_a2s":"Uncletopia | New York City | 1 | All Maps","protocol":17,"map":"cp_dustbowl","folder":"tf","game":"Team Fortress","app_id":440,"player_count":24,"max_players":24,"Bots":0,"server_type":"Dedicated","server_os":"Linux","password":true,"vac":true,"version":"7932396","steam_id":85568392924469993,"keywords":["cp","nocrits","nodmgspread","uncletopia"],"game_id":440,"stv_port":27016,"stv_name":"Uncletopia | New York City | 1 | All Maps | STV","players":[{"user_id":543,"name":"JoCaleb02","steam_id":76561198272389829,"connected_time":1382000000000,"state":"active","ping":52},{"user_id":494,"name":"Where The F**K I Am?","steam_id":76561197986530028,"connected_time":4928000000000,"state":"active","ping":116},{"user_id":542,"name":"Inked♡","steam_id":76561198044040456,"connected_time":1601000000000,"state":"active","ping":62},{"user_id":552,"name":"Frajer","steam_id":76561198059129680,"connected_time":660000000000,"state":"active","ping":66},{"user_id":528,"name":"yes daddy","steam_id":76561198166100997,"connected_time":2599000000000,"state":"active","ping":67},{"user_id":553,"name":"Homunculus Gambino","steam_id":76561198158433378,"connected_time":649000000000,"state":"active","ping":70},{"user_id":529,"name":"wise","steam_id":76561198030066204,"connected_time":2581000000000,"state":"active","ping":35},{"user_id":547,"name":"your local forecast","steam_id":76561198042243083,"connected_time":1284000000000,"state":"active","ping":46},{"user_id":491,"name":"BeerPowder","steam_id":76561198058129400,"connected_time":5034000000000,"state":"active","ping":54},{"user_id":550,"name":"Bother","steam_id":76561198336750909,"connected_time":1046000000000,"state":"active","ping":44},{"user_id":549,"name":"The Baggler (The Faggler)","steam_id":76561198061335030,"connected_time":1262000000000,"state":"active","ping":82},{"user_id":516,"name":"ansmew","steam_id":76561198075200670,"connected_time":3300000000000,"state":"active","ping":60},{"user_id":538,"name":"Machine Girl - SAD CLAPS","steam_id":76561198294013916,"connected_time":2384000000000,"state":"active","ping":45},{"user_id":548,"name":"The Grabbler (The Babbler)","steam_id":76561198145921847,"connected_time":1281000000000,"state":"active","ping":89},{"user_id":544,"name":"Eraserhead Baby","steam_id":76561198010968514,"connected_time":1380000000000,"state":"active","ping":112},{"user_id":517,"name":"tooth","steam_id":76561197986437643,"connected_time":2977000000000,"state":"active","ping":58},{"user_id":551,"name":"Thelonious Prime, King of Jazz","steam_id":76561198077785482,"connected_time":998000000000,"state":"active","ping":81},{"user_id":471,"name":"Porcupine's Revenge!","steam_id":76561199121615234,"connected_time":6936000000000,"state":"active","ping":42},{"user_id":541,"name":"Bi Bliss","steam_id":76561198426306122,"connected_time":1974000000000,"state":"active","ping":56},{"user_id":540,"name":"TwoBit","steam_id":76561198062437559,"connected_time":2261000000000,"state":"active","ping":61},{"user_id":421,"name":"mytoyo2k2","steam_id":76561199486326945,"connected_time":9851000000000,"state":"active","ping":73},{"user_id":554,"name":"john travolta from pulp fiction","steam_id":76561199487373269,"connected_time":460000000000,"state":"active","ping":58},{"user_id":532,"name":"Bert.","steam_id":76561198140666346,"connected_time":2568000000000,"state":"active","ping":47},{"user_id":519,"name":"cyberas","steam_id":76561198257092290,"connected_time":2786000000000,"state":"active","ping":68}]},{"server_id":14,"name":"Uncletopia | New York City | 2 | All Maps","name_short":"nyc-2","host":"nyc-1.us.uncletopia.com","port":27025,"enabled":true,"region":"us-east","cc":"us","latitude":40.73061,"longitude":-73.93524,"reserved":0,"last_update":"0001-01-01T00:00:00Z","name_a2s":"Uncletopia | New York City | 2 | All Maps","protocol":17,"map":"pl_frontier_final","folder":"tf","game":"Team Fortress","app_id":440,"player_count":24,"max_players":24,"Bots":0,"server_type":"Dedicated","server_os":"Linux","password":true,"vac":true,"version":"7932396","steam_id":85568392924469994,"keywords":["nocrits","nodmgspread","payload","uncletopia"],"game_id":440,"stv_port":27026,"stv_name":"Uncletopia | New York City | 2 | All Maps | STV","players":[{"user_id":313,"name":"Forossa","steam_id":76561198108085345,"connected_time":1919000000000,"state":"active","ping":72},{"user_id":276,"name":"E'reno Tia","steam_id":76561198307986868,"connected_time":4574000000000,"state":"active","ping":131},{"user_id":330,"name":"sansa musa","steam_id":76561198163723555,"connected_time":1369000000000,"state":"active","ping":45},{"user_id":348,"name":"pablo","steam_id":76561198395577807,"connected_time":385000000000,"state":"active","ping":46},{"user_id":350,"name":"CORGI.EXE","steam_id":76561198077093432,"connected_time":121000000000,"state":"active","ping":56},{"user_id":314,"name":"Chernov","steam_id":76561198014463424,"connected_time":1914000000000,"state":"active","ping":44},{"user_id":343,"name":"Mexican American","steam_id":76561198306393090,"connected_time":707000000000,"state":"active","ping":70},{"user_id":334,"name":"ChaoticAngel","steam_id":76561198293528217,"connected_time":952000000000,"state":"active","ping":51},{"user_id":337,"name":"Virtual Zorua","steam_id":76561198196180302,"connected_time":825000000000,"state":"active","ping":66},{"user_id":306,"name":"ᓀ‸ᓂ","steam_id":76561198046055673,"connected_time":2943000000000,"state":"active","ping":57},{"user_id":290,"name":"It's FoolMoon","steam_id":76561198153344375,"connected_time":3601000000000,"state":"active","ping":45},{"user_id":310,"name":"♥Bunny♥Slut♥","steam_id":76561198206376851,"connected_time":2545000000000,"state":"active","ping":87},{"user_id":340,"name":"QWERTY","steam_id":76561198211430420,"connected_time":796000000000,"state":"active","ping":83},{"user_id":349,"name":"echo","steam_id":76561199411724732,"connected_time":144000000000,"state":"active","ping":40},{"user_id":338,"name":"tommy","steam_id":76561198185185694,"connected_time":809000000000,"state":"active","ping":95},{"user_id":339,"name":"Jango","steam_id":76561198084589742,"connected_time":803000000000,"state":"active","ping":81},{"user_id":345,"name":"A Puppy","steam_id":76561198828184456,"connected_time":503000000000,"state":"active","ping":46},{"user_id":69,"name":"KBoneski ♡","steam_id":76561198307409065,"connected_time":20908000000000,"state":"active","ping":89},{"user_id":342,"name":"kursed","steam_id":76561198992371495,"connected_time":755000000000,"state":"active","ping":48},{"user_id":312,"name":"Gentoo Linux Gaming","steam_id":76561197999657118,"connected_time":1967000000000,"state":"active","ping":69},{"user_id":336,"name":"Ice Jackal","steam_id":76561197986979870,"connected_time":933000000000,"state":"active","ping":79},{"user_id":321,"name":"sly","steam_id":76561198139240845,"connected_time":1753000000000,"state":"active","ping":51},{"user_id":309,"name":"Moshi Man","steam_id":76561198038249762,"connected_time":2877000000000,"state":"active","ping":74},{"user_id":284,"name":"HARRY B HOLE","steam_id":76561198842067238,"connected_time":3748000000000,"state":"active","ping":88}]},{"server_id":15,"name":"Uncletopia | New York City | 3 | Stopwatch Beta","name_short":"nyc-3","host":"nyc-1.us.uncletopia.com","port":27035,"enabled":true,"region":"us-east","cc":"us","latitude":40.73061,"longitude":-73.93524,"reserved":0,"last_update":"0001-01-01T00:00:00Z","name_a2s":"Uncletopia | New York City | 3 | Stopwatch Beta","protocol":17,"map":"koth_lakeside_final","folder":"tf","game":"Team Fortress","app_id":440,"player_count":0,"max_players":24,"Bots":0,"server_type":"Dedicated","server_os":"Linux","password":true,"vac":true,"version":"7932396","steam_id":85568392924742820,"keywords":["cp","nocrits","nodmgspread","uncletopia"],"game_id":440,"stv_port":27036,"stv_name":"Uncletopia | New York City | 3 | Stopwatch Beta | STV","players":null},{"server_id":16,"name":"Uncletopia | New York City | 4 | Community","name_short":"nyc-4","host":"nyc-1.us.uncletopia.com","port":27045,"enabled":true,"region":"us-east","cc":"us","latitude":40.73061,"longitude":-73.93524,"reserved":0,"last_update":"0001-01-01T00:00:00Z","name_a2s":"Uncletopia | New York City | 4 | Community","protocol":17,"map":"workshop/pl_cactuscanyon_redux_final2.ugc2579644293","folder":"tf","game":"Team Fortress","app_id":440,"player_count":19,"max_players":24,"Bots":0,"server_type":"Dedicated","server_os":"Linux","password":true,"vac":true,"version":"7932396","steam_id":85568392924742821,"keywords":["nocrits","nodmgspread","payload","uncletopia"],"game_id":440,"stv_port":27046,"stv_name":"Uncletopia | New York City | 4 | Community | STV","players":[{"user_id":656,"name":"Juvice","steam_id":76561198843371502,"connected_time":367000000000,"state":"active","ping":42},{"user_id":627,"name":"Dwarfo","steam_id":76561198119220289,"connected_time":2463000000000,"state":"active","ping":79},{"user_id":645,"name":"GRonimo Gaming","steam_id":76561199112510683,"connected_time":1497000000000,"state":"active","ping":90},{"user_id":655,"name":"The Sinister Potion","steam_id":76561198131280715,"connected_time":391000000000,"state":"active","ping":61},{"user_id":653,"name":"clippy","steam_id":76561199101412758,"connected_time":423000000000,"state":"active","ping":135},{"user_id":647,"name":"NyanSequitur","steam_id":76561198109732474,"connected_time":1346000000000,"state":"active","ping":70},{"user_id":657,"name":"Denzel McFlurry","steam_id":76561199231296521,"connected_time":307000000000,"state":"active","ping":54},{"user_id":623,"name":"Pegway","steam_id":76561198044303814,"connected_time":3522000000000,"state":"active","ping":47},{"user_id":658,"name":"Nebe0","steam_id":76561199133770186,"connected_time":212000000000,"state":"active","ping":87},{"user_id":597,"name":"helen keller","steam_id":76561197979870540,"connected_time":4767000000000,"state":"active","ping":60},{"user_id":654,"name":"[chef] iron","steam_id":76561197970888616,"connected_time":405000000000,"state":"active","ping":62},{"user_id":651,"name":"Nebulon-B_Frigate_FTW","steam_id":76561198040955960,"connected_time":976000000000,"state":"active","ping":132},{"user_id":581,"name":"Yato","steam_id":76561198084100335,"connected_time":6156000000000,"state":"active","ping":73},{"user_id":574,"name":"AGL Lr Nappa","steam_id":76561198313627753,"connected_time":6668000000000,"state":"active","ping":77},{"user_id":648,"name":"firstlastmcgee","steam_id":76561198170187989,"connected_time":1296000000000,"state":"active","ping":76},{"user_id":606,"name":"Super Sand Lesbian","steam_id":76561198028157625,"connected_time":4489000000000,"state":"active","ping":86},{"user_id":650,"name":"Ohio","steam_id":76561198060257563,"connected_time":1141000000000,"state":"active","ping":54},{"user_id":624,"name":"Two-Teste Tommy","steam_id":76561198064308936,"connected_time":3263000000000,"state":"active","ping":60},{"user_id":644,"name":"Deluxe_Taco34","steam_id":76561199037653437,"connected_time":1878000000000,"state":"active","ping":94}]},{"server_id":142,"name":"Uncletopia | São Paulo | 1 | All Maps","name_short":"sao-1","host":"sao-1.br.uncletopia.com","port":27015,"enabled":true,"region":"sa","cc":"br","latitude":-23.533773,"longitude":-46.62529,"reserved":0,"last_update":"0001-01-01T00:00:00Z","name_a2s":"Uncletopia | São Paulo | 1 | All Maps","protocol":17,"map":"pl_borneo","folder":"tf","game":"Team Fortress","app_id":440,"player_count":13,"max_players":24,"Bots":0,"server_type":"Dedicated","server_os":"Linux","password":true,"vac":true,"version":"7932396","steam_id":85568392924469996,"keywords":["nocrits","nodmgspread","payload","uncletopia"],"game_id":440,"stv_port":27016,"stv_name":"Uncletopia | São Paulo | 1 | All Maps | STV","players":[{"user_id":80,"name":"YellowEyePatch Guy","steam_id":76561199108111310,"connected_time":4915000000000,"state":"active","ping":56},{"user_id":120,"name":"Daku","steam_id":76561198036667684,"connected_time":44000000000,"state":"active","ping":73},{"user_id":117,"name":"StaryKrow_Fan_ ;)","steam_id":76561199403534411,"connected_time":642000000000,"state":"active","ping":197},{"user_id":104,"name":"Dandiablo","steam_id":76561198049841015,"connected_time":2322000000000,"state":"active","ping":94},{"user_id":91,"name":"Frans","steam_id":76561198207928860,"connected_time":4004000000000,"state":"active","ping":35},{"user_id":119,"name":"NaZsz","steam_id":76561199146803163,"connected_time":251000000000,"state":"active","ping":227},{"user_id":100,"name":"kawadzz","steam_id":76561199042157686,"connected_time":3046000000000,"state":"active","ping":83},{"user_id":101,"name":"chuck testa","steam_id":76561199136985273,"connected_time":2775000000000,"state":"active","ping":106},{"user_id":74,"name":"flamingo","steam_id":76561198854099251,"connected_time":5449000000000,"state":"active","ping":70},{"user_id":102,"name":".fnord","steam_id":76561198119754613,"connected_time":2687000000000,"state":"active","ping":48},{"user_id":89,"name":"Trica","steam_id":76561198136430950,"connected_time":4115000000000,"state":"active","ping":79},{"user_id":107,"name":"NutsFromBerserk","steam_id":76561198160137159,"connected_time":2086000000000,"state":"active","ping":97},{"user_id":111,"name":"alves","steam_id":76561198863660318,"connected_time":1352000000000,"state":"active","ping":54}]},{"server_id":143,"name":"Uncletopia | São Paulo | 2 | All Maps","name_short":"sao-2","host":"sao-2.br.uncletopia.com","port":27015,"enabled":true,"region":"sa","cc":"br","latitude":-23.533773,"longitude":-46.62529,"reserved":0,"last_update":"0001-01-01T00:00:00Z","name_a2s":"Uncletopia | São Paulo | 2 | All Maps","protocol":17,"map":"koth_cascade","folder":"tf","game":"Team Fortress","app_id":440,"player_count":0,"max_players":24,"Bots":0,"server_type":"Dedicated","server_os":"Linux","password":true,"vac":true,"version":"7932396","steam_id":85568392924485349,"keywords":["cp","nocrits","nodmgspread","uncletopia"],"game_id":440,"stv_port":27016,"stv_name":"Uncletopia | São Paulo | 2 | All Maps | STV","players":null},{"server_id":7,"name":"Uncletopia | Seattle | 1 | All Maps","name_short":"sea-1","host":"sea-1.us.uncletopia.com","port":27015,"enabled":true,"region":"us-west","cc":"us","latitude":47.608013,"longitude":-122.33517,"reserved":0,"last_update":"0001-01-01T00:00:00Z","name_a2s":"Uncletopia | Seattle | 1 | All Maps","protocol":17,"map":"koth_sawmill","folder":"tf","game":"Team Fortress","app_id":440,"player_count":24,"max_players":24,"Bots":0,"server_type":"Dedicated","server_os":"Linux","password":true,"vac":true,"version":"7932396","steam_id":85568392924469997,"keywords":["cp","nocrits","nodmgspread","uncletopia"],"game_id":440,"stv_port":27016,"stv_name":"Uncletopia | Seattle | 1 | All Maps | STV","players":[{"user_id":422,"name":"cat gets the fleas","steam_id":76561198048754056,"connected_time":1819000000000,"state":"active","ping":61},{"user_id":446,"name":"Can of Oranges","steam_id":76561199121813529,"connected_time":27000000000,"state":"spawning","ping":44},{"user_id":426,"name":"Ayayayayayahuasca","steam_id":76561199002906056,"connected_time":1560000000000,"state":"active","ping":45},{"user_id":406,"name":"XxChocola20xX","steam_id":76561199108579557,"connected_time":3029000000000,"state":"active","ping":97},{"user_id":423,"name":"CashGordon","steam_id":76561197975594096,"connected_time":1815000000000,"state":"active","ping":38},{"user_id":441,"name":"lil boogie","steam_id":76561198064059721,"connected_time":520000000000,"state":"active","ping":39},{"user_id":424,"name":"Crake","steam_id":76561198001959071,"connected_time":1798000000000,"state":"active","ping":58},{"user_id":438,"name":"Nakasmacka","steam_id":76561198049787270,"connected_time":594000000000,"state":"active","ping":35},{"user_id":445,"name":"Vito","steam_id":76561198060846419,"connected_time":31000000000,"state":"active","ping":57},{"user_id":429,"name":"abaddon_amogTTV #savetf2","steam_id":76561198268581959,"connected_time":1136000000000,"state":"active","ping":64},{"user_id":443,"name":"Mr.Crabapples","steam_id":76561199082148884,"connected_time":405000000000,"state":"active","ping":63},{"user_id":404,"name":"mub","steam_id":76561197961943948,"connected_time":3062000000000,"state":"active","ping":46},{"user_id":428,"name":"DesertFroggo","steam_id":76561198015607829,"connected_time":1296000000000,"state":"active","ping":85},{"user_id":412,"name":"NAWWWWWWWWWWW","steam_id":76561198878913441,"connected_time":2354000000000,"state":"active","ping":68},{"user_id":384,"name":"rat gets the cheese","steam_id":76561198031234032,"connected_time":4913000000000,"state":"active","ping":104},{"user_id":436,"name":"bbbbb","steam_id":76561198095480838,"connected_time":1071000000000,"state":"active","ping":46},{"user_id":361,"name":"ＣＨＡＭＰＩＯＮ","steam_id":76561198883157736,"connected_time":7273000000000,"state":"active","ping":63},{"user_id":410,"name":"Cheezbeargur","steam_id":76561198164702899,"connected_time":2482000000000,"state":"active","ping":68},{"user_id":425,"name":"ArchmageF","steam_id":76561197992246851,"connected_time":1778000000000,"state":"active","ping":56},{"user_id":440,"name":"Lemon Luke","steam_id":76561199141696546,"connected_time":538000000000,"state":"active","ping":120},{"user_id":414,"name":"macmv","steam_id":76561198344013986,"connected_time":2311000000000,"state":"active","ping":37},{"user_id":437,"name":"whittecar","steam_id":76561198169715643,"connected_time":853000000000,"state":"active","ping":54},{"user_id":447,"name":"Kyle Broflovski","steam_id":76561199013419266,"connected_time":15000000000,"state":"spawning","ping":170},{"user_id":434,"name":"HoarseBard","steam_id":76561198059393099,"connected_time":1107000000000,"state":"active","ping":62}]},{"server_id":119,"name":"Uncletopia | Seattle | 2 | All Maps","name_short":"sea-2","host":"sea-1.us.uncletopia.com","port":27025,"enabled":true,"region":"us-west","cc":"us","latitude":47.608013,"longitude":-122.33517,"reserved":0,"last_update":"0001-01-01T00:00:00Z","name_a2s":"Uncletopia | Seattle | 2 | All Maps","protocol":17,"map":"pl_badwater","folder":"tf","game":"Team Fortress","app_id":440,"player_count":24,"max_players":24,"Bots":0,"server_type":"Dedicated","server_os":"Linux","password":true,"vac":true,"version":"7932396","steam_id":85568392924469998,"keywords":["nocrits","nodmgspread","payload","uncletopia"],"game_id":440,"stv_port":27026,"stv_name":"Uncletopia | Seattle | 2 | All Maps | STV","players":[{"user_id":741,"name":"REEEEEEEE.GOD.996","steam_id":76561198359332335,"connected_time":1026000000000,"state":"active","ping":53},{"user_id":751,"name":"❤ Ashley ❤","steam_id":76561198056428303,"connected_time":581000000000,"state":"active","ping":72},{"user_id":717,"name":"Gay Sex Connoiseur","steam_id":76561199400200597,"connected_time":2676000000000,"state":"active","ping":89},{"user_id":762,"name":"AspenIsPoplar","steam_id":76561198346382060,"connected_time":285000000000,"state":"active","ping":67},{"user_id":752,"name":"Ajayajax","steam_id":76561198389802335,"connected_time":545000000000,"state":"active","ping":51},{"user_id":768,"name":"Barack Obama","steam_id":76561199073094399,"connected_time":130000000000,"state":"active","ping":167},{"user_id":767,"name":"lightsword24","steam_id":76561198227552556,"connected_time":170000000000,"state":"active","ping":92},{"user_id":707,"name":"Mexican gun Spi","steam_id":76561199246930652,"connected_time":3106000000000,"state":"active","ping":113},{"user_id":693,"name":"Lord Duke","steam_id":76561199285079634,"connected_time":4548000000000,"state":"active","ping":89},{"user_id":758,"name":"Radger","steam_id":76561198204039747,"connected_time":459000000000,"state":"active","ping":101},{"user_id":766,"name":"Queen Elizabeth II Gaming","steam_id":76561198193312834,"connected_time":198000000000,"state":"active","ping":64},{"user_id":740,"name":"Handy Andy","steam_id":76561197981484961,"connected_time":1100000000000,"state":"active","ping":47},{"user_id":725,"name":"Evanb","steam_id":76561198042057792,"connected_time":2543000000000,"state":"active","ping":49},{"user_id":743,"name":"HotHead","steam_id":76561198138468982,"connected_time":1021000000000,"state":"active","ping":49},{"user_id":747,"name":"ImagineExisting","steam_id":76561198860261731,"connected_time":963000000000,"state":"active","ping":74},{"user_id":764,"name":"Shroomish","steam_id":76561199109440924,"connected_time":266000000000,"state":"active","ping":53},{"user_id":756,"name":"Ash Of Ruins","steam_id":76561198017744507,"connected_time":478000000000,"state":"active","ping":54},{"user_id":765,"name":"Honeybunch","steam_id":76561198014850580,"connected_time":259000000000,"state":"active","ping":36},{"user_id":757,"name":"catboy","steam_id":76561198298140571,"connected_time":469000000000,"state":"active","ping":94},{"user_id":750,"name":"CLB","steam_id":76561198057971005,"connected_time":686000000000,"state":"active","ping":40},{"user_id":769,"name":"grassyboulder","steam_id":76561199083593292,"connected_time":14000000000,"state":"active","ping":65},{"user_id":759,"name":"Nolan","steam_id":76561198169648081,"connected_time":457000000000,"state":"active","ping":113},{"user_id":749,"name":"dweamy","steam_id":76561198119181880,"connected_time":958000000000,"state":"active","ping":76},{"user_id":760,"name":"Laxoloni","steam_id":76561199197045700,"connected_time":448000000000,"state":"active","ping":100}]},{"server_id":406,"name":"Uncletopia | Seattle | 3 | Stopwatch Beta","name_short":"sea-3","host":"sea-1.us.uncletopia.com","port":27035,"enabled":true,"region":"us-west","cc":"us","latitude":47.608013,"longitude":-122.33517,"reserved":0,"last_update":"0001-01-01T00:00:00Z","name_a2s":"Uncletopia | Seattle | 3 | Stopwatch Beta","protocol":17,"map":"workshop/koth_clearcut_b15.ugc2107050255","folder":"tf","game":"Team Fortress","app_id":440,"player_count":0,"max_players":24,"Bots":0,"server_type":"Dedicated","server_os":"Linux","password":true,"vac":true,"version":"7932396","steam_id":85568392924515217,"keywords":["cp","nocrits","nodmgspread","uncletopia"],"game_id":440,"stv_port":27036,"stv_name":"Uncletopia | Seattle | 3 | Stopwatch Beta | STV","players":null},{"server_id":17,"name":"Uncletopia | San Francisco | 1 | All Maps","name_short":"sfo-1","host":"sfo-1.us.uncletopia.com","port":27015,"enabled":true,"region":"us-west","cc":"us","latitude":37.77397,"longitude":-122.4313,"reserved":0,"last_update":"0001-01-01T00:00:00Z","name_a2s":"Uncletopia | San Francisco | 1 | All Maps","protocol":17,"map":"cp_dustbowl","folder":"tf","game":"Team Fortress","app_id":440,"player_count":24,"max_players":24,"Bots":0,"server_type":"Dedicated","server_os":"Linux","password":true,"vac":true,"version":"7932396","steam_id":85568392924469999,"keywords":["cp","nocrits","nodmgspread","uncletopia"],"game_id":440,"stv_port":27016,"stv_name":"Uncletopia | San Francisco | 1 | All Maps | STV","players":[{"user_id":118,"name":"zinnk","steam_id":76561198092081825,"connected_time":460000000000,"state":"active","ping":32},{"user_id":79,"name":"selvhat","steam_id":76561198114225509,"connected_time":3723000000000,"state":"active","ping":54},{"user_id":119,"name":"StrayGuitarist","steam_id":76561198091315714,"connected_time":438000000000,"state":"active","ping":71},{"user_id":110,"name":"megaroboleg","steam_id":76561198844644993,"connected_time":1810000000000,"state":"active","ping":69},{"user_id":89,"name":"okay sized language model","steam_id":76561198071110753,"connected_time":3402000000000,"state":"active","ping":45},{"user_id":125,"name":"Cappy","steam_id":76561198412600420,"connected_time":155000000000,"state":"active","ping":59},{"user_id":105,"name":"bad civilization","steam_id":76561198043848159,"connected_time":1989000000000,"state":"active","ping":112},{"user_id":126,"name":"FaZe N word","steam_id":76561199079213911,"connected_time":70000000000,"state":"active","ping":56},{"user_id":120,"name":"Dullahan","steam_id":76561198119668908,"connected_time":399000000000,"state":"active","ping":46},{"user_id":108,"name":"ふわふわ毛布","steam_id":76561198088403016,"connected_time":1880000000000,"state":"active","ping":150},{"user_id":48,"name":"Overmeme","steam_id":76561199455124144,"connected_time":4866000000000,"state":"active","ping":73},{"user_id":116,"name":"Mothership","steam_id":76561198044029501,"connected_time":547000000000,"state":"active","ping":105},{"user_id":90,"name":"lyu","steam_id":76561198966125690,"connected_time":3401000000000,"state":"active","ping":47},{"user_id":91,"name":"BMX Tyler Marine to Fujoshi","steam_id":76561198117294436,"connected_time":3396000000000,"state":"active","ping":68},{"user_id":109,"name":"Cataphract","steam_id":76561198006995041,"connected_time":1865000000000,"state":"active","ping":72},{"user_id":121,"name":"GreenApples","steam_id":76561198120559543,"connected_time":394000000000,"state":"active","ping":45},{"user_id":122,"name":"Bacon","steam_id":76561199078407152,"connected_time":347000000000,"state":"active","ping":112},{"user_id":98,"name":"DrWilloughby","steam_id":76561198095260357,"connected_time":2876000000000,"state":"active","ping":66},{"user_id":56,"name":"Meet The Kazoo","steam_id":76561199229748300,"connected_time":4781000000000,"state":"active","ping":71},{"user_id":127,"name":"2Fort Cactus","steam_id":76561199273395913,"connected_time":8000000000,"state":"spawning","ping":65},{"user_id":115,"name":"lili","steam_id":76561199391478575,"connected_time":1072000000000,"state":"active","ping":81},{"user_id":70,"name":"green bean","steam_id":76561198113099204,"connected_time":4474000000000,"state":"active","ping":30},{"user_id":113,"name":"3ArmsNoSouls","steam_id":76561198861260640,"connected_time":1673000000000,"state":"active","ping":107}]},{"server_id":18,"name":"Uncletopia | San Francisco | 2 | All Maps","name_short":"sfo-2","host":"sfo-1.us.uncletopia.com","port":27025,"enabled":true,"region":"us-west","cc":"us","latitude":37.77397,"longitude":-122.4313,"reserved":0,"last_update":"0001-01-01T00:00:00Z","name_a2s":"Uncletopia | San Francisco | 2 | All Maps","protocol":17,"map":"pl_upward","folder":"tf","game":"Team Fortress","app_id":440,"player_count":24,"max_players":24,"Bots":0,"server_type":"Dedicated","server_os":"Linux","password":true,"vac":true,"version":"7932396","steam_id":85568392924470000,"keywords":["nocrits","nodmgspread","payload","uncletopia"],"game_id":440,"stv_port":27026,"stv_name":"Uncletopia | San Francisco | 2 | All Maps | STV","players":[{"user_id":49,"name":"a cat plushie","steam_id":76561198080046542,"connected_time":5826000000000,"state":"active","ping":61},{"user_id":50,"name":"ilun","steam_id":76561198042913843,"connected_time":5726000000000,"state":"active","ping":74},{"user_id":94,"name":"dont tripp","steam_id":76561198370431307,"connected_time":2586000000000,"state":"active","ping":45},{"user_id":58,"name":"disabled","steam_id":76561198053327972,"connected_time":5020000000000,"state":"active","ping":89},{"user_id":83,"name":"omnislime","steam_id":76561199382475668,"connected_time":3144000000000,"state":"active","ping":101},{"user_id":91,"name":"Juevos","steam_id":76561198066142119,"connected_time":2792000000000,"state":"active","ping":61},{"user_id":116,"name":"Ball Pain Enthusiast","steam_id":76561198141855402,"connected_time":892000000000,"state":"active","ping":74},{"user_id":104,"name":"augooost","steam_id":76561199267451764,"connected_time":1529000000000,"state":"active","ping":100},{"user_id":61,"name":"coal miner","steam_id":76561198251138002,"connected_time":4976000000000,"state":"active","ping":105},{"user_id":102,"name":"Irase","steam_id":76561198065354440,"connected_time":1552000000000,"state":"active","ping":53},{"user_id":95,"name":"The Super Mario Bros. Movie","steam_id":76561198871692156,"connected_time":2572000000000,"state":"active","ping":90},{"user_id":120,"name":"Harry Hotcock","steam_id":76561197999209779,"connected_time":368000000000,"state":"active","ping":84},{"user_id":82,"name":"DeckofDragons","steam_id":76561198057398213,"connected_time":3188000000000,"state":"active","ping":77},{"user_id":111,"name":"speed","steam_id":76561198074489549,"connected_time":1099000000000,"state":"active","ping":48},{"user_id":112,"name":"DORATHEEXPLORER","steam_id":76561198124773931,"connected_time":1086000000000,"state":"active","ping":65},{"user_id":117,"name":"paint (oil lover)","steam_id":76561199006886644,"connected_time":693000000000,"state":"active","ping":46},{"user_id":121,"name":"goopgrabber","steam_id":76561199029951083,"connected_time":355000000000,"state":"active","ping":45},{"user_id":119,"name":"Fajita Master","steam_id":76561198329150962,"connected_time":413000000000,"state":"active","ping":92},{"user_id":110,"name":"Sky","steam_id":76561198097549374,"connected_time":1366000000000,"state":"active","ping":84},{"user_id":113,"name":"Big Blue","steam_id":76561198084930108,"connected_time":1085000000000,"state":"active","ping":64},{"user_id":77,"name":"riSygneD","steam_id":76561198331618687,"connected_time":4123000000000,"state":"active","ping":38},{"user_id":115,"name":"stanky leg enthusiast","steam_id":76561198816746861,"connected_time":1070000000000,"state":"active","ping":45},{"user_id":99,"name":"TheRealFakeNick","steam_id":76561198097588788,"connected_time":1916000000000,"state":"active","ping":112},{"user_id":122,"name":"ㅋㅋㅋ","steam_id":76561198841016072,"connected_time":339000000000,"state":"active","ping":78}]},{"server_id":19,"name":"Uncletopia | San Francisco | 3 | Stopwatch Beta","name_short":"sfo-3","host":"sfo-1.us.uncletopia.com","port":27035,"enabled":true,"region":"us-west","cc":"us","latitude":37.77397,"longitude":-122.4313,"reserved":0,"last_update":"0001-01-01T00:00:00Z","name_a2s":"Uncletopia | San Francisco | 3 | Stopwatch Beta","protocol":17,"map":"workshop/pl_badwater_pro_v12.ugc2142942074","folder":"tf","game":"Team Fortress","app_id":440,"player_count":0,"max_players":24,"Bots":0,"server_type":"Dedicated","server_os":"Linux","password":true,"vac":true,"version":"7932396","steam_id":85568392924742824,"keywords":["nocrits","nodmgspread","payload","uncletopia"],"game_id":440,"stv_port":27036,"stv_name":"Uncletopia | San Francisco | 3 | Stopwatch Beta | STV","players":null},{"server_id":20,"name":"Uncletopia | San Francisco | 4 | Community","name_short":"sfo-4","host":"sfo-1.us.uncletopia.com","port":27045,"enabled":true,"region":"us-west","cc":"us","latitude":37.77397,"longitude":-122.4313,"reserved":0,"last_update":"0001-01-01T00:00:00Z","name_a2s":"Uncletopia | San Francisco | 4 | Community","protocol":17,"map":"workshop/pl_emerge_rc2.ugc888027758","folder":"tf","game":"Team Fortress","app_id":440,"player_count":0,"max_players":24,"Bots":0,"server_type":"Dedicated","server_os":"Linux","password":true,"vac":true,"version":"7932396","steam_id":85568392924742826,"keywords":["nocrits","nodmgspread","payload","uncletopia"],"game_id":440,"stv_port":27046,"stv_name":"Uncletopia | San Francisco | 4 | Community | STV","players":null},{"server_id":141,"name":"Uncletopia | Sydney | 1 | All Maps","name_short":"syd-1","host":"syd-1.au.uncletopia.com","port":27015,"enabled":true,"region":"au","cc":"au","latitude":-33.865143,"longitude":151.2099,"reserved":0,"last_update":"0001-01-01T00:00:00Z","name_a2s":"Uncletopia | Sydney | 1 | All Maps","protocol":17,"map":"koth_lakeside_final","folder":"tf","game":"Team Fortress","app_id":440,"player_count":0,"max_players":24,"Bots":0,"server_type":"Dedicated","server_os":"Linux","password":true,"vac":true,"version":"7932396","steam_id":85568392924470001,"keywords":["cp","nocrits","nodmgspread","uncletopia"],"game_id":440,"stv_port":27016,"stv_name":"Uncletopia | Sydney | 1 | All Maps | STV","players":null},{"server_id":123,"name":"Uncletopia | Sydney | 2 | All Maps","name_short":"syd-2","host":"syd-1.au.uncletopia.com","port":27025,"enabled":true,"region":"au","cc":"au","latitude":-33.865143,"longitude":151.2099,"reserved":0,"last_update":"0001-01-01T00:00:00Z","name_a2s":"Uncletopia | Sydney | 2 | All Maps","protocol":17,"map":"cp_snakewater_final1","folder":"tf","game":"Team Fortress","app_id":440,"player_count":0,"max_players":24,"Bots":0,"server_type":"Dedicated","server_os":"Linux","password":true,"vac":true,"version":"7932396","steam_id":85568392924470002,"keywords":["cp","nocrits","nodmgspread","uncletopia"],"game_id":440,"stv_port":27026,"stv_name":"Uncletopia | Sydney | 2 | All Maps | STV","players":null},{"server_id":395,"name":"Uncletopia | Sydney | 3 | All Maps","name_short":"syd-3","host":"syd-1.au.uncletopia.com","port":27035,"enabled":true,"region":"au","cc":"au","latitude":-33.865143,"longitude":151.2099,"reserved":0,"last_update":"0001-01-01T00:00:00Z","name_a2s":"Uncletopia | Sydney | 3 | All Maps","protocol":17,"map":"pl_frontier_final","folder":"tf","game":"Team Fortress","app_id":440,"player_count":0,"max_players":24,"Bots":0,"server_type":"Dedicated","server_os":"Linux","password":true,"vac":true,"version":"7932396","steam_id":85568392925194467,"keywords":["nocrits","nodmgspread","payload","uncletopia"],"game_id":440,"stv_port":27036,"stv_name":"Uncletopia | Sydney | 3 | All Maps | STV","players":null},{"server_id":396,"name":"Uncletopia | Sydney | 4 | All Maps","name_short":"syd-4","host":"syd-1.au.uncletopia.com","port":27045,"enabled":true,"region":"au","cc":"au","latitude":-33.865143,"longitude":151.2099,"reserved":0,"last_update":"0001-01-01T00:00:00Z","name_a2s":"Uncletopia | Sydney | 4 | All Maps","protocol":17,"map":"pl_frontier_final","folder":"tf","game":"Team Fortress","app_id":440,"player_count":0,"max_players":24,"Bots":0,"server_type":"Dedicated","server_os":"Linux","password":true,"vac":true,"version":"7932396","steam_id":85568392925397958,"keywords":["nocrits","nodmgspread","payload","uncletopia"],"game_id":440,"stv_port":27046,"stv_name":"Uncletopia | Sydney | 4 | All Maps | STV","players":null},{"server_id":58,"name":"Uncletopia | Sydney | 5 | Stopwatch Beta","name_short":"syd-5","host":"syd-1.au.uncletopia.com","port":27055,"enabled":true,"region":"au","cc":"au","latitude":-33.865143,"longitude":151.2099,"reserved":0,"last_update":"0001-01-01T00:00:00Z","name_a2s":"Uncletopia | Sydney | 5 | Stopwatch Beta","protocol":17,"map":"pl_borneo","folder":"tf","game":"Team Fortress","app_id":440,"player_count":0,"max_players":24,"Bots":0,"server_type":"Dedicated","server_os":"Linux","password":true,"vac":true,"version":"7932396","steam_id":85568392925397959,"keywords":["nocrits","nodmgspread","payload","uncletopia"],"game_id":440,"stv_port":27056,"stv_name":"Uncletopia | Sydney | 5 | Stopwatch Beta | STV","players":null},{"server_id":59,"name":"Uncletopia | Sydney | 6 | Community","name_short":"syd-6","host":"syd-1.au.uncletopia.com","port":27065,"enabled":true,"region":"au","cc":"au","latitude":-33.865143,"longitude":151.2099,"reserved":0,"last_update":"0001-01-01T00:00:00Z","name_a2s":"Uncletopia | Sydney | 6 | Community","protocol":17,"map":"workshop/pl_highwood_b13.ugc1769496557","folder":"tf","game":"Team Fortress","app_id":440,"player_count":0,"max_players":24,"Bots":0,"server_type":"Dedicated","server_os":"Linux","password":true,"vac":true,"version":"7932396","steam_id":85568392925397960,"keywords":["nocrits","nodmgspread","payload","uncletopia"],"game_id":440,"stv_port":27066,"stv_name":"Uncletopia | Sydney | 6 | Community | STV","players":null},{"server_id":49,"name":"Uncletopia | Warsaw | 1 | All Maps","name_short":"waw-1","host":"waw-1.pl.uncletopia.com","port":27015,"enabled":true,"region":"eu","cc":"pl","latitude":52.2297,"longitude":21.017532,"reserved":0,"last_update":"0001-01-01T00:00:00Z","name_a2s":"","protocol":0,"map":"","folder":"","game":"","app_id":0,"player_count":0,"max_players":0,"Bots":0,"server_type":"","server_os":"","password":false,"vac":false,"version":"","steam_id":0,"keywords":null,"game_id":0,"stv_port":0,"stv_name":"","players":null},{"server_id":50,"name":"Uncletopia | Warsaw | 2 | All Maps","name_short":"waw-2","host":"waw-1.pl.uncletopia.com","port":27025,"enabled":true,"region":"eu","cc":"pl","latitude":52.2297,"longitude":21.017532,"reserved":0,"last_update":"0001-01-01T00:00:00Z","name_a2s":"Uncletopia | Warsaw | 2 | All Maps","protocol":17,"map":"koth_lakeside_final","folder":"tf","game":"Team Fortress","app_id":440,"player_count":0,"max_players":24,"Bots":0,"server_type":"Dedicated","server_os":"Linux","password":true,"vac":true,"version":"7932396","steam_id":85568392925397851,"keywords":["cp","nocrits","nodmgspread","uncletopia"],"game_id":440,"stv_port":27026,"stv_name":"Uncletopia | Warsaw | 2 | All Maps | STV","players":null},{"server_id":51,"name":"Uncletopia | Warsaw | 3 | All Maps","name_short":"waw-3","host":"waw-1.pl.uncletopia.com","port":27035,"enabled":true,"region":"eu","cc":"pl","latitude":52.2297,"longitude":21.017532,"reserved":0,"last_update":"0001-01-01T00:00:00Z","name_a2s":"Uncletopia | Warsaw | 3 | All Maps","protocol":17,"map":"koth_cascade","folder":"tf","game":"Team Fortress","app_id":440,"player_count":0,"max_players":24,"Bots":0,"server_type":"Dedicated","server_os":"Linux","password":true,"vac":true,"version":"7932396","steam_id":85568392925397852,"keywords":["cp","nocrits","nodmgspread","uncletopia"],"game_id":440,"stv_port":27036,"stv_name":"Uncletopia | Warsaw | 3 | All Maps | STV","players":null},{"server_id":52,"name":"Uncletopia | Warsaw | 4 | All Maps","name_short":"waw-4","host":"waw-1.pl.uncletopia.com","port":27045,"enabled":true,"region":"eu","cc":"pl","latitude":52.2297,"longitude":21.017532,"reserved":0,"last_update":"0001-01-01T00:00:00Z","name_a2s":"Uncletopia | Warsaw | 4 | All Maps","protocol":17,"map":"pl_barnblitz","folder":"tf","game":"Team Fortress","app_id":440,"player_count":0,"max_players":24,"Bots":0,"server_type":"Dedicated","server_os":"Linux","password":true,"vac":true,"version":"7932396","steam_id":85568392925397853,"keywords":["nocrits","nodmgspread","payload","uncletopia"],"game_id":440,"stv_port":27046,"stv_name":"Uncletopia | Warsaw | 4 | All Maps | STV","players":null},{"server_id":53,"name":"Uncletopia | Warsaw | 5 | Stopwatch Beta","name_short":"waw-5","host":"waw-1.pl.uncletopia.com","port":27055,"enabled":true,"region":"eu","cc":"pl","latitude":52.2297,"longitude":21.017532,"reserved":0,"last_update":"0001-01-01T00:00:00Z","name_a2s":"Uncletopia | Warsaw | 5 | Stopwatch Beta","protocol":17,"map":"workshop/pl_vigil_rc9.ugc1266210012","folder":"tf","game":"Team Fortress","app_id":440,"player_count":0,"max_players":24,"Bots":0,"server_type":"Dedicated","server_os":"Linux","password":true,"vac":true,"version":"7932396","steam_id":85568392925397854,"keywords":["nocrits","nodmgspread","payload","uncletopia"],"game_id":440,"stv_port":27056,"stv_name":"Uncletopia | Warsaw | 5 | Stopwatch Beta | STV","players":null},{"server_id":54,"name":"Uncletopia | Warsaw | 6 | Community","name_short":"waw-6","host":"waw-1.pl.uncletopia.com","port":27065,"enabled":true,"region":"eu","cc":"pl","latitude":52.2297,"longitude":21.017532,"reserved":0,"last_update":"0001-01-01T00:00:00Z","name_a2s":"Uncletopia | Warsaw | 6 | Community","protocol":17,"map":"workshop/cp_fulgur_rc2a.ugc2068252300","folder":"tf","game":"Team Fortress","app_id":440,"player_count":0,"max_players":24,"Bots":0,"server_type":"Dedicated","server_os":"Linux","password":true,"vac":true,"version":"7932396","steam_id":85568392925397856,"keywords":["cp","nocrits","nodmgspread","uncletopia"],"game_id":440,"stv_port":27066,"stv_name":"Uncletopia | Warsaw | 6 | Community | STV","players":null}]}