{"status":true,"message":"","result":[{"server_id":9,"name":"Uncletopia | Atlanta | 1 | All Maps","name_short":"atl-1","host":"atl-1.us.uncletopia.com","port":27015,"enabled":true,"region":"us-east","cc":"us","latitude":33.753746,"longitude":-84.38633,"reserved":0,"last_update":"0001-01-01T00:00:00Z","name_a2s":"Uncletopia | Atlanta | 1 | All Maps","protocol":17,"map":"pl_frontier_final","folder":"tf","game":"Team Fortress","app_id":440,"player_count":24,"max_players":24,"Bots":0,"server_type":"Dedicated","server_os":"Linux","password":true,"vac":true,"version":"7961495","steam_id":85568392924469982,"keywords":["nocrits","nodmgspread","payload","uncletopia"],"game_id":440,"stv_port":27016,"stv_name":"Uncletopia | Atlanta | 1 | All Maps | STV","players":[{"user_id":73,"name":"metalfan666","steam_id":76561198386344068,"connected_time":7748000000000,"state":"active","ping":75},{"user_id":153,"name":"freyja","steam_id":76561198249206656,"connected_time":2143000000000,"state":"active","ping":89},{"user_id":58,"name":"Xavibite","steam_id":76561198209380493,"connected_time":8794000000000,"state":"active","ping":65},{"user_id":157,"name":"lurid","steam_id":76561199134999203,"connected_time":1912000000000,"state":"active","ping":60},{"user_id":162,"name":"Electroid","steam_id":76561199092263960,"connected_time":1064000000000,"state":"active","ping":53},{"user_id":164,"name":"get scrongled, idiot","steam_id":76561198115874625,"connected_time":937000000000,"state":"active","ping":61},{"user_id":152,"name":"Radium","steam_id":76561198195881339,"connected_time":2316000000000,"state":"active","ping":57},{"user_id":114,"name":"Mug","steam_id":76561199282207802,"connected_time":4343000000000,"state":"active","ping":79},{"user_id":140,"name":"Broadsword #LGM","steam_id":76561198011160411,"connected_time":3117000000000,"state":"active","ping":77},{"user_id":149,"name":"Intro Bonito","steam_id":76561198119478838,"connected_time":2656000000000,"state":"active","ping":46},{"user_id":147,"name":"Heathcliff","steam_id":76561198044288534,"connected_time":2698000000000,"state":"active","ping":78},{"user_id":151,"name":"substance","steam_id":76561198050103868,"connected_time":2432000000000,"state":"active","ping":86},{"user_id":165,"name":"b4nny_stepson","steam_id":76561198069954956,"connected_time":741000000000,"state":"active","ping":46},{"user_id":156,"name":"lynt","steam_id":76561198988333976,"connected_time":2125000000000,"state":"active","ping":45},{"user_id":158,"name":"Lily (she/her)","steam_id":76561198355495948,"connected_time":1279000000000,"state":"active","ping":59},{"user_id":142,"name":"ATL1 | on my hunting trip","steam_id":76561198315341646,"connected_time":2869000000000,"state":"active","ping":76},{"user_id":166,"name":"Hans","steam_id":76561199153433318,"connected_time":639000000000,"state":"active","ping":67},{"user_id":173,"name":"DeezNoodlez","steam_id":76561198246700372,"connected_time":28000000000,"state":"active","ping":102},{"user_id":161,"name":"Vee (very cool)","steam_id":76561198330432889,"connected_time":1266000000000,"state":"active","ping":69},{"user_id":167,"name":"marguerite","steam_id":76561198170873495,"connected_time":548000000000,"state":"active","ping":55},{"user_id":170,"name":"hey thanks my friend","steam_id":76561199195104977,"connected_time":353000000000,"state":"active","ping":71},{"user_id":82,"name":"stink","steam_id":76561198099318923,"connected_time":6463000000000,"state":"active","ping":76},{"user_id":155,"name":"feverish fragger","steam_id":76561198968337022,"connected_time":2132000000000,"state":"active","ping":59},{"user_id":135,"name":"Albino Jellyfish","steam_id":76561198208561097,"connected_time":3726000000000,"state":"active","ping":60}]},{"server_id":104,"name":"Uncletopia | Atlanta | 2 | All Maps","name_short":"atl-2","host":"atl-1.us.uncletopia.com","port":27025,"enabled":true,"region":"us-east","cc":"us","latitude":33.753746,"longitude":-84.38633,"reserved":0,"last_update":"0001-01-01T00:00:00Z","name_a2s":"Uncletopia | Atlanta | 2 | All Maps","protocol":17,"map":"pl_badwater","folder":"tf","game":"Team Fortress","app_id":440,"player_count":24,"max_players":24,"Bots":0,"server_type":"Dedicated","server_os":"Linux","password":true,"vac":true,"version":"7961495","steam_id":85568392924469983,"keywords":["nocrits","nodmgspread","payload","uncletopia"],"game_id":440,"stv_port":27026,"stv_name":"Uncletopia | Atlanta | 2 | All Maps | STV","players":[{"user_id":120,"name":"epiczlolz","steam_id":76561198208369443,"connected_time":1474000000000,"state":"active","ping":38},{"user_id":111,"name":"Vroooooooooooooooom","steam_id":76561198139913628,"connected_time":2302000000000,"state":"active","ping":67},{"user_id":101,"name":"reaper","steam_id":76561198834485747,"connected_time":2788000000000,"state":"active","ping":78},{"user_id":109,"name":"Imposter","steam_id":76561199043966809,"connected_time":2360000000000,"state":"active","ping":104},{"user_id":121,"name":"lizard wizard","steam_id":76561198882758067,"connected_time":1411000000000,"state":"active","ping":84},{"user_id":125,"name":"kelvindavid121","steam_id":76561199010489413,"connected_time":1064000000000,"state":"active","ping":99},{"user_id":124,"name":"psychiclion","steam_id":76561198201974900,"connected_time":1159000000000,"state":"active","ping":66},{"user_id":137,"name":"Derply","steam_id":76561198871211642,"connected_time":35000000000,"state":"spawning","ping":102},{"user_id":131,"name":"Mazdamundi!","steam_id":76561198044691081,"connected_time":644000000000,"state":"active","ping":40},{"user_id":110,"name":"Passionate Map Researcher","steam_id":76561199490508357,"connected_time":2335000000000,"state":"active","ping":101},{"user_id":136,"name":"Smoky Haus","steam_id":76561199040586542,"connected_time":111000000000,"state":"active","ping":91},{"user_id":122,"name":"fissu!izi","steam_id":76561198856016840,"connected_time":1398000000000,"state":"active","ping":68},{"user_id":128,"name":"Jaflampe","steam_id":76561198175827647,"connected_time":988000000000,"state":"active","ping":66},{"user_id":132,"name":"confield","steam_id":76561198004322265,"connected_time":577000000000,"state":"active","ping":48},{"user_id":135,"name":"MARIOPARTYDSFAN","steam_id":76561198872122117,"connected_time":248000000000,"state":"active","ping":77},{"user_id":134,"name":"Dr. Virus","steam_id":76561198045723452,"connected_time":386000000000,"state":"active","ping":57},{"user_id":77,"name":"mr.videogame","steam_id":76561198119558096,"connected_time":4861000000000,"state":"active","ping":60},{"user_id":133,"name":"flare","steam_id":76561198048623485,"connected_time":576000000000,"state":"active","ping":68},{"user_id":118,"name":"RCGC bro","steam_id":76561198976328384,"connected_time":1966000000000,"state":"active","ping":60},{"user_id":114,"name":"raldite","steam_id":76561198074152931,"connected_time":2187000000000,"state":"active","ping":170},{"user_id":117,"name":"Aeris","steam_id":76561198287271028,"connected_time":2058000000000,"state":"active","ping":81},{"user_id":116,"name":"Im_Dimwit","steam_id":76561198158451090,"connected_time":2083000000000,"state":"active","ping":50},{"user_id":119,"name":"PhaserLazer","steam_id":76561198407341298,"connected_time":1945000000000,"state":"active","ping":64},{"user_id":106,"name":"Taheret","steam_id":76561198356759597,"connected_time":2537000000000,"state":"active","ping":130}]},{"server_id":400,"name":"Uncletopia | Atlanta | 3 | Stopwatch","name_short":"atl-3","host":"atl-1.us.uncletopia.com","port":27035,"enabled":true,"region":"us-east","cc":"us","latitude":33.753746,"longitude":-84.38633,"reserved":0,"last_update":"0001-01-01T00:00:00Z","name_a2s":"Uncletopia | Atlanta | 3 | Stopwatch","protocol":17,"map":"cp_gullywash_final1","folder":"tf","game":"Team Fortress","app_id":440,"player_count":0,"max_players":24,"Bots":0,"server_type":"Dedicated","server_os":"Linux","password":true,"vac":true,"version":"7961495","steam_id":85568392924515187,"keywords":["cp","nocrits","nodmgspread","uncletopia"],"game_id":440,"stv_port":27036,"stv_name":"Uncletopia | Atlanta | 3 | Stopwatch | STV","players":null},{"server_id":401,"name":"Uncletopia | Atlanta | 4 | Community","name_short":"atl-4","host":"atl-1.us.uncletopia.com","port":27045,"enabled":true,"region":"us-east","cc":"us","latitude":33.753746,"longitude":-84.38633,"reserved":0,"last_update":"0001-01-01T00:00:00Z","name_a2s":"Uncletopia | Atlanta | 4 | Community","protocol":17,"map":"workshop/cp_snowbase_b21.ugc2081770490","folder":"tf","game":"Team Fortress","app_id":440,"player_count":0,"max_players":24,"Bots":0,"server_type":"Dedicated","server_os":"Linux","password":true,"vac":true,"version":"7961495","steam_id":85568392924515188,"keywords":["cp","nocrits","nodmgspread","uncletopia"],"game_id":440,"stv_port":27046,"stv_name":"Uncletopia | Atlanta | 4 | Community | STV","players":null},{"server_id":2,"name":"Uncletopia | Chicago | 1 | All Maps","name_short":"chi-1","host":"chi-1.us.uncletopia.com","port":27015,"enabled":true,"region":"us-central","cc":"us","latitude":41.881832,"longitude":-87.62318,"reserved":0,"last_update":"0001-01-01T00:00:00Z","name_a2s":"Uncletopia | Chicago | 1 | All Maps","protocol":17,"map":"cp_granary","folder":"tf","game":"Team Fortress","app_id":440,"player_count":20,"max_players":24,"Bots":0,"server_type":"Dedicated","server_os":"Linux","password":true,"vac":true,"version":"7961495","steam_id":85568392924469984,"keywords":["cp","nocrits","nodmgspread","uncletopia"],"game_id":440,"stv_port":27016,"stv_name":"Uncletopia | Chicago | 1 | All Maps | STV","players":[{"user_id":304,"name":"WorldsWorstGamer","steam_id":76561199126634917,"connected_time":507000000000,"state":"active","ping":61},{"user_id":329,"name":"Swiftmend","steam_id":76561197995595692,"connected_time":4000000000,"state":"spawning","ping":74},{"user_id":215,"name":"bro looked down in the trop","steam_id":76561198142756572,"connected_time":2898000000000,"state":"active","ping":60},{"user_id":328,"name":"ZodiacThundaga","steam_id":76561199025117814,"connected_time":69000000000,"state":"active","ping":85},{"user_id":226,"name":"Gremsheker","steam_id":76561198068025153,"connected_time":2398000000000,"state":"active","ping":68},{"user_id":309,"name":"Dr.StrangeGlove","steam_id":76561198286114229,"connected_time":391000000000,"state":"active","ping":60},{"user_id":180,"name":"jerma985.ttv","steam_id":76561198020322241,"connected_time":5785000000000,"state":"active","ping":71},{"user_id":330,"name":"The Idiot","steam_id":76561198049837377,"connected_time":2000000000,"state":"spawning","ping":55},{"user_id":184,"name":"normal rockwell","steam_id":76561197967761806,"connected_time":5612000000000,"state":"active","ping":159},{"user_id":318,"name":"gamerfan539","steam_id":76561198803527852,"connected_time":218000000000,"state":"active","ping":62},{"user_id":319,"name":"ṽ⧉ Lojack Porscheman","steam_id":76561198000173889,"connected_time":194000000000,"state":"active","ping":60},{"user_id":218,"name":"kingXVX","steam_id":76561198396302636,"connected_time":2777000000000,"state":"active","ping":118},{"user_id":157,"name":"Pixler544","steam_id":76561198240575132,"connected_time":8222000000000,"state":"active","ping":64},{"user_id":311,"name":"Пригожин","steam_id":76561198358431840,"connected_time":352000000000,"state":"active","ping":178},{"user_id":315,"name":"splashman","steam_id":76561198106267323,"connected_time":255000000000,"state":"active","ping":60},{"user_id":245,"name":"Boxpipe","steam_id":76561197964501915,"connected_time":1514000000000,"state":"active","ping":59},{"user_id":324,"name":"Shulgin_4-HO_MET","steam_id":76561198038784254,"connected_time":132000000000,"state":"active","ping":55},{"user_id":327,"name":"gothpapa","steam_id":76561198452122510,"connected_time":76000000000,"state":"active","ping":54},{"user_id":222,"name":"Fiebs","steam_id":76561198073881842,"connected_time":2668000000000,"state":"active","ping":79},{"user_id":302,"name":"Gargathor the Entity Catcher","steam_id":76561198189429665,"connected_time":538000000000,"state":"active","ping":73}]},{"server_id":106,"name":"Uncletopia | Chicago | 2 | All Maps","name_short":"chi-2","host":"chi-1.us.uncletopia.com","port":27025,"enabled":true,"region":"us-central","cc":"us","latitude":41.881832,"longitude":-87.62318,"reserved":0,"last_update":"0001-01-01T00:00:00Z","name_a2s":"Uncletopia | Chicago | 2 | All Maps","protocol":17,"map":"pl_badwater","folder":"tf","game":"Team Fortress","app_id":440,"player_count":22,"max_players":24,"Bots":0,"server_type":"Dedicated","server_os":"Linux","password":true,"vac":true,"version":"7961495","steam_id":85568392924469985,"keywords":["nocrits","nodmgspread","payload","uncletopia"],"game_id":440,"stv_port":27026,"stv_name":"Uncletopia | Chicago | 2 | All Maps | STV","players":[{"user_id":107,"name":"Crazy Cane","steam_id":76561198993941174,"connected_time":1692000000000,"state":"active","ping":51},{"user_id":69,"name":"slimeball","steam_id":76561198165332029,"connected_time":4548000000000,"state":"active","ping":43},{"user_id":131,"name":"jstn","steam_id":76561198845283665,"connected_time":76000000000,"state":"active","ping":84},{"user_id":108,"name":"Sylvain","steam_id":76561198113385271,"connected_time":1642000000000,"state":"active","ping":107},{"user_id":120,"name":"while(1)","steam_id":76561198000876529,"connected_time":933000000000,"state":"active","ping":48},{"user_id":75,"name":"Lamb Over Rice - $7","steam_id":76561198002685045,"connected_time":3859000000000,"state":"active","ping":69},{"user_id":132,"name":"biggerB","steam_id":76561199075318360,"connected_time":28000000000,"state":"active","ping":115},{"user_id":110,"name":"Overduecat","steam_id":76561198092452824,"connected_time":1491000000000,"state":"active","ping":69},{"user_id":114,"name":"Gotta Move That Gear Up","steam_id":76561197993467034,"connected_time":1032000000000,"state":"active","ping":51},{"user_id":71,"name":"ahem?","steam_id":76561198420227358,"connected_time":4421000000000,"state":"active","ping":79},{"user_id":129,"name":"Ninjoth","steam_id":76561198038611753,"connected_time":141000000000,"state":"active","ping":74},{"user_id":133,"name":"Sentry Gun","steam_id":76561199006503777,"connected_time":26000000000,"state":"connecting","ping":45},{"user_id":134,"name":"dantheman","steam_id":76561199486390813,"connected_time":12000000000,"state":"active","ping":94},{"user_id":117,"name":"GamingJuice42","steam_id":76561198110469437,"connected_time":994000000000,"state":"active","ping":55},{"user_id":91,"name":"Smashy","steam_id":76561198030704307,"connected_time":2921000000000,"state":"active","ping":77},{"user_id":130,"name":"Scarecrow","steam_id":76561198045870511,"connected_time":133000000000,"state":"active","ping":55},{"user_id":128,"name":"GUTS","steam_id":76561199400618729,"connected_time":229000000000,"state":"spawning","ping":167},{"user_id":95,"name":"Raizen","steam_id":76561199092445367,"connected_time":2597000000000,"state":"active","ping":54},{"user_id":92,"name":"You","steam_id":76561198890201364,"connected_time":2851000000000,"state":"active","ping":89},{"user_id":105,"name":"Jeremiah Finch","steam_id":76561198046899113,"connected_time":1766000000000,"state":"spawning","ping":53},{"user_id":83,"name":"Macko","steam_id":76561198452005461,"connected_time":3238000000000,"state":"active","ping":84},{"user_id":112,"name":"IanTheAwsm","steam_id":76561198093031738,"connected_time":1406000000000,"state":"spawning","ping":55}]},{"server_id":402,"name":"Uncletopia | Chicago | 3 | All Maps","name_short":"chi-3","host":"chi-1.us.uncletopia.com","port":27035,"enabled":true,"region":"us-central","cc":"us","latitude":41.881832,"longitude":-87.62318,"reserved":0,"last_update":"0001-01-01T00:00:00Z","name_a2s":"Uncletopia | Chicago | 3 | All Maps","protocol":17,"map":"pl_barnblitz","folder":"tf","game":"Team Fortress","app_id":440,"player_count":0,"max_players":24,"Bots":0,"server_type":"Dedicated","server_os":"Linux","password":true,"vac":true,"version":"7961495","steam_id":85568392924515191,"keywords":["nocrits","nodmgspread","payload","uncletopia"],"game_id":440,"stv_port":27036,"stv_name":"Uncletopia | Chicago | 3 | All Maps | STV","players":null},{"server_id":403,"name":"Uncletopia | Chicago | 4 | All Maps","name_short":"chi-4","host":"chi-1.us.uncletopia.com","port":27045,"enabled":true,"region":"us-central","cc":"us","latitude":41.881832,"longitude":-87.62318,"reserved":0,"last_update":"0001-01-01T00:00:00Z","name_a2s":"Uncletopia | Chicago | 4 | All Maps","protocol":17,"map":"cp_dustbowl","folder":"tf","game":"Team Fortress","app_id":440,"player_count":24,"max_players":24,"Bots":0,"server_type":"Dedicated","server_os":"Linux","password":true,"vac":true,"version":"7961495","steam_id":85568392924515193,"keywords":["cp","nocrits","nodmgspread","uncletopia"],"game_id":440,"stv_port":27046,"stv_name":"Uncletopia | Chicago | 4 | All Maps | STV","players":[{"user_id":138,"name":"MillerWhite","steam_id":76561198076060357,"connected_time":1165000000000,"state":"active","ping":79},{"user_id":33,"name":"Jimbo Jones","steam_id":76561198031493107,"connected_time":8942000000000,"state":"active","ping":76},{"user_id":135,"name":"We Make It Look Easy™","steam_id":76561198024442760,"connected_time":1198000000000,"state":"active","ping":60},{"user_id":95,"name":"Miner2495","steam_id":76561198445904523,"connected_time":3557000000000,"state":"active","ping":71},{"user_id":132,"name":"Havel The Rock","steam_id":76561198086844531,"connected_time":1485000000000,"state":"active","ping":74},{"user_id":139,"name":"Chadmander","steam_id":76561197974136337,"connected_time":1152000000000,"state":"active","ping":37},{"user_id":129,"name":"the juicer","steam_id":76561198307845869,"connected_time":1769000000000,"state":"active","ping":66},{"user_id":59,"name":"Clean Lines","steam_id":76561197960691518,"connected_time":7117000000000,"state":"active","ping":57},{"user_id":144,"name":"grape","steam_id":76561197993980328,"connected_time":845000000000,"state":"active","ping":126},{"user_id":125,"name":"Pinky","steam_id":76561199019483777,"connected_time":1944000000000,"state":"active","ping":78},{"user_id":140,"name":".jpg","steam_id":76561198137237377,"connected_time":1146000000000,"state":"active","ping":73},{"user_id":136,"name":"chen","steam_id":76561198064872330,"connected_time":1191000000000,"state":"active","ping":66},{"user_id":147,"name":"frenemy","steam_id":76561198011363677,"connected_time":372000000000,"state":"active","ping":55},{"user_id":127,"name":"SPYCHECK ME","steam_id":76561198980994364,"connected_time":1920000000000,"state":"active","ping":88},{"user_id":148,"name":"Zoof Zoof","steam_id":76561199190397373,"connected_time":363000000000,"state":"active","ping":129},{"user_id":137,"name":"Lv3 Kobold Shadow Sorcerer","steam_id":76561198042068995,"connected_time":1179000000000,"state":"active","ping":78},{"user_id":105,"name":"dork","steam_id":76561198086615208,"connected_time":3203000000000,"state":"active","ping":61},{"user_id":142,"name":"Forsén","steam_id":76561199131971501,"connected_time":1123000000000,"state":"active","ping":163},{"user_id":149,"name":"GuyGoom","steam_id":76561198254522178,"connected_time":339000000000,"state":"active","ping":60},{"user_id":128,"name":"D UCK","steam_id":76561198075844142,"connected_time":1907000000000,"state":"active","ping":48},{"user_id":150,"name":"the engineers biggest opp","steam_id":76561198801207748,"connected_time":167000000000,"state":"active","ping":67},{"user_id":145,"name":"ThatGamingKiwi","steam_id":76561199170522237,"connected_time":834000000000,"state":"active","ping":81},{"user_id":111,"name":"Fred Durst's #1 Fan","steam_id":76561198282395338,"connected_time":3035000000000,"state":"active","ping":83},{"user_id":134,"name":"Plinko","steam_id":76561197968530638,"connected_time":1375000000000,"state":"active","ping":60}]},{"server_id":36,"name":"Uncletopia | Chicago | 5 | All Maps","name_short":"chi-5","host":"chi-2.us.uncletopia.com","port":27015,"enabled":true,"region":"us-central","cc":"us","latitude":41.881832,"longitude":-87.62318,"reserved":0,"last_update":"0001-01-01T00:00:00Z","name_a2s":"Uncletopia | Chicago | 5 | All Maps","protocol":17,"map":"pl_upward","folder":"tf","game":"Team Fortress","app_id":440,"player_count":12,"max_players":24,"Bots":0,"server_type":"Dedicated","server_os":"Linux","password":true,"vac":true,"version":"7961495","steam_id":85568392924866362,"keywords":["nocrits","nodmgspread","payload","uncletopia"],"game_id":440,"stv_port":27016,"stv_name":"Uncletopia | Chicago | 5 | All Maps | STV","players":[{"user_id":5,"name":"Fin Silver (Ag)","steam_id":76561198083696472,"connected_time":2035000000000,"state":"active","ping":47},{"user_id":6,"name":"GiggleFace","steam_id":76561198308586932,"connected_time":2024000000000,"state":"active","ping":75},{"user_id":7,"name":"IcyFang","steam_id":76561198151028835,"connected_time":2023000000000,"state":"active","ping":46},{"user_id":20,"name":"daemon","steam_id":76561198001541433,"connected_time":176000000000,"state":"active","ping":45},{"user_id":21,"name":"Fitts1099","steam_id":76561198044986906,"connected_time":170000000000,"state":"active","ping":46},{"user_id":12,"name":"Tockbird","steam_id":76561199437964594,"connected_time":1169000000000,"state":"active","ping":109},{"user_id":11,"name":"genavi","steam_id":76561198442960243,"connected_time":1189000000000,"state":"active","ping":60},{"user_id":22,"name":"Pi Guy","steam_id":76561199071784224,"connected_time":128000000000,"state":"active","ping":67},{"user_id":16,"name":"Bon Gripper","steam_id":76561198090074621,"connected_time":464000000000,"state":"active","ping":45},{"user_id":17,"name":"FOOL","steam_id":76561198370866973,"connected_time":450000000000,"state":"active","ping":108},{"user_id":18,"name":"Fresh Lychee","steam_id":76561198045399559,"connected_time":290000000000,"state":"active","ping":49},{"user_id":24,"name":"artemisjackson2","steam_id":76561199094686268,"connected_time":42000000000,"state":"active","ping":87}]},{"server_id":37,"name":"Uncletopia | Chicago | 6 | All Maps","name_short":"chi-6","host":"chi-2.us.uncletopia.com","port":27025,"enabled":true,"region":"us-central","cc":"us","latitude":41.881832,"longitude":-87.62318,"reserved":0,"last_update":"0001-01-01T00:00:00Z","name_a2s":"Uncletopia | Chicago | 6 | All Maps","protocol":17,"map":"pl_borneo","folder":"tf","game":"Team Fortress","app_id":440,"player_count":0,"max_players":24,"Bots":0,"server_type":"Dedicated","server_os":"Linux","password":true,"vac":true,"version":"7961495","steam_id":85568392924866363,"keywords":["nocrits","nodmgspread","payload","uncletopia"],"game_id":440,"stv_port":27026,"stv_name":"Uncletopia | Chicago | 6 | All Maps | STV","players":null},{"server_id":38,"name":"Uncletopia | Chicago | 7 | Stopwatch","name_short":"chi-7","host":"chi-2.us.uncletopia.com","port":27035,"enabled":true,"region":"us-central","cc":"us","latitude":41.881832,"longitude":-87.62318,"reserved":0,"last_update":"0001-01-01T00:00:00Z","name_a2s":"Uncletopia | Chicago | 7 | Stopwatch","protocol":17,"map":"cp_granary","folder":"tf","game":"Team Fortress","app_id":440,"player_count":0,"max_players":24,"Bots":0,"server_type":"Dedicated","server_os":"Linux","password":true,"vac":true,"version":"7961495","steam_id":85568392924866364,"keywords":["cp","nocrits","nodmgspread","uncletopia"],"game_id":440,"stv_port":27036,"stv_name":"Uncletopia | Chicago | 7 | Stopwatch | STV","players":null},{"server_id":39,"name":"Uncletopia | Chicago | 8 | Community","name_short":"chi-8","host":"chi-2.us.uncletopia.com","port":27045,"enabled":true,"region":"us-central","cc":"us","latitude":41.881832,"longitude":-87.62318,"reserved":0,"last_update":"0001-01-01T00:00:00Z","name_a2s":"Uncletopia | Chicago | 8 | Community","protocol":17,"map":"workshop/cp_caldera_rc3.ugc2834196889","folder":"tf","game":"Team Fortress","app_id":440,"player_count":0,"max_players":24,"Bots":0,"server_type":"Dedicated","server_os":"Linux","password":true,"vac":true,"version":"7961495","steam_id":85568392924866365,"keywords":["cp","nocrits","nodmgspread","uncletopia"],"game_id":440,"stv_port":27046,"stv_name":"Uncletopia | Chicago | 8 | Community | STV","players":null},{"server_id":8,"name":"Uncletopia | Dallas | 1 | All Maps","name_short":"dal-1","host":"dal-1.us.uncletopia.com","port":27015,"enabled":true,"region":"us-central","cc":"us","latitude":32.779167,"longitude":-96.80889,"reserved":0,"last_update":"0001-01-01T00:00:00Z","name_a2s":"Uncletopia | Dallas | 1 | All Maps","protocol":17,"map":"pl_upward","folder":"tf","game":"Team Fortress","app_id":440,"player_count":7,"max_players":24,"Bots":0,"server_type":"Dedicated","server_os":"Linux","password":true,"vac":true,"version":"7961495","steam_id":85568392924469986,"keywords":["nocrits","nodmgspread","payload","uncletopia"],"game_id":440,"stv_port":27016,"stv_name":"Uncletopia | Dallas | 1 | All Maps | STV","players":[{"user_id":15,"name":"MrPeanutBetter","steam_id":76561199149697526,"connected_time":1347000000000,"state":"active","ping":97},{"user_id":12,"name":"Crow","steam_id":76561198837804866,"connected_time":1554000000000,"state":"active","ping":89},{"user_id":13,"name":"Kk","steam_id":76561198197211135,"connected_time":1511000000000,"state":"active","ping":57},{"user_id":17,"name":"asm_ghost","steam_id":76561199205363547,"connected_time":564000000000,"state":"active","ping":99},{"user_id":18,"name":"The Gremlin","steam_id":76561198419066993,"connected_time":559000000000,"state":"active","ping":102},{"user_id":19,"name":"Call me the sleeps","steam_id":76561198121245586,"connected_time":474000000000,"state":"active","ping":82},{"user_id":20,"name":"Echo","steam_id":76561199165491231,"connected_time":305000000000,"state":"active","ping":62}]},{"server_id":108,"name":"Uncletopia | Dallas | 2 | All Maps","name_short":"dal-2","host":"dal-1.us.uncletopia.com","port":27025,"enabled":true,"region":"us-central","cc":"us","latitude":32.779167,"longitude":-96.80889,"reserved":0,"last_update":"0001-01-01T00:00:00Z","name_a2s":"Uncletopia | Dallas | 2 | All Maps","protocol":17,"map":"pl_barnblitz","folder":"tf","game":"Team Fortress","app_id":440,"player_count":23,"max_players":24,"Bots":0,"server_type":"Dedicated","server_os":"Linux","password":true,"vac":true,"version":"7961495","steam_id":85568392924469988,"keywords":["nocrits","nodmgspread","payload","uncletopia"],"game_id":440,"stv_port":27026,"stv_name":"Uncletopia | Dallas | 2 | All Maps | STV","players":[{"user_id":56,"name":"wrongthink","steam_id":76561198830293087,"connected_time":902000000000,"state":"active","ping":64},{"user_id":52,"name":"TATARA","steam_id":76561199098759517,"connected_time":1526000000000,"state":"active","ping":120},{"user_id":14,"name":"Dreamzapp","steam_id":76561199084936632,"connected_time":3145000000000,"state":"active","ping":90},{"user_id":68,"name":"lorient","steam_id":76561198150831438,"connected_time":122000000000,"state":"active","ping":75},{"user_id":41,"name":"SmiggleGiggle","steam_id":76561198171810677,"connected_time":2022000000000,"state":"active","ping":121},{"user_id":69,"name":"leighley","steam_id":76561198135492259,"connected_time":105000000000,"state":"active","ping":61},{"user_id":22,"name":"Petrivus","steam_id":76561198202152453,"connected_time":2697000000000,"state":"active","ping":108},{"user_id":33,"name":"i poop my pants","steam_id":76561199488347875,"connected_time":2390000000000,"state":"active","ping":63},{"user_id":34,"name":"malice","steam_id":76561198208849751,"connected_time":2353000000000,"state":"active","ping":75},{"user_id":65,"name":"room temp IQ","steam_id":76561198018724712,"connected_time":223000000000,"state":"active","ping":38},{"user_id":64,"name":"MR.JOHNSONDIKCOOMINGS","steam_id":76561199127498304,"connected_time":320000000000,"state":"active","ping":86},{"user_id":66,"name":"BRONY POWER","steam_id":76561198075510786,"connected_time":184000000000,"state":"active","ping":75},{"user_id":57,"name":"Huachi-Kun","steam_id":76561198878018320,"connected_time":880000000000,"state":"active","ping":47},{"user_id":58,"name":"Genius Meme","steam_id":76561198162911254,"connected_time":748000000000,"state":"active","ping":75},{"user_id":70,"name":"iluvtoust","steam_id":76561198869269207,"connected_time":94000000000,"state":"active","ping":45},{"user_id":25,"name":"Disco zombie","steam_id":76561199194856245,"connected_time":2654000000000,"state":"active","ping":45},{"user_id":59,"name":"IronicallyMe","steam_id":76561198882111337,"connected_time":680000000000,"state":"active","ping":100},{"user_id":62,"name":"F2P","steam_id":76561199509106728,"connected_time":403000000000,"state":"active","ping":67},{"user_id":38,"name":"Tony","steam_id":76561198169799653,"connected_time":2245000000000,"state":"active","ping":60},{"user_id":40,"name":"shaq$","steam_id":76561198045246504,"connected_time":2054000000000,"state":"active","ping":83},{"user_id":47,"name":"huntertabony","steam_id":76561198241622264,"connected_time":1835000000000,"state":"active","ping":90},{"user_id":60,"name":"SafetyInstructor","steam_id":76561199195205705,"connected_time":656000000000,"state":"active","ping":57},{"user_id":67,"name":"ATL1| laxthecar","steam_id":76561199020449059,"connected_time":174000000000,"state":"active","ping":61}]},{"server_id":404,"name":"Uncletopia | Dallas | 3 | All Maps","name_short":"dal-3","host":"dal-1.us.uncletopia.com","port":27035,"enabled":true,"region":"us-central","cc":"us","latitude":32.779167,"longitude":-96.80889,"reserved":0,"last_update":"0001-01-01T00:00:00Z","name_a2s":"Uncletopia | Dallas | 3 | All Maps","protocol":17,"map":"cp_mountainlab","folder":"tf","game":"Team Fortress","app_id":440,"player_count":24,"max_players":24,"Bots":0,"server_type":"Dedicated","server_os":"Linux","password":true,"vac":true,"version":"7961495","steam_id":85568392924515219,"keywords":["cp","nocrits","nodmgspread","uncletopia"],"game_id":440,"stv_port":27036,"stv_name":"Uncletopia | Dallas | 3 | All Maps | STV","players":[{"user_id":105,"name":"BrainlezBrainiac","steam_id":76561199193942805,"connected_time":6323000000000,"state":"active","ping":59},{"user_id":168,"name":"Fortune","steam_id":76561198346118738,"connected_time":1976000000000,"state":"active","ping":54},{"user_id":185,"name":"Octo","steam_id":76561199056210895,"connected_time":266000000000,"state":"active","ping":66},{"user_id":152,"name":"N4G4S4K1 1S K4RK4L1C1OUS","steam_id":76561199031772797,"connected_time":3256000000000,"state":"active","ping":85},{"user_id":179,"name":"9/11 Airlines","steam_id":76561198096306325,"connected_time":851000000000,"state":"active","ping":86},{"user_id":128,"name":"mrthugpug1732","steam_id":76561198881200768,"connected_time":4305000000000,"state":"active","ping":76},{"user_id":176,"name":"YoyoMama","steam_id":76561198260113828,"connected_time":907000000000,"state":"active","ping":94},{"user_id":182,"name":"Skarp129","steam_id":76561198108679057,"connected_time":641000000000,"state":"active","ping":76},{"user_id":146,"name":"Van Tastic","steam_id":76561198063855523,"connected_time":3488000000000,"state":"active","ping":44},{"user_id":159,"name":"AstronautPug","steam_id":76561198162372709,"connected_time":2941000000000,"state":"active","ping":88},{"user_id":165,"name":"Blade Racer","steam_id":76561198155896703,"connected_time":2298000000000,"state":"active","ping":75},{"user_id":171,"name":"Rukks","steam_id":76561197993918954,"connected_time":1760000000000,"state":"active","ping":79},{"user_id":144,"name":"MenInHatz","steam_id":76561198825094263,"connected_time":3618000000000,"state":"active","ping":64},{"user_id":177,"name":"degeneracy","steam_id":76561198836102519,"connected_time":898000000000,"state":"active","ping":95},{"user_id":155,"name":"Da Policia","steam_id":76561198012762789,"connected_time":3096000000000,"state":"active","ping":45},{"user_id":150,"name":"Jrock","steam_id":76561198045715996,"connected_time":3289000000000,"state":"active","ping":100},{"user_id":137,"name":"Never Ovaryacting","steam_id":76561198158691254,"connected_time":3893000000000,"state":"active","ping":72},{"user_id":180,"name":"[UNFAIR] H1gh0nSt34m","steam_id":76561198839068126,"connected_time":821000000000,"state":"active","ping":53},{"user_id":184,"name":"SummerScarab","steam_id":76561198173860219,"connected_time":457000000000,"state":"active","ping":70},{"user_id":172,"name":"A Gamer [F2P]","steam_id":76561198138712892,"connected_time":1364000000000,"state":"active","ping":37},{"user_id":153,"name":"Spicy Churro","steam_id":76561197992913147,"connected_time":3219000000000,"state":"active","ping":75},{"user_id":156,"name":"heck","steam_id":76561198315694520,"connected_time":3091000000000,"state":"active","ping":76},{"user_id":183,"name":"Pannington","steam_id":76561198138707710,"connected_time":624000000000,"state":"active","ping":85},{"user_id":178,"name":"Jayne Cobb","steam_id":76561198080585050,"connected_time":876000000000,"state":"active","ping":92}]},{"server_id":405,"name":"Uncletopia | Dallas | 4 | Community","name_short":"dal-4","host":"dal-1.us.uncletopia.com","port":27045,"enabled":true,"region":"us-central","cc":"us","latitude":32.779167,"longitude":-96.80889,"reserved":0,"last_update":"0001-01-01T00:00:00Z","name_a2s":"Uncletopia | Dallas | 4 | Community","protocol":17,"map":"workshop/cp_croissant_final.ugc458840209","folder":"tf","game":"Team Fortress","app_id":440,"player_count":1,"max_players":24,"Bots":0,"server_type":"Dedicated","server_os":"Linux","password":true,"vac":true,"version":"7961495","steam_id":85568392924515220,"keywords":["cp","nocrits","nodmgspread","uncletopia"],"game_id":440,"stv_port":27046,"stv_name":"Uncletopia | Dallas | 4 | Community | STV","players":[{"user_id":3,"name":"✨ Rarity ✨","steam_id":76561199172206856,"connected_time":31000000000,"state":"active","ping":83}]},{"server_id":5,"name":"Uncletopia | Frankfurt | 1 | All Maps","name_short":"frk-1","host":"frk-1.de.uncletopia.com","port":27015,"enabled":true,"region":"eu","cc":"de","latitude":50.110924,"longitude":8.682127,"reserved":0,"last_update":"0001-01-01T00:00:00Z","name_a2s":"Uncletopia | Frankfurt | 1 | All Maps","protocol":17,"map":"pl_goldrush","folder":"tf","game":"Team Fortress","app_id":440,"player_count":24,"max_players":24,"Bots":0,"server_type":"Dedicated","server_os":"Linux","password":true,"vac":true,"version":"7961495","steam_id":85568392924469989,"keywords":["nocrits","nodmgspread","payload","uncletopia"],"game_id":440,"stv_port":27016,"stv_name":"Uncletopia | Frankfurt | 1 | All Maps | STV","players":[{"user_id":343,"name":"cl","steam_id":76561199436640904,"connected_time":1478000000000,"state":"active","ping":71},{"user_id":385,"name":"Carl","steam_id":76561198045638738,"connected_time":24000000000,"state":"spawning","ping":86},{"user_id":249,"name":"NitPig","steam_id":76561198212991935,"connected_time":5988000000000,"state":"active","ping":105},{"user_id":386,"name":"Sholunan","steam_id":76561198062435739,"connected_time":24000000000,"state":"active","ping":57},{"user_id":345,"name":"LGBT/TRANS TERMINATOR 9000","steam_id":76561198065932672,"connected_time":1473000000000,"state":"active","ping":96},{"user_id":382,"name":"Fedm","steam_id":76561199020090514,"connected_time":477000000000,"state":"active","ping":76},{"user_id":302,"name":"usuikui","steam_id":76561198093304268,"connected_time":2293000000000,"state":"active","ping":74},{"user_id":368,"name":"Marukuso","steam_id":76561198154229845,"connected_time":1173000000000,"state":"active","ping":58},{"user_id":349,"name":"Francis","steam_id":76561198987134265,"connected_time":1432000000000,"state":"active","ping":73},{"user_id":304,"name":"redditor_gaming","steam_id":76561198176507538,"connected_time":2220000000000,"state":"active","ping":77},{"user_id":305,"name":"Mind Fuzz","steam_id":76561198050079428,"connected_time":2207000000000,"state":"active","ping":101},{"user_id":384,"name":"Chappi","steam_id":76561198075512843,"connected_time":37000000000,"state":"active","ping":87},{"user_id":285,"name":"Cringelord","steam_id":76561198020989545,"connected_time":3053000000000,"state":"active","ping":82},{"user_id":359,"name":"Sham!","steam_id":76561198050434275,"connected_time":1290000000000,"state":"active","ping":57},{"user_id":347,"name":"Man","steam_id":76561197964776022,"connected_time":1459000000000,"state":"active","ping":40},{"user_id":383,"name":"Mr_Joergen","steam_id":76561198364713702,"connected_time":56000000000,"state":"active","ping":65},{"user_id":299,"name":"UndercoverFurbyHunter","steam_id":76561198265722644,"connected_time":2472000000000,"state":"active","ping":98},{"user_id":370,"name":"Egor Pomidor","steam_id":76561199175688390,"connected_time":1102000000000,"state":"active","ping":75},{"user_id":380,"name":"wiserclub6 #savetf2","steam_id":76561198312144351,"connected_time":815000000000,"state":"active","ping":91},{"user_id":290,"name":"Jeremy265","steam_id":76561199004316549,"connected_time":2726000000000,"state":"active","ping":126},{"user_id":312,"name":"[000000]SHINOBI","steam_id":76561198202707327,"connected_time":2101000000000,"state":"active","ping":68},{"user_id":381,"name":"Dankstein","steam_id":76561198122662378,"connected_time":815000000000,"state":"active","ping":72},{"user_id":287,"name":"Królicki_","steam_id":76561199109915352,"connected_time":2900000000000,"state":"active","ping":56},{"user_id":365,"name":"El_Kommadante","steam_id":76561198079551685,"connected_time":1198000000000,"state":"active","ping":70}]},{"server_id":110,"name":"Uncletopia | Frankfurt | 2 | All Maps","name_short":"frk-2","host":"frk-1.de.uncletopia.com","port":27025,"enabled":true,"region":"eu","cc":"de","latitude":50.110924,"longitude":8.682127,"reserved":0,"last_update":"0001-01-01T00:00:00Z","name_a2s":"Uncletopia | Frankfurt | 2 | All Maps","protocol":17,"map":"cp_dustbowl","folder":"tf","game":"Team Fortress","app_id":440,"player_count":24,"max_players":24,"Bots":0,"server_type":"Dedicated","server_os":"Linux","password":true,"vac":true,"version":"7961495","steam_id":85568392924469990,"keywords":["cp","nocrits","nodmgspread","uncletopia"],"game_id":440,"stv_port":27026,"stv_name":"Uncletopia | Frankfurt | 2 | All Maps | STV","players":[{"user_id":225,"name":"The Creator Of Sex","steam_id":76561198385989487,"connected_time":556000000000,"state":"active","ping":67},{"user_id":212,"name":"housing crisis#savetf2","steam_id":76561198119984382,"connected_time":2845000000000,"state":"active","ping":56},{"user_id":217,"name":"Flavia ♥","steam_id":76561198108360671,"connected_time":1492000000000,"state":"active","ping":96},{"user_id":220,"name":"Tomato","steam_id":76561199124472513,"connected_time":866000000000,"state":"active","ping":104},{"user_id":226,"name":"Hundehunde (137)","steam_id":76561198028683991,"connected_time":521000000000,"state":"active","ping":53},{"user_id":227,"name":"rockBustaz","steam_id":76561198088290698,"connected_time":518000000000,"state":"active","ping":65},{"user_id":249,"name":":::::","steam_id":76561197990757157,"connected_time":15000000000,"state":"spawning","ping":73},{"user_id":229,"name":"Charlie Brown","steam_id":76561199378865926,"connected_time":509000000000,"state":"active","ping":125},{"user_id":231,"name":"P","steam_id":76561198399390201,"connected_time":428000000000,"state":"active","ping":75},{"user_id":232,"name":"slogar","steam_id":76561198046191991,"connected_time":400000000000,"state":"active","ping":50},{"user_id":233,"name":"Bing Bop Boop","steam_id":76561198344190563,"connected_time":283000000000,"state":"active","ping":46},{"user_id":246,"name":"System","steam_id":76561199442503973,"connected_time":38000000000,"state":"active","ping":45},{"user_id":235,"name":"John Doe","steam_id":76561198369597903,"connected_time":226000000000,"state":"active","ping":81},{"user_id":238,"name":"möikkidöyk","steam_id":76561199271469277,"connected_time":171000000000,"state":"active","ping":127},{"user_id":237,"name":"WHUSSKEY","steam_id":76561198137827441,"connected_time":189000000000,"state":"active","ping":66},{"user_id":239,"name":"BuddhaBrot","steam_id":76561198181885110,"connected_time":163000000000,"state":"active","ping":58},{"user_id":240,"name":"they/them pussy enjoyer","steam_id":76561199071718151,"connected_time":161000000000,"state":"active","ping":50},{"user_id":241,"name":"ggwp","steam_id":76561199141037141,"connected_time":146000000000,"state":"active","ping":67},{"user_id":242,"name":"DelT","steam_id":76561198204007537,"connected_time":114000000000,"state":"active","ping":45},{"user_id":243,"name":"TheBestEvie","steam_id":76561199137363562,"connected_time":77000000000,"state":"active","ping":74},{"user_id":244,"name":"Ergas","steam_id":76561198860861032,"connected_time":48000000000,"state":"spawning","ping":185},{"user_id":245,"name":"swoooblez","steam_id":76561197996511478,"connected_time":45000000000,"state":"active","ping":77},{"user_id":247,"name":"Favi","steam_id":76561198013236935,"connected_time":38000000000,"state":"active","ping":71},{"user_id":248,"name":"senk999","steam_id":76561199433663164,"connected_time":32000000000,"state":"active","ping":102}]},{"server_id":308,"name":"Uncletopia | Frankfurt | 3 | All Maps","name_short":"frk-3","host":"frk-1.de.uncletopia.com","port":27035,"enabled":true,"region":"eu","cc":"de","latitude":50.110924,"longitude":8.682127,"reserved":0,"last_update":"0001-01-01T00:00:00Z","name_a2s":"Uncletopia | Frankfurt | 3 | All Maps","protocol":17,"map":"cp_vanguard","folder":"tf","game":"Team Fortress","app_id":440,"player_count":24,"max_players":24,"Bots":0,"server_type":"Dedicated","server_os":"Linux","password":true,"vac":true,"version":"7961495","steam_id":85568392924504274,"keywords":["cp","nocrits","nodmgspread","uncletopia"],"game_id":440,"stv_port":27036,"stv_name":"Uncletopia | Frankfurt | 3 | All Maps | STV","players":[{"user_id":138,"name":"NOBODY","steam_id":76561198094578887,"connected_time":1197000000000,"state":"active","ping":122},{"user_id":107,"name":"Cactus enjoyer","steam_id":76561198158608309,"connected_time":4143000000000,"state":"active","ping":62},{"user_id":66,"name":"PROFILE NAME","steam_id":76561198180056982,"connected_time":6291000000000,"state":"active","ping":71},{"user_id":140,"name":"akakez","steam_id":76561198095432821,"connected_time":1154000000000,"state":"active","ping":115},{"user_id":62,"name":"y0stErCix","steam_id":76561198219698192,"connected_time":6443000000000,"state":"active","ping":70},{"user_id":94,"name":"Anri Okita's Massive Milkers","steam_id":76561199186352720,"connected_time":5378000000000,"state":"active","ping":60},{"user_id":154,"name":"Estyle","steam_id":76561198157804700,"connected_time":83000000000,"state":"active","ping":83},{"user_id":150,"name":"M4971z42u9","steam_id":76561198094054887,"connected_time":765000000000,"state":"active","ping":60},{"user_id":151,"name":"Stolen","steam_id":76561198039251966,"connected_time":736000000000,"state":"active","ping":127},{"user_id":146,"name":"Doctor Glizzy","steam_id":76561198315474018,"connected_time":1037000000000,"state":"active","ping":75},{"user_id":147,"name":"Lorenzo Lovers","steam_id":76561198073973581,"connected_time":979000000000,"state":"active","ping":76},{"user_id":136,"name":"abra-kablam","steam_id":76561198195857751,"connected_time":1278000000000,"state":"active","ping":62},{"user_id":132,"name":"Delere","steam_id":76561198061309755,"connected_time":1818000000000,"state":"active","ping":122},{"user_id":100,"name":"\u003cCH\u003e λ T T O S Z","steam_id":76561198043438734,"connected_time":4905000000000,"state":"active","ping":51},{"user_id":155,"name":"epic party rat","steam_id":76561199100632053,"connected_time":70000000000,"state":"active","ping":64},{"user_id":135,"name":"HarMala","steam_id":76561198055298143,"connected_time":1465000000000,"state":"active","ping":89},{"user_id":153,"name":"Rolli","steam_id":76561198144699520,"connected_time":631000000000,"state":"active","ping":91},{"user_id":148,"name":"spys","steam_id":76561198101610029,"connected_time":954000000000,"state":"active","ping":67},{"user_id":152,"name":"Borlor","steam_id":76561198206059604,"connected_time":684000000000,"state":"active","ping":46},{"user_id":158,"name":"(:","steam_id":76561198260285179,"connected_time":17000000000,"state":"spawning","ping":92},{"user_id":133,"name":"Chopperson_","steam_id":76561198873728497,"connected_time":1692000000000,"state":"active","ping":111},{"user_id":126,"name":"KGiorgios_Bully","steam_id":76561198825392728,"connected_time":2509000000000,"state":"active","ping":105},{"user_id":60,"name":"Quartermistress","steam_id":76561198140199123,"connected_time":6699000000000,"state":"active","ping":56},{"user_id":144,"name":"noah","steam_id":76561198099457089,"connected_time":1109000000000,"state":"active","ping":77}]},{"server_id":309,"name":"Uncletopia | Frankfurt | 4 | All Maps","name_short":"frk-4","host":"frk-1.de.uncletopia.com","port":27045,"enabled":true,"region":"eu","cc":"de","latitude":50.110924,"longitude":8.682127,"reserved":0,"last_update":"0001-01-01T00:00:00Z","name_a2s":"Uncletopia | Frankfurt | 4 | All Maps","protocol":17,"map":"pl_badwater","folder":"tf","game":"Team Fortress","app_id":440,"player_count":24,"max_players":24,"Bots":0,"server_type":"Dedicated","server_os":"Linux","password":true,"vac":true,"version":"7961495","steam_id":85568392924504275,"keywords":["nocrits","nodmgspread","payload","uncletopia"],"game_id":440,"stv_port":27046,"stv_name":"Uncletopia | Frankfurt | 4 | All Maps | STV","players":[{"user_id":225,"name":"soupalognionycrouton","steam_id":76561199021878433,"connected_time":1208000000000,"state":"active","ping":69},{"user_id":206,"name":"galaxy","steam_id":76561198164819022,"connected_time":3194000000000,"state":"active","ping":48},{"user_id":245,"name":"Civilian","steam_id":76561198048513736,"connected_time":282000000000,"state":"active","ping":66},{"user_id":219,"name":"vurtun","steam_id":76561198857395274,"connected_time":1339000000000,"state":"active","ping":44},{"user_id":208,"name":"alice","steam_id":76561198269200388,"connected_time":2954000000000,"state":"active","ping":75},{"user_id":239,"name":"Grønkjær","steam_id":76561198041075280,"connected_time":954000000000,"state":"active","ping":60},{"user_id":214,"name":"Mateusz Ƿαρŕστηιҝ","steam_id":76561198420162435,"connected_time":2150000000000,"state":"active","ping":86},{"user_id":210,"name":"DeterminedXD[HUN]","steam_id":76561199469006453,"connected_time":2835000000000,"state":"active","ping":99},{"user_id":247,"name":"Fallen_Scholar","steam_id":76561198055468709,"connected_time":218000000000,"state":"active","ping":68},{"user_id":237,"name":"Accident","steam_id":76561198115160396,"connected_time":1062000000000,"state":"active","ping":66},{"user_id":248,"name":"XPullaHiiri","steam_id":76561198031652375,"connected_time":214000000000,"state":"active","ping":89},{"user_id":246,"name":"Snd","steam_id":76561198010816408,"connected_time":278000000000,"state":"active","ping":108},{"user_id":223,"name":"Schogard","steam_id":76561198847318421,"connected_time":1229000000000,"state":"active","ping":112},{"user_id":236,"name":"PlasticVoid","steam_id":76561197997870306,"connected_time":1090000000000,"state":"active","ping":47},{"user_id":226,"name":"Trm","steam_id":76561198214951663,"connected_time":1207000000000,"state":"active","ping":82},{"user_id":227,"name":"That one guy","steam_id":76561198201411634,"connected_time":1207000000000,"state":"active","ping":80},{"user_id":249,"name":"riaron","steam_id":76561198187637390,"connected_time":190000000000,"state":"active","ping":69},{"user_id":244,"name":"gionnibravo12","steam_id":76561199500492557,"connected_time":742000000000,"state":"active","ping":77},{"user_id":230,"name":"⨂","steam_id":76561198087800030,"connected_time":1189000000000,"state":"active","ping":48},{"user_id":231,"name":"New Dua Lipa Song Out Now","steam_id":76561198248567360,"connected_time":1185000000000,"state":"active","ping":56},{"user_id":233,"name":"Dr. Josef","steam_id":76561198171353373,"connected_time":1157000000000,"state":"active","ping":112},{"user_id":242,"name":"EricToGo","steam_id":76561198068019642,"connected_time":757000000000,"state":"active","ping":59},{"user_id":235,"name":"hoe","steam_id":76561198078902326,"connected_time":1101000000000,"state":"active","ping":59},{"user_id":243,"name":"SoaCrow","steam_id":76561198069420717,"connected_time":756000000000,"state":"active","ping":63}]},{"server_id":310,"name":"Uncletopia | Frankfurt | 5 | All Maps","name_short":"frk-5","host":"frk-1.de.uncletopia.com","port":27055,"enabled":true,"region":"eu","cc":"de","latitude":50.110924,"longitude":8.682127,"reserved":0,"last_update":"0001-01-01T00:00:00Z","name_a2s":"Uncletopia | Frankfurt | 5 | All Maps","protocol":17,"map":"koth_viaduct","folder":"tf","game":"Team Fortress","app_id":440,"player_count":23,"max_players":24,"Bots":0,"server_type":"Dedicated","server_os":"Linux","password":true,"vac":true,"version":"7961495","steam_id":85568392924504277,"keywords":["cp","nocrits","nodmgspread","uncletopia"],"game_id":440,"stv_port":27056,"stv_name":"Uncletopia | Frankfurt | 5 | All Maps | STV","players":[{"user_id":365,"name":"rajAs","steam_id":76561198035928111,"connected_time":634000000000,"state":"active","ping":70},{"user_id":360,"name":"xaniel","steam_id":76561198136603281,"connected_time":834000000000,"state":"active","ping":57},{"user_id":387,"name":"Exe_Red","steam_id":76561198154952759,"connected_time":69000000000,"state":"active","ping":83},{"user_id":330,"name":"DevFish","steam_id":76561199010456751,"connected_time":1908000000000,"state":"active","ping":57},{"user_id":349,"name":"Dan","steam_id":76561198438672658,"connected_time":1293000000000,"state":"active","ping":76},{"user_id":331,"name":"Dr. Sus","steam_id":76561198344435644,"connected_time":1902000000000,"state":"active","ping":60},{"user_id":383,"name":"Kvicha Kvaratskhelia","steam_id":76561198179339326,"connected_time":162000000000,"state":"active","ping":77},{"user_id":354,"name":"Octopixel","steam_id":76561198346310753,"connected_time":1204000000000,"state":"active","ping":68},{"user_id":322,"name":"SissifiedBlackGuy","steam_id":76561199509261527,"connected_time":2131000000000,"state":"active","ping":102},{"user_id":376,"name":"Friendly Neighborhood Engineer","steam_id":76561199074181200,"connected_time":299000000000,"state":"active","ping":52},{"user_id":334,"name":"BurningJoke","steam_id":76561199014358707,"connected_time":1784000000000,"state":"active","ping":50},{"user_id":379,"name":"ducks","steam_id":76561198166148685,"connected_time":237000000000,"state":"active","ping":47},{"user_id":384,"name":"flick","steam_id":76561198083505031,"connected_time":158000000000,"state":"active","ping":59},{"user_id":324,"name":"sammy","steam_id":76561199500132317,"connected_time":2122000000000,"state":"active","ping":181},{"user_id":327,"name":"hamster bigger than human","steam_id":76561199297010083,"connected_time":2040000000000,"state":"active","ping":84},{"user_id":368,"name":"Oasis","steam_id":76561198207659821,"connected_time":596000000000,"state":"active","ping":68},{"user_id":289,"name":"citronous","steam_id":76561198093290934,"connected_time":4207000000000,"state":"active","ping":51},{"user_id":347,"name":"re-uncrippled man","steam_id":76561198153476652,"connected_time":1313000000000,"state":"active","ping":78},{"user_id":381,"name":"Pencho","steam_id":76561198173717067,"connected_time":224000000000,"state":"active","ping":60},{"user_id":369,"name":"Shawty","steam_id":76561198256704286,"connected_time":594000000000,"state":"active","ping":62},{"user_id":343,"name":"Blu3jay","steam_id":76561198159483768,"connected_time":1477000000000,"state":"active","ping":166},{"user_id":380,"name":"insanitY","steam_id":76561198055666742,"connected_time":232000000000,"state":"active","ping":102},{"user_id":385,"name":"Tanuki San","steam_id":76561198432638733,"connected_time":144000000000,"state":"active","ping":83}]},{"server_id":311,"name":"Uncletopia | Frankfurt | 6 | All Maps","name_short":"frk-6","host":"frk-1.de.uncletopia.com","port":27065,"enabled":true,"region":"eu","cc":"de","latitude":50.110924,"longitude":8.682127,"reserved":0,"last_update":"0001-01-01T00:00:00Z","name_a2s":"Uncletopia | Frankfurt | 6 | All Maps","protocol":17,"map":"koth_viaduct","folder":"tf","game":"Team Fortress","app_id":440,"player_count":0,"max_players":24,"Bots":0,"server_type":"Dedicated","server_os":"Linux","password":true,"vac":true,"version":"7961495","steam_id":85568392924504278,"keywords":["cp","nocrits","nodmgspread","uncletopia"],"game_id":440,"stv_port":27066,"stv_name":"Uncletopia | Frankfurt | 6 | All Maps | STV","players":null},{"server_id":23,"name":"Uncletopia | Frankfurt | 7 | Stopwatch","name_short":"frk-7","host":"frk-1.de.uncletopia.com","port":27075,"enabled":true,"region":"eu","cc":"de","latitude":50.110924,"longitude":8.682127,"reserved":0,"last_update":"0001-01-01T00:00:00Z","name_a2s":"Uncletopia | Frankfurt | 7 | Stopwatch","protocol":17,"map":"cp_metalworks","folder":"tf","game":"Team Fortress","app_id":440,"player_count":0,"max_players":24,"Bots":0,"server_type":"Dedicated","server_os":"Linux","password":true,"vac":true,"version":"7961495","steam_id":85568392924742827,"keywords":["cp","nocrits","nodmgspread","uncletopia"],"game_id":440,"stv_port":27076,"stv_name":"Uncletopia | Frankfurt | 7 | Stopwatch | STV","players":null},{"server_id":24,"name":"Uncletopia | Frankfurt | 8 | Community","name_short":"frk-8","host":"frk-1.de.uncletopia.com","port":27085,"enabled":true,"region":"eu","cc":"de","latitude":50.110924,"longitude":8.682127,"reserved":0,"last_update":"0001-01-01T00:00:00Z","name_a2s":"Uncletopia | Frankfurt | 8 | Community","protocol":17,"map":"workshop/pl_divulgence_b4b.ugc2884808746","folder":"tf","game":"Team Fortress","app_id":440,"player_count":1,"max_players":24,"Bots":0,"server_type":"Dedicated","server_os":"Linux","password":true,"vac":true,"version":"7961495","steam_id":85568392924742828,"keywords":["nocrits","nodmgspread","payload","uncletopia"],"game_id":440,"stv_port":27086,"stv_name":"Uncletopia | Frankfurt | 8 | Community | STV","players":[{"user_id":24,"name":"The Banana Council","steam_id":76561199015744592,"connected_time":265000000000,"state":"active","ping":52}]},{"server_id":202,"name":"Uncletopia | Hong Kong | 1 | All Maps","name_short":"hgk-1","host":"hgk-1.hk.uncletopia.com","port":27015,"enabled":true,"region":"asia","cc":"hk","latitude":22.302711,"longitude":114.177216,"reserved":0,"last_update":"0001-01-01T00:00:00Z","name_a2s":"Uncletopia | Hong Kong | 1 | All Maps","protocol":17,"map":"koth_cascade","folder":"tf","game":"Team Fortress","app_id":440,"player_count":0,"max_players":24,"Bots":0,"server_type":"Dedicated","server_os":"Linux","password":true,"vac":true,"version":"7961495","steam_id":85568392924494504,"keywords":["cp","nocrits","nodmgspread","uncletopia"],"game_id":440,"stv_port":27016,"stv_name":"Uncletopia | Hong Kong | 1 | All Maps | STV","players":null},{"server_id":1,"name":"Uncletopia | Los Angeles | 1 | All Maps","name_short":"lax-1","host":"lax-1.us.uncletopia.com","port":27015,"enabled":true,"region":"us-west","cc":"us","latitude":33.94279,"longitude":-118.41004,"reserved":0,"last_update":"0001-01-01T00:00:00Z","name_a2s":"Uncletopia | Los Angeles | 1 | All Maps","protocol":17,"map":"koth_lakeside_final","folder":"tf","game":"Team Fortress","app_id":440,"player_count":0,"max_players":24,"Bots":0,"server_type":"Dedicated","server_os":"Linux","password":true,"vac":true,"version":"7961495","steam_id":85568392924469991,"keywords":["cp","nocrits","nodmgspread","uncletopia"],"game_id":440,"stv_port":27016,"stv_name":"Uncletopia | Los Angeles | 1 | All Maps | STV","players":null},{"server_id":112,"name":"Uncletopia | Los Angeles | 2 | All Maps","name_short":"lax-2","host":"lax-1.us.uncletopia.com","port":27025,"enabled":true,"region":"us-west","cc":"us","latitude":33.94279,"longitude":-118.41004,"reserved":0,"last_update":"0001-01-01T00:00:00Z","name_a2s":"Uncletopia | Los Angeles | 2 | All Maps","protocol":17,"map":"koth_lazarus","folder":"tf","game":"Team Fortress","app_id":440,"player_count":0,"max_players":24,"Bots":0,"server_type":"Dedicated","server_os":"Linux","password":true,"vac":true,"version":"7961495","steam_id":85568392924469992,"keywords":["cp","nocrits","nodmgspread","uncletopia"],"game_id":440,"stv_port":27026,"stv_name":"Uncletopia | Los Angeles | 2 | All Maps | STV","players":null},{"server_id":324,"name":"Uncletopia | Los Angeles | 3 | All Maps","name_short":"lax-3","host":"lax-1.us.uncletopia.com","port":27035,"enabled":true,"region":"us-west","cc":"us","latitude":33.94279,"longitude":-118.41004,"reserved":0,"last_update":"0001-01-01T00:00:00Z","name_a2s":"Uncletopia | Los Angeles | 3 | All Maps","protocol":17,"map":"pl_frontier_final","folder":"tf","game":"Team Fortress","app_id":440,"player_count":0,"max_players":24,"Bots":0,"server_type":"Dedicated","server_os":"Linux","password":true,"vac":true,"version":"7961495","steam_id":85568392924510198,"keywords":["nocrits","nodmgspread","payload","uncletopia"],"game_id":440,"stv_port":27036,"stv_name":"Uncletopia | Los Angeles | 3 | All Maps | STV","players":null},{"server_id":25,"name":"Uncletopia | Los Angeles | 4 | Stopwatch","name_short":"lax-4","host":"lax-1.us.uncletopia.com","port":27045,"enabled":true,"region":"us-west","cc":"us","latitude":33.94279,"longitude":-118.41004,"reserved":0,"last_update":"0001-01-01T00:00:00Z","name_a2s":"Uncletopia | Los Angeles | 4 | Stopwatch","protocol":17,"map":"workshop/koth_bagel_rc6.ugc2514036946","folder":"tf","game":"Team Fortress","app_id":440,"player_count":0,"max_players":24,"Bots":0,"server_type":"Dedicated","server_os":"Linux","password":true,"vac":true,"version":"7961495","steam_id":85568392924510199,"keywords":["cp","nocrits","nodmgspread","uncletopia"],"game_id":440,"stv_port":27046,"stv_name":"Uncletopia | Los Angeles | 4 | Stopwatch | STV","players":null},{"server_id":11,"name":"Uncletopia | London | 1 | All Maps","name_short":"lon-1","host":"lon-1.uk.uncletopia.com","port":27015,"enabled":true,"region":"eu","cc":"gb","latitude":51.509865,"longitude":-0.118092,"reserved":0,"last_update":"0001-01-01T00:00:00Z","name_a2s":"Uncletopia | London | 1 | All Maps","protocol":17,"map":"cp_steel","folder":"tf","game":"Team Fortress","app_id":440,"player_count":24,"max_players":24,"Bots":0,"server_type":"Dedicated","server_os":"Linux","password":true,"vac":true,"version":"7961495","steam_id":85568392924367362,"keywords":["cp","nocrits","nodmgspread","uncletopia"],"game_id":440,"stv_port":27016,"stv_name":"Uncletopia | London | 1 | All Maps | STV","players":[{"user_id":289,"name":"Optimist 50","steam_id":76561198039631442,"connected_time":5791000000000,"state":"active","ping":82},{"user_id":253,"name":"Pride moth","steam_id":76561198799133372,"connected_time":7478000000000,"state":"active","ping":99},{"user_id":350,"name":"6bIK_0CeMEHuTEJIb","steam_id":76561198992528373,"connected_time":221000000000,"state":"active","ping":78},{"user_id":316,"name":"AnimeGirl(real)","steam_id":76561199062433944,"connected_time":4473000000000,"state":"active","ping":135},{"user_id":344,"name":"post-nuke jerma","steam_id":76561198094268619,"connected_time":748000000000,"state":"active","ping":75},{"user_id":331,"name":"YuraGreek","steam_id":76561198050182252,"connected_time":2222000000000,"state":"active","ping":89},{"user_id":337,"name":"nudjura","steam_id":76561198281986139,"connected_time":1155000000000,"state":"active","ping":45},{"user_id":328,"name":"cuban pete","steam_id":76561198043601838,"connected_time":3078000000000,"state":"active","ping":60},{"user_id":326,"name":"Slifer","steam_id":76561198062255803,"connected_time":3310000000000,"state":"active","ping":88},{"user_id":356,"name":"whimsy.","steam_id":76561198878171763,"connected_time":16000000000,"state":"active","ping":58},{"user_id":339,"name":"Doktor Glas","steam_id":76561198075963840,"connected_time":768000000000,"state":"active","ping":74},{"user_id":338,"name":"callthecounselortonight","steam_id":76561198236015392,"connected_time":1104000000000,"state":"active","ping":118},{"user_id":335,"name":"waahh im baby gugu gaga im cry","steam_id":76561198190583242,"connected_time":1684000000000,"state":"active","ping":87},{"user_id":340,"name":"MarioThePlumber","steam_id":76561198314229530,"connected_time":765000000000,"state":"active","ping":81},{"user_id":327,"name":"Son Goku","steam_id":76561199383437138,"connected_time":3310000000000,"state":"active","ping":123},{"user_id":341,"name":"katten","steam_id":76561198163615254,"connected_time":762000000000,"state":"active","ping":62},{"user_id":355,"name":"ein","steam_id":76561198152162834,"connected_time":35000000000,"state":"active","ping":107},{"user_id":343,"name":"TheFlames","steam_id":76561198179314694,"connected_time":759000000000,"state":"active","ping":60},{"user_id":315,"name":"LivEssense","steam_id":76561198052476979,"connected_time":4543000000000,"state":"active","ping":90},{"user_id":342,"name":"Laru","steam_id":76561197998838438,"connected_time":762000000000,"state":"active","ping":87},{"user_id":218,"name":"The Subway Scientist","steam_id":76561198193757646,"connected_time":9526000000000,"state":"active","ping":46},{"user_id":345,"name":"⸸aura⸸","steam_id":76561198066258544,"connected_time":737000000000,"state":"active","ping":61},{"user_id":346,"name":"Minimi","steam_id":76561198873850443,"connected_time":730000000000,"state":"active","ping":52},{"user_id":302,"name":"Lux","steam_id":76561198060417740,"connected_time":4940000000000,"state":"active","ping":45}]},{"server_id":114,"name":"Uncletopia | London | 2 | All Maps","name_short":"lon-2","host":"lon-1.uk.uncletopia.com","port":27025,"enabled":true,"region":"eu","cc":"gb","latitude":51.509865,"longitude":-0.118092,"reserved":0,"last_update":"0001-01-01T00:00:00Z","name_a2s":"Uncletopia | London | 2 | All Maps","protocol":17,"map":"pl_snowycoast","folder":"tf","game":"Team Fortress","app_id":440,"player_count":0,"max_players":24,"Bots":0,"server_type":"Dedicated","server_os":"Linux","password":true,"vac":true,"version":"7961495","steam_id":85568392924470941,"keywords":["nocrits","nodmgspread","payload","uncletopia"],"game_id":440,"stv_port":27026,"stv_name":"Uncletopia | London | 2 | All Maps | STV","players":null},{"server_id":320,"name":"Uncletopia | London | 3 | All Maps","name_short":"lon-3","host":"lon-1.uk.uncletopia.com","port":27035,"enabled":true,"region":"eu","cc":"gb","latitude":51.509865,"longitude":-0.118092,"reserved":0,"last_update":"0001-01-01T00:00:00Z","name_a2s":"Uncletopia | London | 3 | All Maps","protocol":17,"map":"pl_thundermountain","folder":"tf","game":"Team Fortress","app_id":440,"player_count":23,"max_players":24,"Bots":0,"server_type":"Dedicated","server_os":"Linux","password":true,"vac":true,"version":"7961495","steam_id":85568392924510192,"keywords":["nocrits","nodmgspread","payload","uncletopia"],"game_id":440,"stv_port":27036,"stv_name":"Uncletopia | London | 3 | All Maps | STV","players":[{"user_id":357,"name":"stonebum","steam_id":76561198057004606,"connected_time":308000000000,"state":"active","ping":53},{"user_id":356,"name":"STAY HARD","steam_id":76561198057473786,"connected_time":335000000000,"state":"active","ping":52},{"user_id":358,"name":"IHaveConsumed50KmofMeth","steam_id":76561199221172552,"connected_time":283000000000,"state":"active","ping":58},{"user_id":333,"name":"Assassin+","steam_id":76561197994310420,"connected_time":1983000000000,"state":"active","ping":73},{"user_id":363,"name":"Mantra","steam_id":76561198058505094,"connected_time":120000000000,"state":"active","ping":94},{"user_id":360,"name":"Menny","steam_id":76561197992054834,"connected_time":274000000000,"state":"active","ping":66},{"user_id":364,"name":"Deputy Dog","steam_id":76561197960441667,"connected_time":92000000000,"state":"active","ping":150},{"user_id":344,"name":"SausageRoll","steam_id":76561197994072622,"connected_time":1178000000000,"state":"active","ping":54},{"user_id":346,"name":"The Spookster","steam_id":76561198122072252,"connected_time":1074000000000,"state":"active","ping":56},{"user_id":336,"name":"Son Heung-Min","steam_id":76561198314364201,"connected_time":1748000000000,"state":"active","ping":69},{"user_id":335,"name":"marvi444","steam_id":76561198431534139,"connected_time":1863000000000,"state":"active","ping":60},{"user_id":259,"name":"Swayer","steam_id":76561198056192460,"connected_time":7363000000000,"state":"active","ping":61},{"user_id":355,"name":"tripl","steam_id":76561198119449463,"connected_time":468000000000,"state":"active","ping":60},{"user_id":343,"name":"swagmeester","steam_id":76561198045828392,"connected_time":1208000000000,"state":"active","ping":65},{"user_id":306,"name":"ruschca","steam_id":76561198041966522,"connected_time":3282000000000,"state":"active","ping":41},{"user_id":361,"name":"Cobalt","steam_id":76561198349228196,"connected_time":266000000000,"state":"active","ping":41},{"user_id":307,"name":"BakedGecko","steam_id":76561198011015750,"connected_time":3282000000000,"state":"active","ping":46},{"user_id":362,"name":"Lyell","steam_id":76561198350329389,"connected_time":244000000000,"state":"active","ping":82},{"user_id":351,"name":"Miku.Hatsune.2007","steam_id":76561198199687607,"connected_time":784000000000,"state":"active","ping":65},{"user_id":348,"name":"Yelowchy","steam_id":76561198199416121,"connected_time":1044000000000,"state":"active","ping":74},{"user_id":339,"name":"Crispy","steam_id":76561198027957907,"connected_time":1718000000000,"state":"active","ping":69},{"user_id":322,"name":"𐂃","steam_id":76561198874987906,"connected_time":2709000000000,"state":"active","ping":74},{"user_id":340,"name":"romov","steam_id":76561199182288871,"connected_time":1676000000000,"state":"active","ping":114}]},{"server_id":321,"name":"Uncletopia | London | 4 | All Maps","name_short":"lon-4","host":"lon-1.uk.uncletopia.com","port":27045,"enabled":true,"region":"eu","cc":"gb","latitude":51.509865,"longitude":-0.118092,"reserved":0,"last_update":"0001-01-01T00:00:00Z","name_a2s":"Uncletopia | London | 4 | All Maps","protocol":17,"map":"pl_barnblitz","folder":"tf","game":"Team Fortress","app_id":440,"player_count":23,"max_players":24,"Bots":0,"server_type":"Dedicated","server_os":"Linux","password":true,"vac":true,"version":"7961495","steam_id":85568392924510193,"keywords":["nocrits","nodmgspread","payload","uncletopia"],"game_id":440,"stv_port":27046,"stv_name":"Uncletopia | London | 4 | All Maps | STV","players":[{"user_id":340,"name":"kaelan","steam_id":76561198001425310,"connected_time":2026000000000,"state":"active","ping":75},{"user_id":326,"name":"ShadowRaze","steam_id":76561198322672808,"connected_time":3146000000000,"state":"active","ping":94},{"user_id":375,"name":"Largo","steam_id":76561198844368927,"connected_time":389000000000,"state":"active","ping":66},{"user_id":344,"name":"biohazard.pt","steam_id":76561198088367808,"connected_time":1853000000000,"state":"active","ping":68},{"user_id":378,"name":"Noodle","steam_id":76561198306486695,"connected_time":215000000000,"state":"active","ping":68},{"user_id":360,"name":"Bonca","steam_id":76561198137503531,"connected_time":1108000000000,"state":"active","ping":67},{"user_id":349,"name":"nafaszom","steam_id":76561198091175167,"connected_time":1733000000000,"state":"active","ping":87},{"user_id":372,"name":"finn","steam_id":76561198366652456,"connected_time":462000000000,"state":"active","ping":90},{"user_id":343,"name":"Femto","steam_id":76561198044307112,"connected_time":1926000000000,"state":"active","ping":70},{"user_id":377,"name":"lulu","steam_id":76561199147764133,"connected_time":348000000000,"state":"active","ping":74},{"user_id":370,"name":"Hej sokoły!","steam_id":76561198406300604,"connected_time":515000000000,"state":"active","ping":96},{"user_id":351,"name":"schneppke","steam_id":76561198150311390,"connected_time":1666000000000,"state":"active","ping":46},{"user_id":366,"name":"Clown","steam_id":76561198872604635,"connected_time":742000000000,"state":"active","ping":51},{"user_id":368,"name":"Dont Rely on me, im very bad","steam_id":76561198362116755,"connected_time":705000000000,"state":"active","ping":179},{"user_id":380,"name":"Jonkheervanflep","steam_id":76561198006853101,"connected_time":166000000000,"state":"active","ping":66},{"user_id":379,"name":"CrangSign","steam_id":76561198370580355,"connected_time":175000000000,"state":"active","ping":54},{"user_id":265,"name":"Penis Contortionist","steam_id":76561198073663784,"connected_time":6986000000000,"state":"active","ping":42},{"user_id":352,"name":"6mwtd","steam_id":76561198038583386,"connected_time":1639000000000,"state":"active","ping":54},{"user_id":361,"name":"Gorgeous George","steam_id":76561198144256544,"connected_time":966000000000,"state":"active","ping":49},{"user_id":353,"name":"Michael","steam_id":76561198003146906,"connected_time":1584000000000,"state":"active","ping":45},{"user_id":374,"name":"not a nihilist","steam_id":76561198004340466,"connected_time":424000000000,"state":"active","ping":47},{"user_id":359,"name":"Dolcelatte","steam_id":76561198038501770,"connected_time":1152000000000,"state":"active","ping":60},{"user_id":376,"name":"the lorax","steam_id":76561199180176442,"connected_time":351000000000,"state":"active","ping":74}]},{"server_id":21,"name":"Uncletopia | London | 5 | All Maps","name_short":"lon-5","host":"lon-1.uk.uncletopia.com","port":27055,"enabled":true,"region":"eu","cc":"gb","latitude":51.509865,"longitude":-0.118092,"reserved":0,"last_update":"0001-01-01T00:00:00Z","name_a2s":"Uncletopia | London | 5 | All Maps","protocol":17,"map":"pl_badwater","folder":"tf","game":"Team Fortress","app_id":440,"player_count":24,"max_players":24,"Bots":0,"server_type":"Dedicated","server_os":"Linux","password":true,"vac":true,"version":"7961495","steam_id":85568392924742829,"keywords":["nocrits","nodmgspread","payload","uncletopia"],"game_id":440,"stv_port":27056,"stv_name":"Uncletopia | London | 5 | All Maps | STV","players":[{"user_id":114,"name":"baver","steam_id":76561198135293142,"connected_time":2013000000000,"state":"active","ping":65},{"user_id":135,"name":"Cencut","steam_id":76561198989449047,"connected_time":756000000000,"state":"active","ping":130},{"user_id":132,"name":"ⓅⓁⓈ | Pink Panther","steam_id":76561198046434381,"connected_time":1089000000000,"state":"active","ping":45},{"user_id":104,"name":"cof","steam_id":76561199128417805,"connected_time":2293000000000,"state":"active","ping":70},{"user_id":126,"name":"Grimprr","steam_id":76561198275816797,"connected_time":1495000000000,"state":"active","ping":139},{"user_id":81,"name":"wavelength","steam_id":76561198154677956,"connected_time":3601000000000,"state":"active","ping":73},{"user_id":88,"name":"Grillem Dafoe","steam_id":76561198306874574,"connected_time":3231000000000,"state":"active","ping":64},{"user_id":110,"name":"Keroz1n","steam_id":76561197998681491,"connected_time":2143000000000,"state":"active","ping":84},{"user_id":105,"name":"luckyastroman","steam_id":76561199027500574,"connected_time":2273000000000,"state":"active","ping":81},{"user_id":133,"name":"Nerdy","steam_id":76561198113844379,"connected_time":954000000000,"state":"active","ping":110},{"user_id":92,"name":"Ullr","steam_id":76561198140547483,"connected_time":3137000000000,"state":"active","ping":42},{"user_id":137,"name":"gitlitwitit","steam_id":76561197980019054,"connected_time":262000000000,"state":"active","ping":60},{"user_id":118,"name":"Lorents","steam_id":76561198796919618,"connected_time":1862000000000,"state":"active","ping":66},{"user_id":129,"name":"gamerkiddo","steam_id":76561198047380360,"connected_time":1375000000000,"state":"active","ping":60},{"user_id":100,"name":"The Dingler","steam_id":76561198103010294,"connected_time":2730000000000,"state":"active","ping":50},{"user_id":138,"name":"Supercoxylac","steam_id":76561198376300138,"connected_time":111000000000,"state":"active","ping":68},{"user_id":108,"name":"Xx_Dr. Benjamin Stoner_xX","steam_id":76561198796374683,"connected_time":2227000000000,"state":"active","ping":99},{"user_id":121,"name":"CMDR Pandora!","steam_id":76561198077335389,"connected_time":1820000000000,"state":"active","ping":111},{"user_id":90,"name":"Reihenhausbewohner","steam_id":76561198049820307,"connected_time":3221000000000,"state":"active","ping":53},{"user_id":127,"name":"The Gods Protector","steam_id":76561198095114226,"connected_time":1430000000000,"state":"active","ping":33},{"user_id":122,"name":"night.s","steam_id":76561198326287823,"connected_time":1817000000000,"state":"active","ping":75},{"user_id":125,"name":"FAT Mozart","steam_id":76561198868148394,"connected_time":1511000000000,"state":"active","ping":87},{"user_id":111,"name":"RebirthInFire","steam_id":76561198200555755,"connected_time":2122000000000,"state":"active","ping":57},{"user_id":115,"name":"StormyRice","steam_id":76561198129971386,"connected_time":1961000000000,"state":"active","ping":61}]},{"server_id":22,"name":"Uncletopia | London | 6 | All Maps","name_short":"lon-6","host":"lon-1.uk.uncletopia.com","port":27065,"enabled":true,"region":"eu","cc":"gb","latitude":51.509865,"longitude":-0.118092,"reserved":0,"last_update":"0001-01-01T00:00:00Z","name_a2s":"Uncletopia | London | 6 | All Maps","protocol":17,"map":"pl_upward","folder":"tf","game":"Team Fortress","app_id":440,"player_count":0,"max_players":24,"Bots":0,"server_type":"Dedicated","server_os":"Linux","password":true,"vac":true,"version":"7961495","steam_id":85568392924742830,"keywords":["nocrits","nodmgspread","payload","uncletopia"],"game_id":440,"stv_port":27066,"stv_name":"Uncletopia | London | 6 | All Maps | STV","players":null},{"server_id":40,"name":"Uncletopia | London | 7 | Stopwatch","name_short":"lon-7","host":"lon-1.uk.uncletopia.com","port":27075,"enabled":true,"region":"eu","cc":"gb","latitude":51.509865,"longitude":-0.118092,"reserved":0,"last_update":"0001-01-01T00:00:00Z","name_a2s":"Uncletopia | London | 7 | Stopwatch","protocol":17,"map":"pl_upward","folder":"tf","game":"Team Fortress","app_id":440,"player_count":0,"max_players":24,"Bots":0,"server_type":"Dedicated","server_os":"Linux","password":true,"vac":true,"version":"7961495","steam_id":85568392924964314,"keywords":["nocrits","nodmgspread","payload","uncletopia"],"game_id":440,"stv_port":27076,"stv_name":"Uncletopia | London | 7 | Stopwatch | STV","players":null},{"server_id":41,"name":"Uncletopia | London | 8 | Community","name_short":"lon-8","host":"lon-1.uk.uncletopia.com","port":27085,"enabled":true,"region":"eu","cc":"gb","latitude":51.509865,"longitude":-0.118092,"reserved":0,"last_update":"0001-01-01T00:00:00Z","name_a2s":"Uncletopia | London | 8 | Community","protocol":17,"map":"workshop/cp_propaganda_b18.ugc1603743849","folder":"tf","game":"Team Fortress","app_id":440,"player_count":0,"max_players":24,"Bots":0,"server_type":"Dedicated","server_os":"Linux","password":true,"vac":true,"version":"7961495","steam_id":85568392924964315,"keywords":["cp","nocrits","nodmgspread","uncletopia"],"game_id":440,"stv_port":27086,"stv_name":"Uncletopia | London | 8 | Community | STV","players":null},{"server_id":300,"name":"Uncletopia | Montréal | 1 | One Thousand Uncles","name_short":"mtl-1","host":"mtl-1.ca.uncletopia.com","port":27015,"enabled":true,"region":"us-east","cc":"ca","latitude":45.50889,"longitude":-73.56167,"reserved":0,"last_update":"0001-01-01T00:00:00Z","name_a2s":"Uncletopia | Montréal | 1 | One Thousand Uncles","protocol":17,"map":"pl_badwater","folder":"tf","game":"Team Fortress","app_id":440,"player_count":25,"max_players":32,"Bots":20,"server_type":"Dedicated","server_os":"Linux","password":true,"vac":true,"version":"7961495","steam_id":85568392924500087,"keywords":["alltalk","bots","danepve","increased_maxplayers","norespawntime","payload","uncletopia"],"game_id":440,"stv_port":0,"stv_name":"","players":[{"user_id":69,"name":"Jacob Deveau","steam_id":76561198997341499,"connected_time":5361000000000,"state":"active","ping":59},{"user_id":88,"name":"Ak","steam_id":76561199333659458,"connected_time":1049000000000,"state":"active","ping":108},{"user_id":91,"name":"Rhutebeer","steam_id":76561198018302761,"connected_time":363000000000,"state":"active","ping":96},{"user_id":92,"name":"Tim the enchanter","steam_id":76561198140046182,"connected_time":278000000000,"state":"active","ping":165},{"user_id":86,"name":"DjFloppy","steam_id":76561198212014625,"connected_time":1682000000000,"state":"active","ping":118}]},{"server_id":301,"name":"Uncletopia | Montréal | 2 | One Thousand Uncles","name_short":"mtl-2","host":"mtl-1.ca.uncletopia.com","port":27025,"enabled":true,"region":"us-east","cc":"ca","latitude":45.50889,"longitude":-73.56167,"reserved":0,"last_update":"0001-01-01T00:00:00Z","name_a2s":"Uncletopia | Montréal | 2 | One Thousand Uncles","protocol":17,"map":"cp_mossrock","folder":"tf","game":"Team Fortress","app_id":440,"player_count":0,"max_players":32,"Bots":0,"server_type":"Dedicated","server_os":"Linux","password":true,"vac":true,"version":"7961495","steam_id":85568392924500088,"keywords":["alltalk","cp","danepve","increased_maxplayers","norespawntime","uncletopia"],"game_id":440,"stv_port":0,"stv_name":"","players":null},{"server_id":302,"name":"Uncletopia | Montréal | 3 | One Thousand Uncles","name_short":"mtl-3","host":"mtl-1.ca.uncletopia.com","port":27035,"enabled":true,"region":"us-east","cc":"ca","latitude":45.50889,"longitude":-73.56167,"reserved":0,"last_update":"0001-01-01T00:00:00Z","name_a2s":"Uncletopia | Montréal | 3 | One Thousand Uncles","protocol":17,"map":"cp_dustbowl","folder":"tf","game":"Team Fortress","app_id":440,"player_count":0,"max_players":32,"Bots":0,"server_type":"Dedicated","server_os":"Linux","password":true,"vac":true,"version":"7961495","steam_id":85568392924500089,"keywords":["alltalk","cp","danepve","increased_maxplayers","norespawntime","uncletopia"],"game_id":440,"stv_port":0,"stv_name":"","players":null},{"server_id":13,"name":"Uncletopia | New York City | 1 | All Maps","name_short":"nyc-1","host":"nyc-1.us.uncletopia.com","port":27015,"enabled":true,"region":"us-east","cc":"us","latitude":40.73061,"longitude":-73.93524,"reserved":0,"last_update":"0001-01-01T00:00:00Z","name_a2s":"Uncletopia | New York City | 1 | All Maps","protocol":17,"map":"cp_gorge","folder":"tf","game":"Team Fortress","app_id":440,"player_count":23,"max_players":24,"Bots":0,"server_type":"Dedicated","server_os":"Linux","password":true,"vac":true,"version":"7961495","steam_id":85568392924469993,"keywords":["cp","nocrits","nodmgspread","uncletopia"],"game_id":440,"stv_port":27016,"stv_name":"Uncletopia | New York City | 1 | All Maps | STV","players":[{"user_id":312,"name":"KyonHB","steam_id":76561198050311904,"connected_time":771000000000,"state":"active","ping":61},{"user_id":309,"name":"benjackson878","steam_id":76561199489171146,"connected_time":775000000000,"state":"active","ping":96},{"user_id":308,"name":"GummybearKillr","steam_id":76561198031235750,"connected_time":1535000000000,"state":"active","ping":51},{"user_id":292,"name":"artlex","steam_id":76561198849767970,"connected_time":3283000000000,"state":"active","ping":60},{"user_id":328,"name":"Pseudotriangle","steam_id":76561198058247667,"connected_time":223000000000,"state":"active","ping":72},{"user_id":324,"name":"Harry S. Truman","steam_id":76561197993339757,"connected_time":493000000000,"state":"active","ping":53},{"user_id":301,"name":"Brothir","steam_id":76561198202989120,"connected_time":2231000000000,"state":"active","ping":86},{"user_id":305,"name":"John Fortnite","steam_id":76561198076608253,"connected_time":1714000000000,"state":"active","ping":54},{"user_id":304,"name":"[Redacted]","steam_id":76561199262579270,"connected_time":2009000000000,"state":"active","ping":68},{"user_id":330,"name":"Macro","steam_id":76561199442846226,"connected_time":59000000000,"state":"active","ping":73},{"user_id":275,"name":"Helmet Hands","steam_id":76561197961141994,"connected_time":4599000000000,"state":"active","ping":113},{"user_id":329,"name":"CheetoSmoke7","steam_id":76561198095217273,"connected_time":221000000000,"state":"active","ping":54},{"user_id":310,"name":"Piss God","steam_id":76561198090504334,"connected_time":774000000000,"state":"active","ping":54},{"user_id":314,"name":"SPELLSDISASTER","steam_id":76561197995620232,"connected_time":767000000000,"state":"active","ping":33},{"user_id":298,"name":"AshleyJWilliams","steam_id":76561199319657907,"connected_time":2806000000000,"state":"active","ping":81},{"user_id":318,"name":"MistaRattle","steam_id":76561199144406643,"connected_time":740000000000,"state":"active","ping":121},{"user_id":315,"name":"delta","steam_id":76561198288966901,"connected_time":766000000000,"state":"active","ping":165},{"user_id":319,"name":"Gay Mike Tyson","steam_id":76561198137433111,"connected_time":712000000000,"state":"active","ping":72},{"user_id":326,"name":"JJames","steam_id":76561198055687973,"connected_time":430000000000,"state":"active","ping":66},{"user_id":325,"name":"7thelden","steam_id":76561198297428761,"connected_time":480000000000,"state":"active","ping":80},{"user_id":327,"name":"Brown_Dream","steam_id":76561198975766145,"connected_time":374000000000,"state":"active","ping":70},{"user_id":323,"name":"goku ssj20","steam_id":76561198415484497,"connected_time":553000000000,"state":"active","ping":172},{"user_id":307,"name":"Sinister Sandwich","steam_id":76561198142327400,"connected_time":1590000000000,"state":"active","ping":50}]},{"server_id":14,"name":"Uncletopia | New York City | 2 | All Maps","name_short":"nyc-2","host":"nyc-1.us.uncletopia.com","port":27025,"enabled":true,"region":"us-east","cc":"us","latitude":40.73061,"longitude":-73.93524,"reserved":0,"last_update":"0001-01-01T00:00:00Z","name_a2s":"Uncletopia | New York City | 2 | All Maps","protocol":17,"map":"pl_upward","folder":"tf","game":"Team Fortress","app_id":440,"player_count":2,"max_players":24,"Bots":0,"server_type":"Dedicated","server_os":"Linux","password":true,"vac":true,"version":"7961495","steam_id":85568392924469994,"keywords":["nocrits","nodmgspread","payload","uncletopia"],"game_id":440,"stv_port":27026,"stv_name":"Uncletopia | New York City | 2 | All Maps | STV","players":[{"user_id":45,"name":"keygenhannah","steam_id":76561198334730750,"connected_time":384000000000,"state":"active","ping":41},{"user_id":46,"name":"Uncle Majic the Hip Hop Magicia","steam_id":76561198107924303,"connected_time":317000000000,"state":"active","ping":39}]},{"server_id":15,"name":"Uncletopia | New York City | 3 | Stopwatch","name_short":"nyc-3","host":"nyc-1.us.uncletopia.com","port":27035,"enabled":true,"region":"us-east","cc":"us","latitude":40.73061,"longitude":-73.93524,"reserved":0,"last_update":"0001-01-01T00:00:00Z","name_a2s":"Uncletopia | New York City | 3 | Stopwatch","protocol":17,"map":"workshop/cp_reckoner_rc6.ugc674719999","folder":"tf","game":"Team Fortress","app_id":440,"player_count":0,"max_players":24,"Bots":0,"server_type":"Dedicated","server_os":"Linux","password":true,"vac":true,"version":"7961495","steam_id":85568392924742820,"keywords":["cp","nocrits","nodmgspread","uncletopia"],"game_id":440,"stv_port":27036,"stv_name":"Uncletopia | New York City | 3 | Stopwatch | STV","players":null},{"server_id":16,"name":"Uncletopia | New York City | 4 | Community","name_short":"nyc-4","host":"nyc-1.us.uncletopia.com","port":27045,"enabled":true,"region":"us-east","cc":"us","latitude":40.73061,"longitude":-73.93524,"reserved":0,"last_update":"0001-01-01T00:00:00Z","name_a2s":"Uncletopia | New York City | 4 | Community","protocol":17,"map":"workshop/koth_kemptown_rc1.ugc767410655","folder":"tf","game":"Team Fortress","app_id":440,"player_count":0,"max_players":24,"Bots":0,"server_type":"Dedicated","server_os":"Linux","password":true,"vac":true,"version":"7961495","steam_id":85568392924742821,"keywords":["cp","nocrits","nodmgspread","uncletopia"],"game_id":440,"stv_port":27046,"stv_name":"Uncletopia | New York City | 4 | Community | STV","players":null},{"server_id":142,"name":"Uncletopia | São Paulo | 1 | All Maps","name_short":"sao-1","host":"sao-1.br.uncletopia.com","port":27015,"enabled":true,"region":"sa","cc":"br","latitude":-23.533773,"longitude":-46.62529,"reserved":0,"last_update":"0001-01-01T00:00:00Z","name_a2s":"Uncletopia | São Paulo | 1 | All Maps","protocol":17,"map":"pl_barnblitz","folder":"tf","game":"Team Fortress","app_id":440,"player_count":0,"max_players":24,"Bots":0,"server_type":"Dedicated","server_os":"Linux","password":true,"vac":true,"version":"7961495","steam_id":85568392924469996,"keywords":["nocrits","nodmgspread","payload","uncletopia"],"game_id":440,"stv_port":27016,"stv_name":"Uncletopia | São Paulo | 1 | All Maps | STV","players":null},{"server_id":143,"name":"Uncletopia | São Paulo | 2 | Community","name_short":"sao-2","host":"sao-2.br.uncletopia.com","port":27015,"enabled":true,"region":"sa","cc":"br","latitude":-23.533773,"longitude":-46.62529,"reserved":0,"last_update":"0001-01-01T00:00:00Z","name_a2s":"Uncletopia | São Paulo | 2 | Community","protocol":17,"map":"workshop/koth_slaughter_rc1.ugc1712845210","folder":"tf","game":"Team Fortress","app_id":440,"player_count":0,"max_players":24,"Bots":0,"server_type":"Dedicated","server_os":"Linux","password":true,"vac":true,"version":"7961495","steam_id":85568392924485349,"keywords":["cp","nocrits","nodmgspread","uncletopia"],"game_id":440,"stv_port":27016,"stv_name":"Uncletopia | São Paulo | 2 | Community | STV","players":null},{"server_id":7,"name":"Uncletopia | Seattle | 1 | All Maps","name_short":"sea-1","host":"sea-1.us.uncletopia.com","port":27015,"enabled":true,"region":"us-west","cc":"us","latitude":47.608013,"longitude":-122.33517,"reserved":0,"last_update":"0001-01-01T00:00:00Z","name_a2s":"Uncletopia | Seattle | 1 | All Maps","protocol":17,"map":"pl_frontier_final","folder":"tf","game":"Team Fortress","app_id":440,"player_count":24,"max_players":24,"Bots":0,"server_type":"Dedicated","server_os":"Linux","password":true,"vac":true,"version":"7961495","steam_id":85568392924469997,"keywords":["nocrits","nodmgspread","payload","uncletopia"],"game_id":440,"stv_port":27016,"stv_name":"Uncletopia | Seattle | 1 | All Maps | STV","players":[{"user_id":265,"name":"Bungus","steam_id":76561197984426574,"connected_time":372000000000,"state":"active","ping":143},{"user_id":260,"name":"Warhead","steam_id":76561198067746049,"connected_time":735000000000,"state":"active","ping":107},{"user_id":245,"name":"PadrePockets","steam_id":76561197993251606,"connected_time":1609000000000,"state":"active","ping":119},{"user_id":261,"name":"AttackCommander","steam_id":76561198111522679,"connected_time":655000000000,"state":"active","ping":98},{"user_id":258,"name":"felon","steam_id":76561199100342013,"connected_time":1075000000000,"state":"active","ping":76},{"user_id":216,"name":"Captain Underbelly","steam_id":76561198811270935,"connected_time":3626000000000,"state":"active","ping":66},{"user_id":266,"name":"APersonYouMetOnline","steam_id":76561198386025861,"connected_time":262000000000,"state":"active","ping":59},{"user_id":219,"name":"Traceback","steam_id":76561197993212340,"connected_time":3333000000000,"state":"active","ping":77},{"user_id":269,"name":"DeathcatThor","steam_id":76561199179982061,"connected_time":207000000000,"state":"active","ping":76},{"user_id":270,"name":"Preston","steam_id":76561198255721392,"connected_time":24000000000,"state":"active","ping":139},{"user_id":257,"name":"nobody","steam_id":76561198025542484,"connected_time":1318000000000,"state":"active","ping":105},{"user_id":271,"name":"I'mFromSpace","steam_id":76561198808969653,"connected_time":24000000000,"state":"spawning","ping":110},{"user_id":238,"name":"jer","steam_id":76561198148235230,"connected_time":1879000000000,"state":"active","ping":81},{"user_id":236,"name":"Ryld","steam_id":76561198010174380,"connected_time":1983000000000,"state":"active","ping":69},{"user_id":252,"name":"Campus 80 Crop","steam_id":76561198068672882,"connected_time":1366000000000,"state":"active","ping":66},{"user_id":253,"name":"Mr8bittripper","steam_id":76561198133894229,"connected_time":1339000000000,"state":"active","ping":42},{"user_id":263,"name":"AAAAAAAAAAAAAAAAAAAAAAAAAAAAAAA","steam_id":76561198125467937,"connected_time":543000000000,"state":"active","ping":79},{"user_id":234,"name":"Dongus","steam_id":76561197979056451,"connected_time":2123000000000,"state":"active","ping":52},{"user_id":254,"name":"|-HyperCube-|","steam_id":76561198167133597,"connected_time":1336000000000,"state":"active","ping":81},{"user_id":259,"name":"Little Linguine","steam_id":76561198816986370,"connected_time":1012000000000,"state":"active","ping":56},{"user_id":256,"name":"LocusUwU","steam_id":76561198250393626,"connected_time":1330000000000,"state":"active","ping":59},{"user_id":232,"name":"Dosario","steam_id":76561198298095535,"connected_time":2312000000000,"state":"active","ping":52},{"user_id":226,"name":"Imitation Caucasian","steam_id":76561198320536166,"connected_time":2761000000000,"state":"active","ping":93},{"user_id":268,"name":"SanitysEdge","steam_id":76561198130732813,"connected_time":250000000000,"state":"active","ping":73}]},{"server_id":119,"name":"Uncletopia | Seattle | 2 | All Maps","name_short":"sea-2","host":"sea-1.us.uncletopia.com","port":27025,"enabled":true,"region":"us-west","cc":"us","latitude":47.608013,"longitude":-122.33517,"reserved":0,"last_update":"0001-01-01T00:00:00Z","name_a2s":"Uncletopia | Seattle | 2 | All Maps","protocol":17,"map":"cp_dustbowl","folder":"tf","game":"Team Fortress","app_id":440,"player_count":0,"max_players":24,"Bots":0,"server_type":"Dedicated","server_os":"Linux","password":true,"vac":true,"version":"7961495","steam_id":85568392924469998,"keywords":["cp","nocrits","nodmgspread","uncletopia"],"game_id":440,"stv_port":27026,"stv_name":"Uncletopia | Seattle | 2 | All Maps | STV","players":null},{"server_id":406,"name":"Uncletopia | Seattle | 3 | Stopwatch","name_short":"sea-3","host":"sea-1.us.uncletopia.com","port":27035,"enabled":true,"region":"us-west","cc":"us","latitude":47.608013,"longitude":-122.33517,"reserved":0,"last_update":"0001-01-01T00:00:00Z","name_a2s":"Uncletopia | Seattle | 3 | Stopwatch","protocol":17,"map":"workshop/cp_reckoner_rc6.ugc674719999","folder":"tf","game":"Team Fortress","app_id":440,"player_count":0,"max_players":24,"Bots":0,"server_type":"Dedicated","server_os":"Linux","password":true,"vac":true,"version":"7961495","steam_id":85568392924515217,"keywords":["cp","nocrits","nodmgspread","uncletopia"],"game_id":440,"stv_port":27036,"stv_name":"Uncletopia | Seattle | 3 | Stopwatch | STV","players":null},{"server_id":17,"name":"Uncletopia | San Francisco | 1 | All Maps","name_short":"sfo-1","host":"sfo-1.us.uncletopia.com","port":27015,"enabled":true,"region":"us-west","cc":"us","latitude":37.77397,"longitude":-122.4313,"reserved":0,"last_update":"0001-01-01T00:00:00Z","name_a2s":"Uncletopia | San Francisco | 1 | All Maps","protocol":17,"map":"cp_gullywash_final1","folder":"tf","game":"Team Fortress","app_id":440,"player_count":0,"max_players":24,"Bots":0,"server_type":"Dedicated","server_os":"Linux","password":true,"vac":true,"version":"7961495","steam_id":85568392924469999,"keywords":["cp","nocrits","nodmgspread","uncletopia"],"game_id":440,"stv_port":27016,"stv_name":"Uncletopia | San Francisco | 1 | All Maps | STV","players":null},{"server_id":18,"name":"Uncletopia | San Francisco | 2 | All Maps","name_short":"sfo-2","host":"sfo-1.us.uncletopia.com","port":27025,"enabled":true,"region":"us-west","cc":"us","latitude":37.77397,"longitude":-122.4313,"reserved":0,"last_update":"0001-01-01T00:00:00Z","name_a2s":"Uncletopia | San Francisco | 2 | All Maps","protocol":17,"map":"pl_hoodoo_final","folder":"tf","game":"Team Fortress","app_id":440,"player_count":0,"max_players":24,"Bots":0,"server_type":"Dedicated","server_os":"Linux","password":true,"vac":true,"version":"7961495","steam_id":85568392924470000,"keywords":["nocrits","nodmgspread","payload","uncletopia"],"game_id":440,"stv_port":27026,"stv_name":"Uncletopia | San Francisco | 2 | All Maps | STV","players":null},{"server_id":19,"name":"Uncletopia | San Francisco | 3 | Stopwatch","name_short":"sfo-3","host":"sfo-1.us.uncletopia.com","port":27035,"enabled":true,"region":"us-west","cc":"us","latitude":37.77397,"longitude":-122.4313,"reserved":0,"last_update":"0001-01-01T00:00:00Z","name_a2s":"Uncletopia | San Francisco | 3 | Stopwatch","protocol":17,"map":"workshop/koth_clearcut_b15.ugc2107050255","folder":"tf","game":"Team Fortress","app_id":440,"player_count":0,"max_players":24,"Bots":0,"server_type":"Dedicated","server_os":"Linux","password":true,"vac":true,"version":"7961495","steam_id":85568392924742824,"keywords":["cp","nocrits","nodmgspread","uncletopia"],"game_id":440,"stv_port":27036,"stv_name":"Uncletopia | San Francisco | 3 | Stopwatch | STV","players":null},{"server_id":20,"name":"Uncletopia | San Francisco | 4 | Community","name_short":"sfo-4","host":"sfo-1.us.uncletopia.com","port":27045,"enabled":true,"region":"us-west","cc":"us","latitude":37.77397,"longitude":-122.4313,"reserved":0,"last_update":"0001-01-01T00:00:00Z","name_a2s":"Uncletopia | San Francisco | 4 | Community","protocol":17,"map":"workshop/cp_reckoner_rc6.ugc674719999","folder":"tf","game":"Team Fortress","app_id":440,"player_count":0,"max_players":24,"Bots":0,"server_type":"Dedicated","server_os":"Linux","password":true,"vac":true,"version":"7961495","steam_id":85568392924742826,"keywords":["cp","nocrits","nodmgspread","uncletopia"],"game_id":440,"stv_port":27046,"stv_name":"Uncletopia | San Francisco | 4 | Community | STV","players":null},{"server_id":141,"name":"Uncletopia | Sydney | 1 | All Maps","name_short":"syd-1","host":"syd-1.au.uncletopia.com","port":27015,"enabled":true,"region":"au","cc":"au","latitude":-33.865143,"longitude":151.2099,"reserved":0,"last_update":"0001-01-01T00:00:00Z","name_a2s":"Uncletopia | Sydney | 1 | All Maps","protocol":17,"map":"cp_5gorge","folder":"tf","game":"Team Fortress","app_id":440,"player_count":0,"max_players":24,"Bots":0,"server_type":"Dedicated","server_os":"Linux","password":true,"vac":true,"version":"7961495","steam_id":85568392924470001,"keywords":["cp","nocrits","nodmgspread","uncletopia"],"game_id":440,"stv_port":27016,"stv_name":"Uncletopia | Sydney | 1 | All Maps | STV","players":null},{"server_id":123,"name":"Uncletopia | Sydney | 2 | All Maps","name_short":"syd-2","host":"syd-1.au.uncletopia.com","port":27025,"enabled":true,"region":"au","cc":"au","latitude":-33.865143,"longitude":151.2099,"reserved":0,"last_update":"0001-01-01T00:00:00Z","name_a2s":"Uncletopia | Sydney | 2 | All Maps","protocol":17,"map":"cp_gorge","folder":"tf","game":"Team Fortress","app_id":440,"player_count":0,"max_players":24,"Bots":0,"server_type":"Dedicated","server_os":"Linux","password":true,"vac":true,"version":"7961495","steam_id":85568392924470002,"keywords":["cp","nocrits","nodmgspread","uncletopia"],"game_id":440,"stv_port":27026,"stv_name":"Uncletopia | Sydney | 2 | All Maps | STV","players":null},{"server_id":395,"name":"Uncletopia | Sydney | 3 | All Maps","name_short":"syd-3","host":"syd-1.au.uncletopia.com","port":27035,"enabled":true,"region":"au","cc":"au","latitude":-33.865143,"longitude":151.2099,"reserved":0,"last_update":"0001-01-01T00:00:00Z","name_a2s":"Uncletopia | Sydney | 3 | All Maps","protocol":17,"map":"koth_viaduct","folder":"tf","game":"Team Fortress","app_id":440,"player_count":0,"max_players":24,"Bots":0,"server_type":"Dedicated","server_os":"Linux","password":true,"vac":true,"version":"7961495","steam_id":85568392925194467,"keywords":["cp","nocrits","nodmgspread","uncletopia"],"game_id":440,"stv_port":27036,"stv_name":"Uncletopia | Sydney | 3 | All Maps | STV","players":null},{"server_id":396,"name":"Uncletopia | Sydney | 4 | All Maps","name_short":"syd-4","host":"syd-1.au.uncletopia.com","port":27045,"enabled":true,"region":"au","cc":"au","latitude":-33.865143,"longitude":151.2099,"reserved":0,"last_update":"0001-01-01T00:00:00Z","name_a2s":"Uncletopia | Sydney | 4 | All Maps","protocol":17,"map":"pl_badwater","folder":"tf","game":"Team Fortress","app_id":440,"player_count":0,"max_players":24,"Bots":0,"server_type":"Dedicated","server_os":"Linux","password":true,"vac":true,"version":"7961495","steam_id":85568392925397958,"keywords":["nocrits","nodmgspread","payload","uncletopia"],"game_id":440,"stv_port":27046,"stv_name":"Uncletopia | Sydney | 4 | All Maps | STV","players":null},{"server_id":58,"name":"Uncletopia | Sydney | 5 | Stopwatch","name_short":"syd-5","host":"syd-1.au.uncletopia.com","port":27055,"enabled":true,"region":"au","cc":"au","latitude":-33.865143,"longitude":151.2099,"reserved":0,"last_update":"0001-01-01T00:00:00Z","name_a2s":"Uncletopia | Sydney | 5 | Stopwatch","protocol":17,"map":"koth_highpass","folder":"tf","game":"Team Fortress","app_id":440,"player_count":0,"max_players":24,"Bots":0,"server_type":"Dedicated","server_os":"Linux","password":true,"vac":true,"version":"7961495","steam_id":85568392925397959,"keywords":["cp","nocrits","nodmgspread","uncletopia"],"game_id":440,"stv_port":27056,"stv_name":"Uncletopia | Sydney | 5 | Stopwatch | STV","players":null},{"server_id":59,"name":"Uncletopia | Sydney | 6 | Community","name_short":"syd-6","host":"syd-1.au.uncletopia.com","port":27065,"enabled":true,"region":"au","cc":"au","latitude":-33.865143,"longitude":151.2099,"reserved":0,"last_update":"0001-01-01T00:00:00Z","name_a2s":"Uncletopia | Sydney | 6 | Community","protocol":17,"map":"workshop/koth_soot_final1.ugc2969540689","folder":"tf","game":"Team Fortress","app_id":440,"player_count":0,"max_players":24,"Bots":0,"server_type":"Dedicated","server_os":"Linux","password":true,"vac":true,"version":"7961495","steam_id":85568392925397960,"keywords":["cp","nocrits","nodmgspread","uncletopia"],"game_id":440,"stv_port":27066,"stv_name":"Uncletopia | Sydney | 6 | Community | STV","players":null},{"server_id":49,"name":"Uncletopia | Warsaw | 1 | One Thousand Uncles","name_short":"waw-1","host":"waw-1.pl.uncletopia.com","port":27015,"enabled":true,"region":"eu","cc":"pl","latitude":52.2297,"longitude":21.017532,"reserved":0,"last_update":"0001-01-01T00:00:00Z","name_a2s":"Uncletopia | Warsaw | 1 | One Thousand Uncles","protocol":17,"map":"pl_badwater","folder":"tf","game":"Team Fortress","app_id":440,"player_count":0,"max_players":32,"Bots":0,"server_type":"Dedicated","server_os":"Linux","password":true,"vac":true,"version":"7961495","steam_id":85568392925397850,"keywords":["alltalk","danepve","increased_maxplayers","norespawntime","payload","uncletopia"],"game_id":440,"stv_port":0,"stv_name":"","players":null},{"server_id":50,"name":"Uncletopia | Warsaw | 2 | One Thousand Uncles","name_short":"waw-2","host":"waw-1.pl.uncletopia.com","port":27025,"enabled":true,"region":"eu","cc":"pl","latitude":52.2297,"longitude":21.017532,"reserved":0,"last_update":"0001-01-01T00:00:00Z","name_a2s":"Uncletopia | Warsaw | 2 | One Thousand Uncles","protocol":17,"map":"cp_mossrock","folder":"tf","game":"Team Fortress","app_id":440,"player_count":26,"max_players":32,"Bots":20,"server_type":"Dedicated","server_os":"Linux","password":true,"vac":true,"version":"7961495","steam_id":85568392925397851,"keywords":["alltalk","bots","cp","danepve","increased_maxplayers","norespawntime","uncletopia"],"game_id":440,"stv_port":0,"stv_name":"","players":[{"user_id":141,"name":"wacky woohoo Ravioli men","steam_id":76561198434761942,"connected_time":796000000000,"state":"active","ping":164},{"user_id":105,"name":"Sir Lancelot","steam_id":76561198049709392,"connected_time":4376000000000,"state":"active","ping":105},{"user_id":117,"name":"tyroksi :D","steam_id":76561198103875245,"connected_time":1966000000000,"state":"active","ping":124},{"user_id":118,"name":"Jeremy Pinkman","steam_id":76561198345967214,"connected_time":1582000000000,"state":"active","ping":97},{"user_id":107,"name":"Жигало на жигуля\ufffd","steam_id":76561198205956992,"connected_time":3688000000000,"state":"active","ping":112},{"user_id":145,"name":"I regret my life decisions","steam_id":76561199421468208,"connected_time":301000000000,"state":"active","ping":192}]},{"server_id":51,"name":"Uncletopia | Warsaw | 3 | All Maps","name_short":"waw-3","host":"waw-1.pl.uncletopia.com","port":27035,"enabled":true,"region":"eu","cc":"pl","latitude":52.2297,"longitude":21.017532,"reserved":0,"last_update":"0001-01-01T00:00:00Z","name_a2s":"Uncletopia | Warsaw | 3 | All Maps","protocol":17,"map":"koth_highpass","folder":"tf","game":"Team Fortress","app_id":440,"player_count":0,"max_players":24,"Bots":0,"server_type":"Dedicated","server_os":"Linux","password":true,"vac":true,"version":"7961495","steam_id":85568392925397852,"keywords":["cp","nocrits","nodmgspread","uncletopia"],"game_id":440,"stv_port":27036,"stv_name":"Uncletopia | Warsaw | 3 | All Maps | STV","players":null},{"server_id":52,"name":"Uncletopia | Warsaw | 4 | All Maps","name_short":"waw-4","host":"waw-1.pl.uncletopia.com","port":27045,"enabled":true,"region":"eu","cc":"pl","latitude":52.2297,"longitude":21.017532,"reserved":0,"last_update":"0001-01-01T00:00:00Z","name_a2s":"Uncletopia | Warsaw | 4 | All Maps","protocol":17,"map":"koth_highpass","folder":"tf","game":"Team Fortress","app_id":440,"player_count":0,"max_players":24,"Bots":0,"server_type":"Dedicated","server_os":"Linux","password":true,"vac":true,"version":"7961495","steam_id":85568392925397853,"keywords":["cp","nocrits","nodmgspread","uncletopia"],"game_id":440,"stv_port":27046,"stv_name":"Uncletopia | Warsaw | 4 | All Maps | STV","players":null},{"server_id":53,"name":"Uncletopia | Warsaw | 5 | Stopwatch","name_short":"waw-5","host":"waw-1.pl.uncletopia.com","port":27055,"enabled":true,"region":"eu","cc":"pl","latitude":52.2297,"longitude":21.017532,"reserved":0,"last_update":"0001-01-01T00:00:00Z","name_a2s":"Uncletopia | Warsaw | 5 | Stopwatch","protocol":17,"map":"workshop/koth_clearcut_b15.ugc2107050255","folder":"tf","game":"Team Fortress","app_id":440,"player_count":0,"max_players":24,"Bots":0,"server_type":"Dedicated","server_os":"Linux","password":true,"vac":true,"version":"7961495","steam_id":85568392925397854,"keywords":["cp","nocrits","nodmgspread","uncletopia"],"game_id":440,"stv_port":27056,"stv_name":"Uncletopia | Warsaw | 5 | Stopwatch | STV","players":null},{"server_id":54,"name":"Uncletopia | Warsaw | 6 | Community","name_short":"waw-6","host":"waw-1.pl.uncletopia.com","port":27065,"enabled":true,"region":"eu","cc":"pl","latitude":52.2297,"longitude":21.017532,"reserved":0,"last_update":"0001-01-01T00:00:00Z","name_a2s":"Uncletopia | Warsaw | 6 | Community","protocol":17,"map":"workshop/pl_highwood_b19.ugc1769496557","folder":"tf","game":"Team Fortress","app_id":440,"player_count":0,"max_players":24,"Bots":0,"server_type":"Dedicated","server_os":"Linux","password":true,"vac":true,"version":"7961495","steam_id":85568392925397856,"keywords":["nocrits","nodmgspread","payload","uncletopia"],"game_id":440,"stv_port":27066,"stv_name":"Uncletopia | Warsaw | 6 | Community | STV","players":null}]}