{"status":true,"message":"","result":[{"server_id":9,"name":"Uncletopia | Atlanta | 1 | All Maps","name_short":"atl-1","host":"atl-1.us.uncletopia.com","port":27015,"enabled":true,"region":"us-east","cc":"us","latitude":33.753746,"longitude":-84.38633,"reserved":0,"last_update":"0001-01-01T00:00:00Z","name_a2s":"Uncletopia | Atlanta | 1 | All Maps","protocol":17,"map":"koth_lakeside_final","folder":"tf","game":"Team Fortress","app_id":440,"player_count":24,"max_players":24,"Bots":0,"server_type":"Dedicated","server_os":"Linux","password":true,"vac":true,"version":"7961495","steam_id":85568392924469982,"keywords":["cp","nocrits","nodmgspread","uncletopia"],"game_id":440,"stv_port":27016,"stv_name":"Uncletopia | Atlanta | 1 | All Maps | STV","players":[{"user_id":73,"name":"metalfan666","steam_id":76561198386344068,"connected_time":6087000000000,"state":"active","ping":73},{"user_id":153,"name":"freyja","steam_id":76561198249206656,"connected_time":482000000000,"state":"active","ping":90},{"user_id":58,"name":"Xavibite","steam_id":76561198209380493,"connected_time":7133000000000,"state":"active","ping":65},{"user_id":157,"name":"lurid","steam_id":76561199134999203,"connected_time":251000000000,"state":"active","ping":56},{"user_id":79,"name":"Pango","steam_id":76561198069811545,"connected_time":4928000000000,"state":"active","ping":38},{"user_id":141,"name":"THE INK BOY","steam_id":76561199173893537,"connected_time":1421000000000,"state":"active","ping":177},{"user_id":152,"name":"Radium","steam_id":76561198195881339,"connected_time":655000000000,"state":"active","ping":58},{"user_id":114,"name":"Mug","steam_id":76561199282207802,"connected_time":2682000000000,"state":"active","ping":70},{"user_id":140,"name":"Broadsword #LGM","steam_id":76561198011160411,"connected_time":1456000000000,"state":"active","ping":75},{"user_id":149,"name":"Intro Bonito","steam_id":76561198119478838,"connected_time":995000000000,"state":"active","ping":45},{"user_id":147,"name":"Heathcliff","steam_id":76561198044288534,"connected_time":1037000000000,"state":"active","ping":68},{"user_id":151,"name":"substance","steam_id":76561198050103868,"connected_time":771000000000,"state":"active","ping":86},{"user_id":81,"name":"тUв","steam_id":76561199229726499,"connected_time":4917000000000,"state":"active","ping":84},{"user_id":156,"name":"lynt","steam_id":76561198988333976,"connected_time":465000000000,"state":"active","ping":44},{"user_id":154,"name":"chen","steam_id":76561198064872330,"connected_time":475000000000,"state":"active","ping":69},{"user_id":142,"name":"ATL1 | on my hunting trip","steam_id":76561198315341646,"connected_time":1208000000000,"state":"active","ping":73},{"user_id":99,"name":"BatMatt","steam_id":76561198045910433,"connected_time":3697000000000,"state":"active","ping":71},{"user_id":103,"name":"Doctor Bear ʕ •ᴥ•ʔ","steam_id":76561197968103161,"connected_time":3245000000000,"state":"active","ping":79},{"user_id":148,"name":"Vee (very cool)","steam_id":76561198330432889,"connected_time":1035000000000,"state":"active","ping":71},{"user_id":145,"name":"aLOLZcosts","steam_id":76561199195858304,"connected_time":1095000000000,"state":"active","ping":93},{"user_id":138,"name":"Nugget","steam_id":76561199107189761,"connected_time":1835000000000,"state":"active","ping":42},{"user_id":82,"name":"stink","steam_id":76561198099318923,"connected_time":4802000000000,"state":"active","ping":76},{"user_id":155,"name":"feverish fragger","steam_id":76561198968337022,"connected_time":471000000000,"state":"active","ping":61},{"user_id":135,"name":"Albino Jellyfish","steam_id":76561198208561097,"connected_time":2065000000000,"state":"active","ping":61}]},{"server_id":104,"name":"Uncletopia | Atlanta | 2 | All Maps","name_short":"atl-2","host":"atl-1.us.uncletopia.com","port":27025,"enabled":true,"region":"us-east","cc":"us","latitude":33.753746,"longitude":-84.38633,"reserved":0,"last_update":"0001-01-01T00:00:00Z","name_a2s":"Uncletopia | Atlanta | 2 | All Maps","protocol":17,"map":"koth_harvest_final","folder":"tf","game":"Team Fortress","app_id":440,"player_count":24,"max_players":24,"Bots":0,"server_type":"Dedicated","server_os":"Linux","password":true,"vac":true,"version":"7961495","steam_id":85568392924469983,"keywords":["cp","nocrits","nodmgspread","uncletopia"],"game_id":440,"stv_port":27026,"stv_name":"Uncletopia | Atlanta | 2 | All Maps | STV","players":[{"user_id":103,"name":"shadow6","steam_id":76561197979807910,"connected_time":990000000000,"state":"active","ping":94},{"user_id":111,"name":"Vroooooooooooooooom","steam_id":76561198139913628,"connected_time":632000000000,"state":"active","ping":74},{"user_id":101,"name":"reaper","steam_id":76561198834485747,"connected_time":1118000000000,"state":"active","ping":89},{"user_id":109,"name":"Imposter","steam_id":76561199043966809,"connected_time":690000000000,"state":"active","ping":101},{"user_id":100,"name":"Sammich","steam_id":76561198010543087,"connected_time":1253000000000,"state":"active","ping":55},{"user_id":64,"name":"Blaze","steam_id":76561198043797702,"connected_time":3934000000000,"state":"active","ping":95},{"user_id":58,"name":"Lucin","steam_id":76561198258062078,"connected_time":4431000000000,"state":"active","ping":60},{"user_id":107,"name":"DeezNoodlez","steam_id":76561198246700372,"connected_time":856000000000,"state":"active","ping":98},{"user_id":104,"name":"Scita","steam_id":76561198066861559,"connected_time":957000000000,"state":"active","ping":71},{"user_id":110,"name":"Passionate Map Researcher","steam_id":76561199490508357,"connected_time":665000000000,"state":"active","ping":99},{"user_id":112,"name":"Sesni","steam_id":76561198041999812,"connected_time":593000000000,"state":"active","ping":66},{"user_id":96,"name":"TheSmokingMan","steam_id":76561198032652995,"connected_time":1680000000000,"state":"active","ping":77},{"user_id":113,"name":"mertis","steam_id":76561199275395141,"connected_time":524000000000,"state":"active","ping":71},{"user_id":95,"name":"Barry","steam_id":76561198371953939,"connected_time":1736000000000,"state":"active","ping":79},{"user_id":61,"name":"Captaindux","steam_id":76561198045390541,"connected_time":4138000000000,"state":"active","ping":62},{"user_id":70,"name":"Bungus","steam_id":76561197984426574,"connected_time":3782000000000,"state":"active","ping":90},{"user_id":77,"name":"mr.videogame","steam_id":76561198119558096,"connected_time":3191000000000,"state":"active","ping":63},{"user_id":80,"name":"SanitysEdge","steam_id":76561198130732813,"connected_time":3139000000000,"state":"active","ping":103},{"user_id":118,"name":"RCGC bro","steam_id":76561198976328384,"connected_time":296000000000,"state":"active","ping":63},{"user_id":114,"name":"raldite","steam_id":76561198074152931,"connected_time":517000000000,"state":"active","ping":180},{"user_id":117,"name":"Aeris","steam_id":76561198287271028,"connected_time":389000000000,"state":"active","ping":85},{"user_id":116,"name":"Im_Dimwit","steam_id":76561198158451090,"connected_time":413000000000,"state":"active","ping":46},{"user_id":119,"name":"PhaserLazer","steam_id":76561198407341298,"connected_time":275000000000,"state":"active","ping":67},{"user_id":106,"name":"Taheret","steam_id":76561198356759597,"connected_time":867000000000,"state":"active","ping":129}]},{"server_id":400,"name":"Uncletopia | Atlanta | 3 | Stopwatch","name_short":"atl-3","host":"atl-1.us.uncletopia.com","port":27035,"enabled":true,"region":"us-east","cc":"us","latitude":33.753746,"longitude":-84.38633,"reserved":0,"last_update":"0001-01-01T00:00:00Z","name_a2s":"Uncletopia | Atlanta | 3 | Stopwatch","protocol":17,"map":"workshop/pl_badwater_pro_v12.ugc2142942074","folder":"tf","game":"Team Fortress","app_id":440,"player_count":0,"max_players":24,"Bots":0,"server_type":"Dedicated","server_os":"Linux","password":true,"vac":true,"version":"7961495","steam_id":85568392924515187,"keywords":["nocrits","nodmgspread","payload","uncletopia"],"game_id":440,"stv_port":27036,"stv_name":"Uncletopia | Atlanta | 3 | Stopwatch | STV","players":null},{"server_id":401,"name":"Uncletopia | Atlanta | 4 | Community","name_short":"atl-4","host":"atl-1.us.uncletopia.com","port":27045,"enabled":true,"region":"us-east","cc":"us","latitude":33.753746,"longitude":-84.38633,"reserved":0,"last_update":"0001-01-01T00:00:00Z","name_a2s":"Uncletopia | Atlanta | 4 | Community","protocol":17,"map":"workshop/pl_phoenix_b4a.ugc2969509359","folder":"tf","game":"Team Fortress","app_id":440,"player_count":0,"max_players":24,"Bots":0,"server_type":"Dedicated","server_os":"Linux","password":true,"vac":true,"version":"7961495","steam_id":85568392924515188,"keywords":["nocrits","nodmgspread","payload","uncletopia"],"game_id":440,"stv_port":27046,"stv_name":"Uncletopia | Atlanta | 4 | Community | STV","players":null},{"server_id":2,"name":"Uncletopia | Chicago | 1 | All Maps","name_short":"chi-1","host":"chi-1.us.uncletopia.com","port":27015,"enabled":true,"region":"us-central","cc":"us","latitude":41.881832,"longitude":-87.62318,"reserved":0,"last_update":"0001-01-01T00:00:00Z","name_a2s":"Uncletopia | Chicago | 1 | All Maps","protocol":17,"map":"koth_lakeside_final","folder":"tf","game":"Team Fortress","app_id":440,"player_count":25,"max_players":24,"Bots":0,"server_type":"Dedicated","server_os":"Linux","password":true,"vac":true,"version":"7961495","steam_id":85568392924469984,"keywords":["cp","nocrits","nodmgspread","uncletopia"],"game_id":440,"stv_port":27016,"stv_name":"Uncletopia | Chicago | 1 | All Maps | STV","players":[{"user_id":207,"name":"Havel The Rock","steam_id":76561198086844531,"connected_time":1410000000000,"state":"active","ping":80},{"user_id":182,"name":"man of the hour","steam_id":76561198264601809,"connected_time":4086000000000,"state":"active","ping":59},{"user_id":215,"name":"bro looked down in the trop","steam_id":76561198142756572,"connected_time":1233000000000,"state":"active","ping":60},{"user_id":224,"name":"Leonidas","steam_id":76561198398004258,"connected_time":894000000000,"state":"active","ping":69},{"user_id":226,"name":"Gremsheker","steam_id":76561198068025153,"connected_time":732000000000,"state":"active","ping":72},{"user_id":188,"name":"BL4Z3RU22ER","steam_id":76561199495737715,"connected_time":3113000000000,"state":"active","ping":69},{"user_id":180,"name":"i have an rsi","steam_id":76561198020322241,"connected_time":4120000000000,"state":"active","ping":70},{"user_id":210,"name":"HOG         RIDER","steam_id":76561198040787741,"connected_time":1359000000000,"state":"active","ping":45},{"user_id":240,"name":"yourlocalforecast","steam_id":76561198042243083,"connected_time":3000000000,"state":"spawning","ping":61},{"user_id":184,"name":"normal rockwell","steam_id":76561197967761806,"connected_time":3947000000000,"state":"active","ping":158},{"user_id":192,"name":"Oh, it's Zach","steam_id":76561198103309672,"connected_time":3011000000000,"state":"active","ping":58},{"user_id":211,"name":"MARIOPARTYDSFAN","steam_id":76561198872122117,"connected_time":1313000000000,"state":"active","ping":71},{"user_id":218,"name":"kingXVX","steam_id":76561198396302636,"connected_time":1112000000000,"state":"active","ping":114},{"user_id":157,"name":"Pixler544","steam_id":76561198240575132,"connected_time":6557000000000,"state":"active","ping":69},{"user_id":193,"name":"Bunni","steam_id":76561198065169997,"connected_time":2985000000000,"state":"active","ping":89},{"user_id":213,"name":"Jade Greenleaf","steam_id":76561198304845413,"connected_time":1264000000000,"state":"active","ping":73},{"user_id":239,"name":"Sylvain","steam_id":76561198113385271,"connected_time":40000000000,"state":"spawning","ping":95},{"user_id":232,"name":"MantisToboggan","steam_id":76561197969447887,"connected_time":295000000000,"state":"active","ping":140},{"user_id":189,"name":"Jellypeen","steam_id":76561198034158810,"connected_time":3103000000000,"state":"active","ping":47},{"user_id":216,"name":"TOBY!!!","steam_id":76561199380822531,"connected_time":1213000000000,"state":"active","ping":53},{"user_id":219,"name":"Video James","steam_id":76561198269511071,"connected_time":1104000000000,"state":"active","ping":62},{"user_id":220,"name":"Fleetway","steam_id":76561198392105594,"connected_time":1082000000000,"state":"active","ping":75},{"user_id":222,"name":"Fiebs","steam_id":76561198073881842,"connected_time":1002000000000,"state":"active","ping":88},{"user_id":202,"name":"TATARA","steam_id":76561199098759517,"connected_time":2262000000000,"state":"active","ping":131},{"user_id":237,"name":"mercutio","steam_id":76561198203005793,"connected_time":109000000000,"state":"active","ping":91}]},{"server_id":106,"name":"Uncletopia | Chicago | 2 | All Maps","name_short":"chi-2","host":"chi-1.us.uncletopia.com","port":27025,"enabled":true,"region":"us-central","cc":"us","latitude":41.881832,"longitude":-87.62318,"reserved":0,"last_update":"0001-01-01T00:00:00Z","name_a2s":"Uncletopia | Chicago | 2 | All Maps","protocol":17,"map":"pl_pier","folder":"tf","game":"Team Fortress","app_id":440,"player_count":24,"max_players":24,"Bots":0,"server_type":"Dedicated","server_os":"Linux","password":true,"vac":true,"version":"7961495","steam_id":85568392924469985,"keywords":["nocrits","nodmgspread","payload","uncletopia"],"game_id":440,"stv_port":27026,"stv_name":"Uncletopia | Chicago | 2 | All Maps | STV","players":[{"user_id":107,"name":"Crazy Cane","steam_id":76561198993941174,"connected_time":28000000000,"state":"spawning","ping":91},{"user_id":69,"name":"slimeball","steam_id":76561198165332029,"connected_time":2883000000000,"state":"active","ping":45},{"user_id":80,"name":"Gargathor the Entity Catcher","steam_id":76561198189429665,"connected_time":1851000000000,"state":"active","ping":74},{"user_id":97,"name":"Nathan","steam_id":76561198127924646,"connected_time":714000000000,"state":"active","ping":74},{"user_id":65,"name":"while(1)","steam_id":76561198000876529,"connected_time":3329000000000,"state":"active","ping":59},{"user_id":75,"name":"Lamb Over Rice - $7","steam_id":76561198002685045,"connected_time":2194000000000,"state":"active","ping":74},{"user_id":66,"name":"Snivy64","steam_id":76561198423445376,"connected_time":2971000000000,"state":"active","ping":90},{"user_id":99,"name":"Grimprr","steam_id":76561198275816797,"connected_time":449000000000,"state":"active","ping":68},{"user_id":100,"name":"delta","steam_id":76561198288966901,"connected_time":445000000000,"state":"active","ping":192},{"user_id":71,"name":"ahem?","steam_id":76561198420227358,"connected_time":2756000000000,"state":"active","ping":80},{"user_id":102,"name":"Trashgaming","steam_id":76561199184268442,"connected_time":378000000000,"state":"active","ping":88},{"user_id":103,"name":"Wafflehead","steam_id":76561198053539741,"connected_time":363000000000,"state":"active","ping":63},{"user_id":104,"name":"JebusTheSavior","steam_id":76561197970083444,"connected_time":302000000000,"state":"active","ping":62},{"user_id":98,"name":"Ta5K","steam_id":76561198939558155,"connected_time":471000000000,"state":"active","ping":44},{"user_id":50,"name":"Sunflower","steam_id":76561198081223793,"connected_time":4565000000000,"state":"active","ping":55},{"user_id":91,"name":"Smashy","steam_id":76561198030704307,"connected_time":1257000000000,"state":"active","ping":78},{"user_id":94,"name":"captain red","steam_id":76561198191587983,"connected_time":934000000000,"state":"active","ping":75},{"user_id":89,"name":"Brandino!","steam_id":76561198000446932,"connected_time":1323000000000,"state":"active","ping":79},{"user_id":95,"name":"Raizen","steam_id":76561199092445367,"connected_time":933000000000,"state":"active","ping":59},{"user_id":106,"name":"dantheman","steam_id":76561199486390813,"connected_time":88000000000,"state":"active","ping":89},{"user_id":92,"name":"You","steam_id":76561198890201364,"connected_time":1186000000000,"state":"active","ping":84},{"user_id":105,"name":"Jeremiah Finch","steam_id":76561198046899113,"connected_time":102000000000,"state":"active","ping":98},{"user_id":83,"name":"Macko","steam_id":76561198452005461,"connected_time":1574000000000,"state":"active","ping":78},{"user_id":90,"name":"Herman Bavinck","steam_id":76561197993190216,"connected_time":1307000000000,"state":"active","ping":75}]},{"server_id":402,"name":"Uncletopia | Chicago | 3 | All Maps","name_short":"chi-3","host":"chi-1.us.uncletopia.com","port":27035,"enabled":true,"region":"us-central","cc":"us","latitude":41.881832,"longitude":-87.62318,"reserved":0,"last_update":"0001-01-01T00:00:00Z","name_a2s":"Uncletopia | Chicago | 3 | All Maps","protocol":17,"map":"pl_barnblitz","folder":"tf","game":"Team Fortress","app_id":440,"player_count":0,"max_players":24,"Bots":0,"server_type":"Dedicated","server_os":"Linux","password":true,"vac":true,"version":"7961495","steam_id":85568392924515191,"keywords":["nocrits","nodmgspread","payload","uncletopia"],"game_id":440,"stv_port":27036,"stv_name":"Uncletopia | Chicago | 3 | All Maps | STV","players":null},{"server_id":403,"name":"Uncletopia | Chicago | 4 | All Maps","name_short":"chi-4","host":"chi-1.us.uncletopia.com","port":27045,"enabled":true,"region":"us-central","cc":"us","latitude":41.881832,"longitude":-87.62318,"reserved":0,"last_update":"0001-01-01T00:00:00Z","name_a2s":"Uncletopia | Chicago | 4 | All Maps","protocol":17,"map":"cp_steel","folder":"tf","game":"Team Fortress","app_id":440,"player_count":24,"max_players":24,"Bots":0,"server_type":"Dedicated","server_os":"Linux","password":true,"vac":true,"version":"7961495","steam_id":85568392924515193,"keywords":["cp","nocrits","nodmgspread","uncletopia"],"game_id":440,"stv_port":27046,"stv_name":"Uncletopia | Chicago | 4 | All Maps | STV","players":[{"user_id":108,"name":"Your Loyal Familiar","steam_id":76561198106476075,"connected_time":1419000000000,"state":"active","ping":76},{"user_id":33,"name":"Jimbo Jones","steam_id":76561198031493107,"connected_time":7269000000000,"state":"active","ping":86},{"user_id":109,"name":"Limp Pumpo Discography Fan Club","steam_id":76561198145748479,"connected_time":1412000000000,"state":"active","ping":85},{"user_id":95,"name":"Miner2495","steam_id":76561198445904523,"connected_time":1884000000000,"state":"active","ping":71},{"user_id":115,"name":"BugsAreMyWorstEnemy","steam_id":76561199440395505,"connected_time":1091000000000,"state":"active","ping":58},{"user_id":97,"name":"JackDaSnac","steam_id":76561198991858250,"connected_time":1852000000000,"state":"active","ping":69},{"user_id":129,"name":"the juicer","steam_id":76561198307845869,"connected_time":96000000000,"state":"active","ping":65},{"user_id":59,"name":"Clean Lines","steam_id":76561197960691518,"connected_time":5445000000000,"state":"active","ping":57},{"user_id":124,"name":"batheman63","steam_id":76561198881818552,"connected_time":496000000000,"state":"active","ping":84},{"user_id":125,"name":"Pinky","steam_id":76561199019483777,"connected_time":272000000000,"state":"active","ping":77},{"user_id":130,"name":"Vlad ze bambino predatorè","steam_id":76561198272618623,"connected_time":69000000000,"state":"active","ping":180},{"user_id":119,"name":"jg125","steam_id":76561198824953530,"connected_time":845000000000,"state":"active","ping":151},{"user_id":126,"name":"blender","steam_id":76561198007038864,"connected_time":270000000000,"state":"active","ping":64},{"user_id":127,"name":"SPYCHECK ME","steam_id":76561198980994364,"connected_time":247000000000,"state":"active","ping":96},{"user_id":112,"name":"clonewarslover24","steam_id":76561198144673121,"connected_time":1233000000000,"state":"active","ping":74},{"user_id":104,"name":"Yayboo Bear","steam_id":76561197990770266,"connected_time":1625000000000,"state":"active","ping":85},{"user_id":105,"name":"dork","steam_id":76561198086615208,"connected_time":1531000000000,"state":"active","ping":60},{"user_id":121,"name":"Goat","steam_id":76561198068447650,"connected_time":814000000000,"state":"active","ping":75},{"user_id":106,"name":"Pick","steam_id":76561198116251178,"connected_time":1525000000000,"state":"active","ping":74},{"user_id":128,"name":"D UCK","steam_id":76561198075844142,"connected_time":235000000000,"state":"active","ping":52},{"user_id":122,"name":"Live","steam_id":76561198003194656,"connected_time":812000000000,"state":"active","ping":66},{"user_id":110,"name":"Amauri","steam_id":76561198130809137,"connected_time":1371000000000,"state":"active","ping":79},{"user_id":111,"name":"Fred Durst's #1 Fan","steam_id":76561198282395338,"connected_time":1363000000000,"state":"active","ping":83},{"user_id":123,"name":"ryce","steam_id":76561198114572309,"connected_time":641000000000,"state":"active","ping":62}]},{"server_id":36,"name":"Uncletopia | Chicago | 5 | All Maps","name_short":"chi-5","host":"chi-2.us.uncletopia.com","port":27015,"enabled":true,"region":"us-central","cc":"us","latitude":41.881832,"longitude":-87.62318,"reserved":0,"last_update":"0001-01-01T00:00:00Z","name_a2s":"Uncletopia | Chicago | 5 | All Maps","protocol":17,"map":"cp_mercenarypark","folder":"tf","game":"Team Fortress","app_id":440,"player_count":4,"max_players":24,"Bots":0,"server_type":"Dedicated","server_os":"Linux","password":true,"vac":true,"version":"7961495","steam_id":85568392924866362,"keywords":["cp","nocrits","nodmgspread","uncletopia"],"game_id":440,"stv_port":27016,"stv_name":"Uncletopia | Chicago | 5 | All Maps | STV","players":[{"user_id":5,"name":"Fin Silver (Ag)","steam_id":76561198083696472,"connected_time":365000000000,"state":"active","ping":43},{"user_id":6,"name":"GiggleFace","steam_id":76561198308586932,"connected_time":354000000000,"state":"active","ping":75},{"user_id":7,"name":"IcyFang","steam_id":76561198151028835,"connected_time":353000000000,"state":"active","ping":45},{"user_id":8,"name":"commando_2#SAVETF2","steam_id":76561199503272290,"connected_time":198000000000,"state":"active","ping":71}]},{"server_id":37,"name":"Uncletopia | Chicago | 6 | All Maps","name_short":"chi-6","host":"chi-2.us.uncletopia.com","port":27025,"enabled":true,"region":"us-central","cc":"us","latitude":41.881832,"longitude":-87.62318,"reserved":0,"last_update":"0001-01-01T00:00:00Z","name_a2s":"Uncletopia | Chicago | 6 | All Maps","protocol":17,"map":"pl_swiftwater_final1","folder":"tf","game":"Team Fortress","app_id":440,"player_count":0,"max_players":24,"Bots":0,"server_type":"Dedicated","server_os":"Linux","password":true,"vac":true,"version":"7961495","steam_id":85568392924866363,"keywords":["nocrits","nodmgspread","payload","uncletopia"],"game_id":440,"stv_port":27026,"stv_name":"Uncletopia | Chicago | 6 | All Maps | STV","players":null},{"server_id":38,"name":"Uncletopia | Chicago | 7 | Stopwatch","name_short":"chi-7","host":"chi-2.us.uncletopia.com","port":27035,"enabled":true,"region":"us-central","cc":"us","latitude":41.881832,"longitude":-87.62318,"reserved":0,"last_update":"0001-01-01T00:00:00Z","name_a2s":"Uncletopia | Chicago | 7 | Stopwatch","protocol":17,"map":"workshop/cp_process_f12.ugc2302948105","folder":"tf","game":"Team Fortress","app_id":440,"player_count":3,"max_players":24,"Bots":0,"server_type":"Dedicated","server_os":"Linux","password":true,"vac":true,"version":"7961495","steam_id":85568392924866364,"keywords":["cp","nocrits","nodmgspread","uncletopia"],"game_id":440,"stv_port":27036,"stv_name":"Uncletopia | Chicago | 7 | Stopwatch | STV","players":[{"user_id":6,"name":"_Toazt","steam_id":76561199011728341,"connected_time":206000000000,"state":"active","ping":66},{"user_id":4,"name":"paintball","steam_id":76561199125280733,"connected_time":930000000000,"state":"active","ping":62},{"user_id":5,"name":"Fresh Lychee","steam_id":76561198045399559,"connected_time":436000000000,"state":"active","ping":53}]},{"server_id":39,"name":"Uncletopia | Chicago | 8 | Community","name_short":"chi-8","host":"chi-2.us.uncletopia.com","port":27045,"enabled":true,"region":"us-central","cc":"us","latitude":41.881832,"longitude":-87.62318,"reserved":0,"last_update":"0001-01-01T00:00:00Z","name_a2s":"Uncletopia | Chicago | 8 | Community","protocol":17,"map":"workshop/cp_caldera_rc3.ugc2834196889","folder":"tf","game":"Team Fortress","app_id":440,"player_count":0,"max_players":24,"Bots":0,"server_type":"Dedicated","server_os":"Linux","password":true,"vac":true,"version":"7961495","steam_id":85568392924866365,"keywords":["cp","nocrits","nodmgspread","uncletopia"],"game_id":440,"stv_port":27046,"stv_name":"Uncletopia | Chicago | 8 | Community | STV","players":null},{"server_id":8,"name":"Uncletopia | Dallas | 1 | All Maps","name_short":"dal-1","host":"dal-1.us.uncletopia.com","port":27015,"enabled":true,"region":"us-central","cc":"us","latitude":32.779167,"longitude":-96.80889,"reserved":0,"last_update":"0001-01-01T00:00:00Z","name_a2s":"Uncletopia | Dallas | 1 | All Maps","protocol":17,"map":"pl_pier","folder":"tf","game":"Team Fortress","app_id":440,"player_count":1,"max_players":24,"Bots":0,"server_type":"Dedicated","server_os":"Linux","password":true,"vac":true,"version":"7961495","steam_id":85568392924469986,"keywords":["nocrits","nodmgspread","payload","uncletopia"],"game_id":440,"stv_port":27016,"stv_name":"Uncletopia | Dallas | 1 | All Maps | STV","players":[{"user_id":10,"name":"Mr. Mesa Black","steam_id":76561199115274103,"connected_time":26000000000,"state":"active","ping":80}]},{"server_id":108,"name":"Uncletopia | Dallas | 2 | All Maps","name_short":"dal-2","host":"dal-1.us.uncletopia.com","port":27025,"enabled":true,"region":"us-central","cc":"us","latitude":32.779167,"longitude":-96.80889,"reserved":0,"last_update":"0001-01-01T00:00:00Z","name_a2s":"Uncletopia | Dallas | 2 | All Maps","protocol":17,"map":"pl_swiftwater_final1","folder":"tf","game":"Team Fortress","app_id":440,"player_count":24,"max_players":24,"Bots":0,"server_type":"Dedicated","server_os":"Linux","password":true,"vac":true,"version":"7961495","steam_id":85568392924469988,"keywords":["nocrits","nodmgspread","payload","uncletopia"],"game_id":440,"stv_port":27026,"stv_name":"Uncletopia | Dallas | 2 | All Maps | STV","players":[{"user_id":30,"name":"Spidey-Sam, Yes-I-Am","steam_id":76561198051509816,"connected_time":808000000000,"state":"active","ping":60},{"user_id":39,"name":"Cube","steam_id":76561199021614213,"connected_time":443000000000,"state":"active","ping":178},{"user_id":14,"name":"Dreamzapp","steam_id":76561199084936632,"connected_time":1475000000000,"state":"active","ping":100},{"user_id":32,"name":"LordKirby","steam_id":76561198006938286,"connected_time":750000000000,"state":"active","ping":93},{"user_id":41,"name":"SmiggleGiggle","steam_id":76561198171810677,"connected_time":353000000000,"state":"active","ping":127},{"user_id":13,"name":"DeepLarkem","steam_id":76561198823247730,"connected_time":1604000000000,"state":"active","ping":80},{"user_id":42,"name":"goblin","steam_id":76561199004451589,"connected_time":231000000000,"state":"active","ping":55},{"user_id":22,"name":"Petrivus","steam_id":76561198202152453,"connected_time":1027000000000,"state":"active","ping":109},{"user_id":33,"name":"i poop my pants","steam_id":76561199488347875,"connected_time":721000000000,"state":"active","ping":64},{"user_id":34,"name":"malice","steam_id":76561198208849751,"connected_time":683000000000,"state":"active","ping":72},{"user_id":35,"name":"snorg","steam_id":76561199103766971,"connected_time":677000000000,"state":"active","ping":90},{"user_id":44,"name":"Squagol","steam_id":76561197987486159,"connected_time":217000000000,"state":"active","ping":60},{"user_id":20,"name":"GrantTheMedicYT","steam_id":76561199077176696,"connected_time":1104000000000,"state":"active","ping":76},{"user_id":21,"name":"ReAlPlAy23","steam_id":76561199000798818,"connected_time":1085000000000,"state":"active","ping":113},{"user_id":50,"name":"✨ Rarity ✨","steam_id":76561199172206856,"connected_time":39000000000,"state":"active","ping":59},{"user_id":45,"name":"HanakoToast","steam_id":76561198045233131,"connected_time":174000000000,"state":"active","ping":82},{"user_id":25,"name":"Disco zombie","steam_id":76561199194856245,"connected_time":984000000000,"state":"active","ping":47},{"user_id":29,"name":"Shmig","steam_id":76561199039358883,"connected_time":862000000000,"state":"active","ping":92},{"user_id":46,"name":"Lactose ๑ﭥ","steam_id":76561198208256987,"connected_time":172000000000,"state":"active","ping":83},{"user_id":38,"name":"Tony","steam_id":76561198169799653,"connected_time":575000000000,"state":"active","ping":61},{"user_id":40,"name":"shaq$","steam_id":76561198045246504,"connected_time":385000000000,"state":"active","ping":85},{"user_id":47,"name":"huntertabony","steam_id":76561198241622264,"connected_time":165000000000,"state":"active","ping":105},{"user_id":48,"name":"6 abs","steam_id":76561198048220355,"connected_time":150000000000,"state":"active","ping":96},{"user_id":49,"name":"The Sydney Sleeper Itself","steam_id":76561198180251763,"connected_time":140000000000,"state":"active","ping":47}]},{"server_id":404,"name":"Uncletopia | Dallas | 3 | All Maps","name_short":"dal-3","host":"dal-1.us.uncletopia.com","port":27035,"enabled":true,"region":"us-central","cc":"us","latitude":32.779167,"longitude":-96.80889,"reserved":0,"last_update":"0001-01-01T00:00:00Z","name_a2s":"Uncletopia | Dallas | 3 | All Maps","protocol":17,"map":"koth_nucleus","folder":"tf","game":"Team Fortress","app_id":440,"player_count":24,"max_players":24,"Bots":0,"server_type":"Dedicated","server_os":"Linux","password":true,"vac":true,"version":"7961495","steam_id":85568392924515219,"keywords":["cp","nocrits","nodmgspread","uncletopia"],"game_id":440,"stv_port":27036,"stv_name":"Uncletopia | Dallas | 3 | All Maps | STV","players":[{"user_id":105,"name":"BrainlezBrainiac","steam_id":76561199193942805,"connected_time":4654000000000,"state":"active","ping":61},{"user_id":168,"name":"Fortune","steam_id":76561198346118738,"connected_time":307000000000,"state":"active","ping":50},{"user_id":166,"name":"SaxyThePhone","steam_id":76561199439167761,"connected_time":427000000000,"state":"active","ping":72},{"user_id":152,"name":"N4G4S4K1 1S K4RK4L1C1OUS","steam_id":76561199031772797,"connected_time":1586000000000,"state":"active","ping":84},{"user_id":92,"name":"dweamy","steam_id":76561198119181880,"connected_time":5254000000000,"state":"active","ping":62},{"user_id":128,"name":"mrthugpug1732","steam_id":76561198881200768,"connected_time":2635000000000,"state":"active","ping":86},{"user_id":129,"name":"Sweet Tooth","steam_id":76561198830158092,"connected_time":2535000000000,"state":"active","ping":79},{"user_id":170,"name":"Bluedot","steam_id":76561198019909639,"connected_time":126000000000,"state":"active","ping":72},{"user_id":146,"name":"Van Tastic","steam_id":76561198063855523,"connected_time":1819000000000,"state":"active","ping":41},{"user_id":159,"name":"AstronautPug","steam_id":76561198162372709,"connected_time":1272000000000,"state":"active","ping":79},{"user_id":165,"name":"Blade Racer","steam_id":76561198155896703,"connected_time":628000000000,"state":"active","ping":74},{"user_id":171,"name":"Rukks","steam_id":76561197993918954,"connected_time":91000000000,"state":"active","ping":75},{"user_id":144,"name":"MenInHatz","steam_id":76561198825094263,"connected_time":1949000000000,"state":"active","ping":62},{"user_id":167,"name":"5-MeO-DMT","steam_id":76561198089527768,"connected_time":408000000000,"state":"active","ping":58},{"user_id":155,"name":"Da Policia","steam_id":76561198012762789,"connected_time":1426000000000,"state":"active","ping":45},{"user_id":150,"name":"Jrock","steam_id":76561198045715996,"connected_time":1619000000000,"state":"active","ping":92},{"user_id":137,"name":"Never Ovaryacting","steam_id":76561198158691254,"connected_time":2224000000000,"state":"active","ping":70},{"user_id":162,"name":"Skarp129","steam_id":76561198108679057,"connected_time":936000000000,"state":"active","ping":77},{"user_id":125,"name":"transfem atsuko kagari","steam_id":76561198217402847,"connected_time":3073000000000,"state":"active","ping":89},{"user_id":164,"name":"the grunch","steam_id":76561199013160273,"connected_time":844000000000,"state":"active","ping":66},{"user_id":153,"name":"Spicy Churro","steam_id":76561197992913147,"connected_time":1549000000000,"state":"active","ping":73},{"user_id":156,"name":"heck","steam_id":76561198315694520,"connected_time":1421000000000,"state":"active","ping":74},{"user_id":160,"name":"baunter","steam_id":76561198024311871,"connected_time":1244000000000,"state":"active","ping":71},{"user_id":169,"name":"nobody stop me","steam_id":76561198016889445,"connected_time":269000000000,"state":"active","ping":59}]},{"server_id":405,"name":"Uncletopia | Dallas | 4 | Community","name_short":"dal-4","host":"dal-1.us.uncletopia.com","port":27045,"enabled":true,"region":"us-central","cc":"us","latitude":32.779167,"longitude":-96.80889,"reserved":0,"last_update":"0001-01-01T00:00:00Z","name_a2s":"Uncletopia | Dallas | 4 | Community","protocol":17,"map":"workshop/cp_croissant_final.ugc458840209","folder":"tf","game":"Team Fortress","app_id":440,"player_count":0,"max_players":24,"Bots":0,"server_type":"Dedicated","server_os":"Linux","password":true,"vac":true,"version":"7961495","steam_id":85568392924515220,"keywords":["cp","nocrits","nodmgspread","uncletopia"],"game_id":440,"stv_port":27046,"stv_name":"Uncletopia | Dallas | 4 | Community | STV","players":null},{"server_id":5,"name":"Uncletopia | Frankfurt | 1 | All Maps","name_short":"frk-1","host":"frk-1.de.uncletopia.com","port":27015,"enabled":true,"region":"eu","cc":"de","latitude":50.110924,"longitude":8.682127,"reserved":0,"last_update":"0001-01-01T00:00:00Z","name_a2s":"Uncletopia | Frankfurt | 1 | All Maps","protocol":17,"map":"pl_pier","folder":"tf","game":"Team Fortress","app_id":440,"player_count":25,"max_players":24,"Bots":0,"server_type":"Dedicated","server_os":"Linux","password":true,"vac":true,"version":"7961495","steam_id":85568392924469989,"keywords":["nocrits","nodmgspread","payload","uncletopia"],"game_id":440,"stv_port":27016,"stv_name":"Uncletopia | Frankfurt | 1 | All Maps | STV","players":[{"user_id":241,"name":"vurtun","steam_id":76561198857395274,"connected_time":4427000000000,"state":"active","ping":48},{"user_id":293,"name":"Mr. Awki","steam_id":76561198061676496,"connected_time":930000000000,"state":"active","ping":71},{"user_id":249,"name":"NitPig","steam_id":76561198212991935,"connected_time":4312000000000,"state":"active","ping":108},{"user_id":267,"name":"Dokter Hoo","steam_id":76561198390551963,"connected_time":2767000000000,"state":"active","ping":129},{"user_id":303,"name":"HarMala","steam_id":76561198055298143,"connected_time":597000000000,"state":"active","ping":76},{"user_id":288,"name":"Çodar","steam_id":76561198235518444,"connected_time":1123000000000,"state":"active","ping":53},{"user_id":302,"name":"usuikui","steam_id":76561198093304268,"connected_time":617000000000,"state":"active","ping":85},{"user_id":300,"name":"Dzieciol","steam_id":76561198160237556,"connected_time":726000000000,"state":"active","ping":61},{"user_id":275,"name":"Murovelho","steam_id":76561198835081622,"connected_time":2163000000000,"state":"active","ping":90},{"user_id":304,"name":"redditor_gaming","steam_id":76561198176507538,"connected_time":543000000000,"state":"active","ping":78},{"user_id":305,"name":"Mind Fuzz","steam_id":76561198050079428,"connected_time":531000000000,"state":"active","ping":94},{"user_id":301,"name":"Dakeyras","steam_id":76561198057069564,"connected_time":707000000000,"state":"active","ping":110},{"user_id":285,"name":"Cringelord","steam_id":76561198020989545,"connected_time":1377000000000,"state":"active","ping":79},{"user_id":306,"name":"Josh","steam_id":76561198274546904,"connected_time":511000000000,"state":"active","ping":126},{"user_id":309,"name":"Master Of Noob","steam_id":76561198217926783,"connected_time":450000000000,"state":"active","ping":67},{"user_id":307,"name":"HayLeX","steam_id":76561198130997343,"connected_time":506000000000,"state":"active","ping":87},{"user_id":299,"name":"UndercoverFurbyHunter","steam_id":76561198265722644,"connected_time":796000000000,"state":"active","ping":89},{"user_id":310,"name":"Playback_time","steam_id":76561198349426598,"connected_time":436000000000,"state":"active","ping":45},{"user_id":313,"name":"TrustyDryingPan","steam_id":76561197994734729,"connected_time":418000000000,"state":"active","ping":71},{"user_id":290,"name":"Jeremy265","steam_id":76561199004316549,"connected_time":1049000000000,"state":"active","ping":118},{"user_id":312,"name":"[000000]SHINOBI","steam_id":76561198202707327,"connected_time":424000000000,"state":"active","ping":69},{"user_id":314,"name":"post-nuke jerma","steam_id":76561198094268619,"connected_time":400000000000,"state":"active","ping":59},{"user_id":287,"name":"Królicki_","steam_id":76561199109915352,"connected_time":1223000000000,"state":"active","ping":53},{"user_id":326,"name":"gamerkiddo","steam_id":76561198047380360,"connected_time":163000000000,"state":"active","ping":58},{"user_id":334,"name":"he he he haw","steam_id":76561198419323571,"connected_time":8000000000,"state":"spawning","ping":86}]},{"server_id":110,"name":"Uncletopia | Frankfurt | 2 | All Maps","name_short":"frk-2","host":"frk-1.de.uncletopia.com","port":27025,"enabled":true,"region":"eu","cc":"de","latitude":50.110924,"longitude":8.682127,"reserved":0,"last_update":"0001-01-01T00:00:00Z","name_a2s":"Uncletopia | Frankfurt | 2 | All Maps","protocol":17,"map":"cp_dustbowl","folder":"tf","game":"Team Fortress","app_id":440,"player_count":2,"max_players":24,"Bots":0,"server_type":"Dedicated","server_os":"Linux","password":true,"vac":true,"version":"7961495","steam_id":85568392924469990,"keywords":["cp","nocrits","nodmgspread","uncletopia"],"game_id":440,"stv_port":27026,"stv_name":"Uncletopia | Frankfurt | 2 | All Maps | STV","players":[{"user_id":215,"name":"Leviticus Cornwall","steam_id":76561197993702685,"connected_time":602000000000,"state":"active","ping":96},{"user_id":212,"name":"housing crisis#savetf2","steam_id":76561198119984382,"connected_time":1165000000000,"state":"active","ping":59}]},{"server_id":308,"name":"Uncletopia | Frankfurt | 3 | All Maps","name_short":"frk-3","host":"frk-1.de.uncletopia.com","port":27035,"enabled":true,"region":"eu","cc":"de","latitude":50.110924,"longitude":8.682127,"reserved":0,"last_update":"0001-01-01T00:00:00Z","name_a2s":"Uncletopia | Frankfurt | 3 | All Maps","protocol":17,"map":"plr_hightower","folder":"tf","game":"Team Fortress","app_id":440,"player_count":24,"max_players":24,"Bots":0,"server_type":"Dedicated","server_os":"Linux","password":true,"vac":true,"version":"7961495","steam_id":85568392924504274,"keywords":["nocrits","nodmgspread","payload","uncletopia"],"game_id":440,"stv_port":27036,"stv_name":"Uncletopia | Frankfurt | 3 | All Maps | STV","players":[{"user_id":73,"name":"Versunix","steam_id":76561197978073496,"connected_time":4307000000000,"state":"active","ping":63},{"user_id":107,"name":"Cactus enjoyer","steam_id":76561198158608309,"connected_time":2467000000000,"state":"active","ping":60},{"user_id":66,"name":"PROFILE NAME","steam_id":76561198180056982,"connected_time":4614000000000,"state":"active","ping":68},{"user_id":105,"name":"Storm's Foreshadow","steam_id":76561198098462526,"connected_time":2495000000000,"state":"active","ping":56},{"user_id":62,"name":"y0stErCix","steam_id":76561198219698192,"connected_time":4767000000000,"state":"active","ping":72},{"user_id":94,"name":"Anri Okita's Massive Milkers","steam_id":76561199186352720,"connected_time":3701000000000,"state":"active","ping":60},{"user_id":19,"name":"dexter","steam_id":76561198937297906,"connected_time":7067000000000,"state":"active","ping":96},{"user_id":129,"name":"Laru","steam_id":76561197998838438,"connected_time":404000000000,"state":"active","ping":76},{"user_id":114,"name":"Chappi","steam_id":76561198075512843,"connected_time":1485000000000,"state":"active","ping":109},{"user_id":117,"name":"Doecheldorf","steam_id":76561198291628630,"connected_time":1122000000000,"state":"active","ping":59},{"user_id":118,"name":".l.","steam_id":76561198343328308,"connected_time":1115000000000,"state":"active","ping":49},{"user_id":116,"name":"ko","steam_id":76561198010098129,"connected_time":1327000000000,"state":"active","ping":75},{"user_id":132,"name":"Delere","steam_id":76561198061309755,"connected_time":141000000000,"state":"active","ping":125},{"user_id":100,"name":"\u003cCH\u003e λ T T O S Z","steam_id":76561198043438734,"connected_time":3228000000000,"state":"active","ping":60},{"user_id":74,"name":"Gorgeous George","steam_id":76561198144256544,"connected_time":4267000000000,"state":"active","ping":60},{"user_id":122,"name":"re-uncrippled man","steam_id":76561198153476652,"connected_time":926000000000,"state":"active","ping":77},{"user_id":79,"name":"Jagel","steam_id":76561198054944725,"connected_time":4203000000000,"state":"active","ping":63},{"user_id":130,"name":"Fedm","steam_id":76561199020090514,"connected_time":259000000000,"state":"active","ping":74},{"user_id":112,"name":"Rodia","steam_id":76561197968293161,"connected_time":1695000000000,"state":"active","ping":63},{"user_id":128,"name":"Andreus","steam_id":76561199403926001,"connected_time":639000000000,"state":"active","ping":68},{"user_id":133,"name":"Chopperson_","steam_id":76561198873728497,"connected_time":16000000000,"state":"spawning","ping":93},{"user_id":39,"name":"literallyjasonx","steam_id":76561198835895387,"connected_time":6497000000000,"state":"active","ping":70},{"user_id":126,"name":"KGiorgios_Bully","steam_id":76561198825392728,"connected_time":832000000000,"state":"active","ping":107},{"user_id":60,"name":"Quartermistress","steam_id":76561198140199123,"connected_time":5023000000000,"state":"active","ping":61}]},{"server_id":309,"name":"Uncletopia | Frankfurt | 4 | All Maps","name_short":"frk-4","host":"frk-1.de.uncletopia.com","port":27045,"enabled":true,"region":"eu","cc":"de","latitude":50.110924,"longitude":8.682127,"reserved":0,"last_update":"0001-01-01T00:00:00Z","name_a2s":"Uncletopia | Frankfurt | 4 | All Maps","protocol":17,"map":"pl_pier","folder":"tf","game":"Team Fortress","app_id":440,"player_count":7,"max_players":24,"Bots":0,"server_type":"Dedicated","server_os":"Linux","password":true,"vac":true,"version":"7961495","steam_id":85568392924504275,"keywords":["nocrits","nodmgspread","payload","uncletopia"],"game_id":440,"stv_port":27046,"stv_name":"Uncletopia | Frankfurt | 4 | All Maps | STV","players":[{"user_id":206,"name":"galaxy","steam_id":76561198164819022,"connected_time":1517000000000,"state":"active","ping":61},{"user_id":184,"name":"Hyperwizard of Space Conquest","steam_id":76561198953210459,"connected_time":4411000000000,"state":"active","ping":91},{"user_id":208,"name":"alice","steam_id":76561198269200388,"connected_time":1277000000000,"state":"active","ping":74},{"user_id":187,"name":"ardababa785","steam_id":76561199086545990,"connected_time":3400000000000,"state":"active","ping":49},{"user_id":214,"name":"Mateusz Ƿαρŕστηιҝ","steam_id":76561198420162435,"connected_time":474000000000,"state":"active","ping":80},{"user_id":210,"name":"DeterminedXD[HUN]","steam_id":76561199469006453,"connected_time":1158000000000,"state":"active","ping":88},{"user_id":211,"name":"Laitse","steam_id":76561198073247480,"connected_time":1154000000000,"state":"active","ping":106}]},{"server_id":310,"name":"Uncletopia | Frankfurt | 5 | All Maps","name_short":"frk-5","host":"frk-1.de.uncletopia.com","port":27055,"enabled":true,"region":"eu","cc":"de","latitude":50.110924,"longitude":8.682127,"reserved":0,"last_update":"0001-01-01T00:00:00Z","name_a2s":"Uncletopia | Frankfurt | 5 | All Maps","protocol":17,"map":"pl_upward","folder":"tf","game":"Team Fortress","app_id":440,"player_count":22,"max_players":24,"Bots":0,"server_type":"Dedicated","server_os":"Linux","password":true,"vac":true,"version":"7961495","steam_id":85568392924504277,"keywords":["nocrits","nodmgspread","payload","uncletopia"],"game_id":440,"stv_port":27056,"stv_name":"Uncletopia | Frankfurt | 5 | All Maps | STV","players":[{"user_id":236,"name":"WIZARD","steam_id":76561198199570742,"connected_time":5847000000000,"state":"active","ping":93},{"user_id":337,"name":"k.","steam_id":76561198258197649,"connected_time":20000000000,"state":"active","ping":82},{"user_id":307,"name":"slnc","steam_id":76561198041151496,"connected_time":1406000000000,"state":"active","ping":64},{"user_id":330,"name":"DevFish","steam_id":76561199010456751,"connected_time":231000000000,"state":"active","ping":52},{"user_id":302,"name":"M Nsky","steam_id":76561198011749653,"connected_time":2024000000000,"state":"active","ping":60},{"user_id":331,"name":"Dr. Sus","steam_id":76561198344435644,"connected_time":225000000000,"state":"active","ping":61},{"user_id":309,"name":"dgz","steam_id":76561197979345019,"connected_time":1371000000000,"state":"active","ping":76},{"user_id":296,"name":"diarrea inoculada 2000","steam_id":76561198412197820,"connected_time":2224000000000,"state":"active","ping":69},{"user_id":322,"name":"SissifiedBlackGuy","steam_id":76561199509261527,"connected_time":454000000000,"state":"active","ping":97},{"user_id":318,"name":"bady_3","steam_id":76561199030975778,"connected_time":519000000000,"state":"active","ping":142},{"user_id":310,"name":"Iris","steam_id":76561198430295815,"connected_time":1362000000000,"state":"active","ping":67},{"user_id":334,"name":"BurningJoke","steam_id":76561199014358707,"connected_time":107000000000,"state":"active","ping":48},{"user_id":335,"name":"nordstream bomber","steam_id":76561199401283123,"connected_time":92000000000,"state":"active","ping":53},{"user_id":333,"name":"tay","steam_id":76561198202990635,"connected_time":208000000000,"state":"active","ping":60},{"user_id":324,"name":"sammy","steam_id":76561199500132317,"connected_time":445000000000,"state":"active","ping":191},{"user_id":327,"name":"hamster bigger than human","steam_id":76561199297010083,"connected_time":363000000000,"state":"active","ping":89},{"user_id":336,"name":"Mébh Óg MacTíre","steam_id":76561198346399624,"connected_time":28000000000,"state":"active","ping":61},{"user_id":289,"name":"citronous","steam_id":76561198093290934,"connected_time":2530000000000,"state":"active","ping":55},{"user_id":338,"name":"Ardello","steam_id":76561198864484125,"connected_time":19000000000,"state":"spawning","ping":98},{"user_id":303,"name":"Hellheim_Prime","steam_id":76561198379799377,"connected_time":1795000000000,"state":"active","ping":90},{"user_id":295,"name":"⨂","steam_id":76561198087800030,"connected_time":2290000000000,"state":"active","ping":45},{"user_id":339,"name":"Bonca","steam_id":76561198137503531,"connected_time":11000000000,"state":"spawning","ping":83}]},{"server_id":311,"name":"Uncletopia | Frankfurt | 6 | All Maps","name_short":"frk-6","host":"frk-1.de.uncletopia.com","port":27065,"enabled":true,"region":"eu","cc":"de","latitude":50.110924,"longitude":8.682127,"reserved":0,"last_update":"0001-01-01T00:00:00Z","name_a2s":"Uncletopia | Frankfurt | 6 | All Maps","protocol":17,"map":"koth_viaduct","folder":"tf","game":"Team Fortress","app_id":440,"player_count":0,"max_players":24,"Bots":0,"server_type":"Dedicated","server_os":"Linux","password":true,"vac":true,"version":"7961495","steam_id":85568392924504278,"keywords":["cp","nocrits","nodmgspread","uncletopia"],"game_id":440,"stv_port":27066,"stv_name":"Uncletopia | Frankfurt | 6 | All Maps | STV","players":null},{"server_id":23,"name":"Uncletopia | Frankfurt | 7 | Stopwatch","name_short":"frk-7","host":"frk-1.de.uncletopia.com","port":27075,"enabled":true,"region":"eu","cc":"de","latitude":50.110924,"longitude":8.682127,"reserved":0,"last_update":"0001-01-01T00:00:00Z","name_a2s":"Uncletopia | Frankfurt | 7 | Stopwatch","protocol":17,"map":"cp_metalworks","folder":"tf","game":"Team Fortress","app_id":440,"player_count":0,"max_players":24,"Bots":0,"server_type":"Dedicated","server_os":"Linux","password":true,"vac":true,"version":"7961495","steam_id":85568392924742827,"keywords":["cp","nocrits","nodmgspread","uncletopia"],"game_id":440,"stv_port":27076,"stv_name":"Uncletopia | Frankfurt | 7 | Stopwatch | STV","players":null},{"server_id":24,"name":"Uncletopia | Frankfurt | 8 | Community","name_short":"frk-8","host":"frk-1.de.uncletopia.com","port":27085,"enabled":true,"region":"eu","cc":"de","latitude":50.110924,"longitude":8.682127,"reserved":0,"last_update":"0001-01-01T00:00:00Z","name_a2s":"Uncletopia | Frankfurt | 8 | Community","protocol":17,"map":"workshop/pl_divulgence_b4b.ugc2884808746","folder":"tf","game":"Team Fortress","app_id":440,"player_count":0,"max_players":24,"Bots":0,"server_type":"Dedicated","server_os":"Linux","password":true,"vac":true,"version":"7961495","steam_id":85568392924742828,"keywords":["nocrits","nodmgspread","payload","uncletopia"],"game_id":440,"stv_port":27086,"stv_name":"Uncletopia | Frankfurt | 8 | Community | STV","players":null},{"server_id":202,"name":"Uncletopia | Hong Kong | 1 | All Maps","name_short":"hgk-1","host":"hgk-1.hk.uncletopia.com","port":27015,"enabled":true,"region":"asia","cc":"hk","latitude":22.302711,"longitude":114.177216,"reserved":0,"last_update":"0001-01-01T00:00:00Z","name_a2s":"Uncletopia | Hong Kong | 1 | All Maps","protocol":17,"map":"koth_cascade","folder":"tf","game":"Team Fortress","app_id":440,"player_count":0,"max_players":24,"Bots":0,"server_type":"Dedicated","server_os":"Linux","password":true,"vac":true,"version":"7961495","steam_id":85568392924494504,"keywords":["cp","nocrits","nodmgspread","uncletopia"],"game_id":440,"stv_port":27016,"stv_name":"Uncletopia | Hong Kong | 1 | All Maps | STV","players":null},{"server_id":1,"name":"Uncletopia | Los Angeles | 1 | All Maps","name_short":"lax-1","host":"lax-1.us.uncletopia.com","port":27015,"enabled":true,"region":"us-west","cc":"us","latitude":33.94279,"longitude":-118.41004,"reserved":0,"last_update":"0001-01-01T00:00:00Z","name_a2s":"Uncletopia | Los Angeles | 1 | All Maps","protocol":17,"map":"koth_lakeside_final","folder":"tf","game":"Team Fortress","app_id":440,"player_count":0,"max_players":24,"Bots":0,"server_type":"Dedicated","server_os":"Linux","password":true,"vac":true,"version":"7961495","steam_id":85568392924469991,"keywords":["cp","nocrits","nodmgspread","uncletopia"],"game_id":440,"stv_port":27016,"stv_name":"Uncletopia | Los Angeles | 1 | All Maps | STV","players":null},{"server_id":112,"name":"Uncletopia | Los Angeles | 2 | All Maps","name_short":"lax-2","host":"lax-1.us.uncletopia.com","port":27025,"enabled":true,"region":"us-west","cc":"us","latitude":33.94279,"longitude":-118.41004,"reserved":0,"last_update":"0001-01-01T00:00:00Z","name_a2s":"Uncletopia | Los Angeles | 2 | All Maps","protocol":17,"map":"koth_lazarus","folder":"tf","game":"Team Fortress","app_id":440,"player_count":0,"max_players":24,"Bots":0,"server_type":"Dedicated","server_os":"Linux","password":true,"vac":true,"version":"7961495","steam_id":85568392924469992,"keywords":["cp","nocrits","nodmgspread","uncletopia"],"game_id":440,"stv_port":27026,"stv_name":"Uncletopia | Los Angeles | 2 | All Maps | STV","players":null},{"server_id":324,"name":"Uncletopia | Los Angeles | 3 | All Maps","name_short":"lax-3","host":"lax-1.us.uncletopia.com","port":27035,"enabled":true,"region":"us-west","cc":"us","latitude":33.94279,"longitude":-118.41004,"reserved":0,"last_update":"0001-01-01T00:00:00Z","name_a2s":"Uncletopia | Los Angeles | 3 | All Maps","protocol":17,"map":"pl_frontier_final","folder":"tf","game":"Team Fortress","app_id":440,"player_count":0,"max_players":24,"Bots":0,"server_type":"Dedicated","server_os":"Linux","password":true,"vac":true,"version":"7961495","steam_id":85568392924510198,"keywords":["nocrits","nodmgspread","payload","uncletopia"],"game_id":440,"stv_port":27036,"stv_name":"Uncletopia | Los Angeles | 3 | All Maps | STV","players":null},{"server_id":25,"name":"Uncletopia | Los Angeles | 4 | Stopwatch","name_short":"lax-4","host":"lax-1.us.uncletopia.com","port":27045,"enabled":true,"region":"us-west","cc":"us","latitude":33.94279,"longitude":-118.41004,"reserved":0,"last_update":"0001-01-01T00:00:00Z","name_a2s":"Uncletopia | Los Angeles | 4 | Stopwatch","protocol":17,"map":"workshop/koth_bagel_rc6.ugc2514036946","folder":"tf","game":"Team Fortress","app_id":440,"player_count":0,"max_players":24,"Bots":0,"server_type":"Dedicated","server_os":"Linux","password":true,"vac":true,"version":"7961495","steam_id":85568392924510199,"keywords":["cp","nocrits","nodmgspread","uncletopia"],"game_id":440,"stv_port":27046,"stv_name":"Uncletopia | Los Angeles | 4 | Stopwatch | STV","players":null},{"server_id":11,"name":"Uncletopia | London | 1 | All Maps","name_short":"lon-1","host":"lon-1.uk.uncletopia.com","port":27015,"enabled":true,"region":"eu","cc":"gb","latitude":51.509865,"longitude":-0.118092,"reserved":0,"last_update":"0001-01-01T00:00:00Z","name_a2s":"Uncletopia | London | 1 | All Maps","protocol":17,"map":"pl_badwater","folder":"tf","game":"Team Fortress","app_id":440,"player_count":24,"max_players":24,"Bots":0,"server_type":"Dedicated","server_os":"Linux","password":true,"vac":true,"version":"7961495","steam_id":85568392924367362,"keywords":["nocrits","nodmgspread","payload","uncletopia"],"game_id":440,"stv_port":27016,"stv_name":"Uncletopia | London | 1 | All Maps | STV","players":[{"user_id":289,"name":"Optimist 50","steam_id":76561198039631442,"connected_time":4114000000000,"state":"active","ping":82},{"user_id":253,"name":"Pride moth","steam_id":76561198799133372,"connected_time":5801000000000,"state":"active","ping":93},{"user_id":300,"name":"Seal","steam_id":76561198244988552,"connected_time":3264000000000,"state":"active","ping":70},{"user_id":316,"name":"AnimeGirl(real)","steam_id":76561199062433944,"connected_time":2796000000000,"state":"active","ping":133},{"user_id":321,"name":"unconditional love","steam_id":76561199026097466,"connected_time":2145000000000,"state":"active","ping":71},{"user_id":331,"name":"YuraGreek","steam_id":76561198050182252,"connected_time":545000000000,"state":"active","ping":90},{"user_id":334,"name":"Hardlight","steam_id":76561198128064834,"connected_time":210000000000,"state":"active","ping":70},{"user_id":328,"name":"cuban pete","steam_id":76561198043601838,"connected_time":1401000000000,"state":"active","ping":60},{"user_id":326,"name":"Slifer","steam_id":76561198062255803,"connected_time":1633000000000,"state":"active","ping":73},{"user_id":297,"name":"Nick","steam_id":76561198036109469,"connected_time":3467000000000,"state":"active","ping":104},{"user_id":311,"name":"Paulo Doutor","steam_id":76561198168674032,"connected_time":2995000000000,"state":"active","ping":69},{"user_id":329,"name":"socaramel","steam_id":76561197984480336,"connected_time":1178000000000,"state":"active","ping":77},{"user_id":335,"name":"waahh im baby gugu gaga im cry","steam_id":76561198190583242,"connected_time":7000000000,"state":"active","ping":180},{"user_id":298,"name":"Kahvi","steam_id":76561198723244199,"connected_time":3394000000000,"state":"active","ping":88},{"user_id":327,"name":"Son Goku","steam_id":76561199383437138,"connected_time":1633000000000,"state":"active","ping":122},{"user_id":280,"name":"Fran","steam_id":76561199070516960,"connected_time":4666000000000,"state":"active","ping":77},{"user_id":279,"name":"tired","steam_id":76561198046838168,"connected_time":4735000000000,"state":"active","ping":58},{"user_id":320,"name":"Archer","steam_id":76561197994239444,"connected_time":2150000000000,"state":"active","ping":117},{"user_id":278,"name":"lugi","steam_id":76561198026903673,"connected_time":4909000000000,"state":"active","ping":71},{"user_id":315,"name":"LivEssense","steam_id":76561198052476979,"connected_time":2866000000000,"state":"active","ping":89},{"user_id":301,"name":"Joel!","steam_id":76561198155422742,"connected_time":3264000000000,"state":"active","ping":41},{"user_id":218,"name":"The Subway Scientist","steam_id":76561198193757646,"connected_time":7849000000000,"state":"active","ping":45},{"user_id":323,"name":"Jughead","steam_id":76561198000355410,"connected_time":1757000000000,"state":"active","ping":52},{"user_id":302,"name":"Lux","steam_id":76561198060417740,"connected_time":3263000000000,"state":"active","ping":47}]},{"server_id":114,"name":"Uncletopia | London | 2 | All Maps","name_short":"lon-2","host":"lon-1.uk.uncletopia.com","port":27025,"enabled":true,"region":"eu","cc":"gb","latitude":51.509865,"longitude":-0.118092,"reserved":0,"last_update":"0001-01-01T00:00:00Z","name_a2s":"Uncletopia | London | 2 | All Maps","protocol":17,"map":"pl_snowycoast","folder":"tf","game":"Team Fortress","app_id":440,"player_count":0,"max_players":24,"Bots":0,"server_type":"Dedicated","server_os":"Linux","password":true,"vac":true,"version":"7961495","steam_id":85568392924470941,"keywords":["nocrits","nodmgspread","payload","uncletopia"],"game_id":440,"stv_port":27026,"stv_name":"Uncletopia | London | 2 | All Maps | STV","players":null},{"server_id":320,"name":"Uncletopia | London | 3 | All Maps","name_short":"lon-3","host":"lon-1.uk.uncletopia.com","port":27035,"enabled":true,"region":"eu","cc":"gb","latitude":51.509865,"longitude":-0.118092,"reserved":0,"last_update":"0001-01-01T00:00:00Z","name_a2s":"Uncletopia | London | 3 | All Maps","protocol":17,"map":"plr_hightower","folder":"tf","game":"Team Fortress","app_id":440,"player_count":24,"max_players":24,"Bots":0,"server_type":"Dedicated","server_os":"Linux","password":true,"vac":true,"version":"7961495","steam_id":85568392924510192,"keywords":["nocrits","nodmgspread","payload","uncletopia"],"game_id":440,"stv_port":27036,"stv_name":"Uncletopia | London | 3 | All Maps | STV","players":[{"user_id":316,"name":"The Daniella","steam_id":76561198023075547,"connected_time":1264000000000,"state":"active","ping":64},{"user_id":312,"name":"DemonBolt","steam_id":76561198190409861,"connected_time":1441000000000,"state":"active","ping":75},{"user_id":291,"name":"---","steam_id":76561198092283741,"connected_time":2271000000000,"state":"active","ping":55},{"user_id":333,"name":"Assassin+","steam_id":76561197994310420,"connected_time":309000000000,"state":"active","ping":71},{"user_id":315,"name":"meriones","steam_id":76561198034234373,"connected_time":1318000000000,"state":"active","ping":42},{"user_id":247,"name":"Jesus","steam_id":76561199106262610,"connected_time":6610000000000,"state":"active","ping":62},{"user_id":289,"name":"jodakeks","steam_id":76561199008619409,"connected_time":2416000000000,"state":"active","ping":76},{"user_id":278,"name":"keleos82","steam_id":76561198123916013,"connected_time":3677000000000,"state":"active","ping":69},{"user_id":255,"name":"James","steam_id":76561198168882012,"connected_time":6191000000000,"state":"active","ping":54},{"user_id":292,"name":"Dr. Funkenstein","steam_id":76561197977816210,"connected_time":2239000000000,"state":"active","ping":56},{"user_id":336,"name":"Son Heung-Min","steam_id":76561198314364201,"connected_time":74000000000,"state":"active","ping":63},{"user_id":335,"name":"marvi444","steam_id":76561198431534139,"connected_time":189000000000,"state":"connecting","ping":64},{"user_id":259,"name":"Swayer","steam_id":76561198056192460,"connected_time":5690000000000,"state":"active","ping":61},{"user_id":308,"name":"Schwerer Panzerspähwagen","steam_id":76561199062437546,"connected_time":1583000000000,"state":"active","ping":57},{"user_id":329,"name":"TheMytant","steam_id":76561198407880855,"connected_time":608000000000,"state":"active","ping":137},{"user_id":306,"name":"ruschca","steam_id":76561198041966522,"connected_time":1608000000000,"state":"active","ping":44},{"user_id":337,"name":"louisblue2805","steam_id":76561199487364750,"connected_time":55000000000,"state":"active","ping":69},{"user_id":307,"name":"BakedGecko","steam_id":76561198011015750,"connected_time":1608000000000,"state":"active","ping":52},{"user_id":298,"name":"Ciupa Killer","steam_id":76561199409674527,"connected_time":2081000000000,"state":"active","ping":77},{"user_id":338,"name":"gitlitwitit","steam_id":76561197980019054,"connected_time":46000000000,"state":"active","ping":59},{"user_id":331,"name":"TheEventGuy","steam_id":76561197972797744,"connected_time":492000000000,"state":"active","ping":74},{"user_id":339,"name":"Crispy","steam_id":76561198027957907,"connected_time":45000000000,"state":"active","ping":63},{"user_id":322,"name":"𐂃","steam_id":76561198874987906,"connected_time":1035000000000,"state":"active","ping":62},{"user_id":340,"name":"romov","steam_id":76561199182288871,"connected_time":2000000000,"state":"spawning","ping":100}]},{"server_id":321,"name":"Uncletopia | London | 4 | All Maps","name_short":"lon-4","host":"lon-1.uk.uncletopia.com","port":27045,"enabled":true,"region":"eu","cc":"gb","latitude":51.509865,"longitude":-0.118092,"reserved":0,"last_update":"0001-01-01T00:00:00Z","name_a2s":"Uncletopia | London | 4 | All Maps","protocol":17,"map":"pl_barnblitz","folder":"tf","game":"Team Fortress","app_id":440,"player_count":18,"max_players":24,"Bots":0,"server_type":"Dedicated","server_os":"Linux","password":true,"vac":true,"version":"7961495","steam_id":85568392924510193,"keywords":["nocrits","nodmgspread","payload","uncletopia"],"game_id":440,"stv_port":27046,"stv_name":"Uncletopia | London | 4 | All Maps | STV","players":[{"user_id":340,"name":"kaelan","steam_id":76561198001425310,"connected_time":346000000000,"state":"active","ping":74},{"user_id":326,"name":"ShadowRaze","steam_id":76561198322672808,"connected_time":1466000000000,"state":"active","ping":88},{"user_id":301,"name":"I-I","steam_id":76561198267969436,"connected_time":2050000000000,"state":"active","ping":74},{"user_id":344,"name":"biohazard.pt","steam_id":76561198088367808,"connected_time":173000000000,"state":"active","ping":67},{"user_id":348,"name":"Acid","steam_id":76561198029047079,"connected_time":81000000000,"state":"connecting","ping":44},{"user_id":304,"name":"Dont Rely on me, im very bad","steam_id":76561198362116755,"connected_time":2000000000000,"state":"active","ping":177},{"user_id":349,"name":"nafaszom","steam_id":76561198091175167,"connected_time":53000000000,"state":"spawning","ping":65},{"user_id":337,"name":"Ergas","steam_id":76561198860861032,"connected_time":410000000000,"state":"active","ping":66},{"user_id":343,"name":"Femto","steam_id":76561198044307112,"connected_time":246000000000,"state":"active","ping":69},{"user_id":350,"name":"isaku","steam_id":76561198092648865,"connected_time":0,"state":"spawning","ping":56},{"user_id":334,"name":"TheFox.tf","steam_id":76561197996851702,"connected_time":491000000000,"state":"active","ping":60},{"user_id":341,"name":"Hundehunde (137)","steam_id":76561198028683991,"connected_time":321000000000,"state":"active","ping":45},{"user_id":342,"name":"rockBustaz","steam_id":76561198088290698,"connected_time":320000000000,"state":"active","ping":42},{"user_id":345,"name":"Hoovy :]","steam_id":76561198418767816,"connected_time":165000000000,"state":"active","ping":84},{"user_id":346,"name":"Metagamermario","steam_id":76561199417190355,"connected_time":149000000000,"state":"active","ping":136},{"user_id":265,"name":"Penis Contortionist","steam_id":76561198073663784,"connected_time":5306000000000,"state":"active","ping":34},{"user_id":347,"name":"goofster","steam_id":76561199052275857,"connected_time":105000000000,"state":"active","ping":106},{"user_id":319,"name":"Ampiong99","steam_id":76561199245197481,"connected_time":1667000000000,"state":"active","ping":58}]},{"server_id":21,"name":"Uncletopia | London | 5 | All Maps","name_short":"lon-5","host":"lon-1.uk.uncletopia.com","port":27055,"enabled":true,"region":"eu","cc":"gb","latitude":51.509865,"longitude":-0.118092,"reserved":0,"last_update":"0001-01-01T00:00:00Z","name_a2s":"Uncletopia | London | 5 | All Maps","protocol":17,"map":"pl_badwater","folder":"tf","game":"Team Fortress","app_id":440,"player_count":24,"max_players":24,"Bots":0,"server_type":"Dedicated","server_os":"Linux","password":true,"vac":true,"version":"7961495","steam_id":85568392924742829,"keywords":["nocrits","nodmgspread","payload","uncletopia"],"game_id":440,"stv_port":27056,"stv_name":"Uncletopia | London | 5 | All Maps | STV","players":[{"user_id":114,"name":"baver","steam_id":76561198135293142,"connected_time":333000000000,"state":"active","ping":63},{"user_id":82,"name":"0.01 of Germs","steam_id":76561199006462039,"connected_time":1872000000000,"state":"active","ping":62},{"user_id":117,"name":"generic alias","steam_id":76561198271607226,"connected_time":193000000000,"state":"active","ping":96},{"user_id":104,"name":"cof","steam_id":76561199128417805,"connected_time":613000000000,"state":"active","ping":50},{"user_id":83,"name":"Egor Pomidor","steam_id":76561199175688390,"connected_time":1869000000000,"state":"active","ping":87},{"user_id":81,"name":"wavelength","steam_id":76561198154677956,"connected_time":1921000000000,"state":"active","ping":81},{"user_id":88,"name":"Grillem Dafoe","steam_id":76561198306874574,"connected_time":1551000000000,"state":"active","ping":57},{"user_id":110,"name":"Keroz1n","steam_id":76561197998681491,"connected_time":463000000000,"state":"active","ping":79},{"user_id":105,"name":"luckyastroman","steam_id":76561199027500574,"connected_time":593000000000,"state":"active","ping":76},{"user_id":101,"name":"SpinnyVinny","steam_id":76561198356116829,"connected_time":998000000000,"state":"active","ping":59},{"user_id":92,"name":"Ullr","steam_id":76561198140547483,"connected_time":1457000000000,"state":"active","ping":39},{"user_id":119,"name":"brtaba","steam_id":76561198796334790,"connected_time":172000000000,"state":"active","ping":71},{"user_id":118,"name":"Lorents","steam_id":76561198796919618,"connected_time":182000000000,"state":"active","ping":70},{"user_id":120,"name":"Dolcelatte","steam_id":76561198038501770,"connected_time":142000000000,"state":"active","ping":68},{"user_id":100,"name":"The Dingler","steam_id":76561198103010294,"connected_time":1051000000000,"state":"active","ping":59},{"user_id":59,"name":"Anabolic minion","steam_id":76561198377533237,"connected_time":2582000000000,"state":"active","ping":71},{"user_id":108,"name":"Xx_Dr. Benjamin Stoner_xX","steam_id":76561198796374683,"connected_time":547000000000,"state":"active","ping":97},{"user_id":121,"name":"CMDR Pandora!","steam_id":76561198077335389,"connected_time":140000000000,"state":"active","ping":108},{"user_id":90,"name":"Reihenhausbewohner","steam_id":76561198049820307,"connected_time":1541000000000,"state":"active","ping":44},{"user_id":123,"name":"Dave The Sloth","steam_id":76561199135831355,"connected_time":125000000000,"state":"active","ping":60},{"user_id":122,"name":"night.s","steam_id":76561198326287823,"connected_time":137000000000,"state":"active","ping":68},{"user_id":96,"name":"Hox","steam_id":76561198977801115,"connected_time":1245000000000,"state":"active","ping":83},{"user_id":111,"name":"RebirthInFire","steam_id":76561198200555755,"connected_time":442000000000,"state":"active","ping":53},{"user_id":115,"name":"StormyRice","steam_id":76561198129971386,"connected_time":281000000000,"state":"active","ping":52}]},{"server_id":22,"name":"Uncletopia | London | 6 | All Maps","name_short":"lon-6","host":"lon-1.uk.uncletopia.com","port":27065,"enabled":true,"region":"eu","cc":"gb","latitude":51.509865,"longitude":-0.118092,"reserved":0,"last_update":"0001-01-01T00:00:00Z","name_a2s":"Uncletopia | London | 6 | All Maps","protocol":17,"map":"pl_upward","folder":"tf","game":"Team Fortress","app_id":440,"player_count":0,"max_players":24,"Bots":0,"server_type":"Dedicated","server_os":"Linux","password":true,"vac":true,"version":"7961495","steam_id":85568392924742830,"keywords":["nocrits","nodmgspread","payload","uncletopia"],"game_id":440,"stv_port":27066,"stv_name":"Uncletopia | London | 6 | All Maps | STV","players":null},{"server_id":40,"name":"Uncletopia | London | 7 | Stopwatch","name_short":"lon-7","host":"lon-1.uk.uncletopia.com","port":27075,"enabled":true,"region":"eu","cc":"gb","latitude":51.509865,"longitude":-0.118092,"reserved":0,"last_update":"0001-01-01T00:00:00Z","name_a2s":"Uncletopia | London | 7 | Stopwatch","protocol":17,"map":"pl_upward","folder":"tf","game":"Team Fortress","app_id":440,"player_count":0,"max_players":24,"Bots":0,"server_type":"Dedicated","server_os":"Linux","password":true,"vac":true,"version":"7961495","steam_id":85568392924964314,"keywords":["nocrits","nodmgspread","payload","uncletopia"],"game_id":440,"stv_port":27076,"stv_name":"Uncletopia | London | 7 | Stopwatch | STV","players":null},{"server_id":41,"name":"Uncletopia | London | 8 | Community","name_short":"lon-8","host":"lon-1.uk.uncletopia.com","port":27085,"enabled":true,"region":"eu","cc":"gb","latitude":51.509865,"longitude":-0.118092,"reserved":0,"last_update":"0001-01-01T00:00:00Z","name_a2s":"Uncletopia | London | 8 | Community","protocol":17,"map":"workshop/cp_propaganda_b18.ugc1603743849","folder":"tf","game":"Team Fortress","app_id":440,"player_count":0,"max_players":24,"Bots":0,"server_type":"Dedicated","server_os":"Linux","password":true,"vac":true,"version":"7961495","steam_id":85568392924964315,"keywords":["cp","nocrits","nodmgspread","uncletopia"],"game_id":440,"stv_port":27086,"stv_name":"Uncletopia | London | 8 | Community | STV","players":null},{"server_id":300,"name":"Uncletopia | Montréal | 1 | One Thousand Uncles","name_short":"mtl-1","host":"mtl-1.ca.uncletopia.com","port":27015,"enabled":true,"region":"us-east","cc":"ca","latitude":45.50889,"longitude":-73.56167,"reserved":0,"last_update":"0001-01-01T00:00:00Z","name_a2s":"Uncletopia | Montréal | 1 | One Thousand Uncles","protocol":17,"map":"pl_barnblitz","folder":"tf","game":"Team Fortress","app_id":440,"player_count":30,"max_players":32,"Bots":20,"server_type":"Dedicated","server_os":"Linux","password":true,"vac":true,"version":"7961495","steam_id":85568392924500087,"keywords":["alltalk","bots","danepve","increased_maxplayers","norespawntime","payload","uncletopia"],"game_id":440,"stv_port":0,"stv_name":"","players":[{"user_id":83,"name":"Go1deN","steam_id":76561198889933398,"connected_time":410000000000,"state":"active","ping":95},{"user_id":69,"name":"Jacob Deveau","steam_id":76561198997341499,"connected_time":3684000000000,"state":"active","ping":54},{"user_id":66,"name":"Enzo","steam_id":76561197975076681,"connected_time":4672000000000,"state":"active","ping":61},{"user_id":70,"name":"ChebJeb","steam_id":76561198981377081,"connected_time":3558000000000,"state":"active","ping":85},{"user_id":79,"name":"zdgd11","steam_id":76561199364025245,"connected_time":1041000000000,"state":"active","ping":114},{"user_id":76,"name":"DeepDive","steam_id":76561198140542184,"connected_time":1873000000000,"state":"active","ping":52},{"user_id":81,"name":"G_reggie","steam_id":76561198084372410,"connected_time":817000000000,"state":"active","ping":70},{"user_id":78,"name":"the infamous ball grabber","steam_id":76561198075325837,"connected_time":1611000000000,"state":"active","ping":68},{"user_id":85,"name":"drrdfdddd122","steam_id":76561199304776530,"connected_time":199000000000,"state":"active","ping":81},{"user_id":86,"name":"DjFloppy","steam_id":76561198212014625,"connected_time":5000000000,"state":"spawning","ping":105}]},{"server_id":301,"name":"Uncletopia | Montréal | 2 | One Thousand Uncles","name_short":"mtl-2","host":"mtl-1.ca.uncletopia.com","port":27025,"enabled":true,"region":"us-east","cc":"ca","latitude":45.50889,"longitude":-73.56167,"reserved":0,"last_update":"0001-01-01T00:00:00Z","name_a2s":"Uncletopia | Montréal | 2 | One Thousand Uncles","protocol":17,"map":"cp_mossrock","folder":"tf","game":"Team Fortress","app_id":440,"player_count":0,"max_players":32,"Bots":0,"server_type":"Dedicated","server_os":"Linux","password":true,"vac":true,"version":"7961495","steam_id":85568392924500088,"keywords":["alltalk","cp","danepve","increased_maxplayers","norespawntime","uncletopia"],"game_id":440,"stv_port":0,"stv_name":"","players":null},{"server_id":302,"name":"Uncletopia | Montréal | 3 | One Thousand Uncles","name_short":"mtl-3","host":"mtl-1.ca.uncletopia.com","port":27035,"enabled":true,"region":"us-east","cc":"ca","latitude":45.50889,"longitude":-73.56167,"reserved":0,"last_update":"0001-01-01T00:00:00Z","name_a2s":"Uncletopia | Montréal | 3 | One Thousand Uncles","protocol":17,"map":"cp_dustbowl","folder":"tf","game":"Team Fortress","app_id":440,"player_count":0,"max_players":32,"Bots":0,"server_type":"Dedicated","server_os":"Linux","password":true,"vac":true,"version":"7961495","steam_id":85568392924500089,"keywords":["alltalk","cp","danepve","increased_maxplayers","norespawntime","uncletopia"],"game_id":440,"stv_port":0,"stv_name":"","players":null},{"server_id":13,"name":"Uncletopia | New York City | 1 | All Maps","name_short":"nyc-1","host":"nyc-1.us.uncletopia.com","port":27015,"enabled":true,"region":"us-east","cc":"us","latitude":40.73061,"longitude":-73.93524,"reserved":0,"last_update":"0001-01-01T00:00:00Z","name_a2s":"Uncletopia | New York City | 1 | All Maps","protocol":17,"map":"pl_barnblitz","folder":"tf","game":"Team Fortress","app_id":440,"player_count":24,"max_players":24,"Bots":0,"server_type":"Dedicated","server_os":"Linux","password":true,"vac":true,"version":"7961495","steam_id":85568392924469993,"keywords":["nocrits","nodmgspread","payload","uncletopia"],"game_id":440,"stv_port":27016,"stv_name":"Uncletopia | New York City | 1 | All Maps | STV","players":[{"user_id":300,"name":"JJames","steam_id":76561198055687973,"connected_time":730000000000,"state":"active","ping":68},{"user_id":273,"name":"Littletoughie","steam_id":76561198066103628,"connected_time":3099000000000,"state":"active","ping":55},{"user_id":260,"name":"Prsm","steam_id":76561198053344995,"connected_time":4204000000000,"state":"active","ping":32},{"user_id":292,"name":"artlex","steam_id":76561198849767970,"connected_time":1610000000000,"state":"active","ping":58},{"user_id":289,"name":"Onionboy","steam_id":76561198110340279,"connected_time":2369000000000,"state":"active","ping":53},{"user_id":295,"name":"sonamrealm","steam_id":76561198204163895,"connected_time":1244000000000,"state":"active","ping":60},{"user_id":301,"name":"Brothir","steam_id":76561198202989120,"connected_time":557000000000,"state":"active","ping":80},{"user_id":305,"name":"John Fortnite","steam_id":76561198076608253,"connected_time":41000000000,"state":"spawning","ping":56},{"user_id":304,"name":"[Redacted]","steam_id":76561199262579270,"connected_time":336000000000,"state":"active","ping":70},{"user_id":286,"name":"Deka","steam_id":76561198061243374,"connected_time":2548000000000,"state":"active","ping":64},{"user_id":275,"name":"Helmet Hands","steam_id":76561197961141994,"connected_time":2925000000000,"state":"active","ping":107},{"user_id":223,"name":"Fernando Alonso","steam_id":76561198066822788,"connected_time":6508000000000,"state":"active","ping":53},{"user_id":283,"name":"strontium_slider","steam_id":76561199047732865,"connected_time":2729000000000,"state":"active","ping":121},{"user_id":287,"name":"Hylic","steam_id":76561199051314589,"connected_time":2547000000000,"state":"active","ping":62},{"user_id":298,"name":"AshleyJWilliams","steam_id":76561199319657907,"connected_time":1133000000000,"state":"active","ping":77},{"user_id":228,"name":"clio","steam_id":76561198141700569,"connected_time":6393000000000,"state":"active","ping":56},{"user_id":299,"name":"Melaza Bois","steam_id":76561199031977210,"connected_time":1069000000000,"state":"active","ping":80},{"user_id":217,"name":"Marcusatomz","steam_id":76561198079169629,"connected_time":8241000000000,"state":"active","ping":66},{"user_id":212,"name":"Hunto","steam_id":76561198328052562,"connected_time":8838000000000,"state":"active","ping":96},{"user_id":288,"name":"Khadawick74","steam_id":76561198129817185,"connected_time":2486000000000,"state":"active","ping":113},{"user_id":252,"name":"August West","steam_id":76561197995068347,"connected_time":4605000000000,"state":"active","ping":70},{"user_id":290,"name":"Officer Big Balls","steam_id":76561198193546902,"connected_time":2159000000000,"state":"active","ping":106},{"user_id":291,"name":"Bigsumoslammer","steam_id":76561198044505076,"connected_time":1633000000000,"state":"active","ping":38},{"user_id":234,"name":"Snow Squid","steam_id":76561198201565674,"connected_time":6215000000000,"state":"active","ping":89}]},{"server_id":14,"name":"Uncletopia | New York City | 2 | All Maps","name_short":"nyc-2","host":"nyc-1.us.uncletopia.com","port":27025,"enabled":true,"region":"us-east","cc":"us","latitude":40.73061,"longitude":-73.93524,"reserved":0,"last_update":"0001-01-01T00:00:00Z","name_a2s":"Uncletopia | New York City | 2 | All Maps","protocol":17,"map":"koth_highpass","folder":"tf","game":"Team Fortress","app_id":440,"player_count":4,"max_players":24,"Bots":0,"server_type":"Dedicated","server_os":"Linux","password":true,"vac":true,"version":"7961495","steam_id":85568392924469994,"keywords":["cp","nocrits","nodmgspread","uncletopia"],"game_id":440,"stv_port":27026,"stv_name":"Uncletopia | New York City | 2 | All Maps | STV","players":[{"user_id":26,"name":"FazeCumShot69™","steam_id":76561199248475270,"connected_time":2172000000000,"state":"active","ping":61},{"user_id":36,"name":"Bmo","steam_id":76561199084829339,"connected_time":319000000000,"state":"active","ping":66},{"user_id":34,"name":"Arjen PSN 23","steam_id":76561198963682232,"connected_time":536000000000,"state":"active","ping":42},{"user_id":29,"name":"defence","steam_id":76561199098173146,"connected_time":924000000000,"state":"active","ping":170}]},{"server_id":15,"name":"Uncletopia | New York City | 3 | Stopwatch","name_short":"nyc-3","host":"nyc-1.us.uncletopia.com","port":27035,"enabled":true,"region":"us-east","cc":"us","latitude":40.73061,"longitude":-73.93524,"reserved":0,"last_update":"0001-01-01T00:00:00Z","name_a2s":"Uncletopia | New York City | 3 | Stopwatch","protocol":17,"map":"workshop/cp_reckoner_rc6.ugc674719999","folder":"tf","game":"Team Fortress","app_id":440,"player_count":0,"max_players":24,"Bots":0,"server_type":"Dedicated","server_os":"Linux","password":true,"vac":true,"version":"7961495","steam_id":85568392924742820,"keywords":["cp","nocrits","nodmgspread","uncletopia"],"game_id":440,"stv_port":27036,"stv_name":"Uncletopia | New York City | 3 | Stopwatch | STV","players":null},{"server_id":16,"name":"Uncletopia | New York City | 4 | Community","name_short":"nyc-4","host":"nyc-1.us.uncletopia.com","port":27045,"enabled":true,"region":"us-east","cc":"us","latitude":40.73061,"longitude":-73.93524,"reserved":0,"last_update":"0001-01-01T00:00:00Z","name_a2s":"Uncletopia | New York City | 4 | Community","protocol":17,"map":"workshop/koth_kemptown_rc1.ugc767410655","folder":"tf","game":"Team Fortress","app_id":440,"player_count":0,"max_players":24,"Bots":0,"server_type":"Dedicated","server_os":"Linux","password":true,"vac":true,"version":"7961495","steam_id":85568392924742821,"keywords":["cp","nocrits","nodmgspread","uncletopia"],"game_id":440,"stv_port":27046,"stv_name":"Uncletopia | New York City | 4 | Community | STV","players":null},{"server_id":142,"name":"Uncletopia | São Paulo | 1 | All Maps","name_short":"sao-1","host":"sao-1.br.uncletopia.com","port":27015,"enabled":true,"region":"sa","cc":"br","latitude":-23.533773,"longitude":-46.62529,"reserved":0,"last_update":"0001-01-01T00:00:00Z","name_a2s":"Uncletopia | São Paulo | 1 | All Maps","protocol":17,"map":"pl_barnblitz","folder":"tf","game":"Team Fortress","app_id":440,"player_count":0,"max_players":24,"Bots":0,"server_type":"Dedicated","server_os":"Linux","password":true,"vac":true,"version":"7961495","steam_id":85568392924469996,"keywords":["nocrits","nodmgspread","payload","uncletopia"],"game_id":440,"stv_port":27016,"stv_name":"Uncletopia | São Paulo | 1 | All Maps | STV","players":null},{"server_id":143,"name":"Uncletopia | São Paulo | 2 | Community","name_short":"sao-2","host":"sao-2.br.uncletopia.com","port":27015,"enabled":true,"region":"sa","cc":"br","latitude":-23.533773,"longitude":-46.62529,"reserved":0,"last_update":"0001-01-01T00:00:00Z","name_a2s":"Uncletopia | São Paulo | 2 | Community","protocol":17,"map":"workshop/koth_slaughter_rc1.ugc1712845210","folder":"tf","game":"Team Fortress","app_id":440,"player_count":0,"max_players":24,"Bots":0,"server_type":"Dedicated","server_os":"Linux","password":true,"vac":true,"version":"7961495","steam_id":85568392924485349,"keywords":["cp","nocrits","nodmgspread","uncletopia"],"game_id":440,"stv_port":27016,"stv_name":"Uncletopia | São Paulo | 2 | Community | STV","players":null},{"server_id":7,"name":"Uncletopia | Seattle | 1 | All Maps","name_short":"sea-1","host":"sea-1.us.uncletopia.com","port":27015,"enabled":true,"region":"us-west","cc":"us","latitude":47.608013,"longitude":-122.33517,"reserved":0,"last_update":"0001-01-01T00:00:00Z","name_a2s":"Uncletopia | Seattle | 1 | All Maps","protocol":17,"map":"cp_sunshine","folder":"tf","game":"Team Fortress","app_id":440,"player_count":20,"max_players":24,"Bots":0,"server_type":"Dedicated","server_os":"Linux","password":true,"vac":true,"version":"7961495","steam_id":85568392924469997,"keywords":["cp","nocrits","nodmgspread","uncletopia"],"game_id":440,"stv_port":27016,"stv_name":"Uncletopia | Seattle | 1 | All Maps | STV","players":[{"user_id":233,"name":"I regret my life decisions","steam_id":76561199421468208,"connected_time":477000000000,"state":"active","ping":110},{"user_id":218,"name":"Frank","steam_id":76561198126681511,"connected_time":1667000000000,"state":"active","ping":69},{"user_id":221,"name":"lizard wizard","steam_id":76561198882758067,"connected_time":1547000000000,"state":"active","ping":105},{"user_id":210,"name":"Butteryback","steam_id":76561198049642485,"connected_time":2136000000000,"state":"active","ping":61},{"user_id":202,"name":"HappilyDisturbed","steam_id":76561198156158743,"connected_time":2498000000000,"state":"active","ping":85},{"user_id":216,"name":"Captain Underbelly","steam_id":76561198811270935,"connected_time":1952000000000,"state":"active","ping":65},{"user_id":195,"name":"Dick to ball ratio","steam_id":76561198072205512,"connected_time":2859000000000,"state":"active","ping":122},{"user_id":219,"name":"Traceback","steam_id":76561197993212340,"connected_time":1659000000000,"state":"active","ping":81},{"user_id":241,"name":"sambrownlee92","steam_id":76561199508640650,"connected_time":13000000000,"state":"spawning","ping":88},{"user_id":224,"name":"aofi the flat tgirl","steam_id":76561199172110503,"connected_time":1187000000000,"state":"active","ping":102},{"user_id":220,"name":"my mom","steam_id":76561199225201569,"connected_time":1658000000000,"state":"active","ping":105},{"user_id":238,"name":"jer","steam_id":76561198148235230,"connected_time":205000000000,"state":"active","ping":75},{"user_id":236,"name":"Ryld","steam_id":76561198010174380,"connected_time":309000000000,"state":"active","ping":64},{"user_id":199,"name":"Tom Buckle","steam_id":76561198870649125,"connected_time":2749000000000,"state":"active","ping":81},{"user_id":239,"name":"Campus 80 Crop","steam_id":76561198068672882,"connected_time":61000000000,"state":"active","ping":60},{"user_id":230,"name":"Grill Skills","steam_id":76561198053575147,"connected_time":851000000000,"state":"active","ping":57},{"user_id":234,"name":"Dongus","steam_id":76561197979056451,"connected_time":449000000000,"state":"active","ping":50},{"user_id":207,"name":"Cosmo","steam_id":76561199085643398,"connected_time":2322000000000,"state":"active","ping":75},{"user_id":232,"name":"Dosario","steam_id":76561198298095535,"connected_time":638000000000,"state":"active","ping":51},{"user_id":226,"name":"Imitation Caucasian","steam_id":76561198320536166,"connected_time":1087000000000,"state":"active","ping":95}]},{"server_id":119,"name":"Uncletopia | Seattle | 2 | All Maps","name_short":"sea-2","host":"sea-1.us.uncletopia.com","port":27025,"enabled":true,"region":"us-west","cc":"us","latitude":47.608013,"longitude":-122.33517,"reserved":0,"last_update":"0001-01-01T00:00:00Z","name_a2s":"Uncletopia | Seattle | 2 | All Maps","protocol":17,"map":"cp_dustbowl","folder":"tf","game":"Team Fortress","app_id":440,"player_count":0,"max_players":24,"Bots":0,"server_type":"Dedicated","server_os":"Linux","password":true,"vac":true,"version":"7961495","steam_id":85568392924469998,"keywords":["cp","nocrits","nodmgspread","uncletopia"],"game_id":440,"stv_port":27026,"stv_name":"Uncletopia | Seattle | 2 | All Maps | STV","players":null},{"server_id":406,"name":"Uncletopia | Seattle | 3 | Stopwatch","name_short":"sea-3","host":"sea-1.us.uncletopia.com","port":27035,"enabled":true,"region":"us-west","cc":"us","latitude":47.608013,"longitude":-122.33517,"reserved":0,"last_update":"0001-01-01T00:00:00Z","name_a2s":"Uncletopia | Seattle | 3 | Stopwatch","protocol":17,"map":"cp_gullywash_final1","folder":"tf","game":"Team Fortress","app_id":440,"player_count":0,"max_players":24,"Bots":0,"server_type":"Dedicated","server_os":"Linux","password":true,"vac":true,"version":"7961495","steam_id":85568392924515217,"keywords":["cp","nocrits","nodmgspread","uncletopia"],"game_id":440,"stv_port":27036,"stv_name":"Uncletopia | Seattle | 3 | Stopwatch | STV","players":null},{"server_id":17,"name":"Uncletopia | San Francisco | 1 | All Maps","name_short":"sfo-1","host":"sfo-1.us.uncletopia.com","port":27015,"enabled":true,"region":"us-west","cc":"us","latitude":37.77397,"longitude":-122.4313,"reserved":0,"last_update":"0001-01-01T00:00:00Z","name_a2s":"Uncletopia | San Francisco | 1 | All Maps","protocol":17,"map":"cp_gullywash_final1","folder":"tf","game":"Team Fortress","app_id":440,"player_count":0,"max_players":24,"Bots":0,"server_type":"Dedicated","server_os":"Linux","password":true,"vac":true,"version":"7961495","steam_id":85568392924469999,"keywords":["cp","nocrits","nodmgspread","uncletopia"],"game_id":440,"stv_port":27016,"stv_name":"Uncletopia | San Francisco | 1 | All Maps | STV","players":null},{"server_id":18,"name":"Uncletopia | San Francisco | 2 | All Maps","name_short":"sfo-2","host":"sfo-1.us.uncletopia.com","port":27025,"enabled":true,"region":"us-west","cc":"us","latitude":37.77397,"longitude":-122.4313,"reserved":0,"last_update":"0001-01-01T00:00:00Z","name_a2s":"Uncletopia | San Francisco | 2 | All Maps","protocol":17,"map":"pl_hoodoo_final","folder":"tf","game":"Team Fortress","app_id":440,"player_count":0,"max_players":24,"Bots":0,"server_type":"Dedicated","server_os":"Linux","password":true,"vac":true,"version":"7961495","steam_id":85568392924470000,"keywords":["nocrits","nodmgspread","payload","uncletopia"],"game_id":440,"stv_port":27026,"stv_name":"Uncletopia | San Francisco | 2 | All Maps | STV","players":null},{"server_id":19,"name":"Uncletopia | San Francisco | 3 | Stopwatch","name_short":"sfo-3","host":"sfo-1.us.uncletopia.com","port":27035,"enabled":true,"region":"us-west","cc":"us","latitude":37.77397,"longitude":-122.4313,"reserved":0,"last_update":"0001-01-01T00:00:00Z","name_a2s":"Uncletopia | San Francisco | 3 | Stopwatch","protocol":17,"map":"workshop/koth_clearcut_b15.ugc2107050255","folder":"tf","game":"Team Fortress","app_id":440,"player_count":0,"max_players":24,"Bots":0,"server_type":"Dedicated","server_os":"Linux","password":true,"vac":true,"version":"7961495","steam_id":85568392924742824,"keywords":["cp","nocrits","nodmgspread","uncletopia"],"game_id":440,"stv_port":27036,"stv_name":"Uncletopia | San Francisco | 3 | Stopwatch | STV","players":null},{"server_id":20,"name":"Uncletopia | San Francisco | 4 | Community","name_short":"sfo-4","host":"sfo-1.us.uncletopia.com","port":27045,"enabled":true,"region":"us-west","cc":"us","latitude":37.77397,"longitude":-122.4313,"reserved":0,"last_update":"0001-01-01T00:00:00Z","name_a2s":"Uncletopia | San Francisco | 4 | Community","protocol":17,"map":"workshop/cp_reckoner_rc6.ugc674719999","folder":"tf","game":"Team Fortress","app_id":440,"player_count":0,"max_players":24,"Bots":0,"server_type":"Dedicated","server_os":"Linux","password":true,"vac":true,"version":"7961495","steam_id":85568392924742826,"keywords":["cp","nocrits","nodmgspread","uncletopia"],"game_id":440,"stv_port":27046,"stv_name":"Uncletopia | San Francisco | 4 | Community | STV","players":null},{"server_id":141,"name":"Uncletopia | Sydney | 1 | All Maps","name_short":"syd-1","host":"syd-1.au.uncletopia.com","port":27015,"enabled":true,"region":"au","cc":"au","latitude":-33.865143,"longitude":151.2099,"reserved":0,"last_update":"0001-01-01T00:00:00Z","name_a2s":"Uncletopia | Sydney | 1 | All Maps","protocol":17,"map":"cp_5gorge","folder":"tf","game":"Team Fortress","app_id":440,"player_count":0,"max_players":24,"Bots":0,"server_type":"Dedicated","server_os":"Linux","password":true,"vac":true,"version":"7961495","steam_id":85568392924470001,"keywords":["cp","nocrits","nodmgspread","uncletopia"],"game_id":440,"stv_port":27016,"stv_name":"Uncletopia | Sydney | 1 | All Maps | STV","players":null},{"server_id":123,"name":"Uncletopia | Sydney | 2 | All Maps","name_short":"syd-2","host":"syd-1.au.uncletopia.com","port":27025,"enabled":true,"region":"au","cc":"au","latitude":-33.865143,"longitude":151.2099,"reserved":0,"last_update":"0001-01-01T00:00:00Z","name_a2s":"Uncletopia | Sydney | 2 | All Maps","protocol":17,"map":"cp_snakewater_final1","folder":"tf","game":"Team Fortress","app_id":440,"player_count":0,"max_players":24,"Bots":0,"server_type":"Dedicated","server_os":"Linux","password":true,"vac":true,"version":"7961495","steam_id":85568392924470002,"keywords":["cp","nocrits","nodmgspread","uncletopia"],"game_id":440,"stv_port":27026,"stv_name":"Uncletopia | Sydney | 2 | All Maps | STV","players":null},{"server_id":395,"name":"Uncletopia | Sydney | 3 | All Maps","name_short":"syd-3","host":"syd-1.au.uncletopia.com","port":27035,"enabled":true,"region":"au","cc":"au","latitude":-33.865143,"longitude":151.2099,"reserved":0,"last_update":"0001-01-01T00:00:00Z","name_a2s":"Uncletopia | Sydney | 3 | All Maps","protocol":17,"map":"koth_viaduct","folder":"tf","game":"Team Fortress","app_id":440,"player_count":0,"max_players":24,"Bots":0,"server_type":"Dedicated","server_os":"Linux","password":true,"vac":true,"version":"7961495","steam_id":85568392925194467,"keywords":["cp","nocrits","nodmgspread","uncletopia"],"game_id":440,"stv_port":27036,"stv_name":"Uncletopia | Sydney | 3 | All Maps | STV","players":null},{"server_id":396,"name":"Uncletopia | Sydney | 4 | All Maps","name_short":"syd-4","host":"syd-1.au.uncletopia.com","port":27045,"enabled":true,"region":"au","cc":"au","latitude":-33.865143,"longitude":151.2099,"reserved":0,"last_update":"0001-01-01T00:00:00Z","name_a2s":"Uncletopia | Sydney | 4 | All Maps","protocol":17,"map":"pl_badwater","folder":"tf","game":"Team Fortress","app_id":440,"player_count":0,"max_players":24,"Bots":0,"server_type":"Dedicated","server_os":"Linux","password":true,"vac":true,"version":"7961495","steam_id":85568392925397958,"keywords":["nocrits","nodmgspread","payload","uncletopia"],"game_id":440,"stv_port":27046,"stv_name":"Uncletopia | Sydney | 4 | All Maps | STV","players":null},{"server_id":58,"name":"Uncletopia | Sydney | 5 | Stopwatch","name_short":"syd-5","host":"syd-1.au.uncletopia.com","port":27055,"enabled":true,"region":"au","cc":"au","latitude":-33.865143,"longitude":151.2099,"reserved":0,"last_update":"0001-01-01T00:00:00Z","name_a2s":"Uncletopia | Sydney | 5 | Stopwatch","protocol":17,"map":"koth_highpass","folder":"tf","game":"Team Fortress","app_id":440,"player_count":0,"max_players":24,"Bots":0,"server_type":"Dedicated","server_os":"Linux","password":true,"vac":true,"version":"7961495","steam_id":85568392925397959,"keywords":["cp","nocrits","nodmgspread","uncletopia"],"game_id":440,"stv_port":27056,"stv_name":"Uncletopia | Sydney | 5 | Stopwatch | STV","players":null},{"server_id":59,"name":"Uncletopia | Sydney | 6 | Community","name_short":"syd-6","host":"syd-1.au.uncletopia.com","port":27065,"enabled":true,"region":"au","cc":"au","latitude":-33.865143,"longitude":151.2099,"reserved":0,"last_update":"0001-01-01T00:00:00Z","name_a2s":"Uncletopia | Sydney | 6 | Community","protocol":17,"map":"workshop/koth_soot_final1.ugc2969540689","folder":"tf","game":"Team Fortress","app_id":440,"player_count":0,"max_players":24,"Bots":0,"server_type":"Dedicated","server_os":"Linux","password":true,"vac":true,"version":"7961495","steam_id":85568392925397960,"keywords":["cp","nocrits","nodmgspread","uncletopia"],"game_id":440,"stv_port":27066,"stv_name":"Uncletopia | Sydney | 6 | Community | STV","players":null},{"server_id":49,"name":"Uncletopia | Warsaw | 1 | One Thousand Uncles","name_short":"waw-1","host":"waw-1.pl.uncletopia.com","port":27015,"enabled":true,"region":"eu","cc":"pl","latitude":52.2297,"longitude":21.017532,"reserved":0,"last_update":"0001-01-01T00:00:00Z","name_a2s":"Uncletopia | Warsaw | 1 | One Thousand Uncles","protocol":17,"map":"pl_badwater","folder":"tf","game":"Team Fortress","app_id":440,"player_count":2,"max_players":32,"Bots":0,"server_type":"Dedicated","server_os":"Linux","password":true,"vac":true,"version":"7961495","steam_id":85568392925397850,"keywords":["alltalk","danepve","increased_maxplayers","norespawntime","payload","uncletopia"],"game_id":440,"stv_port":0,"stv_name":"","players":[{"user_id":276,"name":"mushroom","steam_id":76561198978851439,"connected_time":48000000000,"state":"active","ping":48},{"user_id":277,"name":"I only uber spies","steam_id":76561198333241218,"connected_time":7000000000,"state":"spawning","ping":72}]},{"server_id":50,"name":"Uncletopia | Warsaw | 2 | One Thousand Uncles","name_short":"waw-2","host":"waw-1.pl.uncletopia.com","port":27025,"enabled":true,"region":"eu","cc":"pl","latitude":52.2297,"longitude":21.017532,"reserved":0,"last_update":"0001-01-01T00:00:00Z","name_a2s":"Uncletopia | Warsaw | 2 | One Thousand Uncles","protocol":17,"map":"pl_hoodoo_final","folder":"tf","game":"Team Fortress","app_id":440,"player_count":28,"max_players":32,"Bots":20,"server_type":"Dedicated","server_os":"Linux","password":true,"vac":true,"version":"7961495","steam_id":85568392925397851,"keywords":["alltalk","bots","danepve","increased_maxplayers","norespawntime","payload","uncletopia"],"game_id":440,"stv_port":0,"stv_name":"","players":[{"user_id":114,"name":"Lowtidey","steam_id":76561198994887486,"connected_time":554000000000,"state":"active","ping":140},{"user_id":91,"name":"Little Spy","steam_id":76561199238736286,"connected_time":6451000000000,"state":"active","ping":63},{"user_id":105,"name":"Sir Lancelot","steam_id":76561198049709392,"connected_time":2699000000000,"state":"active","ping":105},{"user_id":117,"name":"tyroksi :D","steam_id":76561198103875245,"connected_time":289000000000,"state":"active","ping":145},{"user_id":107,"name":"Жигало на жигуля\ufffd","steam_id":76561198205956992,"connected_time":2011000000000,"state":"active","ping":115},{"user_id":111,"name":"LazeKaL","steam_id":76561199073866617,"connected_time":1200000000000,"state":"active","ping":240},{"user_id":112,"name":"illya.videoblog","steam_id":76561199502870482,"connected_time":1083000000000,"state":"active","ping":63},{"user_id":113,"name":"Soya Suki","steam_id":76561197998106435,"connected_time":1064000000000,"state":"active","ping":64}]},{"server_id":51,"name":"Uncletopia | Warsaw | 3 | All Maps","name_short":"waw-3","host":"waw-1.pl.uncletopia.com","port":27035,"enabled":true,"region":"eu","cc":"pl","latitude":52.2297,"longitude":21.017532,"reserved":0,"last_update":"0001-01-01T00:00:00Z","name_a2s":"Uncletopia | Warsaw | 3 | All Maps","protocol":17,"map":"koth_highpass","folder":"tf","game":"Team Fortress","app_id":440,"player_count":0,"max_players":24,"Bots":0,"server_type":"Dedicated","server_os":"Linux","password":true,"vac":true,"version":"7961495","steam_id":85568392925397852,"keywords":["cp","nocrits","nodmgspread","uncletopia"],"game_id":440,"stv_port":27036,"stv_name":"Uncletopia | Warsaw | 3 | All Maps | STV","players":null},{"server_id":52,"name":"Uncletopia | Warsaw | 4 | All Maps","name_short":"waw-4","host":"waw-1.pl.uncletopia.com","port":27045,"enabled":true,"region":"eu","cc":"pl","latitude":52.2297,"longitude":21.017532,"reserved":0,"last_update":"0001-01-01T00:00:00Z","name_a2s":"Uncletopia | Warsaw | 4 | All Maps","protocol":17,"map":"koth_highpass","folder":"tf","game":"Team Fortress","app_id":440,"player_count":0,"max_players":24,"Bots":0,"server_type":"Dedicated","server_os":"Linux","password":true,"vac":true,"version":"7961495","steam_id":85568392925397853,"keywords":["cp","nocrits","nodmgspread","uncletopia"],"game_id":440,"stv_port":27046,"stv_name":"Uncletopia | Warsaw | 4 | All Maps | STV","players":null},{"server_id":53,"name":"Uncletopia | Warsaw | 5 | Stopwatch","name_short":"waw-5","host":"waw-1.pl.uncletopia.com","port":27055,"enabled":true,"region":"eu","cc":"pl","latitude":52.2297,"longitude":21.017532,"reserved":0,"last_update":"0001-01-01T00:00:00Z","name_a2s":"Uncletopia | Warsaw | 5 | Stopwatch","protocol":17,"map":"workshop/koth_clearcut_b15.ugc2107050255","folder":"tf","game":"Team Fortress","app_id":440,"player_count":0,"max_players":24,"Bots":0,"server_type":"Dedicated","server_os":"Linux","password":true,"vac":true,"version":"7961495","steam_id":85568392925397854,"keywords":["cp","nocrits","nodmgspread","uncletopia"],"game_id":440,"stv_port":27056,"stv_name":"Uncletopia | Warsaw | 5 | Stopwatch | STV","players":null},{"server_id":54,"name":"Uncletopia | Warsaw | 6 | Community","name_short":"waw-6","host":"waw-1.pl.uncletopia.com","port":27065,"enabled":true,"region":"eu","cc":"pl","latitude":52.2297,"longitude":21.017532,"reserved":0,"last_update":"0001-01-01T00:00:00Z","name_a2s":"Uncletopia | Warsaw | 6 | Community","protocol":17,"map":"workshop/pl_highwood_b19.ugc1769496557","folder":"tf","game":"Team Fortress","app_id":440,"player_count":0,"max_players":24,"Bots":0,"server_type":"Dedicated","server_os":"Linux","password":true,"vac":true,"version":"7961495","steam_id":85568392925397856,"keywords":["nocrits","nodmgspread","payload","uncletopia"],"game_id":440,"stv_port":27066,"stv_name":"Uncletopia | Warsaw | 6 | Community | STV","players":null}]}