{"status":true,"message":"","result":[{"server_id":9,"name":"Uncletopia | Atlanta | 1 | All Maps","name_short":"atl-1","host":"atl-1.us.uncletopia.com","port":27015,"enabled":true,"region":"us-east","cc":"us","latitude":33.753746,"longitude":-84.38633,"reserved":0,"last_update":"0001-01-01T00:00:00Z","name_a2s":"Uncletopia | Atlanta | 1 | All Maps","protocol":17,"map":"koth_cascade","folder":"tf","game":"Team Fortress","app_id":440,"player_count":0,"max_players":24,"Bots":0,"server_type":"Dedicated","server_os":"Linux","password":true,"vac":true,"version":"7757534","steam_id":85568392924469982,"keywords":["cp","nocrits","nodmgspread","uncletopia"],"game_id":440,"stv_port":27016,"stv_name":"Uncletopia | Atlanta | 1 | All Maps | STV","players":null},{"server_id":104,"name":"Uncletopia | Atlanta | 2 | All Maps","name_short":"atl-2","host":"atl-1.us.uncletopia.com","port":27025,"enabled":true,"region":"us-east","cc":"us","latitude":33.753746,"longitude":-84.38633,"reserved":0,"last_update":"0001-01-01T00:00:00Z","name_a2s":"Uncletopia | Atlanta | 2 | All Maps","protocol":17,"map":"cp_dustbowl","folder":"tf","game":"Team Fortress","app_id":440,"player_count":0,"max_players":24,"Bots":0,"server_type":"Dedicated","server_os":"Linux","password":true,"vac":true,"version":"7757534","steam_id":85568392924469983,"keywords":["cp","nocrits","nodmgspread","uncletopia"],"game_id":440,"stv_port":27026,"stv_name":"Uncletopia | Atlanta | 2 | All Maps | STV","players":null},{"server_id":400,"name":"Uncletopia | Atlanta | 3 | Community","name_short":"atl-3","host":"atl-1.us.uncletopia.com","port":27035,"enabled":true,"region":"us-east","cc":"us","latitude":33.753746,"longitude":-84.38633,"reserved":0,"last_update":"0001-01-01T00:00:00Z","name_a2s":"Uncletopia | Atlanta | 3 | Community","protocol":17,"map":"workshop/koth_trenchfoot_b1a.ugc731436616","folder":"tf","game":"Team Fortress","app_id":440,"player_count":0,"max_players":24,"Bots":0,"server_type":"Dedicated","server_os":"Linux","password":true,"vac":true,"version":"7757534","steam_id":85568392924515187,"keywords":["cp","nocrits","nodmgspread","uncletopia"],"game_id":440,"stv_port":27036,"stv_name":"Uncletopia | Atlanta | 3 | Community | STV","players":null},{"server_id":401,"name":"Uncletopia | Atlanta | 4 | No Payload","name_short":"atl-4","host":"atl-1.us.uncletopia.com","port":27045,"enabled":true,"region":"us-east","cc":"us","latitude":33.753746,"longitude":-84.38633,"reserved":0,"last_update":"0001-01-01T00:00:00Z","name_a2s":"","protocol":0,"map":"","folder":"","game":"","app_id":0,"player_count":0,"max_players":0,"Bots":0,"server_type":"","server_os":"","password":false,"vac":false,"version":"","steam_id":0,"keywords":null,"game_id":0,"stv_port":0,"stv_name":"","players":null},{"server_id":2,"name":"Uncletopia | Chicago | 1 | All Maps","name_short":"chi-1","host":"chi-1.us.uncletopia.com","port":27015,"enabled":true,"region":"us-central","cc":"us","latitude":41.881832,"longitude":-87.62318,"reserved":0,"last_update":"0001-01-01T00:00:00Z","name_a2s":"Uncletopia | Chicago | 1 | All Maps","protocol":17,"map":"pl_barnblitz","folder":"tf","game":"Team Fortress","app_id":440,"player_count":4,"max_players":24,"Bots":0,"server_type":"Dedicated","server_os":"Linux","password":true,"vac":true,"version":"7757534","steam_id":85568392924469984,"keywords":["nocrits","nodmgspread","payload","uncletopia"],"game_id":440,"stv_port":27016,"stv_name":"Uncletopia | Chicago | 1 | All Maps | STV","players":[{"user_id":7,"name":"Kirsk","steam_id":76561198084397649,"connected_time":376000000000,"state":"active","ping":58},{"user_id":6,"name":"High And Mighty","steam_id":76561199177268803,"connected_time":478000000000,"state":"active","ping":81},{"user_id":8,"name":"hehe","steam_id":76561198125913580,"connected_time":237000000000,"state":"active","ping":48},{"user_id":9,"name":"Scent Tree","steam_id":76561198444371121,"connected_time":205000000000,"state":"active","ping":84}]},{"server_id":106,"name":"Uncletopia | Chicago | 2 | All Maps","name_short":"chi-2","host":"chi-1.us.uncletopia.com","port":27025,"enabled":true,"region":"us-central","cc":"us","latitude":41.881832,"longitude":-87.62318,"reserved":0,"last_update":"0001-01-01T00:00:00Z","name_a2s":"Uncletopia | Chicago | 2 | All Maps","protocol":17,"map":"cp_mountainlab","folder":"tf","game":"Team Fortress","app_id":440,"player_count":22,"max_players":24,"Bots":0,"server_type":"Dedicated","server_os":"Linux","password":true,"vac":true,"version":"7757534","steam_id":85568392924469985,"keywords":["cp","nocrits","nodmgspread","uncletopia"],"game_id":440,"stv_port":27026,"stv_name":"Uncletopia | Chicago | 2 | All Maps | STV","players":[{"user_id":3,"name":"Ayo the pizza here","steam_id":76561198323351408,"connected_time":1540000000000,"state":"active","ping":51},{"user_id":40,"name":"Don't Look Up","steam_id":76561198451168478,"connected_time":311000000000,"state":"active","ping":83},{"user_id":7,"name":"Cactus Man","steam_id":76561198358584155,"connected_time":1526000000000,"state":"active","ping":76},{"user_id":8,"name":"kametro4","steam_id":76561198835430429,"connected_time":1525000000000,"state":"active","ping":75},{"user_id":9,"name":"JRD","steam_id":76561197997946410,"connected_time":1522000000000,"state":"active","ping":57},{"user_id":10,"name":"MagicMuffinman","steam_id":76561198149255313,"connected_time":1515000000000,"state":"active","ping":68},{"user_id":31,"name":"Nick","steam_id":76561199065776495,"connected_time":919000000000,"state":"active","ping":68},{"user_id":12,"name":"Faye87","steam_id":76561198201412727,"connected_time":1492000000000,"state":"active","ping":55},{"user_id":35,"name":"rice white","steam_id":76561198320732910,"connected_time":668000000000,"state":"active","ping":74},{"user_id":36,"name":"The Foolish Samurai","steam_id":76561198094494945,"connected_time":634000000000,"state":"active","ping":113},{"user_id":24,"name":"Your Local Queer Librarian","steam_id":76561198013077080,"connected_time":1143000000000,"state":"active","ping":58},{"user_id":30,"name":"eat cheese and sin","steam_id":76561197999948296,"connected_time":960000000000,"state":"active","ping":54},{"user_id":19,"name":"Zelith","steam_id":76561198234980480,"connected_time":1283000000000,"state":"active","ping":50},{"user_id":20,"name":"Rubles","steam_id":76561198070156875,"connected_time":1275000000000,"state":"active","ping":57},{"user_id":32,"name":"Junior_198X","steam_id":76561198158596794,"connected_time":884000000000,"state":"active","ping":94},{"user_id":22,"name":"badboy6996","steam_id":76561197969386201,"connected_time":1267000000000,"state":"active","ping":57},{"user_id":25,"name":"Arrythmia","steam_id":76561198093748123,"connected_time":1107000000000,"state":"active","ping":101},{"user_id":26,"name":"CRITICAL_ERROR","steam_id":76561198860362026,"connected_time":1088000000000,"state":"active","ping":59},{"user_id":28,"name":"frog spin","steam_id":76561198142889876,"connected_time":1047000000000,"state":"active","ping":118},{"user_id":29,"name":"Helical Distortion","steam_id":76561198086149279,"connected_time":1029000000000,"state":"active","ping":82},{"user_id":33,"name":"Theurak","steam_id":76561198834444986,"connected_time":847000000000,"state":"active","ping":87},{"user_id":34,"name":"Rabid Ewok","steam_id":76561197992613431,"connected_time":760000000000,"state":"active","ping":62}]},{"server_id":402,"name":"Uncletopia | Chicago | 3 | All Maps","name_short":"chi-3","host":"chi-1.us.uncletopia.com","port":27035,"enabled":true,"region":"us-central","cc":"us","latitude":41.881832,"longitude":-87.62318,"reserved":0,"last_update":"0001-01-01T00:00:00Z","name_a2s":"Uncletopia | Chicago | 3 | All Maps","protocol":17,"map":"cp_sunshine","folder":"tf","game":"Team Fortress","app_id":440,"player_count":0,"max_players":24,"Bots":0,"server_type":"Dedicated","server_os":"Linux","password":true,"vac":true,"version":"7757534","steam_id":85568392924515191,"keywords":["cp","nocrits","nodmgspread","uncletopia"],"game_id":440,"stv_port":27036,"stv_name":"Uncletopia | Chicago | 3 | All Maps | STV","players":null},{"server_id":403,"name":"Uncletopia | Chicago | 4 | All Maps","name_short":"chi-4","host":"chi-1.us.uncletopia.com","port":27045,"enabled":true,"region":"us-central","cc":"us","latitude":41.881832,"longitude":-87.62318,"reserved":0,"last_update":"0001-01-01T00:00:00Z","name_a2s":"Uncletopia | Chicago | 4 | All Maps","protocol":17,"map":"koth_lakeside_final","folder":"tf","game":"Team Fortress","app_id":440,"player_count":0,"max_players":24,"Bots":0,"server_type":"Dedicated","server_os":"Linux","password":true,"vac":true,"version":"7757534","steam_id":85568392924515193,"keywords":["cp","nocrits","nodmgspread","uncletopia"],"game_id":440,"stv_port":27046,"stv_name":"Uncletopia | Chicago | 4 | All Maps | STV","players":null},{"server_id":36,"name":"Uncletopia | Chicago | 5 | All Maps","name_short":"chi-5","host":"chi-2.us.uncletopia.com","port":27015,"enabled":true,"region":"us-central","cc":"us","latitude":41.881832,"longitude":-87.62318,"reserved":0,"last_update":"0001-01-01T00:00:00Z","name_a2s":"Uncletopia | Chicago | 5 | All Maps","protocol":17,"map":"koth_cascade","folder":"tf","game":"Team Fortress","app_id":440,"player_count":0,"max_players":24,"Bots":0,"server_type":"Dedicated","server_os":"Linux","password":true,"vac":true,"version":"7757534","steam_id":85568392924866362,"keywords":["cp","nocrits","nodmgspread","uncletopia"],"game_id":440,"stv_port":27016,"stv_name":"Uncletopia | Chicago | 5 | All Maps | STV","players":null},{"server_id":37,"name":"Uncletopia | Chicago | 6 | All Maps","name_short":"chi-6","host":"chi-2.us.uncletopia.com","port":27025,"enabled":true,"region":"us-central","cc":"us","latitude":41.881832,"longitude":-87.62318,"reserved":0,"last_update":"0001-01-01T00:00:00Z","name_a2s":"Uncletopia | Chicago | 6 | All Maps","protocol":17,"map":"pl_borneo","folder":"tf","game":"Team Fortress","app_id":440,"player_count":0,"max_players":24,"Bots":0,"server_type":"Dedicated","server_os":"Linux","password":true,"vac":true,"version":"7757534","steam_id":85568392924866363,"keywords":["nocrits","nodmgspread","payload","uncletopia"],"game_id":440,"stv_port":27026,"stv_name":"Uncletopia | Chicago | 6 | All Maps | STV","players":null},{"server_id":38,"name":"Uncletopia | Chicago | 7 | Stopwatch Beta","name_short":"chi-7","host":"chi-2.us.uncletopia.com","port":27035,"enabled":true,"region":"us-central","cc":"us","latitude":41.881832,"longitude":-87.62318,"reserved":0,"last_update":"0001-01-01T00:00:00Z","name_a2s":"Uncletopia | Chicago | 7 | Stopwatch Beta","protocol":17,"map":"pl_barnblitz","folder":"tf","game":"Team Fortress","app_id":440,"player_count":0,"max_players":24,"Bots":0,"server_type":"Dedicated","server_os":"Linux","password":true,"vac":true,"version":"7757534","steam_id":85568392924866364,"keywords":["nocrits","nodmgspread","payload","uncletopia"],"game_id":440,"stv_port":27036,"stv_name":"Uncletopia | Chicago | 7 | Stopwatch Beta | STV","players":null},{"server_id":39,"name":"Uncletopia | Chicago | 8 | Community","name_short":"chi-8","host":"chi-2.us.uncletopia.com","port":27045,"enabled":true,"region":"us-central","cc":"us","latitude":41.881832,"longitude":-87.62318,"reserved":0,"last_update":"0001-01-01T00:00:00Z","name_a2s":"Uncletopia | Chicago | 8 | Community","protocol":17,"map":"koth_cascade","folder":"tf","game":"Team Fortress","app_id":440,"player_count":0,"max_players":24,"Bots":0,"server_type":"Dedicated","server_os":"Linux","password":true,"vac":true,"version":"7757534","steam_id":85568392924866365,"keywords":["cp","nocrits","nodmgspread","uncletopia"],"game_id":440,"stv_port":27046,"stv_name":"Uncletopia | Chicago | 8 | Community | STV","players":null},{"server_id":8,"name":"Uncletopia | Dallas | 1 | All Maps","name_short":"dal-1","host":"dal-1.us.uncletopia.com","port":27015,"enabled":true,"region":"us-central","cc":"us","latitude":32.779167,"longitude":-96.80889,"reserved":0,"last_update":"0001-01-01T00:00:00Z","name_a2s":"Uncletopia | Dallas | 1 | All Maps","protocol":17,"map":"koth_cascade","folder":"tf","game":"Team Fortress","app_id":440,"player_count":19,"max_players":24,"Bots":0,"server_type":"Dedicated","server_os":"Linux","password":true,"vac":true,"version":"7757534","steam_id":85568392924469986,"keywords":["cp","nocrits","nodmgspread","uncletopia"],"game_id":440,"stv_port":27016,"stv_name":"Uncletopia | Dallas | 1 | All Maps | STV","players":[{"user_id":3,"name":"Untitled Goose Game","steam_id":76561198106938500,"connected_time":1529000000000,"state":"active","ping":73},{"user_id":24,"name":"HMS ThunderchildTF2","steam_id":76561198296568562,"connected_time":709000000000,"state":"active","ping":85},{"user_id":27,"name":"JustGavan","steam_id":76561198042260171,"connected_time":394000000000,"state":"active","ping":69},{"user_id":6,"name":"r0zemary","steam_id":76561198128494897,"connected_time":1514000000000,"state":"active","ping":87},{"user_id":18,"name":"RMTRE212","steam_id":76561199145573038,"connected_time":1049000000000,"state":"active","ping":142},{"user_id":8,"name":"PersonWhoJustDiedMaybeIDontKnow","steam_id":76561199109564855,"connected_time":1478000000000,"state":"active","ping":62},{"user_id":9,"name":"Soozy420","steam_id":76561198809074422,"connected_time":1446000000000,"state":"active","ping":91},{"user_id":28,"name":"BTS | Bumbler","steam_id":76561198048895038,"connected_time":368000000000,"state":"active","ping":51},{"user_id":11,"name":"Richard","steam_id":76561198044115685,"connected_time":1411000000000,"state":"active","ping":85},{"user_id":12,"name":"ryann","steam_id":76561198042996639,"connected_time":1406000000000,"state":"active","ping":85},{"user_id":17,"name":"Warmutt666","steam_id":76561198128155976,"connected_time":1192000000000,"state":"active","ping":120},{"user_id":20,"name":"MantraticSpackCrastinator2001","steam_id":76561198930216731,"connected_time":1002000000000,"state":"active","ping":83},{"user_id":21,"name":"amalgam virgo","steam_id":76561198085044565,"connected_time":917000000000,"state":"active","ping":89},{"user_id":23,"name":"the nut chuckler","steam_id":76561198211677460,"connected_time":737000000000,"state":"active","ping":100},{"user_id":33,"name":"pencil","steam_id":76561198119826352,"connected_time":27000000000,"state":"active","ping":46},{"user_id":29,"name":"GamingSpud","steam_id":76561198079763656,"connected_time":196000000000,"state":"active","ping":128},{"user_id":30,"name":"Redzur","steam_id":76561199384588086,"connected_time":166000000000,"state":"active","ping":58},{"user_id":31,"name":"私は不正行為をしてい","steam_id":76561199465653959,"connected_time":142000000000,"state":"active","ping":143},{"user_id":32,"name":"solaritis123","steam_id":76561199475572778,"connected_time":127000000000,"state":"connecting","ping":0}]},{"server_id":108,"name":"Uncletopia | Dallas | 2 | All Maps","name_short":"dal-2","host":"dal-1.us.uncletopia.com","port":27025,"enabled":true,"region":"us-central","cc":"us","latitude":32.779167,"longitude":-96.80889,"reserved":0,"last_update":"0001-01-01T00:00:00Z","name_a2s":"Uncletopia | Dallas | 2 | All Maps","protocol":17,"map":"pl_upward","folder":"tf","game":"Team Fortress","app_id":440,"player_count":0,"max_players":24,"Bots":0,"server_type":"Dedicated","server_os":"Linux","password":true,"vac":true,"version":"7757534","steam_id":85568392924469988,"keywords":["nocrits","nodmgspread","payload","uncletopia"],"game_id":440,"stv_port":27026,"stv_name":"Uncletopia | Dallas | 2 | All Maps | STV","players":null},{"server_id":5,"name":"Uncletopia | Frankfurt | 1 | All Maps","name_short":"frk-1","host":"frk-1.de.uncletopia.com","port":27015,"enabled":true,"region":"eu","cc":"de","latitude":50.110924,"longitude":8.682127,"reserved":0,"last_update":"0001-01-01T00:00:00Z","name_a2s":"Uncletopia | Frankfurt | 1 | All Maps","protocol":17,"map":"cp_mountainlab","folder":"tf","game":"Team Fortress","app_id":440,"player_count":24,"max_players":24,"Bots":0,"server_type":"Dedicated","server_os":"Linux","password":true,"vac":true,"version":"7757534","steam_id":85568392924469989,"keywords":["cp","nocrits","nodmgspread","uncletopia"],"game_id":440,"stv_port":27016,"stv_name":"Uncletopia | Frankfurt | 1 | All Maps | STV","players":[{"user_id":202,"name":"[Mg] Zé Péquéno","steam_id":76561198000927489,"connected_time":648000000000,"state":"active","ping":65},{"user_id":159,"name":".erik (real)","steam_id":76561197962112424,"connected_time":3346000000000,"state":"active","ping":71},{"user_id":162,"name":"TheRubberDuccy","steam_id":76561199023194086,"connected_time":3112000000000,"state":"active","ping":87},{"user_id":160,"name":"Yelowchy","steam_id":76561198199416121,"connected_time":3301000000000,"state":"active","ping":61},{"user_id":166,"name":"HatBird","steam_id":76561198954178624,"connected_time":2889000000000,"state":"active","ping":116},{"user_id":215,"name":"Mantis Toboggan, M.D","steam_id":76561197963562704,"connected_time":65000000000,"state":"active","ping":62},{"user_id":205,"name":"homeinvasion$","steam_id":76561199111905021,"connected_time":611000000000,"state":"active","ping":115},{"user_id":167,"name":"woolfy","steam_id":76561198954235784,"connected_time":2864000000000,"state":"active","ping":55},{"user_id":181,"name":"Ljubi Te Brat . . .","steam_id":76561198054582971,"connected_time":2380000000000,"state":"active","ping":75},{"user_id":200,"name":"PavlosPaok04","steam_id":76561199076069361,"connected_time":911000000000,"state":"active","ping":57},{"user_id":207,"name":"pond","steam_id":76561198214849363,"connected_time":564000000000,"state":"active","ping":76},{"user_id":119,"name":"Pico","steam_id":76561198063552545,"connected_time":5893000000000,"state":"active","ping":95},{"user_id":201,"name":"malinký","steam_id":76561198048683488,"connected_time":657000000000,"state":"active","ping":55},{"user_id":136,"name":"senior pomidor","steam_id":76561198123659806,"connected_time":4622000000000,"state":"active","ping":99},{"user_id":182,"name":"RiX","steam_id":76561197969053733,"connected_time":2321000000000,"state":"active","ping":62},{"user_id":203,"name":"M4 SOPMOD II Enjoyer","steam_id":76561198155176802,"connected_time":637000000000,"state":"active","ping":137},{"user_id":213,"name":"Prox","steam_id":76561198351490981,"connected_time":97000000000,"state":"active","ping":49},{"user_id":214,"name":"true","steam_id":76561198031145243,"connected_time":83000000000,"state":"active","ping":77},{"user_id":204,"name":"DribSitoop","steam_id":76561198020597104,"connected_time":636000000000,"state":"active","ping":61},{"user_id":206,"name":"Newax","steam_id":76561198020758511,"connected_time":609000000000,"state":"active","ping":67},{"user_id":208,"name":"Marchioly","steam_id":76561198335079215,"connected_time":552000000000,"state":"active","ping":113},{"user_id":211,"name":"Aigan","steam_id":76561198130354707,"connected_time":220000000000,"state":"active","ping":103},{"user_id":209,"name":"Paulie 'Walnuts' Atreides","steam_id":76561198146194820,"connected_time":527000000000,"state":"active","ping":50},{"user_id":210,"name":"Sh1n","steam_id":76561199012155377,"connected_time":526000000000,"state":"active","ping":45}]},{"server_id":110,"name":"Uncletopia | Frankfurt | 2 | All Maps","name_short":"frk-2","host":"frk-1.de.uncletopia.com","port":27025,"enabled":true,"region":"eu","cc":"de","latitude":50.110924,"longitude":8.682127,"reserved":0,"last_update":"0001-01-01T00:00:00Z","name_a2s":"Uncletopia | Frankfurt | 2 | All Maps","protocol":17,"map":"cp_dustbowl","folder":"tf","game":"Team Fortress","app_id":440,"player_count":0,"max_players":24,"Bots":0,"server_type":"Dedicated","server_os":"Linux","password":true,"vac":true,"version":"7757534","steam_id":85568392924469990,"keywords":["cp","nocrits","nodmgspread","uncletopia"],"game_id":440,"stv_port":27026,"stv_name":"Uncletopia | Frankfurt | 2 | All Maps | STV","players":null},{"server_id":308,"name":"Uncletopia | Frankfurt | 3 | All Maps","name_short":"frk-3","host":"frk-1.de.uncletopia.com","port":27035,"enabled":true,"region":"eu","cc":"de","latitude":50.110924,"longitude":8.682127,"reserved":0,"last_update":"0001-01-01T00:00:00Z","name_a2s":"Uncletopia | Frankfurt | 3 | All Maps","protocol":17,"map":"pl_frontier_final","folder":"tf","game":"Team Fortress","app_id":440,"player_count":0,"max_players":24,"Bots":0,"server_type":"Dedicated","server_os":"Linux","password":true,"vac":true,"version":"7757534","steam_id":85568392924504274,"keywords":["nocrits","nodmgspread","payload","uncletopia"],"game_id":440,"stv_port":27036,"stv_name":"Uncletopia | Frankfurt | 3 | All Maps | STV","players":null},{"server_id":309,"name":"Uncletopia | Frankfurt | 4 | All Maps","name_short":"frk-4","host":"frk-1.de.uncletopia.com","port":27045,"enabled":true,"region":"eu","cc":"de","latitude":50.110924,"longitude":8.682127,"reserved":0,"last_update":"0001-01-01T00:00:00Z","name_a2s":"Uncletopia | Frankfurt | 4 | All Maps","protocol":17,"map":"koth_viaduct","folder":"tf","game":"Team Fortress","app_id":440,"player_count":0,"max_players":24,"Bots":0,"server_type":"Dedicated","server_os":"Linux","password":true,"vac":true,"version":"7757534","steam_id":85568392924504275,"keywords":["cp","nocrits","nodmgspread","uncletopia"],"game_id":440,"stv_port":27046,"stv_name":"Uncletopia | Frankfurt | 4 | All Maps | STV","players":null},{"server_id":310,"name":"Uncletopia | Frankfurt | 5 | All Maps","name_short":"frk-5","host":"frk-1.de.uncletopia.com","port":27055,"enabled":true,"region":"eu","cc":"de","latitude":50.110924,"longitude":8.682127,"reserved":0,"last_update":"0001-01-01T00:00:00Z","name_a2s":"Uncletopia | Frankfurt | 5 | All Maps","protocol":17,"map":"koth_lakeside_final","folder":"tf","game":"Team Fortress","app_id":440,"player_count":0,"max_players":24,"Bots":0,"server_type":"Dedicated","server_os":"Linux","password":true,"vac":true,"version":"7757534","steam_id":85568392924504277,"keywords":["cp","nocrits","nodmgspread","uncletopia"],"game_id":440,"stv_port":27056,"stv_name":"Uncletopia | Frankfurt | 5 | All Maps | STV","players":null},{"server_id":311,"name":"Uncletopia | Frankfurt | 6 | All Maps","name_short":"frk-6","host":"frk-1.de.uncletopia.com","port":27065,"enabled":true,"region":"eu","cc":"de","latitude":50.110924,"longitude":8.682127,"reserved":0,"last_update":"0001-01-01T00:00:00Z","name_a2s":"Uncletopia | Frankfurt | 6 | All Maps","protocol":17,"map":"pl_frontier_final","folder":"tf","game":"Team Fortress","app_id":440,"player_count":22,"max_players":24,"Bots":0,"server_type":"Dedicated","server_os":"Linux","password":true,"vac":true,"version":"7757534","steam_id":85568392924504278,"keywords":["nocrits","nodmgspread","payload","uncletopia"],"game_id":440,"stv_port":27066,"stv_name":"Uncletopia | Frankfurt | 6 | All Maps | STV","players":[{"user_id":7,"name":"Munibe","steam_id":76561198107967904,"connected_time":1483000000000,"state":"active","ping":72},{"user_id":24,"name":"Anttech","steam_id":76561198065184022,"connected_time":720000000000,"state":"active","ping":54},{"user_id":28,"name":"Miedzan","steam_id":76561198405250516,"connected_time":455000000000,"state":"active","ping":65},{"user_id":8,"name":"Smith","steam_id":76561198132589784,"connected_time":1363000000000,"state":"active","ping":59},{"user_id":10,"name":"Momovsky","steam_id":76561198005738407,"connected_time":1232000000000,"state":"active","ping":83},{"user_id":40,"name":"Tywhip","steam_id":76561199207545191,"connected_time":110000000000,"state":"active","ping":58},{"user_id":12,"name":"Borazilla","steam_id":76561198083626821,"connected_time":1219000000000,"state":"active","ping":105},{"user_id":35,"name":"makaronrycy","steam_id":76561198018208790,"connected_time":286000000000,"state":"active","ping":70},{"user_id":17,"name":"Enigmus","steam_id":76561197994063627,"connected_time":1016000000000,"state":"active","ping":89},{"user_id":15,"name":"Raivo","steam_id":76561198388750592,"connected_time":1111000000000,"state":"active","ping":60},{"user_id":38,"name":"Greg","steam_id":76561198014131702,"connected_time":167000000000,"state":"active","ping":118},{"user_id":22,"name":"Vectillion","steam_id":76561198074292454,"connected_time":796000000000,"state":"active","ping":71},{"user_id":37,"name":"MajorKlebstoff","steam_id":76561198035489363,"connected_time":250000000000,"state":"active","ping":45},{"user_id":39,"name":"JC Denton(fake)","steam_id":76561198989449047,"connected_time":131000000000,"state":"active","ping":120},{"user_id":32,"name":"Pilk","steam_id":76561199356035187,"connected_time":419000000000,"state":"active","ping":141},{"user_id":33,"name":"iIMOFIi","steam_id":76561199000483925,"connected_time":390000000000,"state":"active","ping":170},{"user_id":34,"name":"on1on (julienned)","steam_id":76561197995304137,"connected_time":321000000000,"state":"active","ping":58},{"user_id":36,"name":"Le Pepp","steam_id":76561198042427803,"connected_time":278000000000,"state":"active","ping":58},{"user_id":41,"name":"Jedleo","steam_id":76561198347292531,"connected_time":110000000000,"state":"active","ping":70},{"user_id":42,"name":"Janitor","steam_id":76561198418538887,"connected_time":71000000000,"state":"active","ping":95},{"user_id":43,"name":"badrobot","steam_id":76561198322878356,"connected_time":57000000000,"state":"active","ping":91},{"user_id":44,"name":"oRang3_","steam_id":76561198841009476,"connected_time":46000000000,"state":"active","ping":66}]},{"server_id":23,"name":"Uncletopia | Frankfurt | 7 | Stopwatch Beta","name_short":"frk-7","host":"frk-1.de.uncletopia.com","port":27075,"enabled":true,"region":"eu","cc":"de","latitude":50.110924,"longitude":8.682127,"reserved":0,"last_update":"0001-01-01T00:00:00Z","name_a2s":"Uncletopia | Frankfurt | 7 | Stopwatch Beta","protocol":17,"map":"workshop/koth_ramjam_rc1.ugc459778887","folder":"tf","game":"Team Fortress","app_id":440,"player_count":0,"max_players":24,"Bots":0,"server_type":"Dedicated","server_os":"Linux","password":true,"vac":true,"version":"7757534","steam_id":85568392924742827,"keywords":["cp","nocrits","nodmgspread","uncletopia"],"game_id":440,"stv_port":27076,"stv_name":"Uncletopia | Frankfurt | 7 | Stopwatch Beta | STV","players":null},{"server_id":24,"name":"Uncletopia | Frankfurt | 8 | Community","name_short":"frk-8","host":"frk-1.de.uncletopia.com","port":27085,"enabled":true,"region":"eu","cc":"de","latitude":50.110924,"longitude":8.682127,"reserved":0,"last_update":"0001-01-01T00:00:00Z","name_a2s":"Uncletopia | Frankfurt | 8 | Community","protocol":17,"map":"koth_lakeside_final","folder":"tf","game":"Team Fortress","app_id":440,"player_count":0,"max_players":24,"Bots":0,"server_type":"Dedicated","server_os":"Linux","password":true,"vac":true,"version":"7757534","steam_id":85568392924742828,"keywords":["cp","nocrits","nodmgspread","uncletopia"],"game_id":440,"stv_port":27086,"stv_name":"Uncletopia | Frankfurt | 8 | Community | STV","players":null},{"server_id":202,"name":"Uncletopia | Hong Kong | 1 | All Maps","name_short":"hgk-1","host":"hgk-1.hk.uncletopia.com","port":27015,"enabled":true,"region":"asia","cc":"hk","latitude":22.302711,"longitude":114.177216,"reserved":0,"last_update":"0001-01-01T00:00:00Z","name_a2s":"Uncletopia | Hong Kong | 1 | All Maps","protocol":17,"map":"pl_thundermountain","folder":"tf","game":"Team Fortress","app_id":440,"player_count":23,"max_players":24,"Bots":0,"server_type":"Dedicated","server_os":"Linux","password":true,"vac":true,"version":"7757534","steam_id":85568392924494504,"keywords":["nocrits","nodmgspread","payload","uncletopia"],"game_id":440,"stv_port":27016,"stv_name":"Uncletopia | Hong Kong | 1 | All Maps | STV","players":[{"user_id":123,"name":"what is up fellow yellow's","steam_id":76561198412329672,"connected_time":732000000000,"state":"active","ping":90},{"user_id":118,"name":"Lord Kimchi","steam_id":76561198024666371,"connected_time":981000000000,"state":"active","ping":94},{"user_id":116,"name":"screaming sniper","steam_id":76561199085568674,"connected_time":1013000000000,"state":"spawning","ping":67},{"user_id":48,"name":"sauceyert","steam_id":76561199085409122,"connected_time":5146000000000,"state":"active","ping":69},{"user_id":130,"name":"mitcheljoh702","steam_id":76561199113766992,"connected_time":281000000000,"state":"active","ping":110},{"user_id":97,"name":"stormy","steam_id":76561198044944261,"connected_time":3139000000000,"state":"active","ping":86},{"user_id":117,"name":"Beef Wellington","steam_id":76561197995635241,"connected_time":988000000000,"state":"active","ping":169},{"user_id":114,"name":"P","steam_id":76561198304514505,"connected_time":1464000000000,"state":"active","ping":121},{"user_id":129,"name":"green_frog","steam_id":76561199202028346,"connected_time":401000000000,"state":"active","ping":145},{"user_id":110,"name":"Sexy Candle","steam_id":76561199399350149,"connected_time":1807000000000,"state":"active","ping":83},{"user_id":69,"name":"mm mmm i love testicles","steam_id":76561198055553140,"connected_time":4210000000000,"state":"spawning","ping":71},{"user_id":125,"name":"WoChao","steam_id":76561198234487088,"connected_time":610000000000,"state":"active","ping":71},{"user_id":94,"name":"Nat","steam_id":76561197995044074,"connected_time":3392000000000,"state":"active","ping":128},{"user_id":81,"name":"Paragon","steam_id":76561197983816430,"connected_time":3782000000000,"state":"spawning","ping":220},{"user_id":131,"name":"obama boss fight simulator 3D","steam_id":76561199209331489,"connected_time":35000000000,"state":"spawning","ping":105},{"user_id":121,"name":"Tier","steam_id":76561199022321575,"connected_time":923000000000,"state":"active","ping":90},{"user_id":66,"name":"drunk driving activist","steam_id":76561198798674165,"connected_time":4330000000000,"state":"active","ping":116},{"user_id":95,"name":"ghuzik","steam_id":76561199107596818,"connected_time":3385000000000,"state":"active","ping":110},{"user_id":111,"name":"Noyour","steam_id":76561198323259830,"connected_time":1783000000000,"state":"active","ping":114},{"user_id":126,"name":"worm","steam_id":76561198452370608,"connected_time":572000000000,"state":"spawning","ping":72},{"user_id":120,"name":"PissDrinker98","steam_id":76561198856157761,"connected_time":944000000000,"state":"active","ping":127},{"user_id":105,"name":"Rumoshiji","steam_id":76561199174449723,"connected_time":2728000000000,"state":"spawning","ping":111},{"user_id":103,"name":"Slim3rs","steam_id":76561199088010585,"connected_time":2854000000000,"state":"active","ping":173}]},{"server_id":1,"name":"Uncletopia | Los Angeles | 1 | All Maps","name_short":"lax-1","host":"lax-1.us.uncletopia.com","port":27015,"enabled":true,"region":"us-west","cc":"us","latitude":33.94279,"longitude":-118.41004,"reserved":0,"last_update":"0001-01-01T00:00:00Z","name_a2s":"Uncletopia | Los Angeles | 1 | All Maps","protocol":17,"map":"cp_altitude","folder":"tf","game":"Team Fortress","app_id":440,"player_count":0,"max_players":24,"Bots":0,"server_type":"Dedicated","server_os":"Linux","password":true,"vac":true,"version":"7757534","steam_id":85568392924469991,"keywords":["cp","nocrits","nodmgspread","uncletopia"],"game_id":440,"stv_port":27016,"stv_name":"Uncletopia | Los Angeles | 1 | All Maps | STV","players":null},{"server_id":112,"name":"Uncletopia | Los Angeles | 2 | All Maps","name_short":"lax-2","host":"lax-1.us.uncletopia.com","port":27025,"enabled":true,"region":"us-west","cc":"us","latitude":33.94279,"longitude":-118.41004,"reserved":0,"last_update":"0001-01-01T00:00:00Z","name_a2s":"Uncletopia | Los Angeles | 2 | All Maps","protocol":17,"map":"pl_frontier_final","folder":"tf","game":"Team Fortress","app_id":440,"player_count":0,"max_players":24,"Bots":0,"server_type":"Dedicated","server_os":"Linux","password":true,"vac":true,"version":"7757534","steam_id":85568392924469992,"keywords":["nocrits","nodmgspread","payload","uncletopia"],"game_id":440,"stv_port":27026,"stv_name":"Uncletopia | Los Angeles | 2 | All Maps | STV","players":null},{"server_id":324,"name":"Uncletopia | Los Angeles | 3 | All Maps","name_short":"lax-3","host":"lax-1.us.uncletopia.com","port":27035,"enabled":true,"region":"us-west","cc":"us","latitude":33.94279,"longitude":-118.41004,"reserved":0,"last_update":"0001-01-01T00:00:00Z","name_a2s":"Uncletopia | Los Angeles | 3 | All Maps","protocol":17,"map":"koth_lakeside_final","folder":"tf","game":"Team Fortress","app_id":440,"player_count":0,"max_players":24,"Bots":0,"server_type":"Dedicated","server_os":"Linux","password":true,"vac":true,"version":"7757534","steam_id":85568392924510198,"keywords":["cp","nocrits","nodmgspread","uncletopia"],"game_id":440,"stv_port":27036,"stv_name":"Uncletopia | Los Angeles | 3 | All Maps | STV","players":null},{"server_id":25,"name":"Uncletopia | Los Angeles | 4 | Stopwatch Beta","name_short":"lax-4","host":"lax-1.us.uncletopia.com","port":27045,"enabled":true,"region":"us-west","cc":"us","latitude":33.94279,"longitude":-118.41004,"reserved":0,"last_update":"0001-01-01T00:00:00Z","name_a2s":"Uncletopia | Los Angeles | 4 | Stopwatch Beta","protocol":17,"map":"pl_swiftwater_final1","folder":"tf","game":"Team Fortress","app_id":440,"player_count":0,"max_players":24,"Bots":0,"server_type":"Dedicated","server_os":"Linux","password":true,"vac":true,"version":"7757534","steam_id":85568392924510199,"keywords":["nocrits","nodmgspread","payload","uncletopia"],"game_id":440,"stv_port":27046,"stv_name":"Uncletopia | Los Angeles | 4 | Stopwatch Beta | STV","players":null},{"server_id":11,"name":"Uncletopia | London | 1 | All Maps","name_short":"lon-1","host":"lon-1.uk.uncletopia.com","port":27015,"enabled":true,"region":"eu","cc":"gb","latitude":51.509865,"longitude":-0.118092,"reserved":0,"last_update":"0001-01-01T00:00:00Z","name_a2s":"Uncletopia | London | 1 | All Maps","protocol":17,"map":"koth_highpass","folder":"tf","game":"Team Fortress","app_id":440,"player_count":0,"max_players":24,"Bots":0,"server_type":"Dedicated","server_os":"Linux","password":true,"vac":true,"version":"7757534","steam_id":85568392924367362,"keywords":["cp","nocrits","nodmgspread","uncletopia"],"game_id":440,"stv_port":27016,"stv_name":"Uncletopia | London | 1 | All Maps | STV","players":null},{"server_id":114,"name":"Uncletopia | London | 2 | All Maps","name_short":"lon-2","host":"lon-1.uk.uncletopia.com","port":27025,"enabled":true,"region":"eu","cc":"gb","latitude":51.509865,"longitude":-0.118092,"reserved":0,"last_update":"0001-01-01T00:00:00Z","name_a2s":"Uncletopia | London | 2 | All Maps","protocol":17,"map":"pl_borneo","folder":"tf","game":"Team Fortress","app_id":440,"player_count":24,"max_players":24,"Bots":0,"server_type":"Dedicated","server_os":"Linux","password":true,"vac":true,"version":"7757534","steam_id":85568392924470941,"keywords":["nocrits","nodmgspread","payload","uncletopia"],"game_id":440,"stv_port":27026,"stv_name":"Uncletopia | London | 2 | All Maps | STV","players":[{"user_id":165,"name":"Valentine","steam_id":76561198121343565,"connected_time":1000000000,"state":"spawning","ping":50},{"user_id":150,"name":"thekoolest88","steam_id":76561199022415672,"connected_time":1232000000000,"state":"active","ping":142},{"user_id":109,"name":"Zombi3","steam_id":76561198326290621,"connected_time":4523000000000,"state":"active","ping":61},{"user_id":100,"name":"frenchie","steam_id":76561198178298931,"connected_time":5164000000000,"state":"active","ping":44},{"user_id":118,"name":"tired","steam_id":76561198046838168,"connected_time":3966000000000,"state":"active","ping":60},{"user_id":155,"name":"Yuzu","steam_id":76561198121694613,"connected_time":824000000000,"state":"active","ping":50},{"user_id":162,"name":"KingTubbaFlubba","steam_id":76561198203917424,"connected_time":224000000000,"state":"active","ping":58},{"user_id":115,"name":"Virgil","steam_id":76561198248786778,"connected_time":4194000000000,"state":"active","ping":116},{"user_id":146,"name":"chachiply","steam_id":76561198316355509,"connected_time":1331000000000,"state":"active","ping":62},{"user_id":148,"name":"krunk","steam_id":76561198046080563,"connected_time":1328000000000,"state":"active","ping":46},{"user_id":163,"name":"ninjadogs14","steam_id":76561198144983985,"connected_time":220000000000,"state":"active","ping":46},{"user_id":92,"name":"player","steam_id":76561198054474684,"connected_time":5631000000000,"state":"active","ping":84},{"user_id":81,"name":"LOBZIK","steam_id":76561198114830120,"connected_time":6714000000000,"state":"active","ping":77},{"user_id":154,"name":"peruna","steam_id":76561198000721196,"connected_time":1041000000000,"state":"active","ping":87},{"user_id":164,"name":"grim reaper god","steam_id":76561199394194512,"connected_time":173000000000,"state":"active","ping":60},{"user_id":160,"name":"Femboy Gaming","steam_id":76561199230209215,"connected_time":237000000000,"state":"active","ping":57},{"user_id":135,"name":"Oak","steam_id":76561198067315672,"connected_time":2543000000000,"state":"active","ping":46},{"user_id":145,"name":"KAZAM | Tervez","steam_id":76561198045459068,"connected_time":1350000000000,"state":"active","ping":89},{"user_id":138,"name":"Chikapu_Xek","steam_id":76561198428023493,"connected_time":2193000000000,"state":"active","ping":67},{"user_id":158,"name":"benibachi","steam_id":76561198190816499,"connected_time":283000000000,"state":"active","ping":75},{"user_id":143,"name":"Fat Pigeon","steam_id":76561198817940142,"connected_time":1443000000000,"state":"active","ping":46},{"user_id":111,"name":"Fluffy","steam_id":76561198084447725,"connected_time":4468000000000,"state":"active","ping":45},{"user_id":161,"name":"Setter Ball Gaul","steam_id":76561198130427881,"connected_time":237000000000,"state":"active","ping":165},{"user_id":149,"name":"Fanshi","steam_id":76561198108478911,"connected_time":1328000000000,"state":"active","ping":81}]},{"server_id":320,"name":"Uncletopia | London | 3 | All Maps","name_short":"lon-3","host":"lon-1.uk.uncletopia.com","port":27035,"enabled":true,"region":"eu","cc":"gb","latitude":51.509865,"longitude":-0.118092,"reserved":0,"last_update":"0001-01-01T00:00:00Z","name_a2s":"Uncletopia | London | 3 | All Maps","protocol":17,"map":"cp_dustbowl","folder":"tf","game":"Team Fortress","app_id":440,"player_count":0,"max_players":24,"Bots":0,"server_type":"Dedicated","server_os":"Linux","password":true,"vac":true,"version":"7757534","steam_id":85568392924510192,"keywords":["cp","nocrits","nodmgspread","uncletopia"],"game_id":440,"stv_port":27036,"stv_name":"Uncletopia | London | 3 | All Maps | STV","players":null},{"server_id":321,"name":"Uncletopia | London | 4 | All Maps","name_short":"lon-4","host":"lon-1.uk.uncletopia.com","port":27045,"enabled":true,"region":"eu","cc":"gb","latitude":51.509865,"longitude":-0.118092,"reserved":0,"last_update":"0001-01-01T00:00:00Z","name_a2s":"Uncletopia | London | 4 | All Maps","protocol":17,"map":"pl_swiftwater_final1","folder":"tf","game":"Team Fortress","app_id":440,"player_count":0,"max_players":24,"Bots":0,"server_type":"Dedicated","server_os":"Linux","password":true,"vac":true,"version":"7757534","steam_id":85568392924510193,"keywords":["nocrits","nodmgspread","payload","uncletopia"],"game_id":440,"stv_port":27046,"stv_name":"Uncletopia | London | 4 | All Maps | STV","players":null},{"server_id":21,"name":"Uncletopia | London | 5 | All Maps","name_short":"lon-5","host":"lon-1.uk.uncletopia.com","port":27055,"enabled":true,"region":"eu","cc":"gb","latitude":51.509865,"longitude":-0.118092,"reserved":0,"last_update":"0001-01-01T00:00:00Z","name_a2s":"Uncletopia | London | 5 | All Maps","protocol":17,"map":"cp_altitude","folder":"tf","game":"Team Fortress","app_id":440,"player_count":0,"max_players":24,"Bots":0,"server_type":"Dedicated","server_os":"Linux","password":true,"vac":true,"version":"7757534","steam_id":85568392924742829,"keywords":["cp","nocrits","nodmgspread","uncletopia"],"game_id":440,"stv_port":27056,"stv_name":"Uncletopia | London | 5 | All Maps | STV","players":null},{"server_id":22,"name":"Uncletopia | London | 6 | All Maps","name_short":"lon-6","host":"lon-1.uk.uncletopia.com","port":27065,"enabled":true,"region":"eu","cc":"gb","latitude":51.509865,"longitude":-0.118092,"reserved":0,"last_update":"0001-01-01T00:00:00Z","name_a2s":"Uncletopia | London | 6 | All Maps","protocol":17,"map":"cp_process_final","folder":"tf","game":"Team Fortress","app_id":440,"player_count":0,"max_players":24,"Bots":0,"server_type":"Dedicated","server_os":"Linux","password":true,"vac":true,"version":"7757534","steam_id":85568392924742830,"keywords":["cp","nocrits","nodmgspread","uncletopia"],"game_id":440,"stv_port":27066,"stv_name":"Uncletopia | London | 6 | All Maps | STV","players":null},{"server_id":40,"name":"Uncletopia | London | 7 | No Payload","name_short":"lon-7","host":"lon-1.uk.uncletopia.com","port":27075,"enabled":true,"region":"eu","cc":"gb","latitude":51.509865,"longitude":-0.118092,"reserved":0,"last_update":"0001-01-01T00:00:00Z","name_a2s":"Uncletopia | London | 7 | No Payload","protocol":17,"map":"koth_lakeside_final","folder":"tf","game":"Team Fortress","app_id":440,"player_count":0,"max_players":24,"Bots":0,"server_type":"Dedicated","server_os":"Linux","password":true,"vac":true,"version":"7757534","steam_id":85568392924964314,"keywords":["cp","nocrits","nodmgspread","uncletopia"],"game_id":440,"stv_port":27076,"stv_name":"Uncletopia | London | 7 | No Payload | STV","players":null},{"server_id":41,"name":"Uncletopia | London | 8 | Community","name_short":"lon-8","host":"lon-1.uk.uncletopia.com","port":27085,"enabled":true,"region":"eu","cc":"gb","latitude":51.509865,"longitude":-0.118092,"reserved":0,"last_update":"0001-01-01T00:00:00Z","name_a2s":"Uncletopia | London | 8 | Community","protocol":17,"map":"workshop/cp_glassworks_rc6a.ugc454118349","folder":"tf","game":"Team Fortress","app_id":440,"player_count":0,"max_players":24,"Bots":0,"server_type":"Dedicated","server_os":"Linux","password":true,"vac":true,"version":"7757534","steam_id":85568392924964315,"keywords":["cp","nocrits","nodmgspread","uncletopia"],"game_id":440,"stv_port":27086,"stv_name":"Uncletopia | London | 8 | Community | STV","players":null},{"server_id":300,"name":"Uncletopia | Montréal | 1 | All Maps","name_short":"mtl-1","host":"mtl-1.ca.uncletopia.com","port":27015,"enabled":true,"region":"us-east","cc":"ca","latitude":45.50889,"longitude":-73.56167,"reserved":0,"last_update":"0001-01-01T00:00:00Z","name_a2s":"Uncletopia | Montréal | 1 | All Maps","protocol":17,"map":"pl_upward","folder":"tf","game":"Team Fortress","app_id":440,"player_count":0,"max_players":24,"Bots":0,"server_type":"Dedicated","server_os":"Linux","password":true,"vac":true,"version":"7757534","steam_id":85568392924500087,"keywords":["nocrits","nodmgspread","payload","uncletopia"],"game_id":440,"stv_port":27016,"stv_name":"Uncletopia | Montréal | 1 | All Maps | STV","players":null},{"server_id":301,"name":"Uncletopia | Montréal | 2 | All Maps","name_short":"mtl-2","host":"mtl-1.ca.uncletopia.com","port":27025,"enabled":true,"region":"us-east","cc":"ca","latitude":45.50889,"longitude":-73.56167,"reserved":0,"last_update":"0001-01-01T00:00:00Z","name_a2s":"Uncletopia | Montréal | 2 | All Maps","protocol":17,"map":"pl_snowycoast","folder":"tf","game":"Team Fortress","app_id":440,"player_count":0,"max_players":24,"Bots":0,"server_type":"Dedicated","server_os":"Linux","password":true,"vac":true,"version":"7757534","steam_id":85568392924500088,"keywords":["nocrits","nodmgspread","payload","uncletopia"],"game_id":440,"stv_port":27026,"stv_name":"Uncletopia | Montréal | 2 | All Maps | STV","players":null},{"server_id":302,"name":"Uncletopia | Montréal | 3 | All Maps","name_short":"mtl-3","host":"mtl-1.ca.uncletopia.com","port":27035,"enabled":true,"region":"us-east","cc":"ca","latitude":45.50889,"longitude":-73.56167,"reserved":0,"last_update":"0001-01-01T00:00:00Z","name_a2s":"Uncletopia | Montréal | 3 | All Maps","protocol":17,"map":"pl_swiftwater_final1","folder":"tf","game":"Team Fortress","app_id":440,"player_count":0,"max_players":24,"Bots":0,"server_type":"Dedicated","server_os":"Linux","password":true,"vac":true,"version":"7757534","steam_id":85568392924500089,"keywords":["nocrits","nodmgspread","payload","uncletopia"],"game_id":440,"stv_port":27036,"stv_name":"Uncletopia | Montréal | 3 | All Maps | STV","players":null},{"server_id":303,"name":"Uncletopia | Montréal | 4 | No Payload","name_short":"mtl-4","host":"mtl-1.ca.uncletopia.com","port":27045,"enabled":true,"region":"us-east","cc":"ca","latitude":45.50889,"longitude":-73.56167,"reserved":0,"last_update":"0001-01-01T00:00:00Z","name_a2s":"Uncletopia | Montréal | 4 | No Payload","protocol":17,"map":"pl_pier","folder":"tf","game":"Team Fortress","app_id":440,"player_count":0,"max_players":24,"Bots":0,"server_type":"Dedicated","server_os":"Linux","password":true,"vac":true,"version":"7757534","steam_id":85568392924500090,"keywords":["nocrits","nodmgspread","payload","uncletopia"],"game_id":440,"stv_port":27046,"stv_name":"Uncletopia | Montréal | 4 | No Payload | STV","players":null},{"server_id":13,"name":"Uncletopia | New York City | 1 | All Maps","name_short":"nyc-1","host":"nyc-1.us.uncletopia.com","port":27015,"enabled":true,"region":"us-east","cc":"us","latitude":40.73061,"longitude":-73.93524,"reserved":0,"last_update":"0001-01-01T00:00:00Z","name_a2s":"Uncletopia | New York City | 1 | All Maps","protocol":17,"map":"koth_viaduct","folder":"tf","game":"Team Fortress","app_id":440,"player_count":0,"max_players":24,"Bots":0,"server_type":"Dedicated","server_os":"Linux","password":true,"vac":true,"version":"7757534","steam_id":85568392924469993,"keywords":["cp","nocrits","nodmgspread","uncletopia"],"game_id":440,"stv_port":27016,"stv_name":"Uncletopia | New York City | 1 | All Maps | STV","players":null},{"server_id":14,"name":"Uncletopia | New York City | 2 | All Maps","name_short":"nyc-2","host":"nyc-1.us.uncletopia.com","port":27025,"enabled":true,"region":"us-east","cc":"us","latitude":40.73061,"longitude":-73.93524,"reserved":0,"last_update":"0001-01-01T00:00:00Z","name_a2s":"Uncletopia | New York City | 2 | All Maps","protocol":17,"map":"pl_badwater","folder":"tf","game":"Team Fortress","app_id":440,"player_count":0,"max_players":24,"Bots":0,"server_type":"Dedicated","server_os":"Linux","password":true,"vac":true,"version":"7757534","steam_id":85568392924469994,"keywords":["nocrits","nodmgspread","payload","uncletopia"],"game_id":440,"stv_port":27026,"stv_name":"Uncletopia | New York City | 2 | All Maps | STV","players":null},{"server_id":15,"name":"Uncletopia | New York City | 3 | Stopwatch Beta","name_short":"nyc-3","host":"nyc-1.us.uncletopia.com","port":27035,"enabled":true,"region":"us-east","cc":"us","latitude":40.73061,"longitude":-73.93524,"reserved":0,"last_update":"0001-01-01T00:00:00Z","name_a2s":"Uncletopia | New York City | 3 | Stopwatch Beta","protocol":17,"map":"pl_upward","folder":"tf","game":"Team Fortress","app_id":440,"player_count":0,"max_players":24,"Bots":0,"server_type":"Dedicated","server_os":"Linux","password":true,"vac":true,"version":"7757534","steam_id":85568392924742820,"keywords":["nocrits","nodmgspread","payload","uncletopia"],"game_id":440,"stv_port":27036,"stv_name":"Uncletopia | New York City | 3 | Stopwatch Beta | STV","players":null},{"server_id":16,"name":"Uncletopia | New York City | 4 | Community","name_short":"nyc-4","host":"nyc-1.us.uncletopia.com","port":27045,"enabled":true,"region":"us-east","cc":"us","latitude":40.73061,"longitude":-73.93524,"reserved":0,"last_update":"0001-01-01T00:00:00Z","name_a2s":"Uncletopia | New York City | 4 | Community","protocol":17,"map":"pl_swiftwater_final1","folder":"tf","game":"Team Fortress","app_id":440,"player_count":0,"max_players":24,"Bots":0,"server_type":"Dedicated","server_os":"Linux","password":true,"vac":true,"version":"7757534","steam_id":85568392924742821,"keywords":["nocrits","nodmgspread","payload","uncletopia"],"game_id":440,"stv_port":27046,"stv_name":"Uncletopia | New York City | 4 | Community | STV","players":null},{"server_id":142,"name":"Uncletopia | São Paulo | 1 | All Maps","name_short":"sao-1","host":"sao-1.br.uncletopia.com","port":27015,"enabled":true,"region":"sa","cc":"br","latitude":-23.533773,"longitude":-46.62529,"reserved":0,"last_update":"0001-01-01T00:00:00Z","name_a2s":"Uncletopia | São Paulo | 1 | All Maps","protocol":17,"map":"koth_lakeside_final","folder":"tf","game":"Team Fortress","app_id":440,"player_count":0,"max_players":24,"Bots":0,"server_type":"Dedicated","server_os":"Linux","password":true,"vac":true,"version":"7757534","steam_id":85568392924469996,"keywords":["cp","nocrits","nodmgspread","uncletopia"],"game_id":440,"stv_port":27016,"stv_name":"Uncletopia | São Paulo | 1 | All Maps | STV","players":null},{"server_id":143,"name":"Uncletopia | São Paulo | 2 | All Maps","name_short":"sao-2","host":"sao-2.br.uncletopia.com","port":27015,"enabled":true,"region":"sa","cc":"br","latitude":-23.533773,"longitude":-46.62529,"reserved":0,"last_update":"0001-01-01T00:00:00Z","name_a2s":"Uncletopia | São Paulo | 2 | All Maps","protocol":17,"map":"koth_cascade","folder":"tf","game":"Team Fortress","app_id":440,"player_count":4,"max_players":24,"Bots":0,"server_type":"Dedicated","server_os":"Linux","password":true,"vac":true,"version":"7757534","steam_id":85568392924485349,"keywords":["cp","nocrits","nodmgspread","uncletopia"],"game_id":440,"stv_port":27016,"stv_name":"Uncletopia | São Paulo | 2 | All Maps | STV","players":[{"user_id":3,"name":"kae","steam_id":76561199109971431,"connected_time":2173000000000,"state":"active","ping":431},{"user_id":4,"name":"SoapySophie","steam_id":76561198902894934,"connected_time":2119000000000,"state":"active","ping":312},{"user_id":5,"name":"Alface935","steam_id":76561199198440027,"connected_time":745000000000,"state":"active","ping":47},{"user_id":6,"name":"DaDogeDev (F2P)","steam_id":76561199098626049,"connected_time":410000000000,"state":"active","ping":278}]},{"server_id":7,"name":"Uncletopia | Seattle | 1 | All Maps","name_short":"sea-1","host":"sea-1.us.uncletopia.com","port":27015,"enabled":true,"region":"us-west","cc":"us","latitude":47.608013,"longitude":-122.33517,"reserved":0,"last_update":"0001-01-01T00:00:00Z","name_a2s":"Uncletopia | Seattle | 1 | All Maps","protocol":17,"map":"pl_badwater","folder":"tf","game":"Team Fortress","app_id":440,"player_count":24,"max_players":24,"Bots":0,"server_type":"Dedicated","server_os":"Linux","password":true,"vac":true,"version":"7757534","steam_id":85568392924469997,"keywords":["nocrits","nodmgspread","payload","uncletopia"],"game_id":440,"stv_port":27016,"stv_name":"Uncletopia | Seattle | 1 | All Maps | STV","players":[{"user_id":910,"name":"FCKGW-RHQQ2-YXRKT-8TG6W-2B7Q8","steam_id":76561197993138592,"connected_time":2323000000000,"state":"active","ping":48},{"user_id":803,"name":"SadFapping","steam_id":76561198076651049,"connected_time":15473000000000,"state":"active","ping":56},{"user_id":927,"name":"Tyler\u0026Fingers","steam_id":76561198085154485,"connected_time":668000000000,"state":"active","ping":135},{"user_id":900,"name":"blozet","steam_id":76561199120161035,"connected_time":3460000000000,"state":"active","ping":81},{"user_id":928,"name":"Minnow","steam_id":76561199215043894,"connected_time":616000000000,"state":"active","ping":129},{"user_id":929,"name":"the meat man","steam_id":76561198037921140,"connected_time":601000000000,"state":"active","ping":65},{"user_id":930,"name":"UzuNep","steam_id":76561198451679346,"connected_time":519000000000,"state":"active","ping":107},{"user_id":902,"name":"Starkiller","steam_id":76561198101643120,"connected_time":3365000000000,"state":"active","ping":61},{"user_id":888,"name":"nella","steam_id":76561198079349621,"connected_time":5590000000000,"state":"active","ping":81},{"user_id":889,"name":"Joey Wheeler","steam_id":76561198073792437,"connected_time":5459000000000,"state":"active","ping":93},{"user_id":921,"name":"CollDragon","steam_id":76561198067534450,"connected_time":1051000000000,"state":"active","ping":128},{"user_id":897,"name":"poggies woggies","steam_id":76561198074716338,"connected_time":4717000000000,"state":"active","ping":72},{"user_id":912,"name":"captjosh22","steam_id":76561199092650499,"connected_time":2296000000000,"state":"active","ping":127},{"user_id":918,"name":"Dauntless Duelist","steam_id":76561198025056018,"connected_time":1600000000000,"state":"active","ping":51},{"user_id":890,"name":"Toxic Medic Main (he/they)","steam_id":76561198009314845,"connected_time":5144000000000,"state":"active","ping":76},{"user_id":925,"name":"Sakisano","steam_id":76561198245814880,"connected_time":816000000000,"state":"active","ping":73},{"user_id":898,"name":"Comcast Wizard","steam_id":76561198131466634,"connected_time":4430000000000,"state":"active","ping":155},{"user_id":899,"name":"El Duderino","steam_id":76561199427900685,"connected_time":4205000000000,"state":"active","ping":94},{"user_id":922,"name":"broos","steam_id":76561198061648271,"connected_time":1026000000000,"state":"active","ping":97},{"user_id":931,"name":"Remaru","steam_id":76561198324711734,"connected_time":256000000000,"state":"active","ping":79},{"user_id":887,"name":"Toxic Sniper Main (head/shot)","steam_id":76561198881665250,"connected_time":5654000000000,"state":"active","ping":45},{"user_id":926,"name":"\u003e:3","steam_id":76561198068586634,"connected_time":755000000000,"state":"active","ping":99},{"user_id":919,"name":"Literally a Trans Woman","steam_id":76561198054639925,"connected_time":1371000000000,"state":"active","ping":111},{"user_id":932,"name":"Skelloton","steam_id":76561198012298599,"connected_time":218000000000,"state":"active","ping":79}]},{"server_id":119,"name":"Uncletopia | Seattle | 2 | All Maps","name_short":"sea-2","host":"sea-1.us.uncletopia.com","port":27025,"enabled":true,"region":"us-west","cc":"us","latitude":47.608013,"longitude":-122.33517,"reserved":0,"last_update":"0001-01-01T00:00:00Z","name_a2s":"Uncletopia | Seattle | 2 | All Maps","protocol":17,"map":"pl_snowycoast","folder":"tf","game":"Team Fortress","app_id":440,"player_count":0,"max_players":24,"Bots":0,"server_type":"Dedicated","server_os":"Linux","password":true,"vac":true,"version":"7757534","steam_id":85568392924469998,"keywords":["nocrits","nodmgspread","payload","uncletopia"],"game_id":440,"stv_port":27026,"stv_name":"Uncletopia | Seattle | 2 | All Maps | STV","players":null},{"server_id":406,"name":"Uncletopia | Seattle | 3 | Stopwatch Beta","name_short":"sea-3","host":"sea-1.us.uncletopia.com","port":27035,"enabled":true,"region":"us-west","cc":"us","latitude":47.608013,"longitude":-122.33517,"reserved":0,"last_update":"0001-01-01T00:00:00Z","name_a2s":"Uncletopia | Seattle | 3 | Stopwatch Beta","protocol":17,"map":"pl_swiftwater_final1","folder":"tf","game":"Team Fortress","app_id":440,"player_count":0,"max_players":24,"Bots":0,"server_type":"Dedicated","server_os":"Linux","password":true,"vac":true,"version":"7757534","steam_id":85568392924515217,"keywords":["nocrits","nodmgspread","payload","uncletopia"],"game_id":440,"stv_port":27036,"stv_name":"Uncletopia | Seattle | 3 | Stopwatch Beta | STV","players":null},{"server_id":17,"name":"Uncletopia | San Francisco | 1 | All Maps","name_short":"sfo-1","host":"sfo-1.us.uncletopia.com","port":27015,"enabled":true,"region":"us-west","cc":"us","latitude":37.77397,"longitude":-122.4313,"reserved":0,"last_update":"0001-01-01T00:00:00Z","name_a2s":"Uncletopia | San Francisco | 1 | All Maps","protocol":17,"map":"pl_frontier_final","folder":"tf","game":"Team Fortress","app_id":440,"player_count":0,"max_players":24,"Bots":0,"server_type":"Dedicated","server_os":"Linux","password":true,"vac":true,"version":"7757534","steam_id":85568392924469999,"keywords":["nocrits","nodmgspread","payload","uncletopia"],"game_id":440,"stv_port":27016,"stv_name":"Uncletopia | San Francisco | 1 | All Maps | STV","players":null},{"server_id":18,"name":"Uncletopia | San Francisco | 2 | All Maps","name_short":"sfo-2","host":"sfo-1.us.uncletopia.com","port":27025,"enabled":true,"region":"us-west","cc":"us","latitude":37.77397,"longitude":-122.4313,"reserved":0,"last_update":"0001-01-01T00:00:00Z","name_a2s":"Uncletopia | San Francisco | 2 | All Maps","protocol":17,"map":"koth_highpass","folder":"tf","game":"Team Fortress","app_id":440,"player_count":0,"max_players":24,"Bots":0,"server_type":"Dedicated","server_os":"Linux","password":true,"vac":true,"version":"7757534","steam_id":85568392924470000,"keywords":["cp","nocrits","nodmgspread","uncletopia"],"game_id":440,"stv_port":27026,"stv_name":"Uncletopia | San Francisco | 2 | All Maps | STV","players":null},{"server_id":19,"name":"Uncletopia | San Francisco | 3 | Stopwatch Beta","name_short":"sfo-3","host":"sfo-1.us.uncletopia.com","port":27035,"enabled":true,"region":"us-west","cc":"us","latitude":37.77397,"longitude":-122.4313,"reserved":0,"last_update":"0001-01-01T00:00:00Z","name_a2s":"Uncletopia | San Francisco | 3 | Stopwatch Beta","protocol":17,"map":"koth_lakeside_final","folder":"tf","game":"Team Fortress","app_id":440,"player_count":0,"max_players":24,"Bots":0,"server_type":"Dedicated","server_os":"Linux","password":true,"vac":true,"version":"7757534","steam_id":85568392924742824,"keywords":["cp","nocrits","nodmgspread","uncletopia"],"game_id":440,"stv_port":27036,"stv_name":"Uncletopia | San Francisco | 3 | Stopwatch Beta | STV","players":null},{"server_id":20,"name":"Uncletopia | San Francisco | 4 | Community","name_short":"sfo-4","host":"sfo-1.us.uncletopia.com","port":27045,"enabled":true,"region":"us-west","cc":"us","latitude":37.77397,"longitude":-122.4313,"reserved":0,"last_update":"0001-01-01T00:00:00Z","name_a2s":"Uncletopia | San Francisco | 4 | Community","protocol":17,"map":"workshop/koth_slaughter_rc1.ugc1712845210","folder":"tf","game":"Team Fortress","app_id":440,"player_count":0,"max_players":24,"Bots":0,"server_type":"Dedicated","server_os":"Linux","password":true,"vac":true,"version":"7757534","steam_id":85568392924742826,"keywords":["cp","nocrits","nodmgspread","uncletopia"],"game_id":440,"stv_port":27046,"stv_name":"Uncletopia | San Francisco | 4 | Community | STV","players":null},{"server_id":141,"name":"Uncletopia | Sydney | 1 | All Maps","name_short":"syd-1","host":"syd-1.au.uncletopia.com","port":27015,"enabled":true,"region":"au","cc":"au","latitude":-33.865143,"longitude":151.2099,"reserved":0,"last_update":"0001-01-01T00:00:00Z","name_a2s":"Uncletopia | Sydney | 1 | All Maps","protocol":17,"map":"cp_snakewater_final1","folder":"tf","game":"Team Fortress","app_id":440,"player_count":22,"max_players":24,"Bots":0,"server_type":"Dedicated","server_os":"Linux","password":true,"vac":true,"version":"7757534","steam_id":85568392924470001,"keywords":["cp","nocrits","nodmgspread","uncletopia"],"game_id":440,"stv_port":27016,"stv_name":"Uncletopia | Sydney | 1 | All Maps | STV","players":[{"user_id":247,"name":"BackyardBonanza19943214","steam_id":76561198383642609,"connected_time":324000000000,"state":"active","ping":72},{"user_id":189,"name":"smite","steam_id":76561198845304189,"connected_time":3992000000000,"state":"active","ping":68},{"user_id":208,"name":"echidna","steam_id":76561198044514230,"connected_time":3008000000000,"state":"active","ping":72},{"user_id":221,"name":"THEEXO609","steam_id":76561198839562584,"connected_time":1700000000000,"state":"active","ping":70},{"user_id":246,"name":"Doctor Estonia","steam_id":76561198057365089,"connected_time":352000000000,"state":"active","ping":92},{"user_id":222,"name":"RIP Aaron Paul 1979-2023","steam_id":76561199262196710,"connected_time":1627000000000,"state":"active","ping":32},{"user_id":228,"name":"Lab","steam_id":76561198154143871,"connected_time":1231000000000,"state":"active","ping":66},{"user_id":211,"name":"I shouldn't have made a twitter","steam_id":76561198371274370,"connected_time":2769000000000,"state":"active","ping":42},{"user_id":231,"name":"BAD BITCHES INTERNATIONAL","steam_id":76561198055239632,"connected_time":1137000000000,"state":"active","ping":90},{"user_id":251,"name":"☁☁ﮎσggY☁","steam_id":76561198156441727,"connected_time":157000000000,"state":"active","ping":33},{"user_id":191,"name":"hive","steam_id":76561199099744527,"connected_time":3785000000000,"state":"active","ping":45},{"user_id":230,"name":"crack","steam_id":76561198077370413,"connected_time":1149000000000,"state":"active","ping":59},{"user_id":237,"name":"voxii","steam_id":76561198099698281,"connected_time":788000000000,"state":"active","ping":66},{"user_id":234,"name":"maize","steam_id":76561199388029472,"connected_time":871000000000,"state":"active","ping":60},{"user_id":195,"name":"wombraidre","steam_id":76561199375834537,"connected_time":3495000000000,"state":"active","ping":123},{"user_id":242,"name":"beth.cubitt","steam_id":76561198454733447,"connected_time":498000000000,"state":"active","ping":85},{"user_id":236,"name":"Mr.Deathclaw","steam_id":76561198025419320,"connected_time":829000000000,"state":"active","ping":45},{"user_id":218,"name":"stub","steam_id":76561198237014504,"connected_time":2080000000000,"state":"active","ping":54},{"user_id":248,"name":"Creamcheese","steam_id":76561198142990691,"connected_time":285000000000,"state":"active","ping":40},{"user_id":249,"name":"Scrumpeh","steam_id":76561198058085957,"connected_time":240000000000,"state":"active","ping":62},{"user_id":245,"name":"ominoususerwashere","steam_id":76561199278594164,"connected_time":405000000000,"state":"active","ping":130},{"user_id":250,"name":"Mitch","steam_id":76561198405622505,"connected_time":214000000000,"state":"active","ping":61}]},{"server_id":123,"name":"Uncletopia | Sydney | 2 | All Maps","name_short":"syd-2","host":"syd-1.au.uncletopia.com","port":27025,"enabled":true,"region":"au","cc":"au","latitude":-33.865143,"longitude":151.2099,"reserved":0,"last_update":"0001-01-01T00:00:00Z","name_a2s":"Uncletopia | Sydney | 2 | All Maps","protocol":17,"map":"cp_dustbowl","folder":"tf","game":"Team Fortress","app_id":440,"player_count":20,"max_players":24,"Bots":0,"server_type":"Dedicated","server_os":"Linux","password":true,"vac":true,"version":"7757534","steam_id":85568392924470002,"keywords":["cp","nocrits","nodmgspread","uncletopia"],"game_id":440,"stv_port":27026,"stv_name":"Uncletopia | Sydney | 2 | All Maps | STV","players":[{"user_id":423,"name":"Zzep_","steam_id":76561198059402662,"connected_time":1199000000000,"state":"active","ping":60},{"user_id":391,"name":"beans","steam_id":76561198202908888,"connected_time":5294000000000,"state":"active","ping":67},{"user_id":324,"name":"仙女头子于谦","steam_id":76561199031075505,"connected_time":8041000000000,"state":"active","ping":172},{"user_id":410,"name":"GoodoDarco","steam_id":76561198322623838,"connected_time":2424000000000,"state":"active","ping":60},{"user_id":358,"name":"Shadow Puppeteer","steam_id":76561198151121997,"connected_time":6505000000000,"state":"active","ping":73},{"user_id":414,"name":"Foxtonnes","steam_id":76561198007628373,"connected_time":1912000000000,"state":"active","ping":56},{"user_id":384,"name":"OiBigEarz","steam_id":76561198068715532,"connected_time":5528000000000,"state":"active","ping":47},{"user_id":422,"name":"Mentos","steam_id":76561197980750976,"connected_time":1221000000000,"state":"active","ping":41},{"user_id":382,"name":"A threat unbeknownst","steam_id":76561198293776102,"connected_time":5548000000000,"state":"active","ping":47},{"user_id":370,"name":"bread.  🔪","steam_id":76561199102895674,"connected_time":6056000000000,"state":"active","ping":65},{"user_id":418,"name":"Mail Bomb Victim","steam_id":76561198284533039,"connected_time":1329000000000,"state":"active","ping":59},{"user_id":431,"name":"Xristaveli","steam_id":76561198075149906,"connected_time":153000000000,"state":"active","ping":57},{"user_id":396,"name":"Vasxus (BLU)","steam_id":76561198067733319,"connected_time":4787000000000,"state":"active","ping":57},{"user_id":425,"name":"Pug","steam_id":76561198136794372,"connected_time":1074000000000,"state":"active","ping":54},{"user_id":322,"name":"Bob Ross","steam_id":76561198081686896,"connected_time":8061000000000,"state":"active","ping":62},{"user_id":400,"name":"Captain Canadia","steam_id":76561198167967735,"connected_time":3693000000000,"state":"active","ping":48},{"user_id":429,"name":"Little Red all grown up","steam_id":76561198054040718,"connected_time":542000000000,"state":"active","ping":51},{"user_id":394,"name":"calculusfish","steam_id":76561198067205959,"connected_time":4919000000000,"state":"active","ping":71},{"user_id":409,"name":"Extra Exotic","steam_id":76561198045191981,"connected_time":2696000000000,"state":"active","ping":58},{"user_id":398,"name":"HeyHeyItsGreyGrey","steam_id":76561198047955263,"connected_time":4644000000000,"state":"active","ping":61}]},{"server_id":395,"name":"Uncletopia | Sydney | 3 | All Maps","name_short":"syd-3","host":"syd-1.au.uncletopia.com","port":27035,"enabled":true,"region":"au","cc":"au","latitude":-33.865143,"longitude":151.2099,"reserved":0,"last_update":"0001-01-01T00:00:00Z","name_a2s":"Uncletopia | Sydney | 3 | All Maps","protocol":17,"map":"koth_badlands","folder":"tf","game":"Team Fortress","app_id":440,"player_count":0,"max_players":24,"Bots":0,"server_type":"Dedicated","server_os":"Linux","password":true,"vac":true,"version":"7757534","steam_id":85568392925194467,"keywords":["cp","nocrits","nodmgspread","uncletopia"],"game_id":440,"stv_port":27036,"stv_name":"Uncletopia | Sydney | 3 | All Maps | STV","players":null},{"server_id":396,"name":"Uncletopia | Sydney | 4 | All Maps","name_short":"syd-4","host":"syd-1.au.uncletopia.com","port":27045,"enabled":true,"region":"au","cc":"au","latitude":-33.865143,"longitude":151.2099,"reserved":0,"last_update":"0001-01-01T00:00:00Z","name_a2s":"Uncletopia | Sydney | 4 | All Maps","protocol":17,"map":"koth_highpass","folder":"tf","game":"Team Fortress","app_id":440,"player_count":0,"max_players":24,"Bots":0,"server_type":"Dedicated","server_os":"Linux","password":true,"vac":true,"version":"7757534","steam_id":85568392925397958,"keywords":["cp","nocrits","nodmgspread","uncletopia"],"game_id":440,"stv_port":27046,"stv_name":"Uncletopia | Sydney | 4 | All Maps | STV","players":null},{"server_id":58,"name":"Uncletopia | Sydney | 5 | Stopwatch Beta","name_short":"syd-5","host":"syd-1.au.uncletopia.com","port":27055,"enabled":true,"region":"au","cc":"au","latitude":-33.865143,"longitude":151.2099,"reserved":0,"last_update":"0001-01-01T00:00:00Z","name_a2s":"Uncletopia | Sydney | 5 | Stopwatch Beta","protocol":17,"map":"koth_cascade","folder":"tf","game":"Team Fortress","app_id":440,"player_count":0,"max_players":24,"Bots":0,"server_type":"Dedicated","server_os":"Linux","password":true,"vac":true,"version":"7757534","steam_id":85568392925397959,"keywords":["cp","nocrits","nodmgspread","uncletopia"],"game_id":440,"stv_port":27056,"stv_name":"Uncletopia | Sydney | 5 | Stopwatch Beta | STV","players":null},{"server_id":59,"name":"Uncletopia | Sydney | 6 | Community","name_short":"syd-6","host":"syd-1.au.uncletopia.com","port":27065,"enabled":true,"region":"au","cc":"au","latitude":-33.865143,"longitude":151.2099,"reserved":0,"last_update":"0001-01-01T00:00:00Z","name_a2s":"Uncletopia | Sydney | 6 | Community","protocol":17,"map":"workshop/pl_eruption_b9a.ugc2807898013","folder":"tf","game":"Team Fortress","app_id":440,"player_count":0,"max_players":24,"Bots":0,"server_type":"Dedicated","server_os":"Linux","password":true,"vac":true,"version":"7757534","steam_id":85568392925397960,"keywords":["nocrits","nodmgspread","payload","uncletopia"],"game_id":440,"stv_port":27066,"stv_name":"Uncletopia | Sydney | 6 | Community | STV","players":null},{"server_id":49,"name":"Uncletopia | Warsaw | 1 | All Maps","name_short":"waw-1","host":"waw-1.pl.uncletopia.com","port":27015,"enabled":true,"region":"eu","cc":"pl","latitude":52.2297,"longitude":21.017532,"reserved":0,"last_update":"0001-01-01T00:00:00Z","name_a2s":"","protocol":0,"map":"","folder":"","game":"","app_id":0,"player_count":0,"max_players":0,"Bots":0,"server_type":"","server_os":"","password":false,"vac":false,"version":"","steam_id":0,"keywords":null,"game_id":0,"stv_port":0,"stv_name":"","players":null},{"server_id":50,"name":"Uncletopia | Warsaw | 2 | All Maps","name_short":"waw-2","host":"waw-1.pl.uncletopia.com","port":27025,"enabled":true,"region":"eu","cc":"pl","latitude":52.2297,"longitude":21.017532,"reserved":0,"last_update":"0001-01-01T00:00:00Z","name_a2s":"Uncletopia | Warsaw | 2 | All Maps","protocol":17,"map":"koth_viaduct","folder":"tf","game":"Team Fortress","app_id":440,"player_count":0,"max_players":24,"Bots":0,"server_type":"Dedicated","server_os":"Linux","password":true,"vac":true,"version":"7757534","steam_id":85568392925397851,"keywords":["cp","nocrits","nodmgspread","uncletopia"],"game_id":440,"stv_port":27026,"stv_name":"Uncletopia | Warsaw | 2 | All Maps | STV","players":null},{"server_id":51,"name":"Uncletopia | Warsaw | 3 | All Maps","name_short":"waw-3","host":"waw-1.pl.uncletopia.com","port":27035,"enabled":true,"region":"eu","cc":"pl","latitude":52.2297,"longitude":21.017532,"reserved":0,"last_update":"0001-01-01T00:00:00Z","name_a2s":"Uncletopia | Warsaw | 3 | All Maps","protocol":17,"map":"pl_badwater","folder":"tf","game":"Team Fortress","app_id":440,"player_count":1,"max_players":24,"Bots":0,"server_type":"Dedicated","server_os":"Linux","password":true,"vac":true,"version":"7757534","steam_id":85568392925397852,"keywords":["nocrits","nodmgspread","payload","uncletopia"],"game_id":440,"stv_port":27036,"stv_name":"Uncletopia | Warsaw | 3 | All Maps | STV","players":[{"user_id":3,"name":"Brendy","steam_id":76561199140225457,"connected_time":174000000000,"state":"active","ping":88}]},{"server_id":52,"name":"Uncletopia | Warsaw | 4 | All Maps","name_short":"waw-4","host":"waw-1.pl.uncletopia.com","port":27045,"enabled":true,"region":"eu","cc":"pl","latitude":52.2297,"longitude":21.017532,"reserved":0,"last_update":"0001-01-01T00:00:00Z","name_a2s":"Uncletopia | Warsaw | 4 | All Maps","protocol":17,"map":"koth_lakeside_final","folder":"tf","game":"Team Fortress","app_id":440,"player_count":0,"max_players":24,"Bots":0,"server_type":"Dedicated","server_os":"Linux","password":true,"vac":true,"version":"7757534","steam_id":85568392925397853,"keywords":["cp","nocrits","nodmgspread","uncletopia"],"game_id":440,"stv_port":27046,"stv_name":"Uncletopia | Warsaw | 4 | All Maps | STV","players":null},{"server_id":53,"name":"Uncletopia | Warsaw | 5 | Stopwatch Beta","name_short":"waw-5","host":"waw-1.pl.uncletopia.com","port":27055,"enabled":true,"region":"eu","cc":"pl","latitude":52.2297,"longitude":21.017532,"reserved":0,"last_update":"0001-01-01T00:00:00Z","name_a2s":"Uncletopia | Warsaw | 5 | Stopwatch Beta","protocol":17,"map":"pl_borneo","folder":"tf","game":"Team Fortress","app_id":440,"player_count":0,"max_players":24,"Bots":0,"server_type":"Dedicated","server_os":"Linux","password":true,"vac":true,"version":"7757534","steam_id":85568392925397854,"keywords":["nocrits","nodmgspread","payload","uncletopia"],"game_id":440,"stv_port":27056,"stv_name":"Uncletopia | Warsaw | 5 | Stopwatch Beta | STV","players":null},{"server_id":54,"name":"Uncletopia | Warsaw | 6 | Community","name_short":"waw-6","host":"waw-1.pl.uncletopia.com","port":27065,"enabled":true,"region":"eu","cc":"pl","latitude":52.2297,"longitude":21.017532,"reserved":0,"last_update":"0001-01-01T00:00:00Z","name_a2s":"Uncletopia | Warsaw | 6 | Community","protocol":17,"map":"workshop/koth_kemptown_rc1.ugc767410655","folder":"tf","game":"Team Fortress","app_id":440,"player_count":0,"max_players":24,"Bots":0,"server_type":"Dedicated","server_os":"Linux","password":true,"vac":true,"version":"7757534","steam_id":85568392925397856,"keywords":["cp","nocrits","nodmgspread","uncletopia"],"game_id":440,"stv_port":27066,"stv_name":"Uncletopia | Warsaw | 6 | Community | STV","players":null}]}