{"status":true,"message":"","result":[{"server_id":9,"name":"Uncletopia | Atlanta | 1 | All Maps","name_short":"atl-1","host":"atl-1.us.uncletopia.com","port":27015,"enabled":true,"region":"us-east","cc":"us","latitude":33.753746,"longitude":-84.38633,"reserved":0,"last_update":"0001-01-01T00:00:00Z","name_a2s":"Uncletopia | Atlanta | 1 | All Maps","protocol":17,"map":"cp_sunshine","folder":"tf","game":"Team Fortress","app_id":440,"player_count":0,"max_players":24,"Bots":0,"server_type":"Dedicated","server_os":"Linux","password":true,"vac":true,"version":"7961495","steam_id":85568392924469982,"keywords":["cp","nocrits","nodmgspread","uncletopia"],"game_id":440,"stv_port":27016,"stv_name":"Uncletopia | Atlanta | 1 | All Maps | STV","players":null},{"server_id":104,"name":"Uncletopia | Atlanta | 2 | All Maps","name_short":"atl-2","host":"atl-1.us.uncletopia.com","port":27025,"enabled":true,"region":"us-east","cc":"us","latitude":33.753746,"longitude":-84.38633,"reserved":0,"last_update":"0001-01-01T00:00:00Z","name_a2s":"Uncletopia | Atlanta | 2 | All Maps","protocol":17,"map":"cp_altitude","folder":"tf","game":"Team Fortress","app_id":440,"player_count":23,"max_players":24,"Bots":0,"server_type":"Dedicated","server_os":"Linux","password":true,"vac":true,"version":"7961495","steam_id":85568392924469983,"keywords":["cp","nocrits","nodmgspread","uncletopia"],"game_id":440,"stv_port":27026,"stv_name":"Uncletopia | Atlanta | 2 | All Maps | STV","players":[{"user_id":528,"name":"lalman","steam_id":76561198196605887,"connected_time":2538000000000,"state":"active","ping":67},{"user_id":534,"name":"SeasonedCrab","steam_id":76561198310229755,"connected_time":2008000000000,"state":"active","ping":78},{"user_id":533,"name":"Gaming","steam_id":76561198107080532,"connected_time":2279000000000,"state":"active","ping":73},{"user_id":565,"name":"pumpitup","steam_id":76561198169219561,"connected_time":73000000000,"state":"active","ping":82},{"user_id":471,"name":"Hipster_Giraffe","steam_id":76561198069701092,"connected_time":8324000000000,"state":"active","ping":85},{"user_id":554,"name":"Bry","steam_id":76561198165127568,"connected_time":605000000000,"state":"active","ping":79},{"user_id":521,"name":"thugshaker6000","steam_id":76561198120458036,"connected_time":2944000000000,"state":"active","ping":80},{"user_id":566,"name":"An Unhappy Clown","steam_id":76561198175516514,"connected_time":46000000000,"state":"active","ping":63},{"user_id":537,"name":"WitheringLeo","steam_id":76561198046722918,"connected_time":1764000000000,"state":"active","ping":92},{"user_id":557,"name":"Captain Sonic","steam_id":76561198274564062,"connected_time":495000000000,"state":"active","ping":79},{"user_id":518,"name":"Steve (from Minecraft)","steam_id":76561198232026076,"connected_time":3322000000000,"state":"active","ping":73},{"user_id":558,"name":"rugbyralph288","steam_id":76561198161475964,"connected_time":490000000000,"state":"active","ping":76},{"user_id":540,"name":"\u003e-\u003c","steam_id":76561199207033448,"connected_time":1600000000000,"state":"active","ping":189},{"user_id":567,"name":"meow","steam_id":76561198046948758,"connected_time":46000000000,"state":"active","ping":63},{"user_id":543,"name":"1000 Ping","steam_id":76561198098330939,"connected_time":1493000000000,"state":"active","ping":124},{"user_id":552,"name":"Rictalagate","steam_id":76561198067627694,"connected_time":981000000000,"state":"active","ping":94},{"user_id":561,"name":"werecat","steam_id":76561198005091213,"connected_time":325000000000,"state":"active","ping":66},{"user_id":560,"name":"cherms","steam_id":76561198060029029,"connected_time":467000000000,"state":"active","ping":80},{"user_id":547,"name":"Wonderwall","steam_id":76561198080757197,"connected_time":1272000000000,"state":"active","ping":82},{"user_id":562,"name":"Sweater-Fan","steam_id":76561199389567214,"connected_time":214000000000,"state":"active","ping":68},{"user_id":549,"name":"Beeâ„¢","steam_id":76561198283265579,"connected_time":1251000000000,"state":"active","ping":103},{"user_id":550,"name":"Captain Chicken","steam_id":76561198047767530,"connected_time":1223000000000,"state":"active","ping":112},{"user_id":551,"name":"gordon freeman","steam_id":76561198378537090,"connected_time":1140000000000,"state":"active","ping":78}]},{"server_id":400,"name":"Uncletopia | Atlanta | 3 | Stopwatch","name_short":"atl-3","host":"atl-1.us.uncletopia.com","port":27035,"enabled":true,"region":"us-east","cc":"us","latitude":33.753746,"longitude":-84.38633,"reserved":0,"last_update":"0001-01-01T00:00:00Z","name_a2s":"Uncletopia | Atlanta | 3 | Stopwatch","protocol":17,"map":"koth_highpass","folder":"tf","game":"Team Fortress","app_id":440,"player_count":0,"max_players":24,"Bots":0,"server_type":"Dedicated","server_os":"Linux","password":true,"vac":true,"version":"7961495","steam_id":85568392924515187,"keywords":["cp","nocrits","nodmgspread","uncletopia"],"game_id":440,"stv_port":27036,"stv_name":"Uncletopia | Atlanta | 3 | Stopwatch | STV","players":null},{"server_id":401,"name":"Uncletopia | Atlanta | 4 | Community","name_short":"atl-4","host":"atl-1.us.uncletopia.com","port":27045,"enabled":true,"region":"us-east","cc":"us","latitude":33.753746,"longitude":-84.38633,"reserved":0,"last_update":"0001-01-01T00:00:00Z","name_a2s":"Uncletopia | Atlanta | 4 | Community","protocol":17,"map":"workshop/cp_indulge.ugc528106646","folder":"tf","game":"Team Fortress","app_id":440,"player_count":0,"max_players":24,"Bots":0,"server_type":"Dedicated","server_os":"Linux","password":true,"vac":true,"version":"7961495","steam_id":85568392924515188,"keywords":["cp","nocrits","nodmgspread","uncletopia"],"game_id":440,"stv_port":27046,"stv_name":"Uncletopia | Atlanta | 4 | Community | STV","players":null},{"server_id":2,"name":"Uncletopia | Chicago | 1 | All Maps","name_short":"chi-1","host":"chi-1.us.uncletopia.com","port":27015,"enabled":true,"region":"us-central","cc":"us","latitude":41.881832,"longitude":-87.62318,"reserved":0,"last_update":"0001-01-01T00:00:00Z","name_a2s":"Uncletopia | Chicago | 1 | All Maps","protocol":17,"map":"pl_frontier_final","folder":"tf","game":"Team Fortress","app_id":440,"player_count":0,"max_players":24,"Bots":0,"server_type":"Dedicated","server_os":"Linux","password":true,"vac":true,"version":"7961495","steam_id":85568392924469984,"keywords":["nocrits","nodmgspread","payload","uncletopia"],"game_id":440,"stv_port":27016,"stv_name":"Uncletopia | Chicago | 1 | All Maps | STV","players":null},{"server_id":106,"name":"Uncletopia | Chicago | 2 | All Maps","name_short":"chi-2","host":"chi-1.us.uncletopia.com","port":27025,"enabled":true,"region":"us-central","cc":"us","latitude":41.881832,"longitude":-87.62318,"reserved":0,"last_update":"0001-01-01T00:00:00Z","name_a2s":"Uncletopia | Chicago | 2 | All Maps","protocol":17,"map":"cp_sunshine","folder":"tf","game":"Team Fortress","app_id":440,"player_count":18,"max_players":24,"Bots":0,"server_type":"Dedicated","server_os":"Linux","password":true,"vac":true,"version":"7961495","steam_id":85568392924469985,"keywords":["nocrits","nodmgspread","payload","uncletopia"],"game_id":440,"stv_port":27026,"stv_name":"Uncletopia | Chicago | 2 | All Maps | STV","players":[{"user_id":458,"name":"Yodie","steam_id":76561198152474661,"connected_time":1065000000000,"state":"connecting","ping":67},{"user_id":436,"name":"misterspud","steam_id":76561198195306218,"connected_time":2305000000000,"state":"connecting","ping":62},{"user_id":430,"name":"Crab","steam_id":76561198067628664,"connected_time":3124000000000,"state":"connecting","ping":111},{"user_id":461,"name":"CF-TF2","steam_id":76561198145893044,"connected_time":835000000000,"state":"connecting","ping":80},{"user_id":456,"name":"fsteak","steam_id":76561198068577804,"connected_time":1207000000000,"state":"connecting","ping":111},{"user_id":450,"name":"Aster","steam_id":76561198037920420,"connected_time":1324000000000,"state":"connecting","ping":74},{"user_id":452,"name":"Kyle","steam_id":76561198150061073,"connected_time":1267000000000,"state":"connecting","ping":61},{"user_id":479,"name":"{FITH}â„¢ Tnega Libram","steam_id":76561197997973526,"connected_time":97000000000,"state":"connecting","ping":77},{"user_id":474,"name":"kikikikoboy","steam_id":76561198073380271,"connected_time":192000000000,"state":"connecting","ping":79},{"user_id":455,"name":"Rough Sheep Bundle Bother","steam_id":76561198067247951,"connected_time":1229000000000,"state":"connecting","ping":78},{"user_id":475,"name":"joimama39969","steam_id":76561199472994689,"connected_time":167000000000,"state":"connecting","ping":145},{"user_id":473,"name":"Ninjoth","steam_id":76561198038611753,"connected_time":213000000000,"state":"connecting","ping":79},{"user_id":476,"name":"cajun thotsauce","steam_id":76561198101636066,"connected_time":125000000000,"state":"connecting","ping":110},{"user_id":477,"name":"Pal The Palm","steam_id":76561198191507485,"connected_time":118000000000,"state":"connecting","ping":107},{"user_id":478,"name":"Megatron G","steam_id":76561198168864083,"connected_time":113000000000,"state":"connecting","ping":100},{"user_id":480,"name":"SadChicken Î»","steam_id":76561198082458968,"connected_time":73000000000,"state":"connecting","ping":113}]},{"server_id":402,"name":"Uncletopia | Chicago | 3 | All Maps","name_short":"chi-3","host":"chi-1.us.uncletopia.com","port":27035,"enabled":true,"region":"us-central","cc":"us","latitude":41.881832,"longitude":-87.62318,"reserved":0,"last_update":"0001-01-01T00:00:00Z","name_a2s":"Uncletopia | Chicago | 3 | All Maps","protocol":17,"map":"pl_barnblitz","folder":"tf","game":"Team Fortress","app_id":440,"player_count":0,"max_players":24,"Bots":0,"server_type":"Dedicated","server_os":"Linux","password":true,"vac":true,"version":"7961495","steam_id":85568392924515191,"keywords":["nocrits","nodmgspread","payload","uncletopia"],"game_id":440,"stv_port":27036,"stv_name":"Uncletopia | Chicago | 3 | All Maps | STV","players":null},{"server_id":403,"name":"Uncletopia | Chicago | 4 | All Maps","name_short":"chi-4","host":"chi-1.us.uncletopia.com","port":27045,"enabled":true,"region":"us-central","cc":"us","latitude":41.881832,"longitude":-87.62318,"reserved":0,"last_update":"0001-01-01T00:00:00Z","name_a2s":"Uncletopia | Chicago | 4 | All Maps","protocol":17,"map":"pl_upward","folder":"tf","game":"Team Fortress","app_id":440,"player_count":24,"max_players":24,"Bots":0,"server_type":"Dedicated","server_os":"Linux","password":true,"vac":true,"version":"7961495","steam_id":85568392924515193,"keywords":["nocrits","nodmgspread","payload","uncletopia"],"game_id":440,"stv_port":27046,"stv_name":"Uncletopia | Chicago | 4 | All Maps | STV","players":[{"user_id":718,"name":"Pongallow","steam_id":76561198146876078,"connected_time":2657000000000,"state":"active","ping":47},{"user_id":741,"name":"Dustin Bones","steam_id":76561198019314474,"connected_time":145000000000,"state":"active","ping":64},{"user_id":720,"name":"L1Spid","steam_id":76561199029194491,"connected_time":2241000000000,"state":"active","ping":72},{"user_id":728,"name":"tgirl swag","steam_id":76561198128164970,"connected_time":1357000000000,"state":"active","ping":104},{"user_id":726,"name":"BOBBYSMOKE","steam_id":76561198201872929,"connected_time":1808000000000,"state":"active","ping":59},{"user_id":654,"name":"Kantamoe","steam_id":76561198046661611,"connected_time":6959000000000,"state":"active","ping":81},{"user_id":729,"name":"No More What Ifs","steam_id":76561198410957728,"connected_time":1343000000000,"state":"active","ping":46},{"user_id":739,"name":"Unholy","steam_id":76561198058312481,"connected_time":435000000000,"state":"active","ping":74},{"user_id":624,"name":"zpalmtree","steam_id":76561198134307620,"connected_time":8699000000000,"state":"active","ping":55},{"user_id":731,"name":"Saligator","steam_id":76561198026287386,"connected_time":1249000000000,"state":"active","ping":129},{"user_id":732,"name":"King","steam_id":76561198039763676,"connected_time":1204000000000,"state":"active","ping":60},{"user_id":737,"name":"He rolls his own","steam_id":76561198058162684,"connected_time":959000000000,"state":"active","ping":82},{"user_id":734,"name":"Andrew","steam_id":76561198070615190,"connected_time":1158000000000,"state":"active","ping":60},{"user_id":676,"name":"Nexusuxen","steam_id":76561198117547131,"connected_time":4803000000000,"state":"active","ping":72},{"user_id":722,"name":"Who Am I?","steam_id":76561198098141967,"connected_time":2127000000000,"state":"active","ping":110},{"user_id":735,"name":"CrocoKyle","steam_id":76561198095736587,"connected_time":1117000000000,"state":"active","ping":111},{"user_id":740,"name":"ninety9dragonfly","steam_id":76561198363406983,"connected_time":338000000000,"state":"active","ping":100},{"user_id":743,"name":"antitrust","steam_id":76561198099225458,"connected_time":13000000000,"state":"spawning","ping":90},{"user_id":738,"name":"Throat Goat","steam_id":76561198132532519,"connected_time":586000000000,"state":"active","ping":108},{"user_id":723,"name":"Gurk","steam_id":76561198103631840,"connected_time":2076000000000,"state":"active","ping":85},{"user_id":742,"name":"feurolant","steam_id":76561198050929765,"connected_time":122000000000,"state":"spawning","ping":60},{"user_id":680,"name":"Mufalito","steam_id":76561198951889482,"connected_time":4675000000000,"state":"active","ping":131},{"user_id":715,"name":"Pen-Y-Darren","steam_id":76561198873399959,"connected_time":2869000000000,"state":"active","ping":44},{"user_id":704,"name":"kol.","steam_id":76561199151398882,"connected_time":3215000000000,"state":"active","ping":72}]},{"server_id":36,"name":"Uncletopia | Chicago | 5 | All Maps","name_short":"chi-5","host":"chi-2.us.uncletopia.com","port":27015,"enabled":true,"region":"us-central","cc":"us","latitude":41.881832,"longitude":-87.62318,"reserved":0,"last_update":"0001-01-01T00:00:00Z","name_a2s":"Uncletopia | Chicago | 5 | All Maps","protocol":17,"map":"ctf_turbine","folder":"tf","game":"Team Fortress","app_id":440,"player_count":0,"max_players":24,"Bots":0,"server_type":"Dedicated","server_os":"Linux","password":true,"vac":true,"version":"7961495","steam_id":85568392924866362,"keywords":["ctf","nocrits","nodmgspread","uncletopia"],"game_id":440,"stv_port":27016,"stv_name":"Uncletopia | Chicago | 5 | All Maps | STV","players":null},{"server_id":37,"name":"Uncletopia | Chicago | 6 | All Maps","name_short":"chi-6","host":"chi-2.us.uncletopia.com","port":27025,"enabled":true,"region":"us-central","cc":"us","latitude":41.881832,"longitude":-87.62318,"reserved":0,"last_update":"0001-01-01T00:00:00Z","name_a2s":"Uncletopia | Chicago | 6 | All Maps","protocol":17,"map":"koth_highpass","folder":"tf","game":"Team Fortress","app_id":440,"player_count":0,"max_players":24,"Bots":0,"server_type":"Dedicated","server_os":"Linux","password":true,"vac":true,"version":"7961495","steam_id":85568392924866363,"keywords":["cp","nocrits","nodmgspread","uncletopia"],"game_id":440,"stv_port":27026,"stv_name":"Uncletopia | Chicago | 6 | All Maps | STV","players":null},{"server_id":38,"name":"Uncletopia | Chicago | 7 | Stopwatch","name_short":"chi-7","host":"chi-2.us.uncletopia.com","port":27035,"enabled":true,"region":"us-central","cc":"us","latitude":41.881832,"longitude":-87.62318,"reserved":0,"last_update":"0001-01-01T00:00:00Z","name_a2s":"Uncletopia | Chicago | 7 | Stopwatch","protocol":17,"map":"workshop/koth_bagel_rc6.ugc2514036946","folder":"tf","game":"Team Fortress","app_id":440,"player_count":0,"max_players":24,"Bots":0,"server_type":"Dedicated","server_os":"Linux","password":true,"vac":true,"version":"7961495","steam_id":85568392924866364,"keywords":["cp","nocrits","nodmgspread","uncletopia"],"game_id":440,"stv_port":27036,"stv_name":"Uncletopia | Chicago | 7 | Stopwatch | STV","players":null},{"server_id":39,"name":"Uncletopia | Chicago | 8 | Community","name_short":"chi-8","host":"chi-2.us.uncletopia.com","port":27045,"enabled":true,"region":"us-central","cc":"us","latitude":41.881832,"longitude":-87.62318,"reserved":0,"last_update":"0001-01-01T00:00:00Z","name_a2s":"Uncletopia | Chicago | 8 | Community","protocol":17,"map":"workshop/koth_ashville_final.ugc2130459942","folder":"tf","game":"Team Fortress","app_id":440,"player_count":0,"max_players":24,"Bots":0,"server_type":"Dedicated","server_os":"Linux","password":true,"vac":true,"version":"7961495","steam_id":85568392924866365,"keywords":["cp","nocrits","nodmgspread","uncletopia"],"game_id":440,"stv_port":27046,"stv_name":"Uncletopia | Chicago | 8 | Community | STV","players":null},{"server_id":8,"name":"Uncletopia | Dallas | 1 | All Maps","name_short":"dal-1","host":"dal-1.us.uncletopia.com","port":27015,"enabled":true,"region":"us-central","cc":"us","latitude":32.779167,"longitude":-96.80889,"reserved":0,"last_update":"0001-01-01T00:00:00Z","name_a2s":"Uncletopia | Dallas | 1 | All Maps","protocol":17,"map":"koth_lakeside_final","folder":"tf","game":"Team Fortress","app_id":440,"player_count":0,"max_players":24,"Bots":0,"server_type":"Dedicated","server_os":"Linux","password":true,"vac":true,"version":"7961495","steam_id":85568392924469986,"keywords":["cp","nocrits","nodmgspread","uncletopia"],"game_id":440,"stv_port":27016,"stv_name":"Uncletopia | Dallas | 1 | All Maps | STV","players":null},{"server_id":108,"name":"Uncletopia | Dallas | 2 | All Maps","name_short":"dal-2","host":"dal-1.us.uncletopia.com","port":27025,"enabled":true,"region":"us-central","cc":"us","latitude":32.779167,"longitude":-96.80889,"reserved":0,"last_update":"0001-01-01T00:00:00Z","name_a2s":"Uncletopia | Dallas | 2 | All Maps","protocol":17,"map":"koth_lakeside_final","folder":"tf","game":"Team Fortress","app_id":440,"player_count":0,"max_players":24,"Bots":0,"server_type":"Dedicated","server_os":"Linux","password":true,"vac":true,"version":"7961495","steam_id":85568392924469988,"keywords":["cp","nocrits","nodmgspread","uncletopia"],"game_id":440,"stv_port":27026,"stv_name":"Uncletopia | Dallas | 2 | All Maps | STV","players":null},{"server_id":404,"name":"Uncletopia | Dallas | 3 | All Maps","name_short":"dal-3","host":"dal-1.us.uncletopia.com","port":27035,"enabled":true,"region":"us-central","cc":"us","latitude":32.779167,"longitude":-96.80889,"reserved":0,"last_update":"0001-01-01T00:00:00Z","name_a2s":"Uncletopia | Dallas | 3 | All Maps","protocol":17,"map":"ctf_doublecross","folder":"tf","game":"Team Fortress","app_id":440,"player_count":23,"max_players":24,"Bots":0,"server_type":"Dedicated","server_os":"Linux","password":true,"vac":true,"version":"7961495","steam_id":85568392924515219,"keywords":["ctf","nocrits","nodmgspread","uncletopia"],"game_id":440,"stv_port":27036,"stv_name":"Uncletopia | Dallas | 3 | All Maps | STV","players":[{"user_id":879,"name":"U Ï‰ U","steam_id":76561198118802562,"connected_time":2591000000000,"state":"spawning","ping":79},{"user_id":880,"name":"Stevelonk","steam_id":76561198088224665,"connected_time":2544000000000,"state":"spawning","ping":72},{"user_id":873,"name":"Lord_Dabbatron","steam_id":76561199058480985,"connected_time":2937000000000,"state":"spawning","ping":41},{"user_id":883,"name":"mitya.t","steam_id":76561197975079473,"connected_time":1940000000000,"state":"spawning","ping":79},{"user_id":894,"name":"Bewty","steam_id":76561198146745998,"connected_time":1367000000000,"state":"spawning","ping":77},{"user_id":881,"name":"Cheese","steam_id":76561199207081299,"connected_time":2497000000000,"state":"spawning","ping":114},{"user_id":895,"name":"DudeBergs","steam_id":76561198399777833,"connected_time":1054000000000,"state":"spawning","ping":50},{"user_id":898,"name":"TechnoBear2099","steam_id":76561198238863596,"connected_time":1000000000,"state":"spawning","ping":26},{"user_id":846,"name":"Burny Sanders","steam_id":76561197961879048,"connected_time":5677000000000,"state":"spawning","ping":38},{"user_id":876,"name":"American Dad","steam_id":76561198059711448,"connected_time":2879000000000,"state":"spawning","ping":83},{"user_id":877,"name":"Gason Homoa","steam_id":76561199000180522,"connected_time":2875000000000,"state":"spawning","ping":78},{"user_id":878,"name":"Gummy","steam_id":76561199200969139,"connected_time":2869000000000,"state":"spawning","ping":122},{"user_id":896,"name":"eBay","steam_id":76561198061214569,"connected_time":706000000000,"state":"spawning","ping":78},{"user_id":836,"name":"ItsYaBoiScooter","steam_id":76561199028427897,"connected_time":6345000000000,"state":"spawning","ping":79},{"user_id":886,"name":"SaaxoM","steam_id":76561198208256603,"connected_time":1747000000000,"state":"spawning","ping":76},{"user_id":887,"name":"JustANormalOlive-ia","steam_id":76561198809645656,"connected_time":1704000000000,"state":"spawning","ping":61},{"user_id":888,"name":"KiWii","steam_id":76561199013608864,"connected_time":1649000000000,"state":"spawning","ping":49},{"user_id":889,"name":"fluffythemessiah","steam_id":76561199013202758,"connected_time":1644000000000,"state":"spawning","ping":46},{"user_id":890,"name":"ISKI","steam_id":76561198276535064,"connected_time":1641000000000,"state":"spawning","ping":49},{"user_id":897,"name":"Franticraven177","steam_id":76561198334105579,"connected_time":671000000000,"state":"spawning","ping":63},{"user_id":892,"name":"LuvUrself","steam_id":76561198071049415,"connected_time":1597000000000,"state":"spawning","ping":70},{"user_id":853,"name":"Bizsnitch","steam_id":76561198017936794,"connected_time":5332000000000,"state":"spawning","ping":68},{"user_id":857,"name":"jello_pudding","steam_id":76561198073844467,"connected_time":3875000000000,"state":"spawning","ping":95}]},{"server_id":405,"name":"Uncletopia | Dallas | 4 | Community","name_short":"dal-4","host":"dal-1.us.uncletopia.com","port":27045,"enabled":true,"region":"us-central","cc":"us","latitude":32.779167,"longitude":-96.80889,"reserved":0,"last_update":"0001-01-01T00:00:00Z","name_a2s":"Uncletopia | Dallas | 4 | Community","protocol":17,"map":"workshop/koth_kemptown_rc1.ugc767410655","folder":"tf","game":"Team Fortress","app_id":440,"player_count":0,"max_players":24,"Bots":0,"server_type":"Dedicated","server_os":"Linux","password":true,"vac":true,"version":"7961495","steam_id":85568392924515220,"keywords":["cp","nocrits","nodmgspread","uncletopia"],"game_id":440,"stv_port":27046,"stv_name":"Uncletopia | Dallas | 4 | Community | STV","players":null},{"server_id":5,"name":"Uncletopia | Frankfurt | 1 | All Maps","name_short":"frk-1","host":"frk-1.de.uncletopia.com","port":27015,"enabled":true,"region":"eu","cc":"de","latitude":50.110924,"longitude":8.682127,"reserved":0,"last_update":"0001-01-01T00:00:00Z","name_a2s":"Uncletopia | Frankfurt | 1 | All Maps","protocol":17,"map":"koth_highpass","folder":"tf","game":"Team Fortress","app_id":440,"player_count":0,"max_players":24,"Bots":0,"server_type":"Dedicated","server_os":"Linux","password":true,"vac":true,"version":"7961495","steam_id":85568392924469989,"keywords":["cp","nocrits","nodmgspread","uncletopia"],"game_id":440,"stv_port":27016,"stv_name":"Uncletopia | Frankfurt | 1 | All Maps | STV","players":null},{"server_id":110,"name":"Uncletopia | Frankfurt | 2 | All Maps","name_short":"frk-2","host":"frk-1.de.uncletopia.com","port":27025,"enabled":true,"region":"eu","cc":"de","latitude":50.110924,"longitude":8.682127,"reserved":0,"last_update":"0001-01-01T00:00:00Z","name_a2s":"Uncletopia | Frankfurt | 2 | All Maps","protocol":17,"map":"cp_dustbowl","folder":"tf","game":"Team Fortress","app_id":440,"player_count":0,"max_players":24,"Bots":0,"server_type":"Dedicated","server_os":"Linux","password":true,"vac":true,"version":"7961495","steam_id":85568392924469990,"keywords":["cp","nocrits","nodmgspread","uncletopia"],"game_id":440,"stv_port":27026,"stv_name":"Uncletopia | Frankfurt | 2 | All Maps | STV","players":null},{"server_id":308,"name":"Uncletopia | Frankfurt | 3 | All Maps","name_short":"frk-3","host":"frk-1.de.uncletopia.com","port":27035,"enabled":true,"region":"eu","cc":"de","latitude":50.110924,"longitude":8.682127,"reserved":0,"last_update":"0001-01-01T00:00:00Z","name_a2s":"Uncletopia | Frankfurt | 3 | All Maps","protocol":17,"map":"cp_process_final","folder":"tf","game":"Team Fortress","app_id":440,"player_count":0,"max_players":24,"Bots":0,"server_type":"Dedicated","server_os":"Linux","password":true,"vac":true,"version":"7961495","steam_id":85568392924504274,"keywords":["cp","nocrits","nodmgspread","uncletopia"],"game_id":440,"stv_port":27036,"stv_name":"Uncletopia | Frankfurt | 3 | All Maps | STV","players":null},{"server_id":309,"name":"Uncletopia | Frankfurt | 4 | All Maps","name_short":"frk-4","host":"frk-1.de.uncletopia.com","port":27045,"enabled":true,"region":"eu","cc":"de","latitude":50.110924,"longitude":8.682127,"reserved":0,"last_update":"0001-01-01T00:00:00Z","name_a2s":"Uncletopia | Frankfurt | 4 | All Maps","protocol":17,"map":"koth_highpass","folder":"tf","game":"Team Fortress","app_id":440,"player_count":0,"max_players":24,"Bots":0,"server_type":"Dedicated","server_os":"Linux","password":true,"vac":true,"version":"7961495","steam_id":85568392924504275,"keywords":["cp","nocrits","nodmgspread","uncletopia"],"game_id":440,"stv_port":27046,"stv_name":"Uncletopia | Frankfurt | 4 | All Maps | STV","players":null},{"server_id":310,"name":"Uncletopia | Frankfurt | 5 | All Maps","name_short":"frk-5","host":"frk-1.de.uncletopia.com","port":27055,"enabled":true,"region":"eu","cc":"de","latitude":50.110924,"longitude":8.682127,"reserved":0,"last_update":"0001-01-01T00:00:00Z","name_a2s":"Uncletopia | Frankfurt | 5 | All Maps","protocol":17,"map":"koth_lakeside_final","folder":"tf","game":"Team Fortress","app_id":440,"player_count":0,"max_players":24,"Bots":0,"server_type":"Dedicated","server_os":"Linux","password":true,"vac":true,"version":"7961495","steam_id":85568392924504277,"keywords":["cp","nocrits","nodmgspread","uncletopia"],"game_id":440,"stv_port":27056,"stv_name":"Uncletopia | Frankfurt | 5 | All Maps | STV","players":null},{"server_id":311,"name":"Uncletopia | Frankfurt | 6 | All Maps","name_short":"frk-6","host":"frk-1.de.uncletopia.com","port":27065,"enabled":true,"region":"eu","cc":"de","latitude":50.110924,"longitude":8.682127,"reserved":0,"last_update":"0001-01-01T00:00:00Z","name_a2s":"Uncletopia | Frankfurt | 6 | All Maps","protocol":17,"map":"pl_borneo","folder":"tf","game":"Team Fortress","app_id":440,"player_count":0,"max_players":24,"Bots":0,"server_type":"Dedicated","server_os":"Linux","password":true,"vac":true,"version":"7961495","steam_id":85568392924504278,"keywords":["nocrits","nodmgspread","payload","uncletopia"],"game_id":440,"stv_port":27066,"stv_name":"Uncletopia | Frankfurt | 6 | All Maps | STV","players":null},{"server_id":23,"name":"Uncletopia | Frankfurt | 7 | Stopwatch","name_short":"frk-7","host":"frk-1.de.uncletopia.com","port":27075,"enabled":true,"region":"eu","cc":"de","latitude":50.110924,"longitude":8.682127,"reserved":0,"last_update":"0001-01-01T00:00:00Z","name_a2s":"Uncletopia | Frankfurt | 7 | Stopwatch","protocol":17,"map":"pl_frontier_final","folder":"tf","game":"Team Fortress","app_id":440,"player_count":0,"max_players":24,"Bots":0,"server_type":"Dedicated","server_os":"Linux","password":true,"vac":true,"version":"7961495","steam_id":85568392924742827,"keywords":["nocrits","nodmgspread","payload","uncletopia"],"game_id":440,"stv_port":27076,"stv_name":"Uncletopia | Frankfurt | 7 | Stopwatch | STV","players":null},{"server_id":24,"name":"Uncletopia | Frankfurt | 8 | Community","name_short":"frk-8","host":"frk-1.de.uncletopia.com","port":27085,"enabled":true,"region":"eu","cc":"de","latitude":50.110924,"longitude":8.682127,"reserved":0,"last_update":"0001-01-01T00:00:00Z","name_a2s":"Uncletopia | Frankfurt | 8 | Community","protocol":17,"map":"workshop/pl_boundary_final1.ugc456799153","folder":"tf","game":"Team Fortress","app_id":440,"player_count":0,"max_players":24,"Bots":0,"server_type":"Dedicated","server_os":"Linux","password":true,"vac":true,"version":"7961495","steam_id":85568392924742828,"keywords":["nocrits","nodmgspread","payload","uncletopia"],"game_id":440,"stv_port":27086,"stv_name":"Uncletopia | Frankfurt | 8 | Community | STV","players":null},{"server_id":202,"name":"Uncletopia | Hong Kong | 1 | All Maps","name_short":"hgk-1","host":"hgk-1.hk.uncletopia.com","port":27015,"enabled":true,"region":"asia","cc":"hk","latitude":22.302711,"longitude":114.177216,"reserved":0,"last_update":"0001-01-01T00:00:00Z","name_a2s":"Uncletopia | Hong Kong | 1 | All Maps","protocol":17,"map":"pl_pier","folder":"tf","game":"Team Fortress","app_id":440,"player_count":3,"max_players":24,"Bots":0,"server_type":"Dedicated","server_os":"Linux","password":true,"vac":true,"version":"7961495","steam_id":85568392924494504,"keywords":["nocrits","nodmgspread","payload","uncletopia"],"game_id":440,"stv_port":27016,"stv_name":"Uncletopia | Hong Kong | 1 | All Maps | STV","players":[{"user_id":39,"name":"beaver the domestic terrorist","steam_id":76561199219484527,"connected_time":454000000000,"state":"active","ping":59},{"user_id":42,"name":"shroud is coming","steam_id":76561199095596042,"connected_time":76000000000,"state":"active","ping":115}]},{"server_id":1,"name":"Uncletopia | Los Angeles | 1 | All Maps","name_short":"lax-1","host":"lax-1.us.uncletopia.com","port":27015,"enabled":true,"region":"us-west","cc":"us","latitude":33.94279,"longitude":-118.41004,"reserved":0,"last_update":"0001-01-01T00:00:00Z","name_a2s":"Uncletopia | Los Angeles | 1 | All Maps","protocol":17,"map":"pl_pier","folder":"tf","game":"Team Fortress","app_id":440,"player_count":0,"max_players":24,"Bots":0,"server_type":"Dedicated","server_os":"Linux","password":true,"vac":true,"version":"7961495","steam_id":85568392924469991,"keywords":["nocrits","nodmgspread","payload","uncletopia"],"game_id":440,"stv_port":27016,"stv_name":"Uncletopia | Los Angeles | 1 | All Maps | STV","players":null},{"server_id":112,"name":"Uncletopia | Los Angeles | 2 | All Maps","name_short":"lax-2","host":"lax-1.us.uncletopia.com","port":27025,"enabled":true,"region":"us-west","cc":"us","latitude":33.94279,"longitude":-118.41004,"reserved":0,"last_update":"0001-01-01T00:00:00Z","name_a2s":"Uncletopia | Los Angeles | 2 | All Maps","protocol":17,"map":"pl_swiftwater_final1","folder":"tf","game":"Team Fortress","app_id":440,"player_count":23,"max_players":24,"Bots":0,"server_type":"Dedicated","server_os":"Linux","password":true,"vac":true,"version":"7961495","steam_id":85568392924469992,"keywords":["nocrits","nodmgspread","payload","uncletopia"],"game_id":440,"stv_port":27026,"stv_name":"Uncletopia | Los Angeles | 2 | All Maps | STV","players":[{"user_id":270,"name":"Jon Arbuckle","steam_id":76561198153295874,"connected_time":675000000000,"state":"active","ping":71},{"user_id":267,"name":"ThePalmTopSushi","steam_id":76561198847076153,"connected_time":1137000000000,"state":"active","ping":51},{"user_id":277,"name":"Shaz","steam_id":76561198044994496,"connected_time":331000000000,"state":"active","ping":63},{"user_id":259,"name":"PeptoBismol","steam_id":76561198082669076,"connected_time":1596000000000,"state":"active","ping":57},{"user_id":272,"name":"babywhoa","steam_id":76561198070854627,"connected_time":620000000000,"state":"active","ping":54},{"user_id":250,"name":"Drive-By-Fish-Guy","steam_id":76561198105513652,"connected_time":2109000000000,"state":"active","ping":57},{"user_id":213,"name":"Whisper!","steam_id":76561198119609795,"connected_time":5485000000000,"state":"active","ping":57},{"user_id":260,"name":"otwtomarsoffdabars(spacecore)","steam_id":76561199085974120,"connected_time":1571000000000,"state":"active","ping":114},{"user_id":197,"name":"lol","steam_id":76561198026491738,"connected_time":6938000000000,"state":"active","ping":67},{"user_id":276,"name":"JavaScript Frappuccino","steam_id":76561198111620153,"connected_time":493000000000,"state":"active","ping":75},{"user_id":273,"name":"mkp","steam_id":76561198123466474,"connected_time":595000000000,"state":"active","ping":66},{"user_id":274,"name":"The Horselords and Animal Gods","steam_id":76561197975094050,"connected_time":583000000000,"state":"active","ping":58},{"user_id":254,"name":"inoricaM","steam_id":76561199199257149,"connected_time":1746000000000,"state":"active","ping":51},{"user_id":268,"name":"shakoiwa","steam_id":76561199059441773,"connected_time":1079000000000,"state":"active","ping":55},{"user_id":275,"name":"MoIIytov","steam_id":76561198150534375,"connected_time":517000000000,"state":"active","ping":64},{"user_id":255,"name":"Gundam Guy","steam_id":76561198178453993,"connected_time":1743000000000,"state":"active","ping":59},{"user_id":231,"name":"Andrew Dice Gay","steam_id":76561198040736821,"connected_time":4042000000000,"state":"active","ping":58},{"user_id":266,"name":"Kpotion","steam_id":76561199172756279,"connected_time":1225000000000,"state":"active","ping":65},{"user_id":217,"name":"rat ðŸ¥²ðŸ˜¶ðŸŒ«","steam_id":76561198130412963,"connected_time":5232000000000,"state":"active","ping":80},{"user_id":203,"name":"who","steam_id":76561198066091050,"connected_time":6701000000000,"state":"active","ping":88},{"user_id":265,"name":"Username","steam_id":76561198198918781,"connected_time":1322000000000,"state":"active","ping":70},{"user_id":256,"name":"Rommel2007","steam_id":76561198041744631,"connected_time":1736000000000,"state":"active","ping":66},{"user_id":245,"name":"Rennsellaer","steam_id":76561198096207580,"connected_time":3373000000000,"state":"active","ping":56}]},{"server_id":324,"name":"Uncletopia | Los Angeles | 3 | All Maps","name_short":"lax-3","host":"lax-1.us.uncletopia.com","port":27035,"enabled":true,"region":"us-west","cc":"us","latitude":33.94279,"longitude":-118.41004,"reserved":0,"last_update":"0001-01-01T00:00:00Z","name_a2s":"Uncletopia | Los Angeles | 3 | All Maps","protocol":17,"map":"koth_cascade","folder":"tf","game":"Team Fortress","app_id":440,"player_count":0,"max_players":24,"Bots":0,"server_type":"Dedicated","server_os":"Linux","password":true,"vac":true,"version":"7961495","steam_id":85568392924510198,"keywords":["cp","nocrits","nodmgspread","uncletopia"],"game_id":440,"stv_port":27036,"stv_name":"Uncletopia | Los Angeles | 3 | All Maps | STV","players":null},{"server_id":25,"name":"Uncletopia | Los Angeles | 4 | Stopwatch","name_short":"lax-4","host":"lax-1.us.uncletopia.com","port":27045,"enabled":true,"region":"us-west","cc":"us","latitude":33.94279,"longitude":-118.41004,"reserved":0,"last_update":"0001-01-01T00:00:00Z","name_a2s":"Uncletopia | Los Angeles | 4 | Stopwatch","protocol":17,"map":"workshop/koth_ashville_final.ugc2130459942","folder":"tf","game":"Team Fortress","app_id":440,"player_count":0,"max_players":24,"Bots":0,"server_type":"Dedicated","server_os":"Linux","password":true,"vac":true,"version":"7961495","steam_id":85568392924510199,"keywords":["cp","nocrits","nodmgspread","uncletopia"],"game_id":440,"stv_port":27046,"stv_name":"Uncletopia | Los Angeles | 4 | Stopwatch | STV","players":null},{"server_id":11,"name":"Uncletopia | London | 1 | All Maps","name_short":"lon-1","host":"lon-1.uk.uncletopia.com","port":27015,"enabled":true,"region":"eu","cc":"gb","latitude":51.509865,"longitude":-0.118092,"reserved":0,"last_update":"0001-01-01T00:00:00Z","name_a2s":"Uncletopia | London | 1 | All Maps","protocol":17,"map":"pl_frontier_final","folder":"tf","game":"Team Fortress","app_id":440,"player_count":22,"max_players":24,"Bots":0,"server_type":"Dedicated","server_os":"Linux","password":true,"vac":true,"version":"7961495","steam_id":85568392924367362,"keywords":["nocrits","nodmgspread","payload","uncletopia"],"game_id":440,"stv_port":27016,"stv_name":"Uncletopia | London | 1 | All Maps | STV","players":[{"user_id":62,"name":"marvs","steam_id":76561198851777617,"connected_time":970000000000,"state":"active","ping":38},{"user_id":17,"name":"yuno appreciator","steam_id":76561198083286511,"connected_time":5204000000000,"state":"active","ping":39},{"user_id":63,"name":"eva","steam_id":76561198054474684,"connected_time":946000000000,"state":"active","ping":87},{"user_id":61,"name":"Nyoom","steam_id":76561198054585002,"connected_time":1048000000000,"state":"active","ping":46},{"user_id":64,"name":"PhantomReaper","steam_id":76561199058312643,"connected_time":871000000000,"state":"active","ping":181},{"user_id":46,"name":"the action gamemaster","steam_id":76561198007494744,"connected_time":2502000000000,"state":"active","ping":50},{"user_id":71,"name":"Pingus","steam_id":76561198164880756,"connected_time":473000000000,"state":"active","ping":68},{"user_id":73,"name":"Syke Jr","steam_id":76561198038479641,"connected_time":373000000000,"state":"active","ping":63},{"user_id":77,"name":"SS Tiky","steam_id":76561198982444323,"connected_time":112000000000,"state":"active","ping":102},{"user_id":60,"name":"Average Water Fan","steam_id":76561199415989636,"connected_time":1367000000000,"state":"active","ping":91},{"user_id":48,"name":"John0309","steam_id":76561198447428162,"connected_time":2347000000000,"state":"active","ping":75},{"user_id":47,"name":"Jboythemenace","steam_id":76561198102004539,"connected_time":2434000000000,"state":"active","ping":55},{"user_id":76,"name":"Skyrider of Spaceways","steam_id":76561197991678236,"connected_time":316000000000,"state":"active","ping":127},{"user_id":52,"name":"Draugluin","steam_id":76561199219965276,"connected_time":2108000000000,"state":"active","ping":57},{"user_id":69,"name":"professional cereal eater","steam_id":76561198320039669,"connected_time":626000000000,"state":"active","ping":69},{"user_id":41,"name":"Shadowmann","steam_id":76561198158608309,"connected_time":3047000000000,"state":"active","ping":64},{"user_id":42,"name":"scarybeast","steam_id":76561198927694734,"connected_time":3022000000000,"state":"active","ping":75},{"user_id":57,"name":"Sholunan","steam_id":76561198062435739,"connected_time":1873000000000,"state":"active","ping":69},{"user_id":70,"name":"The Governor","steam_id":76561199206563942,"connected_time":507000000000,"state":"active","ping":181},{"user_id":75,"name":"tony","steam_id":76561199382978934,"connected_time":345000000000,"state":"active","ping":91},{"user_id":74,"name":"on1on (juicy)","steam_id":76561197995304137,"connected_time":360000000000,"state":"active","ping":71},{"user_id":59,"name":"Pharaoh | ez","steam_id":76561198974553024,"connected_time":1748000000000,"state":"active","ping":99}]},{"server_id":114,"name":"Uncletopia | London | 2 | All Maps","name_short":"lon-2","host":"lon-1.uk.uncletopia.com","port":27025,"enabled":true,"region":"eu","cc":"gb","latitude":51.509865,"longitude":-0.118092,"reserved":0,"last_update":"0001-01-01T00:00:00Z","name_a2s":"Uncletopia | London | 2 | All Maps","protocol":17,"map":"koth_lakeside_final","folder":"tf","game":"Team Fortress","app_id":440,"player_count":0,"max_players":24,"Bots":0,"server_type":"Dedicated","server_os":"Linux","password":true,"vac":true,"version":"7961495","steam_id":85568392924470941,"keywords":["cp","nocrits","nodmgspread","uncletopia"],"game_id":440,"stv_port":27026,"stv_name":"Uncletopia | London | 2 | All Maps | STV","players":null},{"server_id":320,"name":"Uncletopia | London | 3 | All Maps","name_short":"lon-3","host":"lon-1.uk.uncletopia.com","port":27035,"enabled":true,"region":"eu","cc":"gb","latitude":51.509865,"longitude":-0.118092,"reserved":0,"last_update":"0001-01-01T00:00:00Z","name_a2s":"Uncletopia | London | 3 | All Maps","protocol":17,"map":"cp_process_final","folder":"tf","game":"Team Fortress","app_id":440,"player_count":0,"max_players":24,"Bots":0,"server_type":"Dedicated","server_os":"Linux","password":true,"vac":true,"version":"7961495","steam_id":85568392924510192,"keywords":["cp","nocrits","nodmgspread","uncletopia"],"game_id":440,"stv_port":27036,"stv_name":"Uncletopia | London | 3 | All Maps | STV","players":null},{"server_id":321,"name":"Uncletopia | London | 4 | All Maps","name_short":"lon-4","host":"lon-1.uk.uncletopia.com","port":27045,"enabled":true,"region":"eu","cc":"gb","latitude":51.509865,"longitude":-0.118092,"reserved":0,"last_update":"0001-01-01T00:00:00Z","name_a2s":"Uncletopia | London | 4 | All Maps","protocol":17,"map":"koth_cascade","folder":"tf","game":"Team Fortress","app_id":440,"player_count":0,"max_players":24,"Bots":0,"server_type":"Dedicated","server_os":"Linux","password":true,"vac":true,"version":"7961495","steam_id":85568392924510193,"keywords":["cp","nocrits","nodmgspread","uncletopia"],"game_id":440,"stv_port":27046,"stv_name":"Uncletopia | London | 4 | All Maps | STV","players":null},{"server_id":21,"name":"Uncletopia | London | 5 | All Maps","name_short":"lon-5","host":"lon-1.uk.uncletopia.com","port":27055,"enabled":true,"region":"eu","cc":"gb","latitude":51.509865,"longitude":-0.118092,"reserved":0,"last_update":"0001-01-01T00:00:00Z","name_a2s":"Uncletopia | London | 5 | All Maps","protocol":17,"map":"koth_lakeside_final","folder":"tf","game":"Team Fortress","app_id":440,"player_count":0,"max_players":24,"Bots":0,"server_type":"Dedicated","server_os":"Linux","password":true,"vac":true,"version":"7961495","steam_id":85568392924742829,"keywords":["cp","nocrits","nodmgspread","uncletopia"],"game_id":440,"stv_port":27056,"stv_name":"Uncletopia | London | 5 | All Maps | STV","players":null},{"server_id":22,"name":"Uncletopia | London | 6 | All Maps","name_short":"lon-6","host":"lon-1.uk.uncletopia.com","port":27065,"enabled":true,"region":"eu","cc":"gb","latitude":51.509865,"longitude":-0.118092,"reserved":0,"last_update":"0001-01-01T00:00:00Z","name_a2s":"Uncletopia | London | 6 | All Maps","protocol":17,"map":"cp_dustbowl","folder":"tf","game":"Team Fortress","app_id":440,"player_count":0,"max_players":24,"Bots":0,"server_type":"Dedicated","server_os":"Linux","password":true,"vac":true,"version":"7961495","steam_id":85568392924742830,"keywords":["cp","nocrits","nodmgspread","uncletopia"],"game_id":440,"stv_port":27066,"stv_name":"Uncletopia | London | 6 | All Maps | STV","players":null},{"server_id":40,"name":"Uncletopia | London | 7 | Stopwatch","name_short":"lon-7","host":"lon-1.uk.uncletopia.com","port":27075,"enabled":true,"region":"eu","cc":"gb","latitude":51.509865,"longitude":-0.118092,"reserved":0,"last_update":"0001-01-01T00:00:00Z","name_a2s":"Uncletopia | London | 7 | Stopwatch","protocol":17,"map":"koth_lakeside_final","folder":"tf","game":"Team Fortress","app_id":440,"player_count":0,"max_players":24,"Bots":0,"server_type":"Dedicated","server_os":"Linux","password":true,"vac":true,"version":"7961495","steam_id":85568392924964314,"keywords":["cp","nocrits","nodmgspread","uncletopia"],"game_id":440,"stv_port":27076,"stv_name":"Uncletopia | London | 7 | Stopwatch | STV","players":null},{"server_id":41,"name":"Uncletopia | London | 8 | Community","name_short":"lon-8","host":"lon-1.uk.uncletopia.com","port":27085,"enabled":true,"region":"eu","cc":"gb","latitude":51.509865,"longitude":-0.118092,"reserved":0,"last_update":"0001-01-01T00:00:00Z","name_a2s":"Uncletopia | London | 8 | Community","protocol":17,"map":"cp_snakewater_final1","folder":"tf","game":"Team Fortress","app_id":440,"player_count":0,"max_players":24,"Bots":0,"server_type":"Dedicated","server_os":"Linux","password":true,"vac":true,"version":"7961495","steam_id":85568392924964315,"keywords":["cp","nocrits","nodmgspread","uncletopia"],"game_id":440,"stv_port":27086,"stv_name":"Uncletopia | London | 8 | Community | STV","players":null},{"server_id":300,"name":"Uncletopia | MontrÃ©al | 1 | One Thousand Uncles","name_short":"mtl-1","host":"mtl-1.ca.uncletopia.com","port":27015,"enabled":true,"region":"us-east","cc":"ca","latitude":45.50889,"longitude":-73.56167,"reserved":0,"last_update":"0001-01-01T00:00:00Z","name_a2s":"","protocol":0,"map":"","folder":"","game":"","app_id":0,"player_count":0,"max_players":0,"Bots":0,"server_type":"","server_os":"","password":false,"vac":false,"version":"","steam_id":0,"keywords":null,"game_id":0,"stv_port":0,"stv_name":"","players":null},{"server_id":301,"name":"Uncletopia | MontrÃ©al | 2 | One Thousand Uncles","name_short":"mtl-2","host":"mtl-1.ca.uncletopia.com","port":27025,"enabled":true,"region":"us-east","cc":"ca","latitude":45.50889,"longitude":-73.56167,"reserved":0,"last_update":"0001-01-01T00:00:00Z","name_a2s":"","protocol":0,"map":"","folder":"","game":"","app_id":0,"player_count":0,"max_players":0,"Bots":0,"server_type":"","server_os":"","password":false,"vac":false,"version":"","steam_id":0,"keywords":null,"game_id":0,"stv_port":0,"stv_name":"","players":null},{"server_id":302,"name":"Uncletopia | MontrÃ©al | 3 | One Thousand Uncles","name_short":"mtl-3","host":"mtl-1.ca.uncletopia.com","port":27035,"enabled":true,"region":"us-east","cc":"ca","latitude":45.50889,"longitude":-73.56167,"reserved":0,"last_update":"0001-01-01T00:00:00Z","name_a2s":"","protocol":0,"map":"","folder":"","game":"","app_id":0,"player_count":0,"max_players":0,"Bots":0,"server_type":"","server_os":"","password":false,"vac":false,"version":"","steam_id":0,"keywords":null,"game_id":0,"stv_port":0,"stv_name":"","players":null},{"server_id":13,"name":"Uncletopia | New York City | 1 | All Maps","name_short":"nyc-1","host":"nyc-1.us.uncletopia.com","port":27015,"enabled":true,"region":"us-east","cc":"us","latitude":40.73061,"longitude":-73.93524,"reserved":0,"last_update":"0001-01-01T00:00:00Z","name_a2s":"Uncletopia | New York City | 1 | All Maps","protocol":17,"map":"koth_highpass","folder":"tf","game":"Team Fortress","app_id":440,"player_count":0,"max_players":24,"Bots":0,"server_type":"Dedicated","server_os":"Linux","password":true,"vac":true,"version":"7961495","steam_id":85568392924469993,"keywords":["cp","nocrits","nodmgspread","uncletopia"],"game_id":440,"stv_port":27016,"stv_name":"Uncletopia | New York City | 1 | All Maps | STV","players":null},{"server_id":14,"name":"Uncletopia | New York City | 2 | All Maps","name_short":"nyc-2","host":"nyc-1.us.uncletopia.com","port":27025,"enabled":true,"region":"us-east","cc":"us","latitude":40.73061,"longitude":-73.93524,"reserved":0,"last_update":"0001-01-01T00:00:00Z","name_a2s":"Uncletopia | New York City | 2 | All Maps","protocol":17,"map":"koth_viaduct","folder":"tf","game":"Team Fortress","app_id":440,"player_count":0,"max_players":24,"Bots":0,"server_type":"Dedicated","server_os":"Linux","password":true,"vac":true,"version":"7961495","steam_id":85568392924469994,"keywords":["cp","nocrits","nodmgspread","uncletopia"],"game_id":440,"stv_port":27026,"stv_name":"Uncletopia | New York City | 2 | All Maps | STV","players":null},{"server_id":15,"name":"Uncletopia | New York City | 3 | Stopwatch","name_short":"nyc-3","host":"nyc-1.us.uncletopia.com","port":27035,"enabled":true,"region":"us-east","cc":"us","latitude":40.73061,"longitude":-73.93524,"reserved":0,"last_update":"0001-01-01T00:00:00Z","name_a2s":"Uncletopia | New York City | 3 | Stopwatch","protocol":17,"map":"pl_upward","folder":"tf","game":"Team Fortress","app_id":440,"player_count":0,"max_players":24,"Bots":0,"server_type":"Dedicated","server_os":"Linux","password":true,"vac":true,"version":"7961495","steam_id":85568392924742820,"keywords":["nocrits","nodmgspread","payload","uncletopia"],"game_id":440,"stv_port":27036,"stv_name":"Uncletopia | New York City | 3 | Stopwatch | STV","players":null},{"server_id":16,"name":"Uncletopia | New York City | 4 | Community","name_short":"nyc-4","host":"nyc-1.us.uncletopia.com","port":27045,"enabled":true,"region":"us-east","cc":"us","latitude":40.73061,"longitude":-73.93524,"reserved":0,"last_update":"0001-01-01T00:00:00Z","name_a2s":"Uncletopia | New York City | 4 | Community","protocol":17,"map":"workshop/koth_bagel_rc6.ugc2514036946","folder":"tf","game":"Team Fortress","app_id":440,"player_count":0,"max_players":24,"Bots":0,"server_type":"Dedicated","server_os":"Linux","password":true,"vac":true,"version":"7961495","steam_id":85568392924742821,"keywords":["cp","nocrits","nodmgspread","uncletopia"],"game_id":440,"stv_port":27046,"stv_name":"Uncletopia | New York City | 4 | Community | STV","players":null},{"server_id":142,"name":"Uncletopia | SÃ£o Paulo | 1 | All Maps","name_short":"sao-1","host":"sao-1.br.uncletopia.com","port":27015,"enabled":true,"region":"sa","cc":"br","latitude":-23.533773,"longitude":-46.62529,"reserved":0,"last_update":"0001-01-01T00:00:00Z","name_a2s":"Uncletopia | SÃ£o Paulo | 1 | All Maps","protocol":17,"map":"koth_highpass","folder":"tf","game":"Team Fortress","app_id":440,"player_count":0,"max_players":24,"Bots":0,"server_type":"Dedicated","server_os":"Linux","password":true,"vac":true,"version":"7961495","steam_id":85568392924469996,"keywords":["cp","nocrits","nodmgspread","uncletopia"],"game_id":440,"stv_port":27016,"stv_name":"Uncletopia | SÃ£o Paulo | 1 | All Maps | STV","players":null},{"server_id":143,"name":"Uncletopia | SÃ£o Paulo | 2 | Community","name_short":"sao-2","host":"sao-2.br.uncletopia.com","port":27015,"enabled":true,"region":"sa","cc":"br","latitude":-23.533773,"longitude":-46.62529,"reserved":0,"last_update":"0001-01-01T00:00:00Z","name_a2s":"Uncletopia | SÃ£o Paulo | 2 | Community","protocol":17,"map":"workshop/koth_bagel_rc6.ugc2514036946","folder":"tf","game":"Team Fortress","app_id":440,"player_count":0,"max_players":24,"Bots":0,"server_type":"Dedicated","server_os":"Linux","password":true,"vac":true,"version":"7961495","steam_id":85568392924485349,"keywords":["cp","nocrits","nodmgspread","uncletopia"],"game_id":440,"stv_port":27016,"stv_name":"Uncletopia | SÃ£o Paulo | 2 | Community | STV","players":null},{"server_id":7,"name":"Uncletopia | Seattle | 1 | All Maps","name_short":"sea-1","host":"sea-1.us.uncletopia.com","port":27015,"enabled":true,"region":"us-west","cc":"us","latitude":47.608013,"longitude":-122.33517,"reserved":0,"last_update":"0001-01-01T00:00:00Z","name_a2s":"Uncletopia | Seattle | 1 | All Maps","protocol":17,"map":"pl_swiftwater_final1","folder":"tf","game":"Team Fortress","app_id":440,"player_count":24,"max_players":24,"Bots":0,"server_type":"Dedicated","server_os":"Linux","password":true,"vac":true,"version":"7961495","steam_id":85568392924469997,"keywords":["nocrits","nodmgspread","payload","uncletopia"],"game_id":440,"stv_port":27016,"stv_name":"Uncletopia | Seattle | 1 | All Maps | STV","players":[{"user_id":1073,"name":"NightHawk","steam_id":76561198276385639,"connected_time":1857000000000,"state":"active","ping":92},{"user_id":1088,"name":"Ayayayayayayayayayayayayahuasca","steam_id":76561199002906056,"connected_time":189000000000,"state":"active","ping":48},{"user_id":1074,"name":"fragadelphia","steam_id":76561198066116363,"connected_time":1681000000000,"state":"active","ping":49},{"user_id":1067,"name":"nÃ¸bu","steam_id":76561198100614981,"connected_time":2963000000000,"state":"active","ping":48},{"user_id":1062,"name":"Gobbie","steam_id":76561198004352408,"connected_time":3768000000000,"state":"active","ping":36},{"user_id":1065,"name":"Dextersbrain","steam_id":76561198011831579,"connected_time":3090000000000,"state":"active","ping":59},{"user_id":1078,"name":"Beast","steam_id":76561198087571347,"connected_time":1164000000000,"state":"active","ping":82},{"user_id":1000,"name":"Cheezbeargur","steam_id":76561198164702899,"connected_time":8715000000000,"state":"active","ping":62},{"user_id":1091,"name":"VerminKing","steam_id":76561198060887391,"connected_time":74000000000,"state":"active","ping":60},{"user_id":1010,"name":"Noah1k","steam_id":76561199428633514,"connected_time":7509000000000,"state":"active","ping":56},{"user_id":1079,"name":"waggyaggy","steam_id":76561197998241407,"connected_time":1144000000000,"state":"active","ping":76},{"user_id":1026,"name":"you just got dyked on","steam_id":76561198018977723,"connected_time":6292000000000,"state":"active","ping":52},{"user_id":1017,"name":"Hog Rider","steam_id":76561198275999294,"connected_time":6777000000000,"state":"active","ping":52},{"user_id":1082,"name":"LegitGTV","steam_id":76561198968093086,"connected_time":1015000000000,"state":"active","ping":86},{"user_id":1046,"name":"kill me","steam_id":76561198032625036,"connected_time":4613000000000,"state":"active","ping":60},{"user_id":1083,"name":"online","steam_id":76561198192531745,"connected_time":997000000000,"state":"active","ping":74},{"user_id":1084,"name":"Chocc-_-","steam_id":76561198068070211,"connected_time":881000000000,"state":"active","ping":77},{"user_id":995,"name":"Daz","steam_id":76561198041431938,"connected_time":9225000000000,"state":"active","ping":51},{"user_id":1093,"name":"jayeezy","steam_id":76561198118562391,"connected_time":0,"state":"spawning","ping":0},{"user_id":1077,"name":"Wavelengths","steam_id":76561197997621320,"connected_time":1211000000000,"state":"active","ping":77},{"user_id":1092,"name":"self sufficient kitten","steam_id":76561197960592612,"connected_time":36000000000,"state":"active","ping":46},{"user_id":1087,"name":"rushy :))","steam_id":76561198065825165,"connected_time":792000000000,"state":"active","ping":95},{"user_id":1072,"name":"Grand","steam_id":76561198290143399,"connected_time":1969000000000,"state":"active","ping":77},{"user_id":1060,"name":"a","steam_id":76561198074209737,"connected_time":3931000000000,"state":"active","ping":92}]},{"server_id":119,"name":"Uncletopia | Seattle | 2 | All Maps","name_short":"sea-2","host":"sea-1.us.uncletopia.com","port":27025,"enabled":true,"region":"us-west","cc":"us","latitude":47.608013,"longitude":-122.33517,"reserved":0,"last_update":"0001-01-01T00:00:00Z","name_a2s":"Uncletopia | Seattle | 2 | All Maps","protocol":17,"map":"cp_junction_final","folder":"tf","game":"Team Fortress","app_id":440,"player_count":23,"max_players":24,"Bots":0,"server_type":"Dedicated","server_os":"Linux","password":true,"vac":true,"version":"7961495","steam_id":85568392924469998,"keywords":["cp","nocrits","nodmgspread","uncletopia"],"game_id":440,"stv_port":27026,"stv_name":"Uncletopia | Seattle | 2 | All Maps | STV","players":[{"user_id":322,"name":"Drone #0432 (they/it)\u0026","steam_id":76561198027321950,"connected_time":5450000000000,"state":"active","ping":90},{"user_id":301,"name":"NOT FRIENDLY","steam_id":76561198041327231,"connected_time":7011000000000,"state":"active","ping":45},{"user_id":357,"name":"foxmagic","steam_id":76561198163167495,"connected_time":1704000000000,"state":"active","ping":44},{"user_id":374,"name":"Montis","steam_id":76561199130184348,"connected_time":526000000000,"state":"active","ping":62},{"user_id":360,"name":"Silly Shark","steam_id":76561198130714378,"connected_time":1673000000000,"state":"active","ping":56},{"user_id":379,"name":"no half measures","steam_id":76561198168492250,"connected_time":69000000000,"state":"active","ping":61},{"user_id":275,"name":"Breast Expansion Bertha","steam_id":76561198225766444,"connected_time":8838000000000,"state":"active","ping":50},{"user_id":371,"name":"Nathan Yeet","steam_id":76561198883966591,"connected_time":1001000000000,"state":"active","ping":105},{"user_id":345,"name":"Dova","steam_id":76561198079481047,"connected_time":2585000000000,"state":"active","ping":73},{"user_id":369,"name":"Drink My *** U Nasty ****","steam_id":76561199100813140,"connected_time":1196000000000,"state":"active","ping":58},{"user_id":346,"name":"Cooked","steam_id":76561198988846527,"connected_time":2525000000000,"state":"active","ping":62},{"user_id":311,"name":"Be Gay, Do Crimes, Smoke Weed!","steam_id":76561198092419868,"connected_time":6235000000000,"state":"active","ping":92},{"user_id":321,"name":"The New Bob","steam_id":76561199122072556,"connected_time":5564000000000,"state":"active","ping":127},{"user_id":347,"name":"Stev the Hypergamous Pebble","steam_id":76561197999442625,"connected_time":2489000000000,"state":"active","ping":52},{"user_id":288,"name":"Facepalm","steam_id":76561198001935226,"connected_time":8310000000000,"state":"active","ping":60},{"user_id":328,"name":"como hacer dinero facil","steam_id":76561198356414514,"connected_time":5042000000000,"state":"active","ping":121},{"user_id":341,"name":"2 Point Tom","steam_id":76561198087617008,"connected_time":2956000000000,"state":"active","ping":45},{"user_id":380,"name":"plsplsplslol","steam_id":76561198868084626,"connected_time":23000000000,"state":"active","ping":66},{"user_id":378,"name":"FedSmoker","steam_id":76561198255854081,"connected_time":242000000000,"state":"active","ping":45},{"user_id":370,"name":"CHARLEMAGNE","steam_id":76561198042455103,"connected_time":1153000000000,"state":"active","ping":45},{"user_id":363,"name":"Kiril","steam_id":76561198051433762,"connected_time":1652000000000,"state":"active","ping":85},{"user_id":372,"name":"gyat","steam_id":76561198043684960,"connected_time":554000000000,"state":"active","ping":119},{"user_id":368,"name":"[Seattle 2] War Criminal","steam_id":76561198115695203,"connected_time":1393000000000,"state":"active","ping":99}]},{"server_id":406,"name":"Uncletopia | Seattle | 3 | Stopwatch","name_short":"sea-3","host":"sea-1.us.uncletopia.com","port":27035,"enabled":true,"region":"us-west","cc":"us","latitude":47.608013,"longitude":-122.33517,"reserved":0,"last_update":"0001-01-01T00:00:00Z","name_a2s":"Uncletopia | Seattle | 3 | Stopwatch","protocol":17,"map":"cp_gullywash_final1","folder":"tf","game":"Team Fortress","app_id":440,"player_count":0,"max_players":24,"Bots":0,"server_type":"Dedicated","server_os":"Linux","password":true,"vac":true,"version":"7961495","steam_id":85568392924515217,"keywords":["cp","nocrits","nodmgspread","uncletopia"],"game_id":440,"stv_port":27036,"stv_name":"Uncletopia | Seattle | 3 | Stopwatch | STV","players":null},{"server_id":17,"name":"Uncletopia | San Francisco | 1 | All Maps","name_short":"sfo-1","host":"sfo-1.us.uncletopia.com","port":27015,"enabled":true,"region":"us-west","cc":"us","latitude":37.77397,"longitude":-122.4313,"reserved":0,"last_update":"0001-01-01T00:00:00Z","name_a2s":"Uncletopia | San Francisco | 1 | All Maps","protocol":17,"map":"pl_swiftwater_final1","folder":"tf","game":"Team Fortress","app_id":440,"player_count":23,"max_players":24,"Bots":0,"server_type":"Dedicated","server_os":"Linux","password":true,"vac":true,"version":"7961495","steam_id":85568392924469999,"keywords":["nocrits","nodmgspread","payload","uncletopia"],"game_id":440,"stv_port":27016,"stv_name":"Uncletopia | San Francisco | 1 | All Maps | STV","players":[{"user_id":365,"name":"Satori Komeiji","steam_id":76561198158211423,"connected_time":1877000000000,"state":"active","ping":58},{"user_id":367,"name":"shawnkelester","steam_id":76561199502649220,"connected_time":593000000000,"state":"active","ping":56},{"user_id":368,"name":"type \"bad med\" to kick","steam_id":76561198076402476,"connected_time":587000000000,"state":"active","ping":75},{"user_id":360,"name":"A_Un1t_0","steam_id":76561197966223353,"connected_time":2176000000000,"state":"active","ping":58},{"user_id":328,"name":"Mr. Carfox","steam_id":76561198041664428,"connected_time":5012000000000,"state":"active","ping":45},{"user_id":370,"name":"fish","steam_id":76561198054070811,"connected_time":483000000000,"state":"active","ping":68},{"user_id":361,"name":"Meskoozy","steam_id":76561198102394479,"connected_time":2155000000000,"state":"active","ping":121},{"user_id":345,"name":"Gawin Goodman","steam_id":76561198192661585,"connected_time":3693000000000,"state":"active","ping":72},{"user_id":371,"name":"YASAI JUICE","steam_id":76561198131971992,"connected_time":475000000000,"state":"active","ping":89},{"user_id":372,"name":"Windows1800s","steam_id":76561198145093014,"connected_time":457000000000,"state":"active","ping":59},{"user_id":373,"name":"garbo","steam_id":76561198149280150,"connected_time":400000000000,"state":"active","ping":73},{"user_id":330,"name":"cepi","steam_id":76561198120385184,"connected_time":4934000000000,"state":"active","ping":62},{"user_id":332,"name":"greg","steam_id":76561198878022971,"connected_time":4921000000000,"state":"active","ping":149},{"user_id":381,"name":"Sheep","steam_id":76561198161218914,"connected_time":23000000000,"state":"active","ping":55},{"user_id":374,"name":"Cat on the Moon","steam_id":76561198272661627,"connected_time":304000000000,"state":"active","ping":57},{"user_id":363,"name":"Rich Homie Rob","steam_id":76561198046570914,"connected_time":2143000000000,"state":"active","ping":50},{"user_id":376,"name":"starry","steam_id":76561198989740125,"connected_time":189000000000,"state":"active","ping":124},{"user_id":364,"name":"Maid 'n' China","steam_id":76561198423392976,"connected_time":2137000000000,"state":"active","ping":56},{"user_id":377,"name":"Caster","steam_id":76561198131592341,"connected_time":178000000000,"state":"active","ping":69},{"user_id":378,"name":"allahsdroptop (Bag/Chaser)","steam_id":76561198133195238,"connected_time":175000000000,"state":"active","ping":68},{"user_id":355,"name":"Caramel_Chalice","steam_id":76561198307609692,"connected_time":3382000000000,"state":"active","ping":79},{"user_id":379,"name":"air bud","steam_id":76561198040475254,"connected_time":145000000000,"state":"active","ping":63},{"user_id":323,"name":"owl","steam_id":76561198088403016,"connected_time":5369000000000,"state":"active","ping":153}]},{"server_id":18,"name":"Uncletopia | San Francisco | 2 | All Maps","name_short":"sfo-2","host":"sfo-1.us.uncletopia.com","port":27025,"enabled":true,"region":"us-west","cc":"us","latitude":37.77397,"longitude":-122.4313,"reserved":0,"last_update":"0001-01-01T00:00:00Z","name_a2s":"Uncletopia | San Francisco | 2 | All Maps","protocol":17,"map":"cp_altitude","folder":"tf","game":"Team Fortress","app_id":440,"player_count":0,"max_players":24,"Bots":0,"server_type":"Dedicated","server_os":"Linux","password":true,"vac":true,"version":"7961495","steam_id":85568392924470000,"keywords":["cp","nocrits","nodmgspread","uncletopia"],"game_id":440,"stv_port":27026,"stv_name":"Uncletopia | San Francisco | 2 | All Maps | STV","players":null},{"server_id":19,"name":"Uncletopia | San Francisco | 3 | Stopwatch","name_short":"sfo-3","host":"sfo-1.us.uncletopia.com","port":27035,"enabled":true,"region":"us-west","cc":"us","latitude":37.77397,"longitude":-122.4313,"reserved":0,"last_update":"0001-01-01T00:00:00Z","name_a2s":"Uncletopia | San Francisco | 3 | Stopwatch","protocol":17,"map":"workshop/koth_ashville_final.ugc2130459942","folder":"tf","game":"Team Fortress","app_id":440,"player_count":0,"max_players":24,"Bots":0,"server_type":"Dedicated","server_os":"Linux","password":true,"vac":true,"version":"7961495","steam_id":85568392924742824,"keywords":["cp","nocrits","nodmgspread","uncletopia"],"game_id":440,"stv_port":27036,"stv_name":"Uncletopia | San Francisco | 3 | Stopwatch | STV","players":null},{"server_id":20,"name":"Uncletopia | San Francisco | 4 | Community","name_short":"sfo-4","host":"sfo-1.us.uncletopia.com","port":27045,"enabled":true,"region":"us-west","cc":"us","latitude":37.77397,"longitude":-122.4313,"reserved":0,"last_update":"0001-01-01T00:00:00Z","name_a2s":"Uncletopia | San Francisco | 4 | Community","protocol":17,"map":"workshop/koth_bagel_rc6.ugc2514036946","folder":"tf","game":"Team Fortress","app_id":440,"player_count":0,"max_players":24,"Bots":0,"server_type":"Dedicated","server_os":"Linux","password":true,"vac":true,"version":"7961495","steam_id":85568392924742826,"keywords":["cp","nocrits","nodmgspread","uncletopia"],"game_id":440,"stv_port":27046,"stv_name":"Uncletopia | San Francisco | 4 | Community | STV","players":null},{"server_id":141,"name":"Uncletopia | Sydney | 1 | All Maps","name_short":"syd-1","host":"syd-1.au.uncletopia.com","port":27015,"enabled":true,"region":"au","cc":"au","latitude":-33.865143,"longitude":151.2099,"reserved":0,"last_update":"0001-01-01T00:00:00Z","name_a2s":"Uncletopia | Sydney | 1 | All Maps","protocol":17,"map":"pl_snowycoast","folder":"tf","game":"Team Fortress","app_id":440,"player_count":23,"max_players":24,"Bots":0,"server_type":"Dedicated","server_os":"Linux","password":true,"vac":true,"version":"7961495","steam_id":85568392924470001,"keywords":["nocrits","nodmgspread","payload","uncletopia"],"game_id":440,"stv_port":27016,"stv_name":"Uncletopia | Sydney | 1 | All Maps | STV","players":[{"user_id":72,"name":"P. Ness (Length/Girth)","steam_id":76561198037664265,"connected_time":2672000000000,"state":"active","ping":59},{"user_id":75,"name":"Bobby Bigman","steam_id":76561198044679656,"connected_time":2561000000000,"state":"active","ping":60},{"user_id":62,"name":"the a million glove!!","steam_id":76561198025225448,"connected_time":3060000000000,"state":"active","ping":86},{"user_id":63,"name":"stuck with me","steam_id":76561198132937542,"connected_time":3052000000000,"state":"active","ping":58},{"user_id":99,"name":"piratespy22","steam_id":76561198042198744,"connected_time":731000000000,"state":"active","ping":63},{"user_id":31,"name":"Lord Saladman","steam_id":76561199363661936,"connected_time":4638000000000,"state":"active","ping":60},{"user_id":108,"name":"Mooty","steam_id":76561198301293435,"connected_time":79000000000,"state":"active","ping":56},{"user_id":36,"name":"Skree'kaw","steam_id":76561199415758131,"connected_time":4304000000000,"state":"active","ping":68},{"user_id":38,"name":"Raven","steam_id":76561198428025966,"connected_time":4217000000000,"state":"active","ping":60},{"user_id":88,"name":"diamond","steam_id":76561198206754736,"connected_time":1850000000000,"state":"active","ping":60},{"user_id":76,"name":"Overlold","steam_id":76561197978635495,"connected_time":2365000000000,"state":"active","ping":82},{"user_id":110,"name":"Crazybean","steam_id":76561198042181980,"connected_time":54000000000,"state":"active","ping":57},{"user_id":107,"name":"Sinister80s","steam_id":76561198343540472,"connected_time":81000000000,"state":"active","ping":70},{"user_id":106,"name":"pogowashere","steam_id":76561198271166106,"connected_time":93000000000,"state":"active","ping":72},{"user_id":97,"name":"mes","steam_id":76561198073194089,"connected_time":1023000000000,"state":"active","ping":70},{"user_id":103,"name":"Penguinator5000","steam_id":76561198038183553,"connected_time":593000000000,"state":"active","ping":54},{"user_id":109,"name":"Abrynth","steam_id":76561198148054033,"connected_time":68000000000,"state":"active","ping":68},{"user_id":93,"name":"Andreas Vesalius","steam_id":76561198950692005,"connected_time":1495000000000,"state":"active","ping":44},{"user_id":104,"name":"uhe insurance","steam_id":76561198064112935,"connected_time":333000000000,"state":"active","ping":56},{"user_id":100,"name":"Snowy","steam_id":76561198255720598,"connected_time":731000000000,"state":"active","ping":45},{"user_id":78,"name":"webbadon, the horrid á˜›âÌ¤\ufffd\ufffd","steam_id":76561198061998379,"connected_time":2239000000000,"state":"active","ping":46},{"user_id":87,"name":"Jrazza","steam_id":76561198195448189,"connected_time":1874000000000,"state":"active","ping":38},{"user_id":74,"name":"you can lead a Horace to water","steam_id":76561198301282416,"connected_time":2633000000000,"state":"active","ping":47}]},{"server_id":123,"name":"Uncletopia | Sydney | 2 | All Maps","name_short":"syd-2","host":"syd-1.au.uncletopia.com","port":27025,"enabled":true,"region":"au","cc":"au","latitude":-33.865143,"longitude":151.2099,"reserved":0,"last_update":"0001-01-01T00:00:00Z","name_a2s":"Uncletopia | Sydney | 2 | All Maps","protocol":17,"map":"koth_lakeside_final","folder":"tf","game":"Team Fortress","app_id":440,"player_count":9,"max_players":24,"Bots":0,"server_type":"Dedicated","server_os":"Linux","password":true,"vac":true,"version":"7961495","steam_id":85568392924470002,"keywords":["cp","nocrits","nodmgspread","uncletopia"],"game_id":440,"stv_port":27026,"stv_name":"Uncletopia | Sydney | 2 | All Maps | STV","players":[{"user_id":8,"name":"1opal","steam_id":76561198078646194,"connected_time":871000000000,"state":"active","ping":70},{"user_id":9,"name":"e1fy","steam_id":76561198060462552,"connected_time":868000000000,"state":"active","ping":89},{"user_id":11,"name":"Leaves19","steam_id":76561199262891492,"connected_time":653000000000,"state":"active","ping":64},{"user_id":12,"name":"FortSkin","steam_id":76561198306660831,"connected_time":566000000000,"state":"active","ping":61},{"user_id":13,"name":"BK","steam_id":76561198241303512,"connected_time":478000000000,"state":"active","ping":56},{"user_id":14,"name":"fizzy","steam_id":76561198996014350,"connected_time":417000000000,"state":"active","ping":69},{"user_id":15,"name":"Glockenspe (She/Her)","steam_id":76561199184115241,"connected_time":366000000000,"state":"active","ping":51},{"user_id":16,"name":"Granoler","steam_id":76561198059129270,"connected_time":191000000000,"state":"active","ping":67},{"user_id":18,"name":"Scopic","steam_id":76561199236845261,"connected_time":96000000000,"state":"active","ping":70}]},{"server_id":395,"name":"Uncletopia | Sydney | 3 | All Maps","name_short":"syd-3","host":"syd-1.au.uncletopia.com","port":27035,"enabled":true,"region":"au","cc":"au","latitude":-33.865143,"longitude":151.2099,"reserved":0,"last_update":"0001-01-01T00:00:00Z","name_a2s":"Uncletopia | Sydney | 3 | All Maps","protocol":17,"map":"pl_frontier_final","folder":"tf","game":"Team Fortress","app_id":440,"player_count":0,"max_players":24,"Bots":0,"server_type":"Dedicated","server_os":"Linux","password":true,"vac":true,"version":"7961495","steam_id":85568392925194467,"keywords":["nocrits","nodmgspread","payload","uncletopia"],"game_id":440,"stv_port":27036,"stv_name":"Uncletopia | Sydney | 3 | All Maps | STV","players":null},{"server_id":396,"name":"Uncletopia | Sydney | 4 | All Maps","name_short":"syd-4","host":"syd-1.au.uncletopia.com","port":27045,"enabled":true,"region":"au","cc":"au","latitude":-33.865143,"longitude":151.2099,"reserved":0,"last_update":"0001-01-01T00:00:00Z","name_a2s":"Uncletopia | Sydney | 4 | All Maps","protocol":17,"map":"cp_mountainlab","folder":"tf","game":"Team Fortress","app_id":440,"player_count":0,"max_players":24,"Bots":0,"server_type":"Dedicated","server_os":"Linux","password":true,"vac":true,"version":"7961495","steam_id":85568392925397958,"keywords":["cp","nocrits","nodmgspread","uncletopia"],"game_id":440,"stv_port":27046,"stv_name":"Uncletopia | Sydney | 4 | All Maps | STV","players":null},{"server_id":58,"name":"Uncletopia | Sydney | 5 | Stopwatch","name_short":"syd-5","host":"syd-1.au.uncletopia.com","port":27055,"enabled":true,"region":"au","cc":"au","latitude":-33.865143,"longitude":151.2099,"reserved":0,"last_update":"0001-01-01T00:00:00Z","name_a2s":"Uncletopia | Sydney | 5 | Stopwatch","protocol":17,"map":"cp_metalworks","folder":"tf","game":"Team Fortress","app_id":440,"player_count":0,"max_players":24,"Bots":0,"server_type":"Dedicated","server_os":"Linux","password":true,"vac":true,"version":"7961495","steam_id":85568392925397959,"keywords":["cp","nocrits","nodmgspread","uncletopia"],"game_id":440,"stv_port":27056,"stv_name":"Uncletopia | Sydney | 5 | Stopwatch | STV","players":null},{"server_id":59,"name":"Uncletopia | Sydney | 6 | Community","name_short":"syd-6","host":"syd-1.au.uncletopia.com","port":27065,"enabled":true,"region":"au","cc":"au","latitude":-33.865143,"longitude":151.2099,"reserved":0,"last_update":"0001-01-01T00:00:00Z","name_a2s":"Uncletopia | Sydney | 6 | Community","protocol":17,"map":"cp_sunshine","folder":"tf","game":"Team Fortress","app_id":440,"player_count":0,"max_players":24,"Bots":0,"server_type":"Dedicated","server_os":"Linux","password":true,"vac":true,"version":"7961495","steam_id":85568392925397960,"keywords":["cp","nocrits","nodmgspread","uncletopia"],"game_id":440,"stv_port":27066,"stv_name":"Uncletopia | Sydney | 6 | Community | STV","players":null},{"server_id":49,"name":"Uncletopia | Warsaw | 1 | One Thousand Uncles","name_short":"waw-1","host":"waw-1.pl.uncletopia.com","port":27015,"enabled":true,"region":"eu","cc":"pl","latitude":52.2297,"longitude":21.017532,"reserved":0,"last_update":"0001-01-01T00:00:00Z","name_a2s":"Uncletopia | Warsaw | 1 | One Thousand Uncles","protocol":17,"map":"pl_hoodoo_final","folder":"tf","game":"Team Fortress","app_id":440,"player_count":0,"max_players":32,"Bots":0,"server_type":"Dedicated","server_os":"Linux","password":true,"vac":true,"version":"7961495","steam_id":85568392925397850,"keywords":["alltalk","danepve","increased_maxplayers","nocrits","norespawntime","payload","uncletopia"],"game_id":440,"stv_port":0,"stv_name":"","players":null},{"server_id":50,"name":"Uncletopia | Warsaw | 2 | One Thousand Uncles","name_short":"waw-2","host":"waw-1.pl.uncletopia.com","port":27025,"enabled":true,"region":"eu","cc":"pl","latitude":52.2297,"longitude":21.017532,"reserved":0,"last_update":"0001-01-01T00:00:00Z","name_a2s":"Uncletopia | Warsaw | 2 | One Thousand Uncles","protocol":17,"map":"pl_goldrush","folder":"tf","game":"Team Fortress","app_id":440,"player_count":0,"max_players":32,"Bots":0,"server_type":"Dedicated","server_os":"Linux","password":true,"vac":true,"version":"7961495","steam_id":85568392925397851,"keywords":["alltalk","danepve","increased_maxplayers","nocrits","norespawntime","payload","uncletopia"],"game_id":440,"stv_port":0,"stv_name":"","players":null},{"server_id":51,"name":"Uncletopia | Warsaw | 3 | All Maps","name_short":"waw-3","host":"waw-1.pl.uncletopia.com","port":27035,"enabled":true,"region":"eu","cc":"pl","latitude":52.2297,"longitude":21.017532,"reserved":0,"last_update":"0001-01-01T00:00:00Z","name_a2s":"Uncletopia | Warsaw | 3 | All Maps","protocol":17,"map":"plr_pipeline","folder":"tf","game":"Team Fortress","app_id":440,"player_count":0,"max_players":24,"Bots":0,"server_type":"Dedicated","server_os":"Linux","password":true,"vac":true,"version":"7961495","steam_id":85568392925397852,"keywords":["nocrits","nodmgspread","payload","uncletopia"],"game_id":440,"stv_port":27036,"stv_name":"Uncletopia | Warsaw | 3 | All Maps | STV","players":null},{"server_id":52,"name":"Uncletopia | Warsaw | 4 | All Maps","name_short":"waw-4","host":"waw-1.pl.uncletopia.com","port":27045,"enabled":true,"region":"eu","cc":"pl","latitude":52.2297,"longitude":21.017532,"reserved":0,"last_update":"0001-01-01T00:00:00Z","name_a2s":"Uncletopia | Warsaw | 4 | All Maps","protocol":17,"map":"cp_coldfront","folder":"tf","game":"Team Fortress","app_id":440,"player_count":0,"max_players":24,"Bots":0,"server_type":"Dedicated","server_os":"Linux","password":true,"vac":true,"version":"7961495","steam_id":85568392925397853,"keywords":["cp","nocrits","nodmgspread","uncletopia"],"game_id":440,"stv_port":27046,"stv_name":"Uncletopia | Warsaw | 4 | All Maps | STV","players":null},{"server_id":53,"name":"Uncletopia | Warsaw | 5 | Stopwatch","name_short":"waw-5","host":"waw-1.pl.uncletopia.com","port":27055,"enabled":true,"region":"eu","cc":"pl","latitude":52.2297,"longitude":21.017532,"reserved":0,"last_update":"0001-01-01T00:00:00Z","name_a2s":"Uncletopia | Warsaw | 5 | Stopwatch","protocol":17,"map":"workshop/koth_bagel_rc6.ugc2514036946","folder":"tf","game":"Team Fortress","app_id":440,"player_count":0,"max_players":24,"Bots":0,"server_type":"Dedicated","server_os":"Linux","password":true,"vac":true,"version":"7961495","steam_id":85568392925397854,"keywords":["cp","nocrits","nodmgspread","uncletopia"],"game_id":440,"stv_port":27056,"stv_name":"Uncletopia | Warsaw | 5 | Stopwatch | STV","players":null},{"server_id":54,"name":"Uncletopia | Warsaw | 6 | Community","name_short":"waw-6","host":"waw-1.pl.uncletopia.com","port":27065,"enabled":true,"region":"eu","cc":"pl","latitude":52.2297,"longitude":21.017532,"reserved":0,"last_update":"0001-01-01T00:00:00Z","name_a2s":"Uncletopia | Warsaw | 6 | Community","protocol":17,"map":"workshop/pl_badwater_pro_v12.ugc2142942074","folder":"tf","game":"Team Fortress","app_id":440,"player_count":0,"max_players":24,"Bots":0,"server_type":"Dedicated","server_os":"Linux","password":true,"vac":true,"version":"7961495","steam_id":85568392925397856,"keywords":["nocrits","nodmgspread","payload","uncletopia"],"game_id":440,"stv_port":27066,"stv_name":"Uncletopia | Warsaw | 6 | Community | STV","players":null}]}