{"status":true,"message":"","result":[{"server_id":2,"name":"Uncletopia | Chicago | 1 | All Maps","name_short":"chi-1","host":"chi-1.us.uncletopia.com","port":27015,"enabled":true,"region":"us-central","cc":"us","latitude":41.881832,"longitude":-87.62318,"reserved":0,"last_update":"0001-01-01T00:00:00Z","name_a2s":"Uncletopia | Chicago | 1 | All Maps","protocol":17,"map":"pl_badwater","folder":"tf","game":"Team Fortress","app_id":440,"player_count":24,"max_players":24,"Bots":0,"server_type":"Dedicated","server_os":"Linux","password":true,"vac":true,"version":"7961495","steam_id":85568392924469984,"keywords":["nocrits","nodmgspread","payload","uncletopia"],"game_id":440,"stv_port":27016,"stv_name":"Uncletopia | Chicago | 1 | All Maps | STV","players":[{"user_id":51,"name":"Sammi June","steam_id":76561198117500991,"connected_time":1262000000000,"state":"active","ping":74},{"user_id":47,"name":"asbestos","steam_id":76561198079178866,"connected_time":1415000000000,"state":"active","ping":64},{"user_id":41,"name":"ThatGamingKiwi","steam_id":76561199170522237,"connected_time":1505000000000,"state":"active","ping":77},{"user_id":46,"name":"winrarFanatic","steam_id":76561198026538317,"connected_time":1417000000000,"state":"active","ping":59},{"user_id":69,"name":"Joker","steam_id":76561198341537452,"connected_time":172000000000,"state":"active","ping":78},{"user_id":11,"name":"Uung","steam_id":76561198183956731,"connected_time":2071000000000,"state":"active","ping":61},{"user_id":12,"name":"kite","steam_id":76561198346516392,"connected_time":2067000000000,"state":"active","ping":71},{"user_id":13,"name":"Dr. Robotniks Mean Bean Machine","steam_id":76561198047980627,"connected_time":2065000000000,"state":"active","ping":50},{"user_id":53,"name":"Oopsie Daisy ❋","steam_id":76561198042144492,"connected_time":1109000000000,"state":"active","ping":65},{"user_id":70,"name":"kafkaesque","steam_id":76561198057076267,"connected_time":32000000000,"state":"active","ping":76},{"user_id":17,"name":"Cats in 3D","steam_id":76561198048051416,"connected_time":2030000000000,"state":"active","ping":70},{"user_id":28,"name":"pandoRA","steam_id":76561198075490385,"connected_time":1962000000000,"state":"active","ping":101},{"user_id":55,"name":"Hob-Goblin Jim The IV","steam_id":76561199046650666,"connected_time":1075000000000,"state":"active","ping":55},{"user_id":42,"name":"[NAME-REDACTED]","steam_id":76561198035682975,"connected_time":1473000000000,"state":"active","ping":63},{"user_id":22,"name":"Celestial Bodies","steam_id":76561198212572955,"connected_time":2008000000000,"state":"active","ping":77},{"user_id":57,"name":"ThatOneKnight","steam_id":76561198388583650,"connected_time":735000000000,"state":"active","ping":68},{"user_id":25,"name":"TheAlmightyG","steam_id":76561198235946096,"connected_time":1994000000000,"state":"active","ping":96},{"user_id":56,"name":"SoaringPhoenix","steam_id":76561198445103637,"connected_time":801000000000,"state":"active","ping":59},{"user_id":68,"name":"Sentry Gun (American)","steam_id":76561198313770809,"connected_time":198000000000,"state":"active","ping":60},{"user_id":65,"name":"Cdesmondd","steam_id":76561198072774462,"connected_time":373000000000,"state":"active","ping":59},{"user_id":31,"name":"Jellojiggler","steam_id":76561198094320477,"connected_time":1950000000000,"state":"active","ping":79},{"user_id":36,"name":"6kre_1t","steam_id":76561198106157810,"connected_time":1821000000000,"state":"active","ping":62},{"user_id":37,"name":"Kattnesta","steam_id":76561198210927551,"connected_time":1772000000000,"state":"active","ping":54},{"user_id":48,"name":"Tarnation Bob","steam_id":76561198107382571,"connected_time":1415000000000,"state":"active","ping":132}]},{"server_id":106,"name":"Uncletopia | Chicago | 2 | All Maps","name_short":"chi-2","host":"chi-1.us.uncletopia.com","port":27025,"enabled":true,"region":"us-central","cc":"us","latitude":41.881832,"longitude":-87.62318,"reserved":0,"last_update":"0001-01-01T00:00:00Z","name_a2s":"Uncletopia | Chicago | 2 | All Maps","protocol":17,"map":"cp_mountainlab","folder":"tf","game":"Team Fortress","app_id":440,"player_count":1,"max_players":24,"Bots":0,"server_type":"Dedicated","server_os":"Linux","password":true,"vac":true,"version":"7961495","steam_id":85568392924469985,"keywords":["cp","nocrits","nodmgspread","uncletopia"],"game_id":440,"stv_port":27026,"stv_name":"Uncletopia | Chicago | 2 | All Maps | STV","players":[{"user_id":7,"name":"ShabbySaber","steam_id":76561198061730203,"connected_time":60000000000,"state":"active","ping":46}]},{"server_id":402,"name":"Uncletopia | Chicago | 3 | All Maps","name_short":"chi-3","host":"chi-1.us.uncletopia.com","port":27035,"enabled":true,"region":"us-central","cc":"us","latitude":41.881832,"longitude":-87.62318,"reserved":0,"last_update":"0001-01-01T00:00:00Z","name_a2s":"Uncletopia | Chicago | 3 | All Maps","protocol":17,"map":"koth_cascade","folder":"tf","game":"Team Fortress","app_id":440,"player_count":24,"max_players":24,"Bots":0,"server_type":"Dedicated","server_os":"Linux","password":true,"vac":true,"version":"7961495","steam_id":85568392924515191,"keywords":["cp","nocrits","nodmgspread","uncletopia"],"game_id":440,"stv_port":27036,"stv_name":"Uncletopia | Chicago | 3 | All Maps | STV","players":[{"user_id":9,"name":"TheConchinator","steam_id":76561199388149092,"connected_time":908000000000,"state":"active","ping":62},{"user_id":15,"name":"paper","steam_id":76561199075241499,"connected_time":499000000000,"state":"active","ping":88},{"user_id":10,"name":"maS","steam_id":76561198033846407,"connected_time":633000000000,"state":"active","ping":45},{"user_id":11,"name":"Fraglin","steam_id":76561198124964000,"connected_time":620000000000,"state":"active","ping":76},{"user_id":12,"name":"FIREPOW #RTB","steam_id":76561198111259720,"connected_time":585000000000,"state":"active","ping":66},{"user_id":16,"name":"apple2noob","steam_id":76561199048944120,"connected_time":456000000000,"state":"active","ping":80},{"user_id":14,"name":"Yoshimelon","steam_id":76561198253054325,"connected_time":533000000000,"state":"active","ping":62},{"user_id":17,"name":"JoJoJo","steam_id":76561198067153390,"connected_time":411000000000,"state":"active","ping":52},{"user_id":18,"name":"JHLO","steam_id":76561198074359967,"connected_time":407000000000,"state":"active","ping":80},{"user_id":19,"name":"DogSpoon","steam_id":76561198012485990,"connected_time":398000000000,"state":"active","ping":59},{"user_id":20,"name":"The Sydney Sleeper Itself","steam_id":76561198180251763,"connected_time":380000000000,"state":"active","ping":73},{"user_id":23,"name":"k3ramb1t","steam_id":76561198097880352,"connected_time":330000000000,"state":"active","ping":72},{"user_id":24,"name":"Mayo Colored Benz, Miracle Whip","steam_id":76561198047340813,"connected_time":315000000000,"state":"active","ping":60},{"user_id":25,"name":"2JZ_","steam_id":76561198064027289,"connected_time":279000000000,"state":"active","ping":88},{"user_id":26,"name":"Zaid","steam_id":76561199142840666,"connected_time":271000000000,"state":"active","ping":160},{"user_id":27,"name":"caption cool","steam_id":76561197990612056,"connected_time":248000000000,"state":"active","ping":47},{"user_id":35,"name":"Mburesh","steam_id":76561198137460717,"connected_time":59000000000,"state":"active","ping":54},{"user_id":29,"name":"Sigiferd","steam_id":76561198148788110,"connected_time":239000000000,"state":"active","ping":153},{"user_id":30,"name":"ryan","steam_id":76561198141875225,"connected_time":231000000000,"state":"active","ping":61},{"user_id":31,"name":"Colton","steam_id":76561198061552103,"connected_time":223000000000,"state":"active","ping":45},{"user_id":32,"name":"Flame","steam_id":76561198980132494,"connected_time":215000000000,"state":"active","ping":118},{"user_id":33,"name":"ScaryTree","steam_id":76561199384362833,"connected_time":193000000000,"state":"active","ping":132},{"user_id":34,"name":"Aeonspassed","steam_id":76561198014016451,"connected_time":189000000000,"state":"active","ping":53}]},{"server_id":403,"name":"Uncletopia | Chicago | 4 | All Maps","name_short":"chi-4","host":"chi-1.us.uncletopia.com","port":27045,"enabled":true,"region":"us-central","cc":"us","latitude":41.881832,"longitude":-87.62318,"reserved":0,"last_update":"0001-01-01T00:00:00Z","name_a2s":"Uncletopia | Chicago | 4 | All Maps","protocol":17,"map":"koth_lakeside_final","folder":"tf","game":"Team Fortress","app_id":440,"player_count":10,"max_players":24,"Bots":0,"server_type":"Dedicated","server_os":"Linux","password":true,"vac":true,"version":"7961495","steam_id":85568392924515193,"keywords":["cp","nocrits","nodmgspread","uncletopia"],"game_id":440,"stv_port":27046,"stv_name":"Uncletopia | Chicago | 4 | All Maps | STV","players":[{"user_id":13,"name":"coolguy5","steam_id":76561198235715100,"connected_time":153000000000,"state":"active","ping":66},{"user_id":5,"name":"_SCOOBER_","steam_id":76561199239122502,"connected_time":766000000000,"state":"active","ping":113},{"user_id":6,"name":"CharredSoup","steam_id":76561199184482525,"connected_time":697000000000,"state":"active","ping":81},{"user_id":15,"name":"Cooki","steam_id":76561198051705314,"connected_time":83000000000,"state":"active","ping":101},{"user_id":14,"name":"jerma enthusiast","steam_id":76561198359466264,"connected_time":140000000000,"state":"active","ping":71},{"user_id":9,"name":"Garbunkle","steam_id":76561198389831507,"connected_time":581000000000,"state":"active","ping":60},{"user_id":16,"name":"Dr Nefario","steam_id":76561198254646194,"connected_time":36000000000,"state":"active","ping":47},{"user_id":17,"name":"Stolid","steam_id":76561197998506423,"connected_time":22000000000,"state":"active","ping":90},{"user_id":18,"name":"daemon","steam_id":76561198001541433,"connected_time":6000000000,"state":"active","ping":313},{"user_id":19,"name":"Lightish Red","steam_id":76561198060879701,"connected_time":4000000000,"state":"spawning","ping":44}]},{"server_id":36,"name":"Uncletopia | Chicago | 5 | All Maps","name_short":"chi-5","host":"chi-2.us.uncletopia.com","port":27015,"enabled":true,"region":"us-central","cc":"us","latitude":41.881832,"longitude":-87.62318,"reserved":0,"last_update":"0001-01-01T00:00:00Z","name_a2s":"Uncletopia | Chicago | 5 | All Maps","protocol":17,"map":"pl_frontier_final","folder":"tf","game":"Team Fortress","app_id":440,"player_count":1,"max_players":24,"Bots":0,"server_type":"Dedicated","server_os":"Linux","password":true,"vac":true,"version":"7961495","steam_id":85568392924866362,"keywords":["nocrits","nodmgspread","payload","uncletopia"],"game_id":440,"stv_port":27016,"stv_name":"Uncletopia | Chicago | 5 | All Maps | STV","players":[{"user_id":4,"name":"Tri-Dot","steam_id":76561199075186597,"connected_time":79000000000,"state":"active","ping":58}]},{"server_id":37,"name":"Uncletopia | Chicago | 6 | All Maps","name_short":"chi-6","host":"chi-2.us.uncletopia.com","port":27025,"enabled":true,"region":"us-central","cc":"us","latitude":41.881832,"longitude":-87.62318,"reserved":0,"last_update":"0001-01-01T00:00:00Z","name_a2s":"Uncletopia | Chicago | 6 | All Maps","protocol":17,"map":"cp_snakewater_final1","folder":"tf","game":"Team Fortress","app_id":440,"player_count":0,"max_players":24,"Bots":0,"server_type":"Dedicated","server_os":"Linux","password":true,"vac":true,"version":"7961495","steam_id":85568392924866363,"keywords":["cp","nocrits","nodmgspread","uncletopia"],"game_id":440,"stv_port":27026,"stv_name":"Uncletopia | Chicago | 6 | All Maps | STV","players":null},{"server_id":38,"name":"Uncletopia | Chicago | 7 | Stopwatch Beta","name_short":"chi-7","host":"chi-2.us.uncletopia.com","port":27035,"enabled":true,"region":"us-central","cc":"us","latitude":41.881832,"longitude":-87.62318,"reserved":0,"last_update":"0001-01-01T00:00:00Z","name_a2s":"Uncletopia | Chicago | 7 | Stopwatch Beta","protocol":17,"map":"cp_process_final","folder":"tf","game":"Team Fortress","app_id":440,"player_count":0,"max_players":24,"Bots":0,"server_type":"Dedicated","server_os":"Linux","password":true,"vac":true,"version":"7961495","steam_id":85568392924866364,"keywords":["cp","nocrits","nodmgspread","uncletopia"],"game_id":440,"stv_port":27036,"stv_name":"Uncletopia | Chicago | 7 | Stopwatch Beta | STV","players":null},{"server_id":39,"name":"Uncletopia | Chicago | 8 | Community","name_short":"chi-8","host":"chi-2.us.uncletopia.com","port":27045,"enabled":true,"region":"us-central","cc":"us","latitude":41.881832,"longitude":-87.62318,"reserved":0,"last_update":"0001-01-01T00:00:00Z","name_a2s":"Uncletopia | Chicago | 8 | Community","protocol":17,"map":"cp_snakewater_final1","folder":"tf","game":"Team Fortress","app_id":440,"player_count":0,"max_players":24,"Bots":0,"server_type":"Dedicated","server_os":"Linux","password":true,"vac":true,"version":"7961495","steam_id":85568392924866365,"keywords":["cp","nocrits","nodmgspread","uncletopia"],"game_id":440,"stv_port":27046,"stv_name":"Uncletopia | Chicago | 8 | Community | STV","players":null},{"server_id":8,"name":"Uncletopia | Dallas | 1 | All Maps","name_short":"dal-1","host":"dal-1.us.uncletopia.com","port":27015,"enabled":true,"region":"us-central","cc":"us","latitude":32.779167,"longitude":-96.80889,"reserved":0,"last_update":"0001-01-01T00:00:00Z","name_a2s":"Uncletopia | Dallas | 1 | All Maps","protocol":17,"map":"cp_egypt_final","folder":"tf","game":"Team Fortress","app_id":440,"player_count":24,"max_players":24,"Bots":0,"server_type":"Dedicated","server_os":"Linux","password":true,"vac":true,"version":"7961495","steam_id":85568392924469986,"keywords":["cp","nocrits","nodmgspread","uncletopia"],"game_id":440,"stv_port":27016,"stv_name":"Uncletopia | Dallas | 1 | All Maps | STV","players":[{"user_id":7,"name":"Greg Boberton 2012","steam_id":76561198983566026,"connected_time":1954000000000,"state":"active","ping":82},{"user_id":5,"name":"glue inhaler","steam_id":76561199085645300,"connected_time":2131000000000,"state":"active","ping":57},{"user_id":33,"name":"novu","steam_id":76561198886997024,"connected_time":1375000000000,"state":"active","ping":102},{"user_id":9,"name":"Mail Delivery","steam_id":76561198290046318,"connected_time":1878000000000,"state":"active","ping":66},{"user_id":54,"name":"Broken Cereal√","steam_id":76561198087489795,"connected_time":15000000000,"state":"spawning","ping":70},{"user_id":37,"name":"Huntpk","steam_id":76561198340591674,"connected_time":1326000000000,"state":"active","ping":63},{"user_id":38,"name":"york","steam_id":76561198028120301,"connected_time":1243000000000,"state":"active","ping":94},{"user_id":13,"name":"IlTrashPanda","steam_id":76561198447864095,"connected_time":1709000000000,"state":"active","ping":63},{"user_id":50,"name":"crispylego_","steam_id":76561199453679719,"connected_time":463000000000,"state":"active","ping":127},{"user_id":47,"name":"Zhong Xina","steam_id":76561198048157121,"connected_time":585000000000,"state":"active","ping":100},{"user_id":16,"name":"DefaultKoala","steam_id":76561198059141147,"connected_time":1663000000000,"state":"active","ping":55},{"user_id":17,"name":"rice","steam_id":76561198119326733,"connected_time":1662000000000,"state":"active","ping":82},{"user_id":48,"name":"♂ I R O N ♂ M I K E ♂","steam_id":76561199405378993,"connected_time":570000000000,"state":"active","ping":98},{"user_id":51,"name":"ElZeto","steam_id":76561198252322622,"connected_time":430000000000,"state":"active","ping":87},{"user_id":20,"name":"artichoke","steam_id":76561198980994364,"connected_time":1632000000000,"state":"active","ping":106},{"user_id":49,"name":"Chhaam","steam_id":76561198058508132,"connected_time":563000000000,"state":"active","ping":74},{"user_id":42,"name":"mutedx10","steam_id":76561198253556858,"connected_time":858000000000,"state":"active","ping":49},{"user_id":24,"name":"Sableye","steam_id":76561198061247147,"connected_time":1601000000000,"state":"active","ping":75},{"user_id":44,"name":"Zorlovo","steam_id":76561198006443283,"connected_time":690000000000,"state":"active","ping":61},{"user_id":35,"name":"[RЯ] ShibesGoneWow","steam_id":76561198036090516,"connected_time":1356000000000,"state":"active","ping":60},{"user_id":27,"name":"rusofdog","steam_id":76561198411224235,"connected_time":1583000000000,"state":"active","ping":86},{"user_id":29,"name":"silly jester","steam_id":76561198079609974,"connected_time":1573000000000,"state":"active","ping":92},{"user_id":30,"name":"CrazyKermitRubes","steam_id":76561198009065204,"connected_time":1535000000000,"state":"active","ping":99},{"user_id":36,"name":"lexi","steam_id":76561198176299759,"connected_time":1356000000000,"state":"active","ping":119}]},{"server_id":108,"name":"Uncletopia | Dallas | 2 | All Maps","name_short":"dal-2","host":"dal-1.us.uncletopia.com","port":27025,"enabled":true,"region":"us-central","cc":"us","latitude":32.779167,"longitude":-96.80889,"reserved":0,"last_update":"0001-01-01T00:00:00Z","name_a2s":"Uncletopia | Dallas | 2 | All Maps","protocol":17,"map":"cp_mountainlab","folder":"tf","game":"Team Fortress","app_id":440,"player_count":0,"max_players":24,"Bots":0,"server_type":"Dedicated","server_os":"Linux","password":true,"vac":true,"version":"7961495","steam_id":85568392924469988,"keywords":["cp","nocrits","nodmgspread","uncletopia"],"game_id":440,"stv_port":27026,"stv_name":"Uncletopia | Dallas | 2 | All Maps | STV","players":null},{"server_id":5,"name":"Uncletopia | Frankfurt | 1 | All Maps","name_short":"frk-1","host":"frk-1.de.uncletopia.com","port":27015,"enabled":true,"region":"eu","cc":"de","latitude":50.110924,"longitude":8.682127,"reserved":0,"last_update":"0001-01-01T00:00:00Z","name_a2s":"Uncletopia | Frankfurt | 1 | All Maps","protocol":17,"map":"cp_altitude","folder":"tf","game":"Team Fortress","app_id":440,"player_count":0,"max_players":24,"Bots":0,"server_type":"Dedicated","server_os":"Linux","password":true,"vac":true,"version":"7961495","steam_id":85568392924469989,"keywords":["cp","nocrits","nodmgspread","uncletopia"],"game_id":440,"stv_port":27016,"stv_name":"Uncletopia | Frankfurt | 1 | All Maps | STV","players":null},{"server_id":110,"name":"Uncletopia | Frankfurt | 2 | All Maps","name_short":"frk-2","host":"frk-1.de.uncletopia.com","port":27025,"enabled":true,"region":"eu","cc":"de","latitude":50.110924,"longitude":8.682127,"reserved":0,"last_update":"0001-01-01T00:00:00Z","name_a2s":"Uncletopia | Frankfurt | 2 | All Maps","protocol":17,"map":"cp_sunshine","folder":"tf","game":"Team Fortress","app_id":440,"player_count":0,"max_players":24,"Bots":0,"server_type":"Dedicated","server_os":"Linux","password":true,"vac":true,"version":"7961495","steam_id":85568392924469990,"keywords":["cp","nocrits","nodmgspread","uncletopia"],"game_id":440,"stv_port":27026,"stv_name":"Uncletopia | Frankfurt | 2 | All Maps | STV","players":null},{"server_id":308,"name":"Uncletopia | Frankfurt | 3 | All Maps","name_short":"frk-3","host":"frk-1.de.uncletopia.com","port":27035,"enabled":true,"region":"eu","cc":"de","latitude":50.110924,"longitude":8.682127,"reserved":0,"last_update":"0001-01-01T00:00:00Z","name_a2s":"Uncletopia | Frankfurt | 3 | All Maps","protocol":17,"map":"cp_mountainlab","folder":"tf","game":"Team Fortress","app_id":440,"player_count":0,"max_players":24,"Bots":0,"server_type":"Dedicated","server_os":"Linux","password":true,"vac":true,"version":"7961495","steam_id":85568392924504274,"keywords":["cp","nocrits","nodmgspread","uncletopia"],"game_id":440,"stv_port":27036,"stv_name":"Uncletopia | Frankfurt | 3 | All Maps | STV","players":null},{"server_id":309,"name":"Uncletopia | Frankfurt | 4 | All Maps","name_short":"frk-4","host":"frk-1.de.uncletopia.com","port":27045,"enabled":true,"region":"eu","cc":"de","latitude":50.110924,"longitude":8.682127,"reserved":0,"last_update":"0001-01-01T00:00:00Z","name_a2s":"Uncletopia | Frankfurt | 4 | All Maps","protocol":17,"map":"cp_process_final","folder":"tf","game":"Team Fortress","app_id":440,"player_count":0,"max_players":24,"Bots":0,"server_type":"Dedicated","server_os":"Linux","password":true,"vac":true,"version":"7961495","steam_id":85568392924504275,"keywords":["cp","nocrits","nodmgspread","uncletopia"],"game_id":440,"stv_port":27046,"stv_name":"Uncletopia | Frankfurt | 4 | All Maps | STV","players":null},{"server_id":310,"name":"Uncletopia | Frankfurt | 5 | All Maps","name_short":"frk-5","host":"frk-1.de.uncletopia.com","port":27055,"enabled":true,"region":"eu","cc":"de","latitude":50.110924,"longitude":8.682127,"reserved":0,"last_update":"0001-01-01T00:00:00Z","name_a2s":"Uncletopia | Frankfurt | 5 | All Maps","protocol":17,"map":"koth_viaduct","folder":"tf","game":"Team Fortress","app_id":440,"player_count":0,"max_players":24,"Bots":0,"server_type":"Dedicated","server_os":"Linux","password":true,"vac":true,"version":"7961495","steam_id":85568392924504277,"keywords":["cp","nocrits","nodmgspread","uncletopia"],"game_id":440,"stv_port":27056,"stv_name":"Uncletopia | Frankfurt | 5 | All Maps | STV","players":null},{"server_id":311,"name":"Uncletopia | Frankfurt | 6 | All Maps","name_short":"frk-6","host":"frk-1.de.uncletopia.com","port":27065,"enabled":true,"region":"eu","cc":"de","latitude":50.110924,"longitude":8.682127,"reserved":0,"last_update":"0001-01-01T00:00:00Z","name_a2s":"Uncletopia | Frankfurt | 6 | All Maps","protocol":17,"map":"pl_pier","folder":"tf","game":"Team Fortress","app_id":440,"player_count":0,"max_players":24,"Bots":0,"server_type":"Dedicated","server_os":"Linux","password":true,"vac":true,"version":"7961495","steam_id":85568392924504278,"keywords":["nocrits","nodmgspread","payload","uncletopia"],"game_id":440,"stv_port":27066,"stv_name":"Uncletopia | Frankfurt | 6 | All Maps | STV","players":null},{"server_id":23,"name":"Uncletopia | Frankfurt | 7 | Stopwatch Beta","name_short":"frk-7","host":"frk-1.de.uncletopia.com","port":27075,"enabled":true,"region":"eu","cc":"de","latitude":50.110924,"longitude":8.682127,"reserved":0,"last_update":"0001-01-01T00:00:00Z","name_a2s":"Uncletopia | Frankfurt | 7 | Stopwatch Beta","protocol":17,"map":"koth_cascade","folder":"tf","game":"Team Fortress","app_id":440,"player_count":0,"max_players":24,"Bots":0,"server_type":"Dedicated","server_os":"Linux","password":true,"vac":true,"version":"7961495","steam_id":85568392924742827,"keywords":["cp","nocrits","nodmgspread","uncletopia"],"game_id":440,"stv_port":27076,"stv_name":"Uncletopia | Frankfurt | 7 | Stopwatch Beta | STV","players":null},{"server_id":24,"name":"Uncletopia | Frankfurt | 8 | Community","name_short":"frk-8","host":"frk-1.de.uncletopia.com","port":27085,"enabled":true,"region":"eu","cc":"de","latitude":50.110924,"longitude":8.682127,"reserved":0,"last_update":"0001-01-01T00:00:00Z","name_a2s":"Uncletopia | Frankfurt | 8 | Community","protocol":17,"map":"cp_process_final","folder":"tf","game":"Team Fortress","app_id":440,"player_count":0,"max_players":24,"Bots":0,"server_type":"Dedicated","server_os":"Linux","password":true,"vac":true,"version":"7961495","steam_id":85568392924742828,"keywords":["cp","nocrits","nodmgspread","uncletopia"],"game_id":440,"stv_port":27086,"stv_name":"Uncletopia | Frankfurt | 8 | Community | STV","players":null},{"server_id":202,"name":"Uncletopia | Hong Kong | 1 | All Maps","name_short":"hgk-1","host":"hgk-1.hk.uncletopia.com","port":27015,"enabled":true,"region":"asia","cc":"hk","latitude":22.302711,"longitude":114.177216,"reserved":0,"last_update":"0001-01-01T00:00:00Z","name_a2s":"Uncletopia | Hong Kong | 1 | All Maps","protocol":17,"map":"cp_process_final","folder":"tf","game":"Team Fortress","app_id":440,"player_count":1,"max_players":24,"Bots":0,"server_type":"Dedicated","server_os":"Linux","password":true,"vac":true,"version":"7961495","steam_id":85568392924494504,"keywords":["cp","nocrits","nodmgspread","uncletopia"],"game_id":440,"stv_port":27016,"stv_name":"Uncletopia | Hong Kong | 1 | All Maps | STV","players":[{"user_id":4,"name":"PatrickStar.","steam_id":76561198065606227,"connected_time":34000000000,"state":"active","ping":75}]},{"server_id":1,"name":"Uncletopia | Los Angeles | 1 | All Maps","name_short":"lax-1","host":"lax-1.us.uncletopia.com","port":27015,"enabled":true,"region":"us-west","cc":"us","latitude":33.94279,"longitude":-118.41004,"reserved":0,"last_update":"0001-01-01T00:00:00Z","name_a2s":"Uncletopia | Los Angeles | 1 | All Maps","protocol":17,"map":"cp_snakewater_final1","folder":"tf","game":"Team Fortress","app_id":440,"player_count":0,"max_players":24,"Bots":0,"server_type":"Dedicated","server_os":"Linux","password":true,"vac":true,"version":"7961495","steam_id":85568392924469991,"keywords":["cp","nocrits","nodmgspread","uncletopia"],"game_id":440,"stv_port":27016,"stv_name":"Uncletopia | Los Angeles | 1 | All Maps | STV","players":null},{"server_id":112,"name":"Uncletopia | Los Angeles | 2 | All Maps","name_short":"lax-2","host":"lax-1.us.uncletopia.com","port":27025,"enabled":true,"region":"us-west","cc":"us","latitude":33.94279,"longitude":-118.41004,"reserved":0,"last_update":"0001-01-01T00:00:00Z","name_a2s":"Uncletopia | Los Angeles | 2 | All Maps","protocol":17,"map":"pl_swiftwater_final1","folder":"tf","game":"Team Fortress","app_id":440,"player_count":0,"max_players":24,"Bots":0,"server_type":"Dedicated","server_os":"Linux","password":true,"vac":true,"version":"7961495","steam_id":85568392924469992,"keywords":["nocrits","nodmgspread","payload","uncletopia"],"game_id":440,"stv_port":27026,"stv_name":"Uncletopia | Los Angeles | 2 | All Maps | STV","players":null},{"server_id":324,"name":"Uncletopia | Los Angeles | 3 | All Maps","name_short":"lax-3","host":"lax-1.us.uncletopia.com","port":27035,"enabled":true,"region":"us-west","cc":"us","latitude":33.94279,"longitude":-118.41004,"reserved":0,"last_update":"0001-01-01T00:00:00Z","name_a2s":"Uncletopia | Los Angeles | 3 | All Maps","protocol":17,"map":"koth_highpass","folder":"tf","game":"Team Fortress","app_id":440,"player_count":0,"max_players":24,"Bots":0,"server_type":"Dedicated","server_os":"Linux","password":true,"vac":true,"version":"7961495","steam_id":85568392924510198,"keywords":["cp","nocrits","nodmgspread","uncletopia"],"game_id":440,"stv_port":27036,"stv_name":"Uncletopia | Los Angeles | 3 | All Maps | STV","players":null},{"server_id":25,"name":"Uncletopia | Los Angeles | 4 | Stopwatch Beta","name_short":"lax-4","host":"lax-1.us.uncletopia.com","port":27045,"enabled":true,"region":"us-west","cc":"us","latitude":33.94279,"longitude":-118.41004,"reserved":0,"last_update":"0001-01-01T00:00:00Z","name_a2s":"Uncletopia | Los Angeles | 4 | Stopwatch Beta","protocol":17,"map":"pl_frontier_final","folder":"tf","game":"Team Fortress","app_id":440,"player_count":2,"max_players":24,"Bots":0,"server_type":"Dedicated","server_os":"Linux","password":true,"vac":true,"version":"7961495","steam_id":85568392924510199,"keywords":["nocrits","nodmgspread","payload","uncletopia"],"game_id":440,"stv_port":27046,"stv_name":"Uncletopia | Los Angeles | 4 | Stopwatch Beta | STV","players":[{"user_id":4,"name":"JayRick_Joe69","steam_id":76561199370710976,"connected_time":170000000000,"state":"active","ping":100},{"user_id":5,"name":"KillerD03","steam_id":76561198987967798,"connected_time":160000000000,"state":"active","ping":173}]},{"server_id":11,"name":"Uncletopia | London | 1 | All Maps","name_short":"lon-1","host":"lon-1.uk.uncletopia.com","port":27015,"enabled":true,"region":"eu","cc":"gb","latitude":51.509865,"longitude":-0.118092,"reserved":0,"last_update":"0001-01-01T00:00:00Z","name_a2s":"Uncletopia | London | 1 | All Maps","protocol":17,"map":"pl_borneo","folder":"tf","game":"Team Fortress","app_id":440,"player_count":24,"max_players":24,"Bots":0,"server_type":"Dedicated","server_os":"Linux","password":true,"vac":true,"version":"7961495","steam_id":85568392924367362,"keywords":["nocrits","nodmgspread","payload","uncletopia"],"game_id":440,"stv_port":27016,"stv_name":"Uncletopia | London | 1 | All Maps | STV","players":[{"user_id":3,"name":"jakub","steam_id":76561198449852071,"connected_time":2291000000000,"state":"active","ping":33},{"user_id":8,"name":"sora","steam_id":76561198096547662,"connected_time":2225000000000,"state":"active","ping":55},{"user_id":43,"name":"Smokio","steam_id":76561198069650580,"connected_time":516000000000,"state":"active","ping":84},{"user_id":40,"name":"MagPootis","steam_id":76561198157065778,"connected_time":534000000000,"state":"active","ping":68},{"user_id":9,"name":"Toasted Toby","steam_id":76561198002139581,"connected_time":2224000000000,"state":"active","ping":63},{"user_id":13,"name":"Eidolon","steam_id":76561198043919565,"connected_time":2162000000000,"state":"active","ping":69},{"user_id":34,"name":"OhNoPhoton","steam_id":76561198119399146,"connected_time":730000000000,"state":"active","ping":65},{"user_id":41,"name":"teddy","steam_id":76561198007436837,"connected_time":528000000000,"state":"active","ping":30},{"user_id":42,"name":"VideoJames","steam_id":76561197970114051,"connected_time":526000000000,"state":"active","ping":44},{"user_id":15,"name":"C.H.E.R.E.P.","steam_id":76561198026938595,"connected_time":2099000000000,"state":"active","ping":80},{"user_id":16,"name":"beebo","steam_id":76561199120277007,"connected_time":2098000000000,"state":"active","ping":41},{"user_id":22,"name":"Sakari","steam_id":76561197997811299,"connected_time":1985000000000,"state":"active","ping":61},{"user_id":18,"name":"slippin jimmy","steam_id":76561198090788590,"connected_time":2010000000000,"state":"active","ping":34},{"user_id":20,"name":"Bobirulez","steam_id":76561198009125458,"connected_time":2002000000000,"state":"active","ping":75},{"user_id":21,"name":"Donutella","steam_id":76561198193972491,"connected_time":1986000000000,"state":"active","ping":42},{"user_id":23,"name":"The Nostalgia Critic","steam_id":76561198360395476,"connected_time":1968000000000,"state":"active","ping":44},{"user_id":24,"name":"gneeda","steam_id":76561198147249160,"connected_time":1942000000000,"state":"active","ping":105},{"user_id":45,"name":"margaret thatcher's girl power","steam_id":76561199401283123,"connected_time":179000000000,"state":"active","ping":45},{"user_id":27,"name":"bebeda blacked out","steam_id":76561198277943630,"connected_time":1878000000000,"state":"active","ping":71},{"user_id":29,"name":"Waltuh","steam_id":76561198079334270,"connected_time":1820000000000,"state":"active","ping":77},{"user_id":33,"name":"♥ Emma ♥","steam_id":76561198046796406,"connected_time":1354000000000,"state":"active","ping":59},{"user_id":38,"name":"Purps","steam_id":76561198053886680,"connected_time":560000000000,"state":"active","ping":39},{"user_id":32,"name":"dinorno","steam_id":76561198146276830,"connected_time":1795000000000,"state":"active","ping":76},{"user_id":39,"name":"Will","steam_id":76561198117030753,"connected_time":560000000000,"state":"active","ping":67}]},{"server_id":114,"name":"Uncletopia | London | 2 | All Maps","name_short":"lon-2","host":"lon-1.uk.uncletopia.com","port":27025,"enabled":true,"region":"eu","cc":"gb","latitude":51.509865,"longitude":-0.118092,"reserved":0,"last_update":"0001-01-01T00:00:00Z","name_a2s":"Uncletopia | London | 2 | All Maps","protocol":17,"map":"pl_badwater","folder":"tf","game":"Team Fortress","app_id":440,"player_count":3,"max_players":24,"Bots":0,"server_type":"Dedicated","server_os":"Linux","password":true,"vac":true,"version":"7961495","steam_id":85568392924470941,"keywords":["nocrits","nodmgspread","payload","uncletopia"],"game_id":440,"stv_port":27026,"stv_name":"Uncletopia | London | 2 | All Maps | STV","players":[{"user_id":10,"name":"Cosmetic brain","steam_id":76561198055936410,"connected_time":50000000000,"state":"active","ping":75},{"user_id":6,"name":"kyuta","steam_id":76561198382281653,"connected_time":532000000000,"state":"active","ping":76},{"user_id":7,"name":"eckstra","steam_id":76561199474448245,"connected_time":474000000000,"state":"active","ping":81}]},{"server_id":320,"name":"Uncletopia | London | 3 | All Maps","name_short":"lon-3","host":"lon-1.uk.uncletopia.com","port":27035,"enabled":true,"region":"eu","cc":"gb","latitude":51.509865,"longitude":-0.118092,"reserved":0,"last_update":"0001-01-01T00:00:00Z","name_a2s":"Uncletopia | London | 3 | All Maps","protocol":17,"map":"pl_barnblitz","folder":"tf","game":"Team Fortress","app_id":440,"player_count":0,"max_players":24,"Bots":0,"server_type":"Dedicated","server_os":"Linux","password":true,"vac":true,"version":"7961495","steam_id":85568392924510192,"keywords":["nocrits","nodmgspread","payload","uncletopia"],"game_id":440,"stv_port":27036,"stv_name":"Uncletopia | London | 3 | All Maps | STV","players":null},{"server_id":321,"name":"Uncletopia | London | 4 | All Maps","name_short":"lon-4","host":"lon-1.uk.uncletopia.com","port":27045,"enabled":true,"region":"eu","cc":"gb","latitude":51.509865,"longitude":-0.118092,"reserved":0,"last_update":"0001-01-01T00:00:00Z","name_a2s":"Uncletopia | London | 4 | All Maps","protocol":17,"map":"koth_cascade","folder":"tf","game":"Team Fortress","app_id":440,"player_count":0,"max_players":24,"Bots":0,"server_type":"Dedicated","server_os":"Linux","password":true,"vac":true,"version":"7961495","steam_id":85568392924510193,"keywords":["cp","nocrits","nodmgspread","uncletopia"],"game_id":440,"stv_port":27046,"stv_name":"Uncletopia | London | 4 | All Maps | STV","players":null},{"server_id":21,"name":"Uncletopia | London | 5 | All Maps","name_short":"lon-5","host":"lon-1.uk.uncletopia.com","port":27055,"enabled":true,"region":"eu","cc":"gb","latitude":51.509865,"longitude":-0.118092,"reserved":0,"last_update":"0001-01-01T00:00:00Z","name_a2s":"Uncletopia | London | 5 | All Maps","protocol":17,"map":"pl_snowycoast","folder":"tf","game":"Team Fortress","app_id":440,"player_count":0,"max_players":24,"Bots":0,"server_type":"Dedicated","server_os":"Linux","password":true,"vac":true,"version":"7961495","steam_id":85568392924742829,"keywords":["nocrits","nodmgspread","payload","uncletopia"],"game_id":440,"stv_port":27056,"stv_name":"Uncletopia | London | 5 | All Maps | STV","players":null},{"server_id":22,"name":"Uncletopia | London | 6 | All Maps","name_short":"lon-6","host":"lon-1.uk.uncletopia.com","port":27065,"enabled":true,"region":"eu","cc":"gb","latitude":51.509865,"longitude":-0.118092,"reserved":0,"last_update":"0001-01-01T00:00:00Z","name_a2s":"Uncletopia | London | 6 | All Maps","protocol":17,"map":"koth_lakeside_final","folder":"tf","game":"Team Fortress","app_id":440,"player_count":0,"max_players":24,"Bots":0,"server_type":"Dedicated","server_os":"Linux","password":true,"vac":true,"version":"7961495","steam_id":85568392924742830,"keywords":["cp","nocrits","nodmgspread","uncletopia"],"game_id":440,"stv_port":27066,"stv_name":"Uncletopia | London | 6 | All Maps | STV","players":null},{"server_id":40,"name":"Uncletopia | London | 7 | No Payload","name_short":"lon-7","host":"lon-1.uk.uncletopia.com","port":27075,"enabled":true,"region":"eu","cc":"gb","latitude":51.509865,"longitude":-0.118092,"reserved":0,"last_update":"0001-01-01T00:00:00Z","name_a2s":"Uncletopia | London | 7 | No Payload","protocol":17,"map":"pl_snowycoast","folder":"tf","game":"Team Fortress","app_id":440,"player_count":0,"max_players":24,"Bots":0,"server_type":"Dedicated","server_os":"Linux","password":true,"vac":true,"version":"7961495","steam_id":85568392924964314,"keywords":["nocrits","nodmgspread","payload","uncletopia"],"game_id":440,"stv_port":27076,"stv_name":"Uncletopia | London | 7 | No Payload | STV","players":null},{"server_id":41,"name":"Uncletopia | London | 8 | Community","name_short":"lon-8","host":"lon-1.uk.uncletopia.com","port":27085,"enabled":true,"region":"eu","cc":"gb","latitude":51.509865,"longitude":-0.118092,"reserved":0,"last_update":"0001-01-01T00:00:00Z","name_a2s":"Uncletopia | London | 8 | Community","protocol":17,"map":"koth_viaduct","folder":"tf","game":"Team Fortress","app_id":440,"player_count":0,"max_players":24,"Bots":0,"server_type":"Dedicated","server_os":"Linux","password":true,"vac":true,"version":"7961495","steam_id":85568392924964315,"keywords":["cp","nocrits","nodmgspread","uncletopia"],"game_id":440,"stv_port":27086,"stv_name":"Uncletopia | London | 8 | Community | STV","players":null},{"server_id":300,"name":"Uncletopia | Montréal | 1 | All Maps","name_short":"mtl-1","host":"mtl-1.ca.uncletopia.com","port":27015,"enabled":true,"region":"us-east","cc":"ca","latitude":45.50889,"longitude":-73.56167,"reserved":0,"last_update":"0001-01-01T00:00:00Z","name_a2s":"Uncletopia | Montréal | 1 | All Maps","protocol":17,"map":"koth_cascade","folder":"tf","game":"Team Fortress","app_id":440,"player_count":0,"max_players":24,"Bots":0,"server_type":"Dedicated","server_os":"Linux","password":true,"vac":true,"version":"7961495","steam_id":85568392924500087,"keywords":["cp","nocrits","nodmgspread","uncletopia"],"game_id":440,"stv_port":27016,"stv_name":"Uncletopia | Montréal | 1 | All Maps | STV","players":null},{"server_id":301,"name":"Uncletopia | Montréal | 2 | All Maps","name_short":"mtl-2","host":"mtl-1.ca.uncletopia.com","port":27025,"enabled":true,"region":"us-east","cc":"ca","latitude":45.50889,"longitude":-73.56167,"reserved":0,"last_update":"0001-01-01T00:00:00Z","name_a2s":"Uncletopia | Montréal | 2 | All Maps","protocol":17,"map":"pl_frontier_final","folder":"tf","game":"Team Fortress","app_id":440,"player_count":0,"max_players":24,"Bots":0,"server_type":"Dedicated","server_os":"Linux","password":true,"vac":true,"version":"7961495","steam_id":85568392924500088,"keywords":["nocrits","nodmgspread","payload","uncletopia"],"game_id":440,"stv_port":27026,"stv_name":"Uncletopia | Montréal | 2 | All Maps | STV","players":null},{"server_id":302,"name":"Uncletopia | Montréal | 3 | All Maps","name_short":"mtl-3","host":"mtl-1.ca.uncletopia.com","port":27035,"enabled":true,"region":"us-east","cc":"ca","latitude":45.50889,"longitude":-73.56167,"reserved":0,"last_update":"0001-01-01T00:00:00Z","name_a2s":"Uncletopia | Montréal | 3 | All Maps","protocol":17,"map":"koth_lakeside_final","folder":"tf","game":"Team Fortress","app_id":440,"player_count":0,"max_players":24,"Bots":0,"server_type":"Dedicated","server_os":"Linux","password":true,"vac":true,"version":"7961495","steam_id":85568392924500089,"keywords":["cp","nocrits","nodmgspread","uncletopia"],"game_id":440,"stv_port":27036,"stv_name":"Uncletopia | Montréal | 3 | All Maps | STV","players":null},{"server_id":303,"name":"Uncletopia | Montréal | 4 | No Payload","name_short":"mtl-4","host":"mtl-1.ca.uncletopia.com","port":27045,"enabled":true,"region":"us-east","cc":"ca","latitude":45.50889,"longitude":-73.56167,"reserved":0,"last_update":"0001-01-01T00:00:00Z","name_a2s":"Uncletopia | Montréal | 4 | No Payload","protocol":17,"map":"cp_mountainlab","folder":"tf","game":"Team Fortress","app_id":440,"player_count":0,"max_players":24,"Bots":0,"server_type":"Dedicated","server_os":"Linux","password":true,"vac":true,"version":"7961495","steam_id":85568392924500090,"keywords":["cp","nocrits","nodmgspread","uncletopia"],"game_id":440,"stv_port":27046,"stv_name":"Uncletopia | Montréal | 4 | No Payload | STV","players":null},{"server_id":13,"name":"Uncletopia | New York City | 1 | All Maps","name_short":"nyc-1","host":"nyc-1.us.uncletopia.com","port":27015,"enabled":true,"region":"us-east","cc":"us","latitude":40.73061,"longitude":-73.93524,"reserved":0,"last_update":"0001-01-01T00:00:00Z","name_a2s":"Uncletopia | New York City | 1 | All Maps","protocol":17,"map":"cp_steel","folder":"tf","game":"Team Fortress","app_id":440,"player_count":24,"max_players":24,"Bots":0,"server_type":"Dedicated","server_os":"Linux","password":true,"vac":true,"version":"7961495","steam_id":85568392924469993,"keywords":["cp","nocrits","nodmgspread","uncletopia"],"game_id":440,"stv_port":27016,"stv_name":"Uncletopia | New York City | 1 | All Maps | STV","players":[{"user_id":40,"name":"Token Tomboi","steam_id":76561198103616457,"connected_time":1336000000000,"state":"active","ping":44},{"user_id":51,"name":"Eraserhead Baby","steam_id":76561198010968514,"connected_time":368000000000,"state":"active","ping":114},{"user_id":5,"name":"Fresh0c0","steam_id":76561198271933283,"connected_time":2248000000000,"state":"active","ping":78},{"user_id":21,"name":"Periculosum PhD in Funny","steam_id":76561198123370914,"connected_time":2106000000000,"state":"active","ping":90},{"user_id":41,"name":"MILF Gaming","steam_id":76561198155378170,"connected_time":1214000000000,"state":"active","ping":42},{"user_id":57,"name":"kiv","steam_id":76561198838223023,"connected_time":12000000000,"state":"active","ping":89},{"user_id":38,"name":"Ejaculation Zach","steam_id":76561198203765200,"connected_time":1534000000000,"state":"active","ping":74},{"user_id":39,"name":"Captain Dusk","steam_id":76561199093333752,"connected_time":1412000000000,"state":"active","ping":78},{"user_id":11,"name":"rosable ☆","steam_id":76561199164371592,"connected_time":2201000000000,"state":"active","ping":65},{"user_id":33,"name":"ume_ybbuhc","steam_id":76561199482149729,"connected_time":1915000000000,"state":"active","ping":57},{"user_id":27,"name":"joethefool","steam_id":76561199015436319,"connected_time":2066000000000,"state":"active","ping":90},{"user_id":52,"name":"sansa musa","steam_id":76561198163723555,"connected_time":364000000000,"state":"active","ping":46},{"user_id":53,"name":"pim","steam_id":76561198095163441,"connected_time":358000000000,"state":"active","ping":82},{"user_id":22,"name":"Mr. Meow II","steam_id":76561199476440897,"connected_time":2095000000000,"state":"active","ping":71},{"user_id":54,"name":"theghazinator","steam_id":76561198188027695,"connected_time":355000000000,"state":"active","ping":60},{"user_id":24,"name":"Shuu","steam_id":76561199199180558,"connected_time":2083000000000,"state":"active","ping":43},{"user_id":34,"name":"Penis Chopper","steam_id":76561199016999537,"connected_time":1842000000000,"state":"active","ping":86},{"user_id":26,"name":"erf","steam_id":76561198078203677,"connected_time":2076000000000,"state":"active","ping":54},{"user_id":28,"name":"Owl Pacino","steam_id":76561197979970666,"connected_time":2065000000000,"state":"active","ping":69},{"user_id":29,"name":"Hook, Line, and Sphincter","steam_id":76561198078207743,"connected_time":2064000000000,"state":"active","ping":47},{"user_id":55,"name":"AreYouMyMummy?","steam_id":76561197995101745,"connected_time":349000000000,"state":"active","ping":74},{"user_id":31,"name":"run fast fall down","steam_id":76561198167207112,"connected_time":2061000000000,"state":"active","ping":89},{"user_id":32,"name":"Danny Phanny","steam_id":76561199123135608,"connected_time":2059000000000,"state":"active","ping":79},{"user_id":47,"name":"Talulah","steam_id":76561198348354629,"connected_time":497000000000,"state":"active","ping":112}]},{"server_id":14,"name":"Uncletopia | New York City | 2 | All Maps","name_short":"nyc-2","host":"nyc-1.us.uncletopia.com","port":27025,"enabled":true,"region":"us-east","cc":"us","latitude":40.73061,"longitude":-73.93524,"reserved":0,"last_update":"0001-01-01T00:00:00Z","name_a2s":"Uncletopia | New York City | 2 | All Maps","protocol":17,"map":"pl_snowycoast","folder":"tf","game":"Team Fortress","app_id":440,"player_count":25,"max_players":24,"Bots":0,"server_type":"Dedicated","server_os":"Linux","password":true,"vac":true,"version":"7961495","steam_id":85568392924469994,"keywords":["nocrits","nodmgspread","payload","uncletopia"],"game_id":440,"stv_port":27026,"stv_name":"Uncletopia | New York City | 2 | All Maps | STV","players":[{"user_id":5,"name":"Olifont","steam_id":76561198141162919,"connected_time":1511000000000,"state":"active","ping":69},{"user_id":8,"name":"MeKaso TropStar","steam_id":76561199109895840,"connected_time":1304000000000,"state":"active","ping":50},{"user_id":13,"name":"Wild Ginger","steam_id":76561198099458157,"connected_time":1089000000000,"state":"active","ping":74},{"user_id":42,"name":"Vorpas Jabwak","steam_id":76561198112186064,"connected_time":337000000000,"state":"active","ping":96},{"user_id":9,"name":"Tank Chili","steam_id":76561198161183031,"connected_time":1216000000000,"state":"active","ping":70},{"user_id":10,"name":"Heathcliff","steam_id":76561198044288534,"connected_time":1134000000000,"state":"active","ping":87},{"user_id":45,"name":"FunnyUsernameWow","steam_id":76561198324177635,"connected_time":27000000000,"state":"active","ping":49},{"user_id":12,"name":"Blk_Mage_Ctype","steam_id":76561198041290184,"connected_time":1094000000000,"state":"active","ping":51},{"user_id":14,"name":"Bob's your Uncle","steam_id":76561197995230744,"connected_time":1068000000000,"state":"active","ping":63},{"user_id":15,"name":"Jeff Probst","steam_id":76561199215811448,"connected_time":1051000000000,"state":"active","ping":71},{"user_id":16,"name":"Crit-A-Cola enjoyer","steam_id":76561199100884248,"connected_time":1051000000000,"state":"active","ping":127},{"user_id":17,"name":"Atomic Ursa","steam_id":76561198032246421,"connected_time":1041000000000,"state":"active","ping":69},{"user_id":41,"name":"∇TEARS","steam_id":76561198740347952,"connected_time":427000000000,"state":"active","ping":56},{"user_id":19,"name":"beyond","steam_id":76561198051009126,"connected_time":973000000000,"state":"active","ping":60},{"user_id":21,"name":"aljordan117","steam_id":76561199262319909,"connected_time":933000000000,"state":"active","ping":100},{"user_id":34,"name":"mineblast99","steam_id":76561199065648954,"connected_time":791000000000,"state":"active","ping":75},{"user_id":44,"name":"MY LOVE DRIPS IN RED","steam_id":76561198072179483,"connected_time":33000000000,"state":"active","ping":82},{"user_id":24,"name":"SEWER RODENT","steam_id":76561198858984051,"connected_time":916000000000,"state":"active","ping":58},{"user_id":25,"name":"Zhenaj","steam_id":76561199209016136,"connected_time":915000000000,"state":"active","ping":61},{"user_id":37,"name":"Ruby Gillman","steam_id":76561198366299848,"connected_time":567000000000,"state":"active","ping":67},{"user_id":46,"name":"DeepDive","steam_id":76561198140542184,"connected_time":3000000000,"state":"spawning","ping":43},{"user_id":47,"name":"Devoid","steam_id":76561198254039012,"connected_time":2000000000,"state":"spawning","ping":36},{"user_id":32,"name":"trobin120","steam_id":76561199122420273,"connected_time":843000000000,"state":"active","ping":42},{"user_id":33,"name":"breathingtrees","steam_id":76561198118931690,"connected_time":842000000000,"state":"active","ping":56},{"user_id":40,"name":"haraldＨＡＲＡＬＤ","steam_id":76561198116998970,"connected_time":442000000000,"state":"active","ping":167}]},{"server_id":15,"name":"Uncletopia | New York City | 3 | Stopwatch Beta","name_short":"nyc-3","host":"nyc-1.us.uncletopia.com","port":27035,"enabled":true,"region":"us-east","cc":"us","latitude":40.73061,"longitude":-73.93524,"reserved":0,"last_update":"0001-01-01T00:00:00Z","name_a2s":"Uncletopia | New York City | 3 | Stopwatch Beta","protocol":17,"map":"koth_lakeside_final","folder":"tf","game":"Team Fortress","app_id":440,"player_count":0,"max_players":24,"Bots":0,"server_type":"Dedicated","server_os":"Linux","password":true,"vac":true,"version":"7961495","steam_id":85568392924742820,"keywords":["cp","nocrits","nodmgspread","uncletopia"],"game_id":440,"stv_port":27036,"stv_name":"Uncletopia | New York City | 3 | Stopwatch Beta | STV","players":null},{"server_id":16,"name":"Uncletopia | New York City | 4 | Community","name_short":"nyc-4","host":"nyc-1.us.uncletopia.com","port":27045,"enabled":true,"region":"us-east","cc":"us","latitude":40.73061,"longitude":-73.93524,"reserved":0,"last_update":"0001-01-01T00:00:00Z","name_a2s":"Uncletopia | New York City | 4 | Community","protocol":17,"map":"workshop/koth_trenchfoot_b1a.ugc731436616","folder":"tf","game":"Team Fortress","app_id":440,"player_count":24,"max_players":24,"Bots":0,"server_type":"Dedicated","server_os":"Linux","password":true,"vac":true,"version":"7961495","steam_id":85568392924742821,"keywords":["cp","nocrits","nodmgspread","uncletopia"],"game_id":440,"stv_port":27046,"stv_name":"Uncletopia | New York City | 4 | Community | STV","players":[{"user_id":4,"name":"The_Epic_Conclusion","steam_id":76561198084250179,"connected_time":1889000000000,"state":"active","ping":61},{"user_id":5,"name":"Broadway Rose","steam_id":76561198046083342,"connected_time":1855000000000,"state":"active","ping":39},{"user_id":41,"name":"fish","steam_id":76561199490136439,"connected_time":431000000000,"state":"active","ping":35},{"user_id":10,"name":"C. Auris","steam_id":76561198245103000,"connected_time":1477000000000,"state":"active","ping":52},{"user_id":49,"name":"WOOFWOOFWOOFWOOF","steam_id":76561199208549381,"connected_time":118000000000,"state":"active","ping":128},{"user_id":11,"name":"「Daws_Dudeguy」","steam_id":76561198205838645,"connected_time":1438000000000,"state":"active","ping":84},{"user_id":12,"name":"alset333","steam_id":76561198405345260,"connected_time":1397000000000,"state":"active","ping":43},{"user_id":13,"name":"sheep man shaun","steam_id":76561198994349483,"connected_time":1394000000000,"state":"active","ping":113},{"user_id":45,"name":"Squifyz","steam_id":76561199405650048,"connected_time":402000000000,"state":"active","ping":132},{"user_id":43,"name":"DJ Absolute Garbage","steam_id":76561198068000747,"connected_time":414000000000,"state":"active","ping":45},{"user_id":46,"name":"Cerabond","steam_id":76561199230915333,"connected_time":400000000000,"state":"active","ping":59},{"user_id":17,"name":"Hyp3r #Savetf2","steam_id":76561198965043686,"connected_time":1252000000000,"state":"active","ping":147},{"user_id":34,"name":"Black Rose Oncore","steam_id":76561198040489960,"connected_time":976000000000,"state":"active","ping":76},{"user_id":37,"name":"Lucille_Bluth","steam_id":76561198206133916,"connected_time":804000000000,"state":"active","ping":68},{"user_id":50,"name":"SolmonFish","steam_id":76561198942169006,"connected_time":97000000000,"state":"active","ping":54},{"user_id":38,"name":"Lex","steam_id":76561198069948353,"connected_time":803000000000,"state":"active","ping":94},{"user_id":48,"name":"The Dreamer","steam_id":76561198047638312,"connected_time":376000000000,"state":"active","ping":65},{"user_id":27,"name":"Icepick","steam_id":76561198271932892,"connected_time":1103000000000,"state":"active","ping":65},{"user_id":28,"name":"Winter the Witchie","steam_id":76561198151971178,"connected_time":1098000000000,"state":"active","ping":66},{"user_id":29,"name":"Butters495","steam_id":76561197998689042,"connected_time":1093000000000,"state":"active","ping":69},{"user_id":39,"name":"jubattz","steam_id":76561198044874072,"connected_time":683000000000,"state":"active","ping":72},{"user_id":31,"name":"eevee","steam_id":76561198447072392,"connected_time":1056000000000,"state":"active","ping":171},{"user_id":40,"name":"sleeperino","steam_id":76561198061504714,"connected_time":500000000000,"state":"active","ping":58},{"user_id":33,"name":"your fwiend","steam_id":76561198154773643,"connected_time":1052000000000,"state":"active","ping":54}]},{"server_id":142,"name":"Uncletopia | São Paulo | 1 | All Maps","name_short":"sao-1","host":"sao-1.br.uncletopia.com","port":27015,"enabled":true,"region":"sa","cc":"br","latitude":-23.533773,"longitude":-46.62529,"reserved":0,"last_update":"0001-01-01T00:00:00Z","name_a2s":"Uncletopia | São Paulo | 1 | All Maps","protocol":17,"map":"pl_upward","folder":"tf","game":"Team Fortress","app_id":440,"player_count":0,"max_players":24,"Bots":0,"server_type":"Dedicated","server_os":"Linux","password":true,"vac":true,"version":"7961495","steam_id":85568392924469996,"keywords":["nocrits","nodmgspread","payload","uncletopia"],"game_id":440,"stv_port":27016,"stv_name":"Uncletopia | São Paulo | 1 | All Maps | STV","players":null},{"server_id":143,"name":"Uncletopia | São Paulo | 2 | All Maps","name_short":"sao-2","host":"sao-2.br.uncletopia.com","port":27015,"enabled":true,"region":"sa","cc":"br","latitude":-23.533773,"longitude":-46.62529,"reserved":0,"last_update":"0001-01-01T00:00:00Z","name_a2s":"Uncletopia | São Paulo | 2 | All Maps","protocol":17,"map":"koth_cascade","folder":"tf","game":"Team Fortress","app_id":440,"player_count":0,"max_players":24,"Bots":0,"server_type":"Dedicated","server_os":"Linux","password":true,"vac":true,"version":"7961495","steam_id":85568392924485349,"keywords":["cp","nocrits","nodmgspread","uncletopia"],"game_id":440,"stv_port":27016,"stv_name":"Uncletopia | São Paulo | 2 | All Maps | STV","players":null},{"server_id":7,"name":"Uncletopia | Seattle | 1 | All Maps","name_short":"sea-1","host":"sea-1.us.uncletopia.com","port":27015,"enabled":true,"region":"us-west","cc":"us","latitude":47.608013,"longitude":-122.33517,"reserved":0,"last_update":"0001-01-01T00:00:00Z","name_a2s":"Uncletopia | Seattle | 1 | All Maps","protocol":17,"map":"pl_upward","folder":"tf","game":"Team Fortress","app_id":440,"player_count":24,"max_players":24,"Bots":0,"server_type":"Dedicated","server_os":"Linux","password":true,"vac":true,"version":"7961495","steam_id":85568392924469997,"keywords":["nocrits","nodmgspread","payload","uncletopia"],"game_id":440,"stv_port":27016,"stv_name":"Uncletopia | Seattle | 1 | All Maps | STV","players":[{"user_id":3,"name":"Kc","steam_id":76561198210734407,"connected_time":2137000000000,"state":"active","ping":118},{"user_id":4,"name":"Vincent Van Bro","steam_id":76561197966919802,"connected_time":2103000000000,"state":"active","ping":50},{"user_id":50,"name":"Mocha Josie","steam_id":76561198066452726,"connected_time":652000000000,"state":"active","ping":75},{"user_id":6,"name":"zinnk","steam_id":76561198092081825,"connected_time":2061000000000,"state":"active","ping":82},{"user_id":16,"name":"腐败和权力饥渴","steam_id":76561198068672882,"connected_time":1876000000000,"state":"active","ping":98},{"user_id":53,"name":"NAWWWWWWWWWWW","steam_id":76561198878913441,"connected_time":54000000000,"state":"active","ping":65},{"user_id":13,"name":"Toaster","steam_id":76561198039891934,"connected_time":1913000000000,"state":"active","ping":68},{"user_id":11,"name":"Geobeetle","steam_id":76561198207400124,"connected_time":1928000000000,"state":"active","ping":55},{"user_id":14,"name":"Sinn","steam_id":76561199013434543,"connected_time":1901000000000,"state":"active","ping":115},{"user_id":15,"name":"caberknight tf2  (f2p-ish)","steam_id":76561199273882768,"connected_time":1892000000000,"state":"active","ping":124},{"user_id":39,"name":"Boyofender","steam_id":76561198861735284,"connected_time":1643000000000,"state":"active","ping":76},{"user_id":52,"name":"HaphazardHazel","steam_id":76561198316812693,"connected_time":257000000000,"state":"active","ping":130},{"user_id":19,"name":"BurningKev","steam_id":76561198057688837,"connected_time":1835000000000,"state":"active","ping":75},{"user_id":20,"name":"ImagineExisting","steam_id":76561198860261731,"connected_time":1833000000000,"state":"active","ping":68},{"user_id":22,"name":"2 Point Tom","steam_id":76561198087617008,"connected_time":1801000000000,"state":"active","ping":54},{"user_id":23,"name":"GඞMER","steam_id":76561198340389876,"connected_time":1790000000000,"state":"active","ping":103},{"user_id":49,"name":"magunyamu","steam_id":76561198823083676,"connected_time":972000000000,"state":"active","ping":86},{"user_id":25,"name":"Sgt Autmn","steam_id":76561198072047939,"connected_time":1766000000000,"state":"active","ping":50},{"user_id":47,"name":"Crake","steam_id":76561198001959071,"connected_time":1064000000000,"state":"active","ping":55},{"user_id":48,"name":"havarti gaming","steam_id":76561198069895678,"connected_time":1026000000000,"state":"active","ping":69},{"user_id":51,"name":"green bean","steam_id":76561198113099204,"connected_time":429000000000,"state":"active","ping":60},{"user_id":45,"name":"FI LO","steam_id":76561198976530881,"connected_time":1320000000000,"state":"active","ping":71},{"user_id":40,"name":"Integral","steam_id":76561198158225481,"connected_time":1639000000000,"state":"active","ping":88},{"user_id":37,"name":"bobbymcbobington","steam_id":76561199089411172,"connected_time":1707000000000,"state":"active","ping":166}]},{"server_id":119,"name":"Uncletopia | Seattle | 2 | All Maps","name_short":"sea-2","host":"sea-1.us.uncletopia.com","port":27025,"enabled":true,"region":"us-west","cc":"us","latitude":47.608013,"longitude":-122.33517,"reserved":0,"last_update":"0001-01-01T00:00:00Z","name_a2s":"Uncletopia | Seattle | 2 | All Maps","protocol":17,"map":"pl_barnblitz","folder":"tf","game":"Team Fortress","app_id":440,"player_count":24,"max_players":24,"Bots":0,"server_type":"Dedicated","server_os":"Linux","password":true,"vac":true,"version":"7961495","steam_id":85568392924469998,"keywords":["nocrits","nodmgspread","payload","uncletopia"],"game_id":440,"stv_port":27026,"stv_name":"Uncletopia | Seattle | 2 | All Maps | STV","players":[{"user_id":36,"name":"Rogue.Entelos","steam_id":76561198091611460,"connected_time":183000000000,"state":"active","ping":133},{"user_id":37,"name":"Toygar","steam_id":76561198023679830,"connected_time":182000000000,"state":"active","ping":97},{"user_id":7,"name":"wooper","steam_id":76561198953870572,"connected_time":923000000000,"state":"active","ping":120},{"user_id":8,"name":"Null | Crack Clan","steam_id":76561198895762836,"connected_time":904000000000,"state":"active","ping":79},{"user_id":9,"name":"Gavias","steam_id":76561198071589819,"connected_time":827000000000,"state":"active","ping":105},{"user_id":38,"name":"Glass Joe","steam_id":76561198221704772,"connected_time":179000000000,"state":"active","ping":134},{"user_id":11,"name":"purple","steam_id":76561198835313122,"connected_time":758000000000,"state":"active","ping":108},{"user_id":39,"name":"Petrivus","steam_id":76561198202152453,"connected_time":121000000000,"state":"active","ping":54},{"user_id":14,"name":"theosw","steam_id":76561198404878570,"connected_time":724000000000,"state":"active","ping":137},{"user_id":29,"name":"2Alpha6","steam_id":76561197992690915,"connected_time":434000000000,"state":"active","ping":65},{"user_id":17,"name":"JunJun Joestar","steam_id":76561199005167050,"connected_time":635000000000,"state":"active","ping":150},{"user_id":18,"name":"Jankyo","steam_id":76561198083339492,"connected_time":613000000000,"state":"active","ping":131},{"user_id":19,"name":"Jean Deere","steam_id":76561198105101309,"connected_time":591000000000,"state":"active","ping":122},{"user_id":20,"name":"Monty","steam_id":76561197993567253,"connected_time":565000000000,"state":"active","ping":54},{"user_id":21,"name":"Willem Dafoe","steam_id":76561198037453253,"connected_time":547000000000,"state":"active","ping":111},{"user_id":35,"name":"COOL master_9","steam_id":76561198073041151,"connected_time":283000000000,"state":"active","ping":109},{"user_id":23,"name":"[DATS➡] Sugar Meowth","steam_id":76561197995251793,"connected_time":524000000000,"state":"active","ping":42},{"user_id":40,"name":"no vc no c","steam_id":76561197989503095,"connected_time":107000000000,"state":"active","ping":170},{"user_id":32,"name":"Mr defrost","steam_id":76561198322125657,"connected_time":380000000000,"state":"active","ping":72},{"user_id":26,"name":"Gamba","steam_id":76561198069264650,"connected_time":462000000000,"state":"active","ping":88},{"user_id":27,"name":"Mr. Luggy","steam_id":76561198072723392,"connected_time":450000000000,"state":"active","ping":88},{"user_id":28,"name":"The local hobo","steam_id":76561198289650060,"connected_time":440000000000,"state":"active","ping":74},{"user_id":30,"name":"Scut","steam_id":76561198973734291,"connected_time":410000000000,"state":"active","ping":94},{"user_id":34,"name":"scrapheap","steam_id":76561198202407087,"connected_time":304000000000,"state":"active","ping":124}]},{"server_id":406,"name":"Uncletopia | Seattle | 3 | Stopwatch Beta","name_short":"sea-3","host":"sea-1.us.uncletopia.com","port":27035,"enabled":true,"region":"us-west","cc":"us","latitude":47.608013,"longitude":-122.33517,"reserved":0,"last_update":"0001-01-01T00:00:00Z","name_a2s":"Uncletopia | Seattle | 3 | Stopwatch Beta","protocol":17,"map":"cp_mountainlab","folder":"tf","game":"Team Fortress","app_id":440,"player_count":0,"max_players":24,"Bots":0,"server_type":"Dedicated","server_os":"Linux","password":true,"vac":true,"version":"7961495","steam_id":85568392924515217,"keywords":["cp","nocrits","nodmgspread","uncletopia"],"game_id":440,"stv_port":27036,"stv_name":"Uncletopia | Seattle | 3 | Stopwatch Beta | STV","players":null},{"server_id":17,"name":"Uncletopia | San Francisco | 1 | All Maps","name_short":"sfo-1","host":"sfo-1.us.uncletopia.com","port":27015,"enabled":true,"region":"us-west","cc":"us","latitude":37.77397,"longitude":-122.4313,"reserved":0,"last_update":"0001-01-01T00:00:00Z","name_a2s":"Uncletopia | San Francisco | 1 | All Maps","protocol":17,"map":"pl_frontier_final","folder":"tf","game":"Team Fortress","app_id":440,"player_count":0,"max_players":24,"Bots":0,"server_type":"Dedicated","server_os":"Linux","password":true,"vac":true,"version":"7932396","steam_id":85568392924469999,"keywords":["nocrits","nodmgspread","payload","uncletopia"],"game_id":440,"stv_port":27016,"stv_name":"Uncletopia | San Francisco | 1 | All Maps | STV","players":null},{"server_id":18,"name":"Uncletopia | San Francisco | 2 | All Maps","name_short":"sfo-2","host":"sfo-1.us.uncletopia.com","port":27025,"enabled":true,"region":"us-west","cc":"us","latitude":37.77397,"longitude":-122.4313,"reserved":0,"last_update":"0001-01-01T00:00:00Z","name_a2s":"Uncletopia | San Francisco | 2 | All Maps","protocol":17,"map":"cp_snakewater_final1","folder":"tf","game":"Team Fortress","app_id":440,"player_count":0,"max_players":24,"Bots":0,"server_type":"Dedicated","server_os":"Linux","password":true,"vac":true,"version":"7932396","steam_id":85568392924470000,"keywords":["cp","nocrits","nodmgspread","uncletopia"],"game_id":440,"stv_port":27026,"stv_name":"Uncletopia | San Francisco | 2 | All Maps | STV","players":null},{"server_id":19,"name":"Uncletopia | San Francisco | 3 | Stopwatch Beta","name_short":"sfo-3","host":"sfo-1.us.uncletopia.com","port":27035,"enabled":true,"region":"us-west","cc":"us","latitude":37.77397,"longitude":-122.4313,"reserved":0,"last_update":"0001-01-01T00:00:00Z","name_a2s":"Uncletopia | San Francisco | 3 | Stopwatch Beta","protocol":17,"map":"koth_lakeside_final","folder":"tf","game":"Team Fortress","app_id":440,"player_count":0,"max_players":24,"Bots":0,"server_type":"Dedicated","server_os":"Linux","password":true,"vac":true,"version":"7932396","steam_id":85568392924742824,"keywords":["cp","nocrits","nodmgspread","uncletopia"],"game_id":440,"stv_port":27036,"stv_name":"Uncletopia | San Francisco | 3 | Stopwatch Beta | STV","players":null},{"server_id":20,"name":"Uncletopia | San Francisco | 4 | Community","name_short":"sfo-4","host":"sfo-1.us.uncletopia.com","port":27045,"enabled":true,"region":"us-west","cc":"us","latitude":37.77397,"longitude":-122.4313,"reserved":0,"last_update":"0001-01-01T00:00:00Z","name_a2s":"Uncletopia | San Francisco | 4 | Community","protocol":17,"map":"pl_borneo","folder":"tf","game":"Team Fortress","app_id":440,"player_count":0,"max_players":24,"Bots":0,"server_type":"Dedicated","server_os":"Linux","password":true,"vac":true,"version":"7932396","steam_id":85568392924742826,"keywords":["nocrits","nodmgspread","payload","uncletopia"],"game_id":440,"stv_port":27046,"stv_name":"Uncletopia | San Francisco | 4 | Community | STV","players":null},{"server_id":141,"name":"Uncletopia | Sydney | 1 | All Maps","name_short":"syd-1","host":"syd-1.au.uncletopia.com","port":27015,"enabled":true,"region":"au","cc":"au","latitude":-33.865143,"longitude":151.2099,"reserved":0,"last_update":"0001-01-01T00:00:00Z","name_a2s":"Uncletopia | Sydney | 1 | All Maps","protocol":17,"map":"pl_snowycoast","folder":"tf","game":"Team Fortress","app_id":440,"player_count":0,"max_players":24,"Bots":0,"server_type":"Dedicated","server_os":"Linux","password":true,"vac":true,"version":"7961495","steam_id":85568392924470001,"keywords":["nocrits","nodmgspread","payload","uncletopia"],"game_id":440,"stv_port":27016,"stv_name":"Uncletopia | Sydney | 1 | All Maps | STV","players":null},{"server_id":123,"name":"Uncletopia | Sydney | 2 | All Maps","name_short":"syd-2","host":"syd-1.au.uncletopia.com","port":27025,"enabled":true,"region":"au","cc":"au","latitude":-33.865143,"longitude":151.2099,"reserved":0,"last_update":"0001-01-01T00:00:00Z","name_a2s":"Uncletopia | Sydney | 2 | All Maps","protocol":17,"map":"koth_viaduct","folder":"tf","game":"Team Fortress","app_id":440,"player_count":0,"max_players":24,"Bots":0,"server_type":"Dedicated","server_os":"Linux","password":true,"vac":true,"version":"7961495","steam_id":85568392924470002,"keywords":["cp","nocrits","nodmgspread","uncletopia"],"game_id":440,"stv_port":27026,"stv_name":"Uncletopia | Sydney | 2 | All Maps | STV","players":null},{"server_id":395,"name":"Uncletopia | Sydney | 3 | All Maps","name_short":"syd-3","host":"syd-1.au.uncletopia.com","port":27035,"enabled":true,"region":"au","cc":"au","latitude":-33.865143,"longitude":151.2099,"reserved":0,"last_update":"0001-01-01T00:00:00Z","name_a2s":"Uncletopia | Sydney | 3 | All Maps","protocol":17,"map":"cp_dustbowl","folder":"tf","game":"Team Fortress","app_id":440,"player_count":0,"max_players":24,"Bots":0,"server_type":"Dedicated","server_os":"Linux","password":true,"vac":true,"version":"7961495","steam_id":85568392925194467,"keywords":["cp","nocrits","nodmgspread","uncletopia"],"game_id":440,"stv_port":27036,"stv_name":"Uncletopia | Sydney | 3 | All Maps | STV","players":null},{"server_id":396,"name":"Uncletopia | Sydney | 4 | All Maps","name_short":"syd-4","host":"syd-1.au.uncletopia.com","port":27045,"enabled":true,"region":"au","cc":"au","latitude":-33.865143,"longitude":151.2099,"reserved":0,"last_update":"0001-01-01T00:00:00Z","name_a2s":"Uncletopia | Sydney | 4 | All Maps","protocol":17,"map":"koth_cascade","folder":"tf","game":"Team Fortress","app_id":440,"player_count":0,"max_players":24,"Bots":0,"server_type":"Dedicated","server_os":"Linux","password":true,"vac":true,"version":"7961495","steam_id":85568392925397958,"keywords":["cp","nocrits","nodmgspread","uncletopia"],"game_id":440,"stv_port":27046,"stv_name":"Uncletopia | Sydney | 4 | All Maps | STV","players":null},{"server_id":58,"name":"Uncletopia | Sydney | 5 | Stopwatch Beta","name_short":"syd-5","host":"syd-1.au.uncletopia.com","port":27055,"enabled":true,"region":"au","cc":"au","latitude":-33.865143,"longitude":151.2099,"reserved":0,"last_update":"0001-01-01T00:00:00Z","name_a2s":"Uncletopia | Sydney | 5 | Stopwatch Beta","protocol":17,"map":"koth_viaduct","folder":"tf","game":"Team Fortress","app_id":440,"player_count":0,"max_players":24,"Bots":0,"server_type":"Dedicated","server_os":"Linux","password":true,"vac":true,"version":"7961495","steam_id":85568392925397959,"keywords":["cp","nocrits","nodmgspread","uncletopia"],"game_id":440,"stv_port":27056,"stv_name":"Uncletopia | Sydney | 5 | Stopwatch Beta | STV","players":null},{"server_id":59,"name":"Uncletopia | Sydney | 6 | Community","name_short":"syd-6","host":"syd-1.au.uncletopia.com","port":27065,"enabled":true,"region":"au","cc":"au","latitude":-33.865143,"longitude":151.2099,"reserved":0,"last_update":"0001-01-01T00:00:00Z","name_a2s":"Uncletopia | Sydney | 6 | Community","protocol":17,"map":"pl_barnblitz","folder":"tf","game":"Team Fortress","app_id":440,"player_count":0,"max_players":24,"Bots":0,"server_type":"Dedicated","server_os":"Linux","password":true,"vac":true,"version":"7961495","steam_id":85568392925397960,"keywords":["nocrits","nodmgspread","payload","uncletopia"],"game_id":440,"stv_port":27066,"stv_name":"Uncletopia | Sydney | 6 | Community | STV","players":null},{"server_id":49,"name":"Uncletopia | Warsaw | 1 | All Maps","name_short":"waw-1","host":"waw-1.pl.uncletopia.com","port":27015,"enabled":true,"region":"eu","cc":"pl","latitude":52.2297,"longitude":21.017532,"reserved":0,"last_update":"0001-01-01T00:00:00Z","name_a2s":"","protocol":0,"map":"","folder":"","game":"","app_id":0,"player_count":0,"max_players":0,"Bots":0,"server_type":"","server_os":"","password":false,"vac":false,"version":"","steam_id":0,"keywords":null,"game_id":0,"stv_port":0,"stv_name":"","players":null},{"server_id":50,"name":"Uncletopia | Warsaw | 2 | All Maps","name_short":"waw-2","host":"waw-1.pl.uncletopia.com","port":27025,"enabled":true,"region":"eu","cc":"pl","latitude":52.2297,"longitude":21.017532,"reserved":0,"last_update":"0001-01-01T00:00:00Z","name_a2s":"Uncletopia | Warsaw | 2 | All Maps","protocol":17,"map":"cp_mountainlab","folder":"tf","game":"Team Fortress","app_id":440,"player_count":0,"max_players":24,"Bots":0,"server_type":"Dedicated","server_os":"Linux","password":true,"vac":true,"version":"7961495","steam_id":85568392925397851,"keywords":["cp","nocrits","nodmgspread","uncletopia"],"game_id":440,"stv_port":27026,"stv_name":"Uncletopia | Warsaw | 2 | All Maps | STV","players":null},{"server_id":51,"name":"Uncletopia | Warsaw | 3 | All Maps","name_short":"waw-3","host":"waw-1.pl.uncletopia.com","port":27035,"enabled":true,"region":"eu","cc":"pl","latitude":52.2297,"longitude":21.017532,"reserved":0,"last_update":"0001-01-01T00:00:00Z","name_a2s":"Uncletopia | Warsaw | 3 | All Maps","protocol":17,"map":"pl_barnblitz","folder":"tf","game":"Team Fortress","app_id":440,"player_count":0,"max_players":24,"Bots":0,"server_type":"Dedicated","server_os":"Linux","password":true,"vac":true,"version":"7961495","steam_id":85568392925397852,"keywords":["nocrits","nodmgspread","payload","uncletopia"],"game_id":440,"stv_port":27036,"stv_name":"Uncletopia | Warsaw | 3 | All Maps | STV","players":null},{"server_id":52,"name":"Uncletopia | Warsaw | 4 | All Maps","name_short":"waw-4","host":"waw-1.pl.uncletopia.com","port":27045,"enabled":true,"region":"eu","cc":"pl","latitude":52.2297,"longitude":21.017532,"reserved":0,"last_update":"0001-01-01T00:00:00Z","name_a2s":"Uncletopia | Warsaw | 4 | All Maps","protocol":17,"map":"cp_dustbowl","folder":"tf","game":"Team Fortress","app_id":440,"player_count":0,"max_players":24,"Bots":0,"server_type":"Dedicated","server_os":"Linux","password":true,"vac":true,"version":"7961495","steam_id":85568392925397853,"keywords":["cp","nocrits","nodmgspread","uncletopia"],"game_id":440,"stv_port":27046,"stv_name":"Uncletopia | Warsaw | 4 | All Maps | STV","players":null},{"server_id":53,"name":"Uncletopia | Warsaw | 5 | Stopwatch Beta","name_short":"waw-5","host":"waw-1.pl.uncletopia.com","port":27055,"enabled":true,"region":"eu","cc":"pl","latitude":52.2297,"longitude":21.017532,"reserved":0,"last_update":"0001-01-01T00:00:00Z","name_a2s":"Uncletopia | Warsaw | 5 | Stopwatch Beta","protocol":17,"map":"pl_snowycoast","folder":"tf","game":"Team Fortress","app_id":440,"player_count":0,"max_players":24,"Bots":0,"server_type":"Dedicated","server_os":"Linux","password":true,"vac":true,"version":"7961495","steam_id":85568392925397854,"keywords":["nocrits","nodmgspread","payload","uncletopia"],"game_id":440,"stv_port":27056,"stv_name":"Uncletopia | Warsaw | 5 | Stopwatch Beta | STV","players":null},{"server_id":54,"name":"Uncletopia | Warsaw | 6 | Community","name_short":"waw-6","host":"waw-1.pl.uncletopia.com","port":27065,"enabled":true,"region":"eu","cc":"pl","latitude":52.2297,"longitude":21.017532,"reserved":0,"last_update":"0001-01-01T00:00:00Z","name_a2s":"Uncletopia | Warsaw | 6 | Community","protocol":17,"map":"pl_borneo","folder":"tf","game":"Team Fortress","app_id":440,"player_count":0,"max_players":24,"Bots":0,"server_type":"Dedicated","server_os":"Linux","password":true,"vac":true,"version":"7961495","steam_id":85568392925397856,"keywords":["nocrits","nodmgspread","payload","uncletopia"],"game_id":440,"stv_port":27066,"stv_name":"Uncletopia | Warsaw | 6 | Community | STV","players":null}]}