{"status":true,"message":"","result":[{"server_id":9,"name":"Uncletopia | Atlanta | 1 | All Maps","name_short":"atl-1","host":"atl-1.us.uncletopia.com","port":27015,"enabled":true,"region":"us-east","cc":"us","latitude":33.753746,"longitude":-84.38633,"reserved":0,"last_update":"0001-01-01T00:00:00Z","name_a2s":"Uncletopia | Atlanta | 1 | All Maps","protocol":17,"map":"koth_viaduct","folder":"tf","game":"Team Fortress","app_id":440,"player_count":0,"max_players":24,"Bots":0,"server_type":"Dedicated","server_os":"Linux","password":true,"vac":true,"version":"7757534","steam_id":85568392924469982,"keywords":["cp","nocrits","nodmgspread","uncletopia"],"game_id":440,"stv_port":27016,"stv_name":"Uncletopia | Atlanta | 1 | All Maps | STV","players":null},{"server_id":400,"name":"Uncletopia | Atlanta | 3 | Community","name_short":"atl-3","host":"atl-1.us.uncletopia.com","port":27035,"enabled":true,"region":"us-east","cc":"us","latitude":33.753746,"longitude":-84.38633,"reserved":0,"last_update":"0001-01-01T00:00:00Z","name_a2s":"Uncletopia | Atlanta | 3 | Community","protocol":17,"map":"workshop/rd_asteroid_redux_b1.ugc2154902912","folder":"tf","game":"Team Fortress","app_id":440,"player_count":15,"max_players":24,"Bots":0,"server_type":"Dedicated","server_os":"Linux","password":true,"vac":true,"version":"7757534","steam_id":85568392924515187,"keywords":["beta","nocrits","nodmgspread","rd","uncletopia"],"game_id":440,"stv_port":27036,"stv_name":"Uncletopia | Atlanta | 3 | Community | STV","players":[{"user_id":351,"name":"Warzard","steam_id":76561199154051413,"connected_time":2913000000000,"state":"active","ping":166},{"user_id":308,"name":"Laelaps","steam_id":76561198100061416,"connected_time":6216000000000,"state":"active","ping":55},{"user_id":384,"name":"White Noiz","steam_id":76561198116408865,"connected_time":220000000000,"state":"active","ping":69},{"user_id":381,"name":"Yongle","steam_id":76561198068591156,"connected_time":562000000000,"state":"active","ping":61},{"user_id":354,"name":"Huey","steam_id":76561198972816386,"connected_time":2478000000000,"state":"active","ping":76},{"user_id":372,"name":"VidzCMC","steam_id":76561198848142973,"connected_time":1876000000000,"state":"active","ping":78},{"user_id":385,"name":"Ⓑ⓪⓪ⓣⓨⓒⓐⓚⓔⓢ","steam_id":76561198088776421,"connected_time":86000000000,"state":"active","ping":77},{"user_id":371,"name":"wye420","steam_id":76561198796742939,"connected_time":2058000000000,"state":"active","ping":76},{"user_id":388,"name":"happy camper","steam_id":76561198209813328,"connected_time":16000000000,"state":"active","ping":69},{"user_id":387,"name":"My Stepmom is a Futanari","steam_id":76561198441739585,"connected_time":32000000000,"state":"active","ping":132},{"user_id":271,"name":"The Engie","steam_id":76561198049418537,"connected_time":9472000000000,"state":"active","ping":76},{"user_id":373,"name":"how do i girl???","steam_id":76561198050290565,"connected_time":1537000000000,"state":"active","ping":88},{"user_id":369,"name":"uwutang clan","steam_id":76561198361326855,"connected_time":2196000000000,"state":"active","ping":59},{"user_id":379,"name":"violet","steam_id":76561198248461754,"connected_time":842000000000,"state":"active","ping":112},{"user_id":352,"name":"Greeble","steam_id":76561198000283892,"connected_time":2773000000000,"state":"active","ping":113}]},{"server_id":401,"name":"Uncletopia | Atlanta | 4 | No Payload","name_short":"atl-4","host":"atl-1.us.uncletopia.com","port":27045,"enabled":true,"region":"us-east","cc":"us","latitude":33.753746,"longitude":-84.38633,"reserved":0,"last_update":"0001-01-01T00:00:00Z","name_a2s":"","protocol":0,"map":"","folder":"","game":"","app_id":0,"player_count":0,"max_players":0,"Bots":0,"server_type":"","server_os":"","password":false,"vac":false,"version":"","steam_id":0,"keywords":null,"game_id":0,"stv_port":0,"stv_name":"","players":null},{"server_id":2,"name":"Uncletopia | Chicago | 1 | All Maps","name_short":"chi-1","host":"chi-1.us.uncletopia.com","port":27015,"enabled":true,"region":"us-central","cc":"us","latitude":41.881832,"longitude":-87.62318,"reserved":0,"last_update":"0001-01-01T00:00:00Z","name_a2s":"Uncletopia | Chicago | 1 | All Maps","protocol":17,"map":"ctf_2fort","folder":"tf","game":"Team Fortress","app_id":440,"player_count":24,"max_players":24,"Bots":0,"server_type":"Dedicated","server_os":"Linux","password":true,"vac":true,"version":"7757534","steam_id":85568392924469984,"keywords":["ctf","nocrits","nodmgspread","uncletopia"],"game_id":440,"stv_port":27016,"stv_name":"Uncletopia | Chicago | 1 | All Maps | STV","players":[{"user_id":1049,"name":"[TGP] T-Virus","steam_id":76561198001963208,"connected_time":556000000000,"state":"active","ping":95},{"user_id":1045,"name":"DruncleLogan","steam_id":76561198202447581,"connected_time":1001000000000,"state":"active","ping":45},{"user_id":1056,"name":"Spiderfight1","steam_id":76561199189991528,"connected_time":74000000000,"state":"active","ping":88},{"user_id":1004,"name":"Mahiru Koizumi","steam_id":76561198164782653,"connected_time":4735000000000,"state":"active","ping":64},{"user_id":1011,"name":"Terrazzle","steam_id":76561197999850393,"connected_time":3289000000000,"state":"active","ping":78},{"user_id":1051,"name":"Spy Who Dies After Butterknife","steam_id":76561198051175630,"connected_time":395000000000,"state":"active","ping":99},{"user_id":1005,"name":"gerg","steam_id":76561197997127387,"connected_time":4735000000000,"state":"active","ping":101},{"user_id":994,"name":"CalThePal","steam_id":76561198084842126,"connected_time":5913000000000,"state":"active","ping":133},{"user_id":1047,"name":"Platino","steam_id":76561198410957728,"connected_time":909000000000,"state":"active","ping":44},{"user_id":1027,"name":"godtierJack.jpeg","steam_id":76561198089827454,"connected_time":2812000000000,"state":"active","ping":56},{"user_id":1044,"name":"Fablor","steam_id":76561198175644926,"connected_time":1124000000000,"state":"active","ping":103},{"user_id":1033,"name":"pyrolover900","steam_id":76561198234138080,"connected_time":2429000000000,"state":"active","ping":60},{"user_id":1025,"name":"Pyyr","steam_id":76561198123491005,"connected_time":2867000000000,"state":"active","ping":45},{"user_id":1038,"name":"Majima Everywhere","steam_id":76561198102884594,"connected_time":2055000000000,"state":"active","ping":114},{"user_id":1052,"name":"♥ Femboy♥Ventily ♥","steam_id":76561198157260335,"connected_time":386000000000,"state":"active","ping":57},{"user_id":1053,"name":"PHD From Harvard Nascar Fan","steam_id":76561198121926605,"connected_time":379000000000,"state":"active","ping":84},{"user_id":1029,"name":"Elizabeth truss","steam_id":76561198058250979,"connected_time":2660000000000,"state":"active","ping":96},{"user_id":979,"name":"Monky joe","steam_id":76561197982555224,"connected_time":7043000000000,"state":"active","ping":91},{"user_id":980,"name":"Bob","steam_id":76561198388535122,"connected_time":7040000000000,"state":"active","ping":58},{"user_id":997,"name":"CrabCake","steam_id":76561198347241343,"connected_time":5883000000000,"state":"active","ping":76},{"user_id":1054,"name":"moth","steam_id":76561198272097926,"connected_time":220000000000,"state":"active","ping":69},{"user_id":1006,"name":"social distance warrior","steam_id":76561198128992994,"connected_time":4726000000000,"state":"active","ping":87},{"user_id":1041,"name":"Proxitech","steam_id":76561198046800402,"connected_time":1501000000000,"state":"active","ping":105},{"user_id":1055,"name":"ultralisk52","steam_id":76561198051666604,"connected_time":128000000000,"state":"active","ping":61}]},{"server_id":106,"name":"Uncletopia | Chicago | 2 | All Maps","name_short":"chi-2","host":"chi-1.us.uncletopia.com","port":27025,"enabled":true,"region":"us-central","cc":"us","latitude":41.881832,"longitude":-87.62318,"reserved":0,"last_update":"0001-01-01T00:00:00Z","name_a2s":"Uncletopia | Chicago | 2 | All Maps","protocol":17,"map":"cp_snakewater_final1","folder":"tf","game":"Team Fortress","app_id":440,"player_count":0,"max_players":24,"Bots":0,"server_type":"Dedicated","server_os":"Linux","password":true,"vac":true,"version":"7757534","steam_id":85568392924469985,"keywords":["cp","nocrits","nodmgspread","uncletopia"],"game_id":440,"stv_port":27026,"stv_name":"Uncletopia | Chicago | 2 | All Maps | STV","players":null},{"server_id":402,"name":"Uncletopia | Chicago | 3 | All Maps","name_short":"chi-3","host":"chi-1.us.uncletopia.com","port":27035,"enabled":true,"region":"us-central","cc":"us","latitude":41.881832,"longitude":-87.62318,"reserved":0,"last_update":"0001-01-01T00:00:00Z","name_a2s":"Uncletopia | Chicago | 3 | All Maps","protocol":17,"map":"cp_altitude","folder":"tf","game":"Team Fortress","app_id":440,"player_count":0,"max_players":24,"Bots":0,"server_type":"Dedicated","server_os":"Linux","password":true,"vac":true,"version":"7757534","steam_id":85568392924515191,"keywords":["cp","nocrits","nodmgspread","uncletopia"],"game_id":440,"stv_port":27036,"stv_name":"Uncletopia | Chicago | 3 | All Maps | STV","players":null},{"server_id":403,"name":"Uncletopia | Chicago | 4 | All Maps","name_short":"chi-4","host":"chi-1.us.uncletopia.com","port":27045,"enabled":true,"region":"us-central","cc":"us","latitude":41.881832,"longitude":-87.62318,"reserved":0,"last_update":"0001-01-01T00:00:00Z","name_a2s":"Uncletopia | Chicago | 4 | All Maps","protocol":17,"map":"koth_cascade","folder":"tf","game":"Team Fortress","app_id":440,"player_count":0,"max_players":24,"Bots":0,"server_type":"Dedicated","server_os":"Linux","password":true,"vac":true,"version":"7757534","steam_id":85568392924515193,"keywords":["cp","nocrits","nodmgspread","uncletopia"],"game_id":440,"stv_port":27046,"stv_name":"Uncletopia | Chicago | 4 | All Maps | STV","players":null},{"server_id":36,"name":"Uncletopia | Chicago | 5 | All Maps","name_short":"chi-5","host":"chi-2.us.uncletopia.com","port":27015,"enabled":true,"region":"us-central","cc":"us","latitude":41.881832,"longitude":-87.62318,"reserved":0,"last_update":"0001-01-01T00:00:00Z","name_a2s":"Uncletopia | Chicago | 5 | All Maps","protocol":17,"map":"pl_snowycoast","folder":"tf","game":"Team Fortress","app_id":440,"player_count":0,"max_players":24,"Bots":0,"server_type":"Dedicated","server_os":"Linux","password":true,"vac":true,"version":"7757534","steam_id":85568392924866362,"keywords":["nocrits","nodmgspread","payload","uncletopia"],"game_id":440,"stv_port":27016,"stv_name":"Uncletopia | Chicago | 5 | All Maps | STV","players":null},{"server_id":37,"name":"Uncletopia | Chicago | 6 | All Maps","name_short":"chi-6","host":"chi-2.us.uncletopia.com","port":27025,"enabled":true,"region":"us-central","cc":"us","latitude":41.881832,"longitude":-87.62318,"reserved":0,"last_update":"0001-01-01T00:00:00Z","name_a2s":"Uncletopia | Chicago | 6 | All Maps","protocol":17,"map":"cp_mountainlab","folder":"tf","game":"Team Fortress","app_id":440,"player_count":24,"max_players":24,"Bots":0,"server_type":"Dedicated","server_os":"Linux","password":true,"vac":true,"version":"7757534","steam_id":85568392924866363,"keywords":["cp","nocrits","nodmgspread","uncletopia"],"game_id":440,"stv_port":27026,"stv_name":"Uncletopia | Chicago | 6 | All Maps | STV","players":[{"user_id":1097,"name":"Speebert","steam_id":76561198122236594,"connected_time":528000000000,"state":"active","ping":85},{"user_id":1105,"name":"twin","steam_id":76561198055626638,"connected_time":63000000000,"state":"active","ping":90},{"user_id":1071,"name":"Shlartblorf","steam_id":76561198884378616,"connected_time":3628000000000,"state":"active","ping":89},{"user_id":1067,"name":"Windex","steam_id":76561198105561395,"connected_time":4228000000000,"state":"active","ping":75},{"user_id":1098,"name":"Phrosty","steam_id":76561198067819554,"connected_time":524000000000,"state":"active","ping":65},{"user_id":1099,"name":"Tor","steam_id":76561198148621828,"connected_time":519000000000,"state":"active","ping":76},{"user_id":1088,"name":"Frederick Fitzgerald Fazbear","steam_id":76561198128513487,"connected_time":2061000000000,"state":"active","ping":99},{"user_id":1090,"name":"mur","steam_id":76561198368715869,"connected_time":1361000000000,"state":"active","ping":90},{"user_id":1100,"name":"CoconutOil","steam_id":76561198999140616,"connected_time":512000000000,"state":"active","ping":68},{"user_id":831,"name":"gettysburg","steam_id":76561198016157051,"connected_time":20595000000000,"state":"active","ping":70},{"user_id":995,"name":"zuchima","steam_id":76561198026152104,"connected_time":8578000000000,"state":"active","ping":52},{"user_id":1101,"name":"Viol3tOni","steam_id":76561198079208738,"connected_time":497000000000,"state":"active","ping":114},{"user_id":1102,"name":"Rakk","steam_id":76561198855176174,"connected_time":307000000000,"state":"active","ping":104},{"user_id":1050,"name":"Yeet Man","steam_id":76561198000715955,"connected_time":4721000000000,"state":"active","ping":80},{"user_id":1032,"name":"L a v e n b a k a","steam_id":76561198171261101,"connected_time":5698000000000,"state":"active","ping":128},{"user_id":1094,"name":"-BRH- Tangled up in Bluegrass","steam_id":76561197987181139,"connected_time":1153000000000,"state":"active","ping":68},{"user_id":1089,"name":"lyra","steam_id":76561198200002859,"connected_time":1856000000000,"state":"active","ping":71},{"user_id":1092,"name":"Scorpie Doodle","steam_id":76561198021845763,"connected_time":1206000000000,"state":"active","ping":60},{"user_id":1095,"name":"Frugal Fella","steam_id":76561198162668339,"connected_time":1138000000000,"state":"active","ping":77},{"user_id":907,"name":"The Professor","steam_id":76561198113760863,"connected_time":15564000000000,"state":"active","ping":60},{"user_id":1103,"name":"Coffee with a Stranger","steam_id":76561198307422313,"connected_time":271000000000,"state":"active","ping":63},{"user_id":1087,"name":"Foomfa","steam_id":76561198007033616,"connected_time":2215000000000,"state":"active","ping":88},{"user_id":1104,"name":"Reisen","steam_id":76561197968832019,"connected_time":188000000000,"state":"active","ping":60},{"user_id":1106,"name":"deez ratz","steam_id":76561198864572366,"connected_time":59000000000,"state":"active","ping":106}]},{"server_id":38,"name":"Uncletopia | Chicago | 7 | Stopwatch Beta","name_short":"chi-7","host":"chi-2.us.uncletopia.com","port":27035,"enabled":true,"region":"us-central","cc":"us","latitude":41.881832,"longitude":-87.62318,"reserved":0,"last_update":"0001-01-01T00:00:00Z","name_a2s":"Uncletopia | Chicago | 7 | Stopwatch Beta","protocol":17,"map":"workshop/pl_vigil_rc9.ugc1266210012","folder":"tf","game":"Team Fortress","app_id":440,"player_count":0,"max_players":24,"Bots":0,"server_type":"Dedicated","server_os":"Linux","password":true,"vac":true,"version":"7757534","steam_id":85568392924866364,"keywords":["nocrits","nodmgspread","payload","uncletopia"],"game_id":440,"stv_port":27036,"stv_name":"Uncletopia | Chicago | 7 | Stopwatch Beta | STV","players":null},{"server_id":39,"name":"Uncletopia | Chicago | 8 | Community","name_short":"chi-8","host":"chi-2.us.uncletopia.com","port":27045,"enabled":true,"region":"us-central","cc":"us","latitude":41.881832,"longitude":-87.62318,"reserved":0,"last_update":"0001-01-01T00:00:00Z","name_a2s":"Uncletopia | Chicago | 8 | Community","protocol":17,"map":"workshop/cp_mannbase_rc2a.ugc1900737467","folder":"tf","game":"Team Fortress","app_id":440,"player_count":0,"max_players":24,"Bots":0,"server_type":"Dedicated","server_os":"Linux","password":true,"vac":true,"version":"7757534","steam_id":85568392924866365,"keywords":["cp","nocrits","nodmgspread","uncletopia"],"game_id":440,"stv_port":27046,"stv_name":"Uncletopia | Chicago | 8 | Community | STV","players":null},{"server_id":8,"name":"Uncletopia | Dallas | 1 | All Maps","name_short":"dal-1","host":"dal-1.us.uncletopia.com","port":27015,"enabled":true,"region":"us-central","cc":"us","latitude":32.779167,"longitude":-96.80889,"reserved":0,"last_update":"0001-01-01T00:00:00Z","name_a2s":"Uncletopia | Dallas | 1 | All Maps","protocol":17,"map":"koth_cascade","folder":"tf","game":"Team Fortress","app_id":440,"player_count":0,"max_players":24,"Bots":0,"server_type":"Dedicated","server_os":"Linux","password":true,"vac":true,"version":"7757534","steam_id":85568392924469986,"keywords":["cp","nocrits","nodmgspread","uncletopia"],"game_id":440,"stv_port":27016,"stv_name":"Uncletopia | Dallas | 1 | All Maps | STV","players":null},{"server_id":108,"name":"Uncletopia | Dallas | 2 | All Maps","name_short":"dal-2","host":"dal-1.us.uncletopia.com","port":27025,"enabled":true,"region":"us-central","cc":"us","latitude":32.779167,"longitude":-96.80889,"reserved":0,"last_update":"0001-01-01T00:00:00Z","name_a2s":"Uncletopia | Dallas | 2 | All Maps","protocol":17,"map":"koth_cascade","folder":"tf","game":"Team Fortress","app_id":440,"player_count":0,"max_players":24,"Bots":0,"server_type":"Dedicated","server_os":"Linux","password":true,"vac":true,"version":"7757534","steam_id":85568392924469988,"keywords":["cp","nocrits","nodmgspread","uncletopia"],"game_id":440,"stv_port":27026,"stv_name":"Uncletopia | Dallas | 2 | All Maps | STV","players":null},{"server_id":5,"name":"Uncletopia | Frankfurt | 1 | All Maps","name_short":"frk-1","host":"frk-1.de.uncletopia.com","port":27015,"enabled":true,"region":"eu","cc":"de","latitude":50.110924,"longitude":8.682127,"reserved":0,"last_update":"0001-01-01T00:00:00Z","name_a2s":"Uncletopia | Frankfurt | 1 | All Maps","protocol":17,"map":"pl_snowycoast","folder":"tf","game":"Team Fortress","app_id":440,"player_count":0,"max_players":24,"Bots":0,"server_type":"Dedicated","server_os":"Linux","password":true,"vac":true,"version":"7757534","steam_id":85568392924469989,"keywords":["nocrits","nodmgspread","payload","uncletopia"],"game_id":440,"stv_port":27016,"stv_name":"Uncletopia | Frankfurt | 1 | All Maps | STV","players":null},{"server_id":110,"name":"Uncletopia | Frankfurt | 2 | All Maps","name_short":"frk-2","host":"frk-1.de.uncletopia.com","port":27025,"enabled":true,"region":"eu","cc":"de","latitude":50.110924,"longitude":8.682127,"reserved":0,"last_update":"0001-01-01T00:00:00Z","name_a2s":"Uncletopia | Frankfurt | 2 | All Maps","protocol":17,"map":"koth_highpass","folder":"tf","game":"Team Fortress","app_id":440,"player_count":0,"max_players":24,"Bots":0,"server_type":"Dedicated","server_os":"Linux","password":true,"vac":true,"version":"7757534","steam_id":85568392924469990,"keywords":["cp","nocrits","nodmgspread","uncletopia"],"game_id":440,"stv_port":27026,"stv_name":"Uncletopia | Frankfurt | 2 | All Maps | STV","players":null},{"server_id":308,"name":"Uncletopia | Frankfurt | 3 | All Maps","name_short":"frk-3","host":"frk-1.de.uncletopia.com","port":27035,"enabled":true,"region":"eu","cc":"de","latitude":50.110924,"longitude":8.682127,"reserved":0,"last_update":"0001-01-01T00:00:00Z","name_a2s":"Uncletopia | Frankfurt | 3 | All Maps","protocol":17,"map":"pl_borneo","folder":"tf","game":"Team Fortress","app_id":440,"player_count":24,"max_players":24,"Bots":0,"server_type":"Dedicated","server_os":"Linux","password":true,"vac":true,"version":"7757534","steam_id":85568392924504274,"keywords":["nocrits","nodmgspread","payload","uncletopia"],"game_id":440,"stv_port":27036,"stv_name":"Uncletopia | Frankfurt | 3 | All Maps | STV","players":[{"user_id":3,"name":"ballfondl#05","steam_id":76561199165355017,"connected_time":3450000000000,"state":"active","ping":104},{"user_id":4,"name":"Delab","steam_id":76561198846356572,"connected_time":3385000000000,"state":"active","ping":88},{"user_id":39,"name":"male","steam_id":76561198267719616,"connected_time":1701000000000,"state":"active","ping":72},{"user_id":47,"name":"Oxer","steam_id":76561198055942412,"connected_time":697000000000,"state":"active","ping":89},{"user_id":45,"name":"Sneaky boi","steam_id":76561199195985387,"connected_time":921000000000,"state":"active","ping":87},{"user_id":40,"name":"Leszy","steam_id":76561198372172135,"connected_time":1662000000000,"state":"active","ping":66},{"user_id":42,"name":"Aneťák","steam_id":76561198159294906,"connected_time":1472000000000,"state":"active","ping":55},{"user_id":11,"name":"Joghurt","steam_id":76561198005363676,"connected_time":2895000000000,"state":"active","ping":56},{"user_id":53,"name":"ji","steam_id":76561198845550388,"connected_time":406000000000,"state":"active","ping":110},{"user_id":13,"name":"trustable","steam_id":76561198894574244,"connected_time":2866000000000,"state":"active","ping":177},{"user_id":29,"name":"yyny","steam_id":76561198066287297,"connected_time":2116000000000,"state":"active","ping":53},{"user_id":51,"name":"Flostro","steam_id":76561198259793697,"connected_time":630000000000,"state":"active","ping":56},{"user_id":46,"name":"Senator Armstrong","steam_id":76561198984346408,"connected_time":720000000000,"state":"active","ping":67},{"user_id":54,"name":"Purplenoogie","steam_id":76561198081872160,"connected_time":63000000000,"state":"active","ping":65},{"user_id":27,"name":"Heikkimr","steam_id":76561198892900358,"connected_time":2129000000000,"state":"active","ping":94},{"user_id":21,"name":"ali.","steam_id":76561198148359093,"connected_time":2333000000000,"state":"active","ping":45},{"user_id":48,"name":"jmp","steam_id":76561198168283286,"connected_time":693000000000,"state":"active","ping":69},{"user_id":50,"name":"Plubu","steam_id":76561198082511092,"connected_time":652000000000,"state":"active","ping":121},{"user_id":30,"name":"Echo of Abyss","steam_id":76561198981841782,"connected_time":2111000000000,"state":"active","ping":81},{"user_id":43,"name":"East#","steam_id":76561198126240609,"connected_time":1224000000000,"state":"active","ping":82},{"user_id":38,"name":"AYE","steam_id":76561198181368101,"connected_time":1834000000000,"state":"active","ping":49},{"user_id":33,"name":"OpacityPST","steam_id":76561198309370559,"connected_time":2074000000000,"state":"active","ping":53},{"user_id":34,"name":"Vezage","steam_id":76561198064916164,"connected_time":2061000000000,"state":"active","ping":71},{"user_id":41,"name":"fmdi","steam_id":76561199433879329,"connected_time":1541000000000,"state":"active","ping":60}]},{"server_id":309,"name":"Uncletopia | Frankfurt | 4 | All Maps","name_short":"frk-4","host":"frk-1.de.uncletopia.com","port":27045,"enabled":true,"region":"eu","cc":"de","latitude":50.110924,"longitude":8.682127,"reserved":0,"last_update":"0001-01-01T00:00:00Z","name_a2s":"Uncletopia | Frankfurt | 4 | All Maps","protocol":17,"map":"cp_sunshine","folder":"tf","game":"Team Fortress","app_id":440,"player_count":0,"max_players":24,"Bots":0,"server_type":"Dedicated","server_os":"Linux","password":true,"vac":true,"version":"7757534","steam_id":85568392924504275,"keywords":["cp","nocrits","nodmgspread","uncletopia"],"game_id":440,"stv_port":27046,"stv_name":"Uncletopia | Frankfurt | 4 | All Maps | STV","players":null},{"server_id":310,"name":"Uncletopia | Frankfurt | 5 | All Maps","name_short":"frk-5","host":"frk-1.de.uncletopia.com","port":27055,"enabled":true,"region":"eu","cc":"de","latitude":50.110924,"longitude":8.682127,"reserved":0,"last_update":"0001-01-01T00:00:00Z","name_a2s":"Uncletopia | Frankfurt | 5 | All Maps","protocol":17,"map":"cp_altitude","folder":"tf","game":"Team Fortress","app_id":440,"player_count":0,"max_players":24,"Bots":0,"server_type":"Dedicated","server_os":"Linux","password":true,"vac":true,"version":"7757534","steam_id":85568392924504277,"keywords":["cp","nocrits","nodmgspread","uncletopia"],"game_id":440,"stv_port":27056,"stv_name":"Uncletopia | Frankfurt | 5 | All Maps | STV","players":null},{"server_id":311,"name":"Uncletopia | Frankfurt | 6 | All Maps","name_short":"frk-6","host":"frk-1.de.uncletopia.com","port":27065,"enabled":true,"region":"eu","cc":"de","latitude":50.110924,"longitude":8.682127,"reserved":0,"last_update":"0001-01-01T00:00:00Z","name_a2s":"Uncletopia | Frankfurt | 6 | All Maps","protocol":17,"map":"koth_highpass","folder":"tf","game":"Team Fortress","app_id":440,"player_count":0,"max_players":24,"Bots":0,"server_type":"Dedicated","server_os":"Linux","password":true,"vac":true,"version":"7757534","steam_id":85568392924504278,"keywords":["cp","nocrits","nodmgspread","uncletopia"],"game_id":440,"stv_port":27066,"stv_name":"Uncletopia | Frankfurt | 6 | All Maps | STV","players":null},{"server_id":23,"name":"Uncletopia | Frankfurt | 7 | Stopwatch Beta","name_short":"frk-7","host":"frk-1.de.uncletopia.com","port":27075,"enabled":true,"region":"eu","cc":"de","latitude":50.110924,"longitude":8.682127,"reserved":0,"last_update":"0001-01-01T00:00:00Z","name_a2s":"Uncletopia | Frankfurt | 7 | Stopwatch Beta","protocol":17,"map":"pl_frontier_final","folder":"tf","game":"Team Fortress","app_id":440,"player_count":0,"max_players":24,"Bots":0,"server_type":"Dedicated","server_os":"Linux","password":true,"vac":true,"version":"7757534","steam_id":85568392924742827,"keywords":["nocrits","nodmgspread","payload","uncletopia"],"game_id":440,"stv_port":27076,"stv_name":"Uncletopia | Frankfurt | 7 | Stopwatch Beta | STV","players":null},{"server_id":24,"name":"Uncletopia | Frankfurt | 8 | Community","name_short":"frk-8","host":"frk-1.de.uncletopia.com","port":27085,"enabled":true,"region":"eu","cc":"de","latitude":50.110924,"longitude":8.682127,"reserved":0,"last_update":"0001-01-01T00:00:00Z","name_a2s":"Uncletopia | Frankfurt | 8 | Community","protocol":17,"map":"workshop/pl_badwater_pro_v12.ugc2142942074","folder":"tf","game":"Team Fortress","app_id":440,"player_count":0,"max_players":24,"Bots":0,"server_type":"Dedicated","server_os":"Linux","password":true,"vac":true,"version":"7757534","steam_id":85568392924742828,"keywords":["nocrits","nodmgspread","payload","uncletopia"],"game_id":440,"stv_port":27086,"stv_name":"Uncletopia | Frankfurt | 8 | Community | STV","players":null},{"server_id":202,"name":"Uncletopia | Hong Kong | 1 | All Maps","name_short":"hgk-1","host":"hgk-1.hk.uncletopia.com","port":27015,"enabled":true,"region":"asia","cc":"hk","latitude":22.302711,"longitude":114.177216,"reserved":0,"last_update":"0001-01-01T00:00:00Z","name_a2s":"Uncletopia | Hong Kong | 1 | All Maps","protocol":17,"map":"pl_swiftwater_final1","folder":"tf","game":"Team Fortress","app_id":440,"player_count":23,"max_players":24,"Bots":0,"server_type":"Dedicated","server_os":"Linux","password":true,"vac":true,"version":"7757534","steam_id":85568392924494504,"keywords":["nocrits","nodmgspread","payload","uncletopia"],"game_id":440,"stv_port":27016,"stv_name":"Uncletopia | Hong Kong | 1 | All Maps | STV","players":[{"user_id":159,"name":"Cipher(#savetf2)","steam_id":76561198796591492,"connected_time":3230000000000,"state":"active","ping":102},{"user_id":155,"name":"tiden2000","steam_id":76561198092969425,"connected_time":3487000000000,"state":"active","ping":78},{"user_id":184,"name":"yoda BOOL","steam_id":76561199099477033,"connected_time":888000000000,"state":"active","ping":85},{"user_id":185,"name":"Sexy Candle","steam_id":76561199399350149,"connected_time":824000000000,"state":"active","ping":131},{"user_id":192,"name":"Mabok","steam_id":76561198010249658,"connected_time":402000000000,"state":"active","ping":88},{"user_id":148,"name":"Hatred eyes","steam_id":76561199162652759,"connected_time":3894000000000,"state":"active","ping":57},{"user_id":175,"name":"You got a war face?","steam_id":76561198047057420,"connected_time":1731000000000,"state":"active","ping":129},{"user_id":193,"name":"Infra","steam_id":76561198924576271,"connected_time":257000000000,"state":"active","ping":134},{"user_id":195,"name":"Rufz #SaveTf2","steam_id":76561198414199601,"connected_time":159000000000,"state":"active","ping":79},{"user_id":150,"name":"TomProPlayer","steam_id":76561199223292521,"connected_time":3744000000000,"state":"active","ping":69},{"user_id":186,"name":"Arby's Employee","steam_id":76561199141112344,"connected_time":690000000000,"state":"active","ping":74},{"user_id":194,"name":"doctor morbin' (real)","steam_id":76561199365241695,"connected_time":252000000000,"state":"active","ping":69},{"user_id":187,"name":"unoriginalname42","steam_id":76561199200897735,"connected_time":680000000000,"state":"active","ping":62},{"user_id":199,"name":"niceguy6785","steam_id":76561199442589750,"connected_time":93000000000,"state":"active","ping":71},{"user_id":158,"name":"Shinobimono","steam_id":76561198343322788,"connected_time":3331000000000,"state":"active","ping":128},{"user_id":182,"name":"stunnurn_m","steam_id":76561199092505140,"connected_time":998000000000,"state":"active","ping":59},{"user_id":191,"name":"SEX2.0","steam_id":76561198110168709,"connected_time":530000000000,"state":"active","ping":86},{"user_id":174,"name":"쿠키","steam_id":76561197997220367,"connected_time":1760000000000,"state":"active","ping":48},{"user_id":165,"name":"母の肉団子","steam_id":76561198069561896,"connected_time":2591000000000,"state":"active","ping":36},{"user_id":189,"name":"hop out at the after party","steam_id":76561198360026912,"connected_time":567000000000,"state":"active","ping":86},{"user_id":190,"name":"razetime","steam_id":76561198093904557,"connected_time":548000000000,"state":"active","ping":134},{"user_id":198,"name":"Windmill","steam_id":76561199230997986,"connected_time":97000000000,"state":"active","ping":85},{"user_id":166,"name":"帕","steam_id":76561198439343999,"connected_time":2496000000000,"state":"active","ping":79}]},{"server_id":1,"name":"Uncletopia | Los Angeles | 1 | All Maps","name_short":"lax-1","host":"lax-1.us.uncletopia.com","port":27015,"enabled":true,"region":"us-west","cc":"us","latitude":33.94279,"longitude":-118.41004,"reserved":0,"last_update":"0001-01-01T00:00:00Z","name_a2s":"Uncletopia | Los Angeles | 1 | All Maps","protocol":17,"map":"koth_highpass","folder":"tf","game":"Team Fortress","app_id":440,"player_count":0,"max_players":24,"Bots":0,"server_type":"Dedicated","server_os":"Linux","password":true,"vac":true,"version":"7757534","steam_id":85568392924469991,"keywords":["cp","nocrits","nodmgspread","uncletopia"],"game_id":440,"stv_port":27016,"stv_name":"Uncletopia | Los Angeles | 1 | All Maps | STV","players":null},{"server_id":112,"name":"Uncletopia | Los Angeles | 2 | All Maps","name_short":"lax-2","host":"lax-1.us.uncletopia.com","port":27025,"enabled":true,"region":"us-west","cc":"us","latitude":33.94279,"longitude":-118.41004,"reserved":0,"last_update":"0001-01-01T00:00:00Z","name_a2s":"Uncletopia | Los Angeles | 2 | All Maps","protocol":17,"map":"pl_pier","folder":"tf","game":"Team Fortress","app_id":440,"player_count":17,"max_players":24,"Bots":0,"server_type":"Dedicated","server_os":"Linux","password":true,"vac":true,"version":"7757534","steam_id":85568392924469992,"keywords":["nocrits","nodmgspread","payload","uncletopia"],"game_id":440,"stv_port":27026,"stv_name":"Uncletopia | Los Angeles | 2 | All Maps | STV","players":[{"user_id":359,"name":"MrGondola","steam_id":76561198095651103,"connected_time":35000000000,"state":"active","ping":47},{"user_id":343,"name":"ComputerFritz","steam_id":76561198368730970,"connected_time":1596000000000,"state":"active","ping":70},{"user_id":351,"name":"aaron","steam_id":76561198308883028,"connected_time":552000000000,"state":"active","ping":48},{"user_id":341,"name":"Poor Mimic","steam_id":76561198200706173,"connected_time":1643000000000,"state":"active","ping":85},{"user_id":352,"name":"☣ Lt Lushen ☣","steam_id":76561198124083273,"connected_time":323000000000,"state":"active","ping":75},{"user_id":353,"name":"Luckypants","steam_id":76561199119033249,"connected_time":213000000000,"state":"active","ping":77},{"user_id":354,"name":"femtendo (she/her)","steam_id":76561198081181783,"connected_time":157000000000,"state":"active","ping":61},{"user_id":355,"name":"Asylica","steam_id":76561198400990155,"connected_time":141000000000,"state":"active","ping":64},{"user_id":305,"name":"Sad Sapling","steam_id":76561198075612150,"connected_time":5392000000000,"state":"active","ping":45},{"user_id":356,"name":"onsceler","steam_id":76561198183663605,"connected_time":132000000000,"state":"active","ping":81},{"user_id":289,"name":"riri ᗜᴗᗜ","steam_id":76561198055462404,"connected_time":6380000000000,"state":"active","ping":33},{"user_id":322,"name":"Don't you drift away","steam_id":76561198102681457,"connected_time":3362000000000,"state":"active","ping":105},{"user_id":357,"name":"Needleworking lo1ers","steam_id":76561198098132770,"connected_time":96000000000,"state":"active","ping":56},{"user_id":348,"name":"Mak","steam_id":76561198089197922,"connected_time":1040000000000,"state":"active","ping":76},{"user_id":360,"name":"Starkiller","steam_id":76561198101643120,"connected_time":28000000000,"state":"active","ping":99},{"user_id":317,"name":"egg tooth gaming","steam_id":76561198259650356,"connected_time":3723000000000,"state":"active","ping":74},{"user_id":339,"name":"valkyrjai","steam_id":76561198112320549,"connected_time":1757000000000,"state":"active","ping":113}]},{"server_id":324,"name":"Uncletopia | Los Angeles | 3 | All Maps","name_short":"lax-3","host":"lax-1.us.uncletopia.com","port":27035,"enabled":true,"region":"us-west","cc":"us","latitude":33.94279,"longitude":-118.41004,"reserved":0,"last_update":"0001-01-01T00:00:00Z","name_a2s":"Uncletopia | Los Angeles | 3 | All Maps","protocol":17,"map":"cp_dustbowl","folder":"tf","game":"Team Fortress","app_id":440,"player_count":0,"max_players":24,"Bots":0,"server_type":"Dedicated","server_os":"Linux","password":true,"vac":true,"version":"7757534","steam_id":85568392924510198,"keywords":["cp","nocrits","nodmgspread","uncletopia"],"game_id":440,"stv_port":27036,"stv_name":"Uncletopia | Los Angeles | 3 | All Maps | STV","players":null},{"server_id":25,"name":"Uncletopia | Los Angeles | 4 | Stopwatch Beta","name_short":"lax-4","host":"lax-1.us.uncletopia.com","port":27045,"enabled":true,"region":"us-west","cc":"us","latitude":33.94279,"longitude":-118.41004,"reserved":0,"last_update":"0001-01-01T00:00:00Z","name_a2s":"Uncletopia | Los Angeles | 4 | Stopwatch Beta","protocol":17,"map":"pl_frontier_final","folder":"tf","game":"Team Fortress","app_id":440,"player_count":0,"max_players":24,"Bots":0,"server_type":"Dedicated","server_os":"Linux","password":true,"vac":true,"version":"7757534","steam_id":85568392924510199,"keywords":["nocrits","nodmgspread","payload","uncletopia"],"game_id":440,"stv_port":27046,"stv_name":"Uncletopia | Los Angeles | 4 | Stopwatch Beta | STV","players":null},{"server_id":11,"name":"Uncletopia | London | 1 | All Maps","name_short":"lon-1","host":"lon-1.uk.uncletopia.com","port":27015,"enabled":true,"region":"eu","cc":"gb","latitude":51.509865,"longitude":-0.118092,"reserved":0,"last_update":"0001-01-01T00:00:00Z","name_a2s":"Uncletopia | London | 1 | All Maps","protocol":17,"map":"koth_viaduct","folder":"tf","game":"Team Fortress","app_id":440,"player_count":1,"max_players":24,"Bots":0,"server_type":"Dedicated","server_os":"Linux","password":true,"vac":true,"version":"7757534","steam_id":85568392924367362,"keywords":["cp","nocrits","nodmgspread","uncletopia"],"game_id":440,"stv_port":27016,"stv_name":"Uncletopia | London | 1 | All Maps | STV","players":[{"user_id":8,"name":"fried","steam_id":76561198307522022,"connected_time":1739000000000,"state":"active","ping":46}]},{"server_id":114,"name":"Uncletopia | London | 2 | All Maps","name_short":"lon-2","host":"lon-1.uk.uncletopia.com","port":27025,"enabled":true,"region":"eu","cc":"gb","latitude":51.509865,"longitude":-0.118092,"reserved":0,"last_update":"0001-01-01T00:00:00Z","name_a2s":"Uncletopia | London | 2 | All Maps","protocol":17,"map":"cp_altitude","folder":"tf","game":"Team Fortress","app_id":440,"player_count":0,"max_players":24,"Bots":0,"server_type":"Dedicated","server_os":"Linux","password":true,"vac":true,"version":"7757534","steam_id":85568392924470941,"keywords":["cp","nocrits","nodmgspread","uncletopia"],"game_id":440,"stv_port":27026,"stv_name":"Uncletopia | London | 2 | All Maps | STV","players":null},{"server_id":320,"name":"Uncletopia | London | 3 | All Maps","name_short":"lon-3","host":"lon-1.uk.uncletopia.com","port":27035,"enabled":true,"region":"eu","cc":"gb","latitude":51.509865,"longitude":-0.118092,"reserved":0,"last_update":"0001-01-01T00:00:00Z","name_a2s":"Uncletopia | London | 3 | All Maps","protocol":17,"map":"pl_goldrush","folder":"tf","game":"Team Fortress","app_id":440,"player_count":24,"max_players":24,"Bots":0,"server_type":"Dedicated","server_os":"Linux","password":true,"vac":true,"version":"7757534","steam_id":85568392924510192,"keywords":["nocrits","nodmgspread","payload","uncletopia"],"game_id":440,"stv_port":27036,"stv_name":"Uncletopia | London | 3 | All Maps | STV","players":[{"user_id":124,"name":"Hooggers","steam_id":76561198120447741,"connected_time":311000000000,"state":"active","ping":94},{"user_id":110,"name":"mt","steam_id":76561197961319303,"connected_time":910000000000,"state":"active","ping":50},{"user_id":120,"name":"Ninkazai Learning stick","steam_id":76561198297107931,"connected_time":538000000000,"state":"active","ping":36},{"user_id":109,"name":"Zikkurat","steam_id":76561199057176784,"connected_time":968000000000,"state":"active","ping":126},{"user_id":122,"name":"duck_fetish","steam_id":76561199015909776,"connected_time":446000000000,"state":"active","ping":90},{"user_id":30,"name":"Shun Rosen","steam_id":76561198012823909,"connected_time":8094000000000,"state":"active","ping":136},{"user_id":112,"name":"makiverem","steam_id":76561198425866216,"connected_time":882000000000,"state":"active","ping":83},{"user_id":107,"name":"HeresyMan","steam_id":76561198169154183,"connected_time":1321000000000,"state":"active","ping":76},{"user_id":130,"name":"Yatsuzume","steam_id":76561198059762108,"connected_time":169000000000,"state":"active","ping":45},{"user_id":118,"name":"GHO5T","steam_id":76561198930223980,"connected_time":649000000000,"state":"active","ping":68},{"user_id":114,"name":"The Lobotomite","steam_id":76561198060638325,"connected_time":822000000000,"state":"active","ping":49},{"user_id":115,"name":"TheFallenFox","steam_id":76561199074190919,"connected_time":748000000000,"state":"active","ping":61},{"user_id":125,"name":"Robin ★","steam_id":76561198124355408,"connected_time":296000000000,"state":"active","ping":94},{"user_id":123,"name":"Akira Yamaoka Fan","steam_id":76561198146194820,"connected_time":389000000000,"state":"active","ping":50},{"user_id":28,"name":"Jiggie","steam_id":76561198018134884,"connected_time":8134000000000,"state":"active","ping":70},{"user_id":78,"name":"Uncle Motong","steam_id":76561198029093635,"connected_time":4678000000000,"state":"active","ping":60},{"user_id":73,"name":"Geraldo","steam_id":76561198046596619,"connected_time":4830000000000,"state":"active","ping":128},{"user_id":126,"name":"Robert E. O. Speedwagon","steam_id":76561198863845011,"connected_time":268000000000,"state":"active","ping":135},{"user_id":132,"name":"Virgil","steam_id":76561198248786778,"connected_time":0,"state":"connecting","ping":0},{"user_id":121,"name":"sir simon","steam_id":76561199079168777,"connected_time":469000000000,"state":"active","ping":47},{"user_id":106,"name":"I Did Not Kill My Wife","steam_id":76561198531978435,"connected_time":1371000000000,"state":"active","ping":56},{"user_id":127,"name":"lanzer","steam_id":76561198049983016,"connected_time":249000000000,"state":"active","ping":99},{"user_id":128,"name":"Rabbit","steam_id":76561198254566214,"connected_time":202000000000,"state":"active","ping":139},{"user_id":129,"name":"Prince Delu","steam_id":76561198063206028,"connected_time":192000000000,"state":"active","ping":59}]},{"server_id":321,"name":"Uncletopia | London | 4 | All Maps","name_short":"lon-4","host":"lon-1.uk.uncletopia.com","port":27045,"enabled":true,"region":"eu","cc":"gb","latitude":51.509865,"longitude":-0.118092,"reserved":0,"last_update":"0001-01-01T00:00:00Z","name_a2s":"Uncletopia | London | 4 | All Maps","protocol":17,"map":"koth_viaduct","folder":"tf","game":"Team Fortress","app_id":440,"player_count":0,"max_players":24,"Bots":0,"server_type":"Dedicated","server_os":"Linux","password":true,"vac":true,"version":"7757534","steam_id":85568392924510193,"keywords":["cp","nocrits","nodmgspread","uncletopia"],"game_id":440,"stv_port":27046,"stv_name":"Uncletopia | London | 4 | All Maps | STV","players":null},{"server_id":21,"name":"Uncletopia | London | 5 | All Maps","name_short":"lon-5","host":"lon-1.uk.uncletopia.com","port":27055,"enabled":true,"region":"eu","cc":"gb","latitude":51.509865,"longitude":-0.118092,"reserved":0,"last_update":"0001-01-01T00:00:00Z","name_a2s":"Uncletopia | London | 5 | All Maps","protocol":17,"map":"cp_snakewater_final1","folder":"tf","game":"Team Fortress","app_id":440,"player_count":0,"max_players":24,"Bots":0,"server_type":"Dedicated","server_os":"Linux","password":true,"vac":true,"version":"7757534","steam_id":85568392924742829,"keywords":["cp","nocrits","nodmgspread","uncletopia"],"game_id":440,"stv_port":27056,"stv_name":"Uncletopia | London | 5 | All Maps | STV","players":null},{"server_id":22,"name":"Uncletopia | London | 6 | All Maps","name_short":"lon-6","host":"lon-1.uk.uncletopia.com","port":27065,"enabled":true,"region":"eu","cc":"gb","latitude":51.509865,"longitude":-0.118092,"reserved":0,"last_update":"0001-01-01T00:00:00Z","name_a2s":"Uncletopia | London | 6 | All Maps","protocol":17,"map":"koth_cascade","folder":"tf","game":"Team Fortress","app_id":440,"player_count":0,"max_players":24,"Bots":0,"server_type":"Dedicated","server_os":"Linux","password":true,"vac":true,"version":"7757534","steam_id":85568392924742830,"keywords":["cp","nocrits","nodmgspread","uncletopia"],"game_id":440,"stv_port":27066,"stv_name":"Uncletopia | London | 6 | All Maps | STV","players":null},{"server_id":40,"name":"Uncletopia | London | 7 | No Payload","name_short":"lon-7","host":"lon-1.uk.uncletopia.com","port":27075,"enabled":true,"region":"eu","cc":"gb","latitude":51.509865,"longitude":-0.118092,"reserved":0,"last_update":"0001-01-01T00:00:00Z","name_a2s":"Uncletopia | London | 7 | No Payload","protocol":17,"map":"cp_process_final","folder":"tf","game":"Team Fortress","app_id":440,"player_count":0,"max_players":24,"Bots":0,"server_type":"Dedicated","server_os":"Linux","password":true,"vac":true,"version":"7757534","steam_id":85568392924964314,"keywords":["cp","nocrits","nodmgspread","uncletopia"],"game_id":440,"stv_port":27076,"stv_name":"Uncletopia | London | 7 | No Payload | STV","players":null},{"server_id":41,"name":"Uncletopia | London | 8 | Community","name_short":"lon-8","host":"lon-1.uk.uncletopia.com","port":27085,"enabled":true,"region":"eu","cc":"gb","latitude":51.509865,"longitude":-0.118092,"reserved":0,"last_update":"0001-01-01T00:00:00Z","name_a2s":"Uncletopia | London | 8 | Community","protocol":17,"map":"workshop/cp_overgrown_rc7b.ugc503939302","folder":"tf","game":"Team Fortress","app_id":440,"player_count":0,"max_players":24,"Bots":0,"server_type":"Dedicated","server_os":"Linux","password":true,"vac":true,"version":"7757534","steam_id":85568392924964315,"keywords":["cp","nocrits","nodmgspread","uncletopia"],"game_id":440,"stv_port":27086,"stv_name":"Uncletopia | London | 8 | Community | STV","players":null},{"server_id":300,"name":"Uncletopia | Montréal | 1 | All Maps","name_short":"mtl-1","host":"mtl-1.ca.uncletopia.com","port":27015,"enabled":true,"region":"us-east","cc":"ca","latitude":45.50889,"longitude":-73.56167,"reserved":0,"last_update":"0001-01-01T00:00:00Z","name_a2s":"Uncletopia | Montréal | 1 | All Maps","protocol":17,"map":"pl_borneo","folder":"tf","game":"Team Fortress","app_id":440,"player_count":0,"max_players":24,"Bots":0,"server_type":"Dedicated","server_os":"Linux","password":true,"vac":true,"version":"7757534","steam_id":85568392924500087,"keywords":["nocrits","nodmgspread","payload","uncletopia"],"game_id":440,"stv_port":27016,"stv_name":"Uncletopia | Montréal | 1 | All Maps | STV","players":null},{"server_id":301,"name":"Uncletopia | Montréal | 2 | All Maps","name_short":"mtl-2","host":"mtl-1.ca.uncletopia.com","port":27025,"enabled":true,"region":"us-east","cc":"ca","latitude":45.50889,"longitude":-73.56167,"reserved":0,"last_update":"0001-01-01T00:00:00Z","name_a2s":"Uncletopia | Montréal | 2 | All Maps","protocol":17,"map":"pl_frontier_final","folder":"tf","game":"Team Fortress","app_id":440,"player_count":0,"max_players":24,"Bots":0,"server_type":"Dedicated","server_os":"Linux","password":true,"vac":true,"version":"7757534","steam_id":85568392924500088,"keywords":["nocrits","nodmgspread","payload","uncletopia"],"game_id":440,"stv_port":27026,"stv_name":"Uncletopia | Montréal | 2 | All Maps | STV","players":null},{"server_id":302,"name":"Uncletopia | Montréal | 3 | All Maps","name_short":"mtl-3","host":"mtl-1.ca.uncletopia.com","port":27035,"enabled":true,"region":"us-east","cc":"ca","latitude":45.50889,"longitude":-73.56167,"reserved":0,"last_update":"0001-01-01T00:00:00Z","name_a2s":"Uncletopia | Montréal | 3 | All Maps","protocol":17,"map":"koth_highpass","folder":"tf","game":"Team Fortress","app_id":440,"player_count":0,"max_players":24,"Bots":0,"server_type":"Dedicated","server_os":"Linux","password":true,"vac":true,"version":"7757534","steam_id":85568392924500089,"keywords":["cp","nocrits","nodmgspread","uncletopia"],"game_id":440,"stv_port":27036,"stv_name":"Uncletopia | Montréal | 3 | All Maps | STV","players":null},{"server_id":303,"name":"Uncletopia | Montréal | 4 | No Payload","name_short":"mtl-4","host":"mtl-1.ca.uncletopia.com","port":27045,"enabled":true,"region":"us-east","cc":"ca","latitude":45.50889,"longitude":-73.56167,"reserved":0,"last_update":"0001-01-01T00:00:00Z","name_a2s":"Uncletopia | Montréal | 4 | No Payload","protocol":17,"map":"pl_borneo","folder":"tf","game":"Team Fortress","app_id":440,"player_count":0,"max_players":24,"Bots":0,"server_type":"Dedicated","server_os":"Linux","password":true,"vac":true,"version":"7757534","steam_id":85568392924500090,"keywords":["nocrits","nodmgspread","payload","uncletopia"],"game_id":440,"stv_port":27046,"stv_name":"Uncletopia | Montréal | 4 | No Payload | STV","players":null},{"server_id":13,"name":"Uncletopia | New York City | 1 | All Maps","name_short":"nyc-1","host":"nyc-1.us.uncletopia.com","port":27015,"enabled":true,"region":"us-east","cc":"us","latitude":40.73061,"longitude":-73.93524,"reserved":0,"last_update":"0001-01-01T00:00:00Z","name_a2s":"Uncletopia | New York City | 1 | All Maps","protocol":17,"map":"koth_highpass","folder":"tf","game":"Team Fortress","app_id":440,"player_count":0,"max_players":24,"Bots":0,"server_type":"Dedicated","server_os":"Linux","password":true,"vac":true,"version":"7757534","steam_id":85568392924469993,"keywords":["cp","nocrits","nodmgspread","uncletopia"],"game_id":440,"stv_port":27016,"stv_name":"Uncletopia | New York City | 1 | All Maps | STV","players":null},{"server_id":14,"name":"Uncletopia | New York City | 2 | All Maps","name_short":"nyc-2","host":"nyc-1.us.uncletopia.com","port":27025,"enabled":true,"region":"us-east","cc":"us","latitude":40.73061,"longitude":-73.93524,"reserved":0,"last_update":"0001-01-01T00:00:00Z","name_a2s":"Uncletopia | New York City | 2 | All Maps","protocol":17,"map":"pl_swiftwater_final1","folder":"tf","game":"Team Fortress","app_id":440,"player_count":0,"max_players":24,"Bots":0,"server_type":"Dedicated","server_os":"Linux","password":true,"vac":true,"version":"7757534","steam_id":85568392924469994,"keywords":["nocrits","nodmgspread","payload","uncletopia"],"game_id":440,"stv_port":27026,"stv_name":"Uncletopia | New York City | 2 | All Maps | STV","players":null},{"server_id":15,"name":"Uncletopia | New York City | 3 | Stopwatch Beta","name_short":"nyc-3","host":"nyc-1.us.uncletopia.com","port":27035,"enabled":true,"region":"us-east","cc":"us","latitude":40.73061,"longitude":-73.93524,"reserved":0,"last_update":"0001-01-01T00:00:00Z","name_a2s":"Uncletopia | New York City | 3 | Stopwatch Beta","protocol":17,"map":"koth_highpass","folder":"tf","game":"Team Fortress","app_id":440,"player_count":0,"max_players":24,"Bots":0,"server_type":"Dedicated","server_os":"Linux","password":true,"vac":true,"version":"7757534","steam_id":85568392924742820,"keywords":["cp","nocrits","nodmgspread","uncletopia"],"game_id":440,"stv_port":27036,"stv_name":"Uncletopia | New York City | 3 | Stopwatch Beta | STV","players":null},{"server_id":16,"name":"Uncletopia | New York City | 4 | Community","name_short":"nyc-4","host":"nyc-1.us.uncletopia.com","port":27045,"enabled":true,"region":"us-east","cc":"us","latitude":40.73061,"longitude":-73.93524,"reserved":0,"last_update":"0001-01-01T00:00:00Z","name_a2s":"Uncletopia | New York City | 4 | Community","protocol":17,"map":"workshop/cp_villa_b19.ugc2113052569","folder":"tf","game":"Team Fortress","app_id":440,"player_count":0,"max_players":24,"Bots":0,"server_type":"Dedicated","server_os":"Linux","password":true,"vac":true,"version":"7757534","steam_id":85568392924742821,"keywords":["cp","nocrits","nodmgspread","uncletopia"],"game_id":440,"stv_port":27046,"stv_name":"Uncletopia | New York City | 4 | Community | STV","players":null},{"server_id":142,"name":"Uncletopia | São Paulo | 1 | All Maps","name_short":"sao-1","host":"sao-1.br.uncletopia.com","port":27015,"enabled":true,"region":"sa","cc":"br","latitude":-23.533773,"longitude":-46.62529,"reserved":0,"last_update":"0001-01-01T00:00:00Z","name_a2s":"Uncletopia | São Paulo | 1 | All Maps","protocol":17,"map":"pl_badwater","folder":"tf","game":"Team Fortress","app_id":440,"player_count":0,"max_players":24,"Bots":0,"server_type":"Dedicated","server_os":"Linux","password":true,"vac":true,"version":"7757534","steam_id":85568392924469996,"keywords":["nocrits","nodmgspread","payload","uncletopia"],"game_id":440,"stv_port":27016,"stv_name":"Uncletopia | São Paulo | 1 | All Maps | STV","players":null},{"server_id":143,"name":"Uncletopia | São Paulo | 2 | All Maps","name_short":"sao-2","host":"sao-2.br.uncletopia.com","port":27015,"enabled":true,"region":"sa","cc":"br","latitude":-23.533773,"longitude":-46.62529,"reserved":0,"last_update":"0001-01-01T00:00:00Z","name_a2s":"Uncletopia | São Paulo | 2 | All Maps","protocol":17,"map":"pl_borneo","folder":"tf","game":"Team Fortress","app_id":440,"player_count":0,"max_players":24,"Bots":0,"server_type":"Dedicated","server_os":"Linux","password":true,"vac":true,"version":"7757534","steam_id":85568392924485349,"keywords":["nocrits","nodmgspread","payload","uncletopia"],"game_id":440,"stv_port":27016,"stv_name":"Uncletopia | São Paulo | 2 | All Maps | STV","players":null},{"server_id":7,"name":"Uncletopia | Seattle | 1 | All Maps","name_short":"sea-1","host":"sea-1.us.uncletopia.com","port":27015,"enabled":true,"region":"us-west","cc":"us","latitude":47.608013,"longitude":-122.33517,"reserved":0,"last_update":"0001-01-01T00:00:00Z","name_a2s":"Uncletopia | Seattle | 1 | All Maps","protocol":17,"map":"koth_lakeside_final","folder":"tf","game":"Team Fortress","app_id":440,"player_count":0,"max_players":24,"Bots":0,"server_type":"Dedicated","server_os":"Linux","password":true,"vac":true,"version":"7757534","steam_id":85568392924469997,"keywords":["cp","nocrits","nodmgspread","uncletopia"],"game_id":440,"stv_port":27016,"stv_name":"Uncletopia | Seattle | 1 | All Maps | STV","players":null},{"server_id":119,"name":"Uncletopia | Seattle | 2 | All Maps","name_short":"sea-2","host":"sea-1.us.uncletopia.com","port":27025,"enabled":true,"region":"us-west","cc":"us","latitude":47.608013,"longitude":-122.33517,"reserved":0,"last_update":"0001-01-01T00:00:00Z","name_a2s":"Uncletopia | Seattle | 2 | All Maps","protocol":17,"map":"pl_borneo","folder":"tf","game":"Team Fortress","app_id":440,"player_count":24,"max_players":24,"Bots":0,"server_type":"Dedicated","server_os":"Linux","password":true,"vac":true,"version":"7757534","steam_id":85568392924469998,"keywords":["nocrits","nodmgspread","payload","uncletopia"],"game_id":440,"stv_port":27026,"stv_name":"Uncletopia | Seattle | 2 | All Maps | STV","players":[{"user_id":599,"name":"shane","steam_id":76561198060491451,"connected_time":850000000000,"state":"active","ping":113},{"user_id":600,"name":"Rommel2007","steam_id":76561198041744631,"connected_time":790000000000,"state":"active","ping":82},{"user_id":564,"name":"jrmadmallard","steam_id":76561198275994616,"connected_time":3654000000000,"state":"active","ping":53},{"user_id":601,"name":"Petey","steam_id":76561198007339151,"connected_time":750000000000,"state":"active","ping":82},{"user_id":567,"name":"Anxiety","steam_id":76561198365627687,"connected_time":3610000000000,"state":"active","ping":85},{"user_id":608,"name":"Pvt-_- Furry","steam_id":76561198396291690,"connected_time":319000000000,"state":"active","ping":76},{"user_id":572,"name":"xXBootysquirterXx","steam_id":76561198958369544,"connected_time":3380000000000,"state":"active","ping":89},{"user_id":602,"name":"whirlwind","steam_id":76561198168685103,"connected_time":737000000000,"state":"active","ping":105},{"user_id":598,"name":"Zanvius","steam_id":76561198041944674,"connected_time":936000000000,"state":"active","ping":67},{"user_id":603,"name":"ʀ.ꕤ｡.","steam_id":76561198029580420,"connected_time":725000000000,"state":"active","ping":170},{"user_id":609,"name":"profile name","steam_id":76561198032625036,"connected_time":272000000000,"state":"active","ping":61},{"user_id":604,"name":"Slippery","steam_id":76561199469441947,"connected_time":696000000000,"state":"active","ping":110},{"user_id":574,"name":"Crumpets","steam_id":76561198964015430,"connected_time":3357000000000,"state":"active","ping":86},{"user_id":580,"name":"Empyrean","steam_id":76561198116398716,"connected_time":2959000000000,"state":"active","ping":88},{"user_id":479,"name":"shiftshock01","steam_id":76561199049488870,"connected_time":10073000000000,"state":"active","ping":66},{"user_id":592,"name":"Cpt. Dingle","steam_id":76561198025720199,"connected_time":1500000000000,"state":"active","ping":78},{"user_id":610,"name":"Clueless Kat","steam_id":76561199097300426,"connected_time":103000000000,"state":"active","ping":81},{"user_id":605,"name":"charm quark","steam_id":76561198098770777,"connected_time":668000000000,"state":"active","ping":48},{"user_id":589,"name":"moopmop","steam_id":76561198065224965,"connected_time":2322000000000,"state":"active","ping":67},{"user_id":597,"name":"everypony ready?","steam_id":76561198110661425,"connected_time":941000000000,"state":"active","ping":47},{"user_id":577,"name":"mu","steam_id":76561197997530228,"connected_time":3157000000000,"state":"active","ping":55},{"user_id":590,"name":"Mozz","steam_id":76561198132892873,"connected_time":2277000000000,"state":"active","ping":96},{"user_id":585,"name":"Pilgor","steam_id":76561199015974393,"connected_time":2531000000000,"state":"active","ping":48},{"user_id":606,"name":"Branz","steam_id":76561198076632143,"connected_time":632000000000,"state":"active","ping":90}]},{"server_id":406,"name":"Uncletopia | Seattle | 3 | Stopwatch Beta","name_short":"sea-3","host":"sea-1.us.uncletopia.com","port":27035,"enabled":true,"region":"us-west","cc":"us","latitude":47.608013,"longitude":-122.33517,"reserved":0,"last_update":"0001-01-01T00:00:00Z","name_a2s":"Uncletopia | Seattle | 3 | Stopwatch Beta","protocol":17,"map":"koth_highpass","folder":"tf","game":"Team Fortress","app_id":440,"player_count":0,"max_players":24,"Bots":0,"server_type":"Dedicated","server_os":"Linux","password":true,"vac":true,"version":"7757534","steam_id":85568392924515217,"keywords":["cp","nocrits","nodmgspread","uncletopia"],"game_id":440,"stv_port":27036,"stv_name":"Uncletopia | Seattle | 3 | Stopwatch Beta | STV","players":null},{"server_id":17,"name":"Uncletopia | San Francisco | 1 | All Maps","name_short":"sfo-1","host":"sfo-1.us.uncletopia.com","port":27015,"enabled":true,"region":"us-west","cc":"us","latitude":37.77397,"longitude":-122.4313,"reserved":0,"last_update":"0001-01-01T00:00:00Z","name_a2s":"Uncletopia | San Francisco | 1 | All Maps","protocol":17,"map":"pl_upward","folder":"tf","game":"Team Fortress","app_id":440,"player_count":24,"max_players":24,"Bots":0,"server_type":"Dedicated","server_os":"Linux","password":true,"vac":true,"version":"7757534","steam_id":85568392924469999,"keywords":["nocrits","nodmgspread","payload","uncletopia"],"game_id":440,"stv_port":27016,"stv_name":"Uncletopia | San Francisco | 1 | All Maps | STV","players":[{"user_id":840,"name":"Masonator","steam_id":76561198409682030,"connected_time":706000000000,"state":"active","ping":57},{"user_id":755,"name":"ihavetapeworms","steam_id":76561198357040313,"connected_time":6848000000000,"state":"active","ping":98},{"user_id":807,"name":"kebo","steam_id":76561198237159430,"connected_time":3613000000000,"state":"active","ping":68},{"user_id":810,"name":"Varrick","steam_id":76561198018461983,"connected_time":2801000000000,"state":"active","ping":90},{"user_id":819,"name":"DavisE","steam_id":76561198075504309,"connected_time":2140000000000,"state":"active","ping":92},{"user_id":832,"name":"Jebby","steam_id":76561198300150276,"connected_time":1780000000000,"state":"active","ping":89},{"user_id":814,"name":"Pacman","steam_id":76561199466007022,"connected_time":2337000000000,"state":"active","ping":83},{"user_id":847,"name":"Jon Snuh","steam_id":76561198075298635,"connected_time":156000000000,"state":"active","ping":106},{"user_id":846,"name":"phoenix!","steam_id":76561198221567392,"connected_time":600000000000,"state":"active","ping":53},{"user_id":823,"name":"Stupid Monkey =3","steam_id":76561198024580166,"connected_time":1995000000000,"state":"active","ping":65},{"user_id":843,"name":"Zlavus","steam_id":76561198217652861,"connected_time":647000000000,"state":"active","ping":83},{"user_id":764,"name":"tweet","steam_id":76561198166515735,"connected_time":6531000000000,"state":"active","ping":47},{"user_id":746,"name":"BeanieBomber","steam_id":76561198128337215,"connected_time":7454000000000,"state":"active","ping":56},{"user_id":837,"name":"Scarface #RattPack","steam_id":76561197979614166,"connected_time":845000000000,"state":"active","ping":86},{"user_id":825,"name":"Seviroth","steam_id":76561198062745299,"connected_time":1964000000000,"state":"active","ping":81},{"user_id":828,"name":"SearingGustav #tG","steam_id":76561198040560786,"connected_time":1827000000000,"state":"active","ping":85},{"user_id":838,"name":"K4le","steam_id":76561198747668363,"connected_time":839000000000,"state":"active","ping":66},{"user_id":808,"name":"toki","steam_id":76561199196943730,"connected_time":3462000000000,"state":"active","ping":71},{"user_id":835,"name":"ZahkRee","steam_id":76561197993651016,"connected_time":1011000000000,"state":"active","ping":66},{"user_id":831,"name":"VerseG","steam_id":76561198059246919,"connected_time":1785000000000,"state":"active","ping":61},{"user_id":839,"name":"gasparmx","steam_id":76561197998611994,"connected_time":750000000000,"state":"active","ping":66},{"user_id":802,"name":"me","steam_id":76561199468285784,"connected_time":4160000000000,"state":"active","ping":33},{"user_id":833,"name":"Lamy","steam_id":76561198348354629,"connected_time":1770000000000,"state":"active","ping":49},{"user_id":796,"name":"M4 Sherman","steam_id":76561198011096132,"connected_time":4539000000000,"state":"active","ping":48}]},{"server_id":18,"name":"Uncletopia | San Francisco | 2 | All Maps","name_short":"sfo-2","host":"sfo-1.us.uncletopia.com","port":27025,"enabled":true,"region":"us-west","cc":"us","latitude":37.77397,"longitude":-122.4313,"reserved":0,"last_update":"0001-01-01T00:00:00Z","name_a2s":"Uncletopia | San Francisco | 2 | All Maps","protocol":17,"map":"koth_cascade","folder":"tf","game":"Team Fortress","app_id":440,"player_count":0,"max_players":24,"Bots":0,"server_type":"Dedicated","server_os":"Linux","password":true,"vac":true,"version":"7757534","steam_id":85568392924470000,"keywords":["cp","nocrits","nodmgspread","uncletopia"],"game_id":440,"stv_port":27026,"stv_name":"Uncletopia | San Francisco | 2 | All Maps | STV","players":null},{"server_id":19,"name":"Uncletopia | San Francisco | 3 | Stopwatch Beta","name_short":"sfo-3","host":"sfo-1.us.uncletopia.com","port":27035,"enabled":true,"region":"us-west","cc":"us","latitude":37.77397,"longitude":-122.4313,"reserved":0,"last_update":"0001-01-01T00:00:00Z","name_a2s":"Uncletopia | San Francisco | 3 | Stopwatch Beta","protocol":17,"map":"pl_borneo","folder":"tf","game":"Team Fortress","app_id":440,"player_count":0,"max_players":24,"Bots":0,"server_type":"Dedicated","server_os":"Linux","password":true,"vac":true,"version":"7757534","steam_id":85568392924742824,"keywords":["nocrits","nodmgspread","payload","uncletopia"],"game_id":440,"stv_port":27036,"stv_name":"Uncletopia | San Francisco | 3 | Stopwatch Beta | STV","players":null},{"server_id":20,"name":"Uncletopia | San Francisco | 4 | Community","name_short":"sfo-4","host":"sfo-1.us.uncletopia.com","port":27045,"enabled":true,"region":"us-west","cc":"us","latitude":37.77397,"longitude":-122.4313,"reserved":0,"last_update":"0001-01-01T00:00:00Z","name_a2s":"Uncletopia | San Francisco | 4 | Community","protocol":17,"map":"workshop/koth_ashville_final.ugc2130459942","folder":"tf","game":"Team Fortress","app_id":440,"player_count":0,"max_players":24,"Bots":0,"server_type":"Dedicated","server_os":"Linux","password":true,"vac":true,"version":"7757534","steam_id":85568392924742826,"keywords":["cp","nocrits","nodmgspread","uncletopia"],"game_id":440,"stv_port":27046,"stv_name":"Uncletopia | San Francisco | 4 | Community | STV","players":null},{"server_id":141,"name":"Uncletopia | Sydney | 1 | All Maps","name_short":"syd-1","host":"syd-1.au.uncletopia.com","port":27015,"enabled":true,"region":"au","cc":"au","latitude":-33.865143,"longitude":151.2099,"reserved":0,"last_update":"0001-01-01T00:00:00Z","name_a2s":"Uncletopia | Sydney | 1 | All Maps","protocol":17,"map":"koth_viaduct","folder":"tf","game":"Team Fortress","app_id":440,"player_count":24,"max_players":24,"Bots":0,"server_type":"Dedicated","server_os":"Linux","password":true,"vac":true,"version":"7757534","steam_id":85568392924470001,"keywords":["cp","nocrits","nodmgspread","uncletopia"],"game_id":440,"stv_port":27016,"stv_name":"Uncletopia | Sydney | 1 | All Maps | STV","players":[{"user_id":182,"name":"SkoKiE","steam_id":76561198283542986,"connected_time":1363000000000,"state":"active","ping":60},{"user_id":188,"name":"Alty","steam_id":76561198041490623,"connected_time":818000000000,"state":"active","ping":68},{"user_id":192,"name":"Muffin™","steam_id":76561198819353439,"connected_time":477000000000,"state":"active","ping":53},{"user_id":163,"name":"Storms","steam_id":76561199058704739,"connected_time":2349000000000,"state":"active","ping":76},{"user_id":196,"name":"SOLDIER MAIN","steam_id":76561199262196710,"connected_time":333000000000,"state":"active","ping":37},{"user_id":168,"name":"Rizeo","steam_id":76561198147901488,"connected_time":2063000000000,"state":"active","ping":69},{"user_id":131,"name":"Radio","steam_id":76561199436707447,"connected_time":4450000000000,"state":"active","ping":45},{"user_id":148,"name":"Drago meteor bomb","steam_id":76561198031869152,"connected_time":3483000000000,"state":"active","ping":91},{"user_id":205,"name":"Pirate Arr","steam_id":76561198011944697,"connected_time":49000000000,"state":"active","ping":52},{"user_id":160,"name":"giant skeleton","steam_id":76561198951165749,"connected_time":2415000000000,"state":"active","ping":53},{"user_id":197,"name":"ToadFungus","steam_id":76561199219667039,"connected_time":328000000000,"state":"active","ping":180},{"user_id":194,"name":"Vaconcovat","steam_id":76561198024284041,"connected_time":422000000000,"state":"active","ping":65},{"user_id":189,"name":"Aden","steam_id":76561198015901102,"connected_time":764000000000,"state":"active","ping":46},{"user_id":198,"name":"Djinn","steam_id":76561198198222482,"connected_time":323000000000,"state":"active","ping":72},{"user_id":199,"name":"BBC LOVER","steam_id":76561198353560245,"connected_time":306000000000,"state":"active","ping":159},{"user_id":190,"name":"Flint Lockwood","steam_id":76561198830920173,"connected_time":701000000000,"state":"active","ping":73},{"user_id":200,"name":"abcdef","steam_id":76561198083700749,"connected_time":261000000000,"state":"active","ping":56},{"user_id":138,"name":"Asl:3x","steam_id":76561198972095766,"connected_time":4195000000000,"state":"active","ping":41},{"user_id":139,"name":"TK-King1","steam_id":76561199219050905,"connected_time":4148000000000,"state":"active","ping":60},{"user_id":204,"name":"Ok Mate","steam_id":76561198254922035,"connected_time":68000000000,"state":"active","ping":61},{"user_id":181,"name":"zingabox_maestro","steam_id":76561197985197292,"connected_time":1534000000000,"state":"active","ping":59},{"user_id":171,"name":"electro599","steam_id":76561198058148858,"connected_time":2029000000000,"state":"active","ping":58},{"user_id":206,"name":"FrontlineNinja","steam_id":76561198046731954,"connected_time":19000000000,"state":"spawning","ping":71},{"user_id":203,"name":"RBY","steam_id":76561198279663555,"connected_time":133000000000,"state":"active","ping":53}]},{"server_id":123,"name":"Uncletopia | Sydney | 2 | All Maps","name_short":"syd-2","host":"syd-1.au.uncletopia.com","port":27025,"enabled":true,"region":"au","cc":"au","latitude":-33.865143,"longitude":151.2099,"reserved":0,"last_update":"0001-01-01T00:00:00Z","name_a2s":"Uncletopia | Sydney | 2 | All Maps","protocol":17,"map":"koth_harvest_final","folder":"tf","game":"Team Fortress","app_id":440,"player_count":23,"max_players":24,"Bots":0,"server_type":"Dedicated","server_os":"Linux","password":true,"vac":true,"version":"7757534","steam_id":85568392924470002,"keywords":["cp","nocrits","nodmgspread","uncletopia"],"game_id":440,"stv_port":27026,"stv_name":"Uncletopia | Sydney | 2 | All Maps | STV","players":[{"user_id":293,"name":"Piklz","steam_id":76561198043384139,"connected_time":1705000000000,"state":"active","ping":59},{"user_id":308,"name":"Nenguu","steam_id":76561198243952386,"connected_time":879000000000,"state":"active","ping":48},{"user_id":295,"name":"panda particle","steam_id":76561199235854489,"connected_time":1380000000000,"state":"active","ping":85},{"user_id":314,"name":"Evil Dragons 11","steam_id":76561199010001803,"connected_time":228000000000,"state":"active","ping":45},{"user_id":307,"name":"Asher","steam_id":76561199092177582,"connected_time":898000000000,"state":"active","ping":69},{"user_id":234,"name":"Zeal","steam_id":76561198060829393,"connected_time":5467000000000,"state":"active","ping":65},{"user_id":242,"name":"Mac","steam_id":76561198063407128,"connected_time":4437000000000,"state":"active","ping":45},{"user_id":189,"name":"until yawn","steam_id":76561198170693338,"connected_time":8626000000000,"state":"active","ping":88},{"user_id":304,"name":"\u003e:FrozenDragon:\u003c","steam_id":76561198227960928,"connected_time":1108000000000,"state":"active","ping":105},{"user_id":269,"name":"o p t i v e","steam_id":76561198131756192,"connected_time":3043000000000,"state":"active","ping":75},{"user_id":299,"name":"digweed","steam_id":76561198009557741,"connected_time":1293000000000,"state":"active","ping":48},{"user_id":311,"name":"JokerMain","steam_id":76561198144857794,"connected_time":488000000000,"state":"active","ping":46},{"user_id":312,"name":"cLoWn bOy Gaming","steam_id":76561198075767357,"connected_time":461000000000,"state":"active","ping":63},{"user_id":310,"name":"david boeing","steam_id":76561198079351541,"connected_time":690000000000,"state":"active","ping":45},{"user_id":276,"name":"Livid","steam_id":76561198060024585,"connected_time":2388000000000,"state":"active","ping":45},{"user_id":305,"name":"igor","steam_id":76561198977520992,"connected_time":1098000000000,"state":"active","ping":70},{"user_id":272,"name":"Red Robot","steam_id":76561198192333355,"connected_time":2590000000000,"state":"active","ping":75},{"user_id":289,"name":"Cup","steam_id":76561198038485845,"connected_time":2066000000000,"state":"active","ping":64},{"user_id":273,"name":"Patroid","steam_id":76561198320888586,"connected_time":2585000000000,"state":"active","ping":56},{"user_id":283,"name":"zebulon","steam_id":76561198063481761,"connected_time":2283000000000,"state":"active","ping":45},{"user_id":266,"name":"floppinv2","steam_id":76561198213566569,"connected_time":3504000000000,"state":"active","ping":99},{"user_id":290,"name":"KnowZero","steam_id":76561198095752015,"connected_time":2065000000000,"state":"active","ping":58},{"user_id":279,"name":"Barry Bougar M.D.","steam_id":76561198301282416,"connected_time":2341000000000,"state":"active","ping":51}]},{"server_id":395,"name":"Uncletopia | Sydney | 3 | All Maps","name_short":"syd-3","host":"syd-1.au.uncletopia.com","port":27035,"enabled":true,"region":"au","cc":"au","latitude":-33.865143,"longitude":151.2099,"reserved":0,"last_update":"0001-01-01T00:00:00Z","name_a2s":"Uncletopia | Sydney | 3 | All Maps","protocol":17,"map":"koth_lakeside_final","folder":"tf","game":"Team Fortress","app_id":440,"player_count":0,"max_players":24,"Bots":0,"server_type":"Dedicated","server_os":"Linux","password":true,"vac":true,"version":"7757534","steam_id":85568392925194467,"keywords":["cp","nocrits","nodmgspread","uncletopia"],"game_id":440,"stv_port":27036,"stv_name":"Uncletopia | Sydney | 3 | All Maps | STV","players":null},{"server_id":396,"name":"Uncletopia | Sydney | 4 | All Maps","name_short":"syd-4","host":"syd-1.au.uncletopia.com","port":27045,"enabled":true,"region":"au","cc":"au","latitude":-33.865143,"longitude":151.2099,"reserved":0,"last_update":"0001-01-01T00:00:00Z","name_a2s":"Uncletopia | Sydney | 4 | All Maps","protocol":17,"map":"koth_lakeside_final","folder":"tf","game":"Team Fortress","app_id":440,"player_count":0,"max_players":24,"Bots":0,"server_type":"Dedicated","server_os":"Linux","password":true,"vac":true,"version":"7757534","steam_id":85568392925397958,"keywords":["cp","nocrits","nodmgspread","uncletopia"],"game_id":440,"stv_port":27046,"stv_name":"Uncletopia | Sydney | 4 | All Maps | STV","players":null},{"server_id":58,"name":"Uncletopia | Sydney | 5 | Stopwatch Beta","name_short":"syd-5","host":"syd-1.au.uncletopia.com","port":27055,"enabled":true,"region":"au","cc":"au","latitude":-33.865143,"longitude":151.2099,"reserved":0,"last_update":"0001-01-01T00:00:00Z","name_a2s":"Uncletopia | Sydney | 5 | Stopwatch Beta","protocol":17,"map":"koth_highpass","folder":"tf","game":"Team Fortress","app_id":440,"player_count":0,"max_players":24,"Bots":0,"server_type":"Dedicated","server_os":"Linux","password":true,"vac":true,"version":"7757534","steam_id":85568392925397959,"keywords":["cp","nocrits","nodmgspread","uncletopia"],"game_id":440,"stv_port":27056,"stv_name":"Uncletopia | Sydney | 5 | Stopwatch Beta | STV","players":null},{"server_id":59,"name":"Uncletopia | Sydney | 6 | Community","name_short":"syd-6","host":"syd-1.au.uncletopia.com","port":27065,"enabled":true,"region":"au","cc":"au","latitude":-33.865143,"longitude":151.2099,"reserved":0,"last_update":"0001-01-01T00:00:00Z","name_a2s":"Uncletopia | Sydney | 6 | Community","protocol":17,"map":"workshop/cp_villa_b19.ugc2113052569","folder":"tf","game":"Team Fortress","app_id":440,"player_count":0,"max_players":24,"Bots":0,"server_type":"Dedicated","server_os":"Linux","password":true,"vac":true,"version":"7757534","steam_id":85568392925397960,"keywords":["cp","nocrits","nodmgspread","uncletopia"],"game_id":440,"stv_port":27066,"stv_name":"Uncletopia | Sydney | 6 | Community | STV","players":null},{"server_id":49,"name":"Uncletopia | Warsaw | 1 | All Maps","name_short":"waw-1","host":"waw-1.pl.uncletopia.com","port":27015,"enabled":true,"region":"eu","cc":"pl","latitude":52.2297,"longitude":21.017532,"reserved":0,"last_update":"0001-01-01T00:00:00Z","name_a2s":"","protocol":0,"map":"","folder":"","game":"","app_id":0,"player_count":0,"max_players":0,"Bots":0,"server_type":"","server_os":"","password":false,"vac":false,"version":"","steam_id":0,"keywords":null,"game_id":0,"stv_port":0,"stv_name":"","players":null},{"server_id":50,"name":"Uncletopia | Warsaw | 2 | All Maps","name_short":"waw-2","host":"waw-1.pl.uncletopia.com","port":27025,"enabled":true,"region":"eu","cc":"pl","latitude":52.2297,"longitude":21.017532,"reserved":0,"last_update":"0001-01-01T00:00:00Z","name_a2s":"Uncletopia | Warsaw | 2 | All Maps","protocol":17,"map":"cp_process_final","folder":"tf","game":"Team Fortress","app_id":440,"player_count":0,"max_players":24,"Bots":0,"server_type":"Dedicated","server_os":"Linux","password":true,"vac":true,"version":"7757534","steam_id":85568392925397851,"keywords":["cp","nocrits","nodmgspread","uncletopia"],"game_id":440,"stv_port":27026,"stv_name":"Uncletopia | Warsaw | 2 | All Maps | STV","players":null},{"server_id":51,"name":"Uncletopia | Warsaw | 3 | All Maps","name_short":"waw-3","host":"waw-1.pl.uncletopia.com","port":27035,"enabled":true,"region":"eu","cc":"pl","latitude":52.2297,"longitude":21.017532,"reserved":0,"last_update":"0001-01-01T00:00:00Z","name_a2s":"Uncletopia | Warsaw | 3 | All Maps","protocol":17,"map":"pl_barnblitz","folder":"tf","game":"Team Fortress","app_id":440,"player_count":0,"max_players":24,"Bots":0,"server_type":"Dedicated","server_os":"Linux","password":true,"vac":true,"version":"7757534","steam_id":85568392925397852,"keywords":["nocrits","nodmgspread","payload","uncletopia"],"game_id":440,"stv_port":27036,"stv_name":"Uncletopia | Warsaw | 3 | All Maps | STV","players":null},{"server_id":52,"name":"Uncletopia | Warsaw | 4 | All Maps","name_short":"waw-4","host":"waw-1.pl.uncletopia.com","port":27045,"enabled":true,"region":"eu","cc":"pl","latitude":52.2297,"longitude":21.017532,"reserved":0,"last_update":"0001-01-01T00:00:00Z","name_a2s":"Uncletopia | Warsaw | 4 | All Maps","protocol":17,"map":"pl_snowycoast","folder":"tf","game":"Team Fortress","app_id":440,"player_count":0,"max_players":24,"Bots":0,"server_type":"Dedicated","server_os":"Linux","password":true,"vac":true,"version":"7757534","steam_id":85568392925397853,"keywords":["nocrits","nodmgspread","payload","uncletopia"],"game_id":440,"stv_port":27046,"stv_name":"Uncletopia | Warsaw | 4 | All Maps | STV","players":null},{"server_id":53,"name":"Uncletopia | Warsaw | 5 | Stopwatch Beta","name_short":"waw-5","host":"waw-1.pl.uncletopia.com","port":27055,"enabled":true,"region":"eu","cc":"pl","latitude":52.2297,"longitude":21.017532,"reserved":0,"last_update":"0001-01-01T00:00:00Z","name_a2s":"Uncletopia | Warsaw | 5 | Stopwatch Beta","protocol":17,"map":"pl_barnblitz","folder":"tf","game":"Team Fortress","app_id":440,"player_count":0,"max_players":24,"Bots":0,"server_type":"Dedicated","server_os":"Linux","password":true,"vac":true,"version":"7757534","steam_id":85568392925397854,"keywords":["nocrits","nodmgspread","payload","uncletopia"],"game_id":440,"stv_port":27056,"stv_name":"Uncletopia | Warsaw | 5 | Stopwatch Beta | STV","players":null},{"server_id":54,"name":"Uncletopia | Warsaw | 6 | Community","name_short":"waw-6","host":"waw-1.pl.uncletopia.com","port":27065,"enabled":true,"region":"eu","cc":"pl","latitude":52.2297,"longitude":21.017532,"reserved":0,"last_update":"0001-01-01T00:00:00Z","name_a2s":"Uncletopia | Warsaw | 6 | Community","protocol":17,"map":"pl_swiftwater_final1","folder":"tf","game":"Team Fortress","app_id":440,"player_count":0,"max_players":24,"Bots":0,"server_type":"Dedicated","server_os":"Linux","password":true,"vac":true,"version":"7757534","steam_id":85568392925397856,"keywords":["nocrits","nodmgspread","payload","uncletopia"],"game_id":440,"stv_port":27066,"stv_name":"Uncletopia | Warsaw | 6 | Community | STV","players":null}]}