{"status":true,"message":"","result":[{"server_id":9,"name":"Uncletopia | Atlanta | 1 | All Maps","name_short":"atl-1","host":"atl-1.us.uncletopia.com","port":27015,"enabled":true,"region":"us-east","cc":"us","latitude":33.753746,"longitude":-84.38633,"reserved":0,"last_update":"0001-01-01T00:00:00Z","name_a2s":"Uncletopia | Atlanta | 1 | All Maps","protocol":17,"map":"pl_barnblitz","folder":"tf","game":"Team Fortress","app_id":440,"player_count":24,"max_players":24,"Bots":0,"server_type":"Dedicated","server_os":"Linux","password":true,"vac":true,"version":"7961495","steam_id":85568392924469982,"keywords":["nocrits","nodmgspread","payload","uncletopia"],"game_id":440,"stv_port":27016,"stv_name":"Uncletopia | Atlanta | 1 | All Maps | STV","players":[{"user_id":757,"name":"theannoyingorang213","steam_id":76561198079416036,"connected_time":3191000000000,"state":"active","ping":61},{"user_id":783,"name":"arse77","steam_id":76561198169613105,"connected_time":2058000000000,"state":"active","ping":96},{"user_id":772,"name":"Ludcmorais","steam_id":76561198359217809,"connected_time":2404000000000,"state":"active","ping":178},{"user_id":788,"name":"BIG HOG","steam_id":76561198079923652,"connected_time":638000000000,"state":"active","ping":70},{"user_id":728,"name":"Obelisk","steam_id":76561198049416866,"connected_time":6250000000000,"state":"active","ping":55},{"user_id":707,"name":"Jag","steam_id":76561198001220471,"connected_time":7459000000000,"state":"active","ping":47},{"user_id":798,"name":"TacoMan4Life","steam_id":76561198832562728,"connected_time":62000000000,"state":"active","ping":123},{"user_id":774,"name":"You hate kissing boys,Don't you","steam_id":76561198996218460,"connected_time":2345000000000,"state":"active","ping":66},{"user_id":796,"name":"TÖZI","steam_id":76561198045268695,"connected_time":94000000000,"state":"active","ping":115},{"user_id":784,"name":"kite","steam_id":76561198346516392,"connected_time":1973000000000,"state":"active","ping":82},{"user_id":789,"name":"Chin","steam_id":76561198247426906,"connected_time":588000000000,"state":"active","ping":69},{"user_id":795,"name":"Ollie","steam_id":76561198069372661,"connected_time":271000000000,"state":"active","ping":78},{"user_id":769,"name":"Onyx","steam_id":76561198275349640,"connected_time":2496000000000,"state":"active","ping":76},{"user_id":743,"name":"Yongle","steam_id":76561198068591156,"connected_time":4682000000000,"state":"active","ping":73},{"user_id":756,"name":"Oddball","steam_id":76561198040440984,"connected_time":3370000000000,"state":"active","ping":89},{"user_id":797,"name":"małię","steam_id":76561198337705174,"connected_time":84000000000,"state":"active","ping":85},{"user_id":758,"name":"DuckMann","steam_id":76561198197058638,"connected_time":3168000000000,"state":"active","ping":43},{"user_id":768,"name":"pornland","steam_id":76561198249206656,"connected_time":2529000000000,"state":"active","ping":90},{"user_id":777,"name":"Kantamoe","steam_id":76561198046661611,"connected_time":2298000000000,"state":"active","ping":63},{"user_id":778,"name":"Liver stealer","steam_id":76561199029954287,"connected_time":2295000000000,"state":"active","ping":132},{"user_id":786,"name":"raccocooon","steam_id":76561199138602425,"connected_time":1777000000000,"state":"active","ping":78},{"user_id":717,"name":"lil hog","steam_id":76561199230929836,"connected_time":6465000000000,"state":"active","ping":81},{"user_id":799,"name":"balisohng","steam_id":76561198151654107,"connected_time":41000000000,"state":"active","ping":77},{"user_id":781,"name":"Temina","steam_id":76561198978778718,"connected_time":2107000000000,"state":"active","ping":121}]},{"server_id":104,"name":"Uncletopia | Atlanta | 2 | All Maps","name_short":"atl-2","host":"atl-1.us.uncletopia.com","port":27025,"enabled":true,"region":"us-east","cc":"us","latitude":33.753746,"longitude":-84.38633,"reserved":0,"last_update":"0001-01-01T00:00:00Z","name_a2s":"Uncletopia | Atlanta | 2 | All Maps","protocol":17,"map":"cp_dustbowl","folder":"tf","game":"Team Fortress","app_id":440,"player_count":23,"max_players":24,"Bots":0,"server_type":"Dedicated","server_os":"Linux","password":true,"vac":true,"version":"7961495","steam_id":85568392924469983,"keywords":["cp","nocrits","nodmgspread","uncletopia"],"game_id":440,"stv_port":27026,"stv_name":"Uncletopia | Atlanta | 2 | All Maps | STV","players":[{"user_id":689,"name":"HalfDead","steam_id":76561198049700226,"connected_time":735000000000,"state":"active","ping":86},{"user_id":608,"name":"George Holdin' W Bush","steam_id":76561198030066204,"connected_time":5544000000000,"state":"active","ping":57},{"user_id":673,"name":"donut dan","steam_id":76561198132222035,"connected_time":1594000000000,"state":"active","ping":84},{"user_id":671,"name":"Wooden E","steam_id":76561198020308956,"connected_time":1625000000000,"state":"active","ping":45},{"user_id":681,"name":"iceflake","steam_id":76561198302401116,"connected_time":964000000000,"state":"active","ping":70},{"user_id":686,"name":"silvanae324","steam_id":76561199150642573,"connected_time":913000000000,"state":"active","ping":121},{"user_id":607,"name":"Starfruit66","steam_id":76561198069917277,"connected_time":5565000000000,"state":"active","ping":107},{"user_id":672,"name":"marty","steam_id":76561198032782746,"connected_time":1624000000000,"state":"active","ping":94},{"user_id":668,"name":"SD","steam_id":76561198217410988,"connected_time":1748000000000,"state":"active","ping":100},{"user_id":694,"name":"Engineer2650","steam_id":76561198121410799,"connected_time":136000000000,"state":"active","ping":76},{"user_id":317,"name":"V","steam_id":76561199223266577,"connected_time":17395000000000,"state":"active","ping":102},{"user_id":667,"name":"popfulmail","steam_id":76561198865971290,"connected_time":2021000000000,"state":"active","ping":92},{"user_id":696,"name":"QuesaDiaz","steam_id":76561198355667850,"connected_time":83000000000,"state":"active","ping":102},{"user_id":690,"name":"The blue engineer (real)","steam_id":76561199480448450,"connected_time":589000000000,"state":"active","ping":95},{"user_id":614,"name":"1-800-GHOST-DANCE","steam_id":76561198835430429,"connected_time":5441000000000,"state":"active","ping":104},{"user_id":695,"name":"tail slap +36 (4d12+18)","steam_id":76561198040425096,"connected_time":105000000000,"state":"active","ping":57},{"user_id":698,"name":"a quiet animal","steam_id":76561198061756216,"connected_time":61000000000,"state":"active","ping":96},{"user_id":653,"name":"PackingPeanutt :]","steam_id":76561199053229413,"connected_time":2837000000000,"state":"active","ping":84},{"user_id":678,"name":"Dragus","steam_id":76561198032967285,"connected_time":1422000000000,"state":"active","ping":73},{"user_id":692,"name":"Azazellotl","steam_id":76561198824814392,"connected_time":207000000000,"state":"active","ping":79},{"user_id":654,"name":"Filthy Hobo","steam_id":76561198174373015,"connected_time":2833000000000,"state":"active","ping":110},{"user_id":699,"name":"Salt","steam_id":76561198418001135,"connected_time":44000000000,"state":"active","ping":61},{"user_id":684,"name":"Titan Exodos","steam_id":76561198063852935,"connected_time":937000000000,"state":"active","ping":118}]},{"server_id":400,"name":"Uncletopia | Atlanta | 3 | Stopwatch","name_short":"atl-3","host":"atl-1.us.uncletopia.com","port":27035,"enabled":true,"region":"us-east","cc":"us","latitude":33.753746,"longitude":-84.38633,"reserved":0,"last_update":"0001-01-01T00:00:00Z","name_a2s":"Uncletopia | Atlanta | 3 | Stopwatch","protocol":17,"map":"workshop/cp_reckoner_rc6.ugc674719999","folder":"tf","game":"Team Fortress","app_id":440,"player_count":0,"max_players":24,"Bots":0,"server_type":"Dedicated","server_os":"Linux","password":true,"vac":true,"version":"7961495","steam_id":85568392924515187,"keywords":["cp","nocrits","nodmgspread","uncletopia"],"game_id":440,"stv_port":27036,"stv_name":"Uncletopia | Atlanta | 3 | Stopwatch | STV","players":null},{"server_id":401,"name":"Uncletopia | Atlanta | 4 | Community","name_short":"atl-4","host":"atl-1.us.uncletopia.com","port":27045,"enabled":true,"region":"us-east","cc":"us","latitude":33.753746,"longitude":-84.38633,"reserved":0,"last_update":"0001-01-01T00:00:00Z","name_a2s":"Uncletopia | Atlanta | 4 | Community","protocol":17,"map":"workshop/pl_cashworks_final1.ugc2904065412","folder":"tf","game":"Team Fortress","app_id":440,"player_count":0,"max_players":24,"Bots":0,"server_type":"Dedicated","server_os":"Linux","password":true,"vac":true,"version":"7961495","steam_id":85568392924515188,"keywords":["nocrits","nodmgspread","payload","uncletopia"],"game_id":440,"stv_port":27046,"stv_name":"Uncletopia | Atlanta | 4 | Community | STV","players":null},{"server_id":2,"name":"Uncletopia | Chicago | 1 | All Maps","name_short":"chi-1","host":"chi-1.us.uncletopia.com","port":27015,"enabled":true,"region":"us-central","cc":"us","latitude":41.881832,"longitude":-87.62318,"reserved":0,"last_update":"0001-01-01T00:00:00Z","name_a2s":"Uncletopia | Chicago | 1 | All Maps","protocol":17,"map":"pl_badwater","folder":"tf","game":"Team Fortress","app_id":440,"player_count":24,"max_players":24,"Bots":0,"server_type":"Dedicated","server_os":"Linux","password":true,"vac":true,"version":"7961495","steam_id":85568392924469984,"keywords":["nocrits","nodmgspread","payload","uncletopia"],"game_id":440,"stv_port":27016,"stv_name":"Uncletopia | Chicago | 1 | All Maps | STV","players":[{"user_id":690,"name":"baedeker","steam_id":76561199081837220,"connected_time":4629000000000,"state":"active","ping":64},{"user_id":712,"name":"RealStanzy","steam_id":76561199060261003,"connected_time":3193000000000,"state":"active","ping":87},{"user_id":678,"name":"loser","steam_id":76561198259380127,"connected_time":5043000000000,"state":"active","ping":47},{"user_id":730,"name":"Dzhoshua","steam_id":76561198071915251,"connected_time":700000000000,"state":"active","ping":66},{"user_id":701,"name":"Kick Down Door 6:00AM TUCK☃RO","steam_id":76561197976146738,"connected_time":3702000000000,"state":"active","ping":81},{"user_id":726,"name":"Robot Rocker","steam_id":76561198050718267,"connected_time":1352000000000,"state":"active","ping":58},{"user_id":733,"name":"bad spy player","steam_id":76561198873699671,"connected_time":647000000000,"state":"active","ping":102},{"user_id":637,"name":"OH BOY","steam_id":76561199052273428,"connected_time":9510000000000,"state":"active","ping":50},{"user_id":746,"name":"Jeffardo","steam_id":76561197997564762,"connected_time":25000000000,"state":"active","ping":72},{"user_id":714,"name":"Shoeshocker","steam_id":76561198174302467,"connected_time":3117000000000,"state":"active","ping":69},{"user_id":734,"name":"Jamal27","steam_id":76561198068654532,"connected_time":638000000000,"state":"active","ping":74},{"user_id":738,"name":"Firedust19","steam_id":76561198153238631,"connected_time":549000000000,"state":"active","ping":112},{"user_id":717,"name":"Da Walrus","steam_id":76561198045190191,"connected_time":2393000000000,"state":"active","ping":72},{"user_id":736,"name":"Bronze Age Furvert","steam_id":76561198859118263,"connected_time":615000000000,"state":"active","ping":57},{"user_id":711,"name":"SandHanitizer","steam_id":76561198234676500,"connected_time":3388000000000,"state":"active","ping":72},{"user_id":745,"name":"Strange Child","steam_id":76561198082523009,"connected_time":80000000000,"state":"active","ping":70},{"user_id":719,"name":"OldRavensFan","steam_id":76561198043919562,"connected_time":2389000000000,"state":"active","ping":71},{"user_id":720,"name":"Brawns","steam_id":76561198045190199,"connected_time":2387000000000,"state":"active","ping":74},{"user_id":707,"name":"poopybutt420","steam_id":76561199000805315,"connected_time":3640000000000,"state":"active","ping":82},{"user_id":713,"name":"punk cock","steam_id":76561198418182764,"connected_time":3184000000000,"state":"active","ping":60},{"user_id":740,"name":"the keebler","steam_id":76561199486326945,"connected_time":514000000000,"state":"active","ping":82},{"user_id":741,"name":"WalrusNyetheBonkGuy","steam_id":76561197995626774,"connected_time":507000000000,"state":"active","ping":107},{"user_id":691,"name":"Azure","steam_id":76561198260328183,"connected_time":4629000000000,"state":"active","ping":68},{"user_id":744,"name":"Your Local Queer Librarian","steam_id":76561198013077080,"connected_time":245000000000,"state":"active","ping":59}]},{"server_id":106,"name":"Uncletopia | Chicago | 2 | All Maps","name_short":"chi-2","host":"chi-1.us.uncletopia.com","port":27025,"enabled":true,"region":"us-central","cc":"us","latitude":41.881832,"longitude":-87.62318,"reserved":0,"last_update":"0001-01-01T00:00:00Z","name_a2s":"Uncletopia | Chicago | 2 | All Maps","protocol":17,"map":"cp_snakewater_final1","folder":"tf","game":"Team Fortress","app_id":440,"player_count":24,"max_players":24,"Bots":0,"server_type":"Dedicated","server_os":"Linux","password":true,"vac":true,"version":"7961495","steam_id":85568392924469985,"keywords":["cp","nocrits","nodmgspread","uncletopia"],"game_id":440,"stv_port":27026,"stv_name":"Uncletopia | Chicago | 2 | All Maps | STV","players":[{"user_id":540,"name":"Monte","steam_id":76561198097499917,"connected_time":10904000000000,"state":"active","ping":90},{"user_id":654,"name":"SimpKing","steam_id":76561198061431512,"connected_time":262000000000,"state":"active","ping":64},{"user_id":639,"name":"FROYO donovin","steam_id":76561198045679387,"connected_time":1857000000000,"state":"active","ping":45},{"user_id":600,"name":"Rat Smacker","steam_id":76561198043629646,"connected_time":5399000000000,"state":"active","ping":69},{"user_id":653,"name":"1 2 buckle my shoe","steam_id":76561198040741271,"connected_time":272000000000,"state":"active","ping":46},{"user_id":646,"name":"Crab","steam_id":76561198067628664,"connected_time":1229000000000,"state":"active","ping":101},{"user_id":657,"name":"Xel'Naga","steam_id":76561198049461668,"connected_time":234000000000,"state":"active","ping":44},{"user_id":661,"name":"[GU1Z] Palamute Jho","steam_id":76561199219936729,"connected_time":26000000000,"state":"spawning","ping":79},{"user_id":638,"name":"Owls = Government Drones","steam_id":76561198439793697,"connected_time":1922000000000,"state":"active","ping":75},{"user_id":603,"name":"Dr Oshawott","steam_id":76561198042021629,"connected_time":5305000000000,"state":"active","ping":62},{"user_id":593,"name":"Moonflower ✦","steam_id":76561198191782483,"connected_time":6349000000000,"state":"active","ping":77},{"user_id":604,"name":"Tako","steam_id":76561199264073138,"connected_time":5304000000000,"state":"active","ping":85},{"user_id":640,"name":"sheeesh","steam_id":76561198038080028,"connected_time":1817000000000,"state":"active","ping":89},{"user_id":592,"name":"stuffedidiot","steam_id":76561199181513019,"connected_time":6364000000000,"state":"active","ping":124},{"user_id":655,"name":"vepis","steam_id":76561198015884720,"connected_time":261000000000,"state":"active","ping":62},{"user_id":641,"name":"Nobody121","steam_id":76561199227292137,"connected_time":1795000000000,"state":"active","ping":110},{"user_id":637,"name":"ther","steam_id":76561199191376935,"connected_time":2420000000000,"state":"active","ping":83},{"user_id":659,"name":"wincel hampton","steam_id":76561198083095146,"connected_time":212000000000,"state":"active","ping":92},{"user_id":580,"name":"Kdash","steam_id":76561198043829155,"connected_time":7526000000000,"state":"active","ping":76},{"user_id":629,"name":"Mug","steam_id":76561198000672907,"connected_time":3729000000000,"state":"active","ping":72},{"user_id":630,"name":"Shystie","steam_id":76561198025371440,"connected_time":3721000000000,"state":"active","ping":84},{"user_id":660,"name":"boffo","steam_id":76561198096978718,"connected_time":184000000000,"state":"active","ping":88},{"user_id":644,"name":"the cart is not movin lads","steam_id":76561199184578185,"connected_time":1651000000000,"state":"active","ping":160},{"user_id":645,"name":"mxgic","steam_id":76561198354656195,"connected_time":1645000000000,"state":"active","ping":120}]},{"server_id":402,"name":"Uncletopia | Chicago | 3 | All Maps","name_short":"chi-3","host":"chi-1.us.uncletopia.com","port":27035,"enabled":true,"region":"us-central","cc":"us","latitude":41.881832,"longitude":-87.62318,"reserved":0,"last_update":"0001-01-01T00:00:00Z","name_a2s":"Uncletopia | Chicago | 3 | All Maps","protocol":17,"map":"pl_pier","folder":"tf","game":"Team Fortress","app_id":440,"player_count":22,"max_players":24,"Bots":0,"server_type":"Dedicated","server_os":"Linux","password":true,"vac":true,"version":"7961495","steam_id":85568392924515191,"keywords":["nocrits","nodmgspread","payload","uncletopia"],"game_id":440,"stv_port":27036,"stv_name":"Uncletopia | Chicago | 3 | All Maps | STV","players":[{"user_id":573,"name":"J O S H³²","steam_id":76561198122603779,"connected_time":926000000000,"state":"active","ping":94},{"user_id":574,"name":"robot with human hair","steam_id":76561198018691308,"connected_time":920000000000,"state":"active","ping":78},{"user_id":575,"name":"saucy jack","steam_id":76561198307012859,"connected_time":914000000000,"state":"active","ping":63},{"user_id":576,"name":"rum nitty","steam_id":76561198174788846,"connected_time":707000000000,"state":"active","ping":60},{"user_id":577,"name":"LooseJuice","steam_id":76561198042181014,"connected_time":641000000000,"state":"active","ping":106},{"user_id":578,"name":"Keith Cozart","steam_id":76561198146090015,"connected_time":605000000000,"state":"active","ping":45},{"user_id":579,"name":"Seojer","steam_id":76561198234965408,"connected_time":585000000000,"state":"active","ping":163},{"user_id":580,"name":"37 septillion tapeworms","steam_id":76561198186128723,"connected_time":486000000000,"state":"active","ping":72},{"user_id":582,"name":"Unc4nny","steam_id":76561198131507408,"connected_time":411000000000,"state":"active","ping":59},{"user_id":588,"name":"TheArachnidGamer","steam_id":76561198304986752,"connected_time":193000000000,"state":"active","ping":65},{"user_id":584,"name":"Dosario","steam_id":76561198298095535,"connected_time":301000000000,"state":"active","ping":105},{"user_id":590,"name":"scooterre","steam_id":76561198055068182,"connected_time":119000000000,"state":"active","ping":63},{"user_id":587,"name":"Cat on the Moon","steam_id":76561198272661627,"connected_time":216000000000,"state":"active","ping":106},{"user_id":591,"name":"Ninetees","steam_id":76561198119483989,"connected_time":110000000000,"state":"active","ping":86},{"user_id":592,"name":"crankshaft","steam_id":76561197992798282,"connected_time":96000000000,"state":"active","ping":103},{"user_id":593,"name":"roast pig with apple in mouth","steam_id":76561198051353647,"connected_time":90000000000,"state":"active","ping":64},{"user_id":594,"name":"Dreszerg","steam_id":76561198838757422,"connected_time":88000000000,"state":"active","ping":83},{"user_id":595,"name":"c00kie","steam_id":76561198418178297,"connected_time":26000000000,"state":"active","ping":31},{"user_id":596,"name":"Laidan","steam_id":76561198140510239,"connected_time":23000000000,"state":"active","ping":44},{"user_id":597,"name":"sen","steam_id":76561198211308328,"connected_time":22000000000,"state":"active","ping":60},{"user_id":598,"name":"Insectoid","steam_id":76561198122677314,"connected_time":21000000000,"state":"spawning","ping":73},{"user_id":599,"name":"pim","steam_id":76561198095163441,"connected_time":15000000000,"state":"spawning","ping":71}]},{"server_id":403,"name":"Uncletopia | Chicago | 4 | All Maps","name_short":"chi-4","host":"chi-1.us.uncletopia.com","port":27045,"enabled":true,"region":"us-central","cc":"us","latitude":41.881832,"longitude":-87.62318,"reserved":0,"last_update":"0001-01-01T00:00:00Z","name_a2s":"Uncletopia | Chicago | 4 | All Maps","protocol":17,"map":"pl_frontier_final","folder":"tf","game":"Team Fortress","app_id":440,"player_count":23,"max_players":24,"Bots":0,"server_type":"Dedicated","server_os":"Linux","password":true,"vac":true,"version":"7961495","steam_id":85568392924515193,"keywords":["nocrits","nodmgspread","payload","uncletopia"],"game_id":440,"stv_port":27046,"stv_name":"Uncletopia | Chicago | 4 | All Maps | STV","players":[{"user_id":651,"name":"Lyfull (Rip Rick May)","steam_id":76561198273398361,"connected_time":7351000000000,"state":"active","ping":64},{"user_id":685,"name":"frank","steam_id":76561198137777483,"connected_time":5684000000000,"state":"active","ping":64},{"user_id":733,"name":"Missing Minus","steam_id":76561198120822928,"connected_time":690000000000,"state":"active","ping":60},{"user_id":705,"name":"C4K3","steam_id":76561197996963285,"connected_time":3648000000000,"state":"active","ping":79},{"user_id":698,"name":"NovaSc6ut","steam_id":76561198277163301,"connected_time":4923000000000,"state":"active","ping":63},{"user_id":709,"name":"Invictus","steam_id":76561198079517075,"connected_time":2968000000000,"state":"active","ping":73},{"user_id":721,"name":"HOVY GAMING (REAL)","steam_id":76561199210311096,"connected_time":1597000000000,"state":"active","ping":152},{"user_id":707,"name":"Bigburgers","steam_id":76561198165013808,"connected_time":2985000000000,"state":"active","ping":59},{"user_id":708,"name":"CabezaGrande","steam_id":76561197972555502,"connected_time":2982000000000,"state":"active","ping":62},{"user_id":710,"name":"Worst Scenario","steam_id":76561199052130229,"connected_time":2962000000000,"state":"active","ping":63},{"user_id":726,"name":"junecot","steam_id":76561198039758987,"connected_time":1369000000000,"state":"active","ping":289},{"user_id":720,"name":"Jupe","steam_id":76561198059874851,"connected_time":1600000000000,"state":"active","ping":58},{"user_id":735,"name":"Walnut","steam_id":76561198320544849,"connected_time":182000000000,"state":"active","ping":72},{"user_id":722,"name":"story","steam_id":76561199088496817,"connected_time":1584000000000,"state":"active","ping":86},{"user_id":702,"name":"C Papi","steam_id":76561198027779564,"connected_time":4550000000000,"state":"active","ping":60},{"user_id":729,"name":"GoldtoothFour","steam_id":76561198055529332,"connected_time":998000000000,"state":"active","ping":49},{"user_id":715,"name":"pathways","steam_id":76561198054832333,"connected_time":2876000000000,"state":"active","ping":57},{"user_id":734,"name":"rf","steam_id":76561198195359229,"connected_time":303000000000,"state":"active","ping":91},{"user_id":649,"name":"justyoureventualruler","steam_id":76561198410993481,"connected_time":7969000000000,"state":"active","ping":76},{"user_id":724,"name":"I Am Alpharius","steam_id":76561198033100226,"connected_time":1531000000000,"state":"active","ping":70},{"user_id":717,"name":"My Cousin Gave Me This :)","steam_id":76561199114623925,"connected_time":2853000000000,"state":"active","ping":67},{"user_id":732,"name":"Freek","steam_id":76561198204204055,"connected_time":833000000000,"state":"active","ping":66},{"user_id":687,"name":"mini boss","steam_id":76561198062763756,"connected_time":5660000000000,"state":"active","ping":55}]},{"server_id":36,"name":"Uncletopia | Chicago | 5 | All Maps","name_short":"chi-5","host":"chi-2.us.uncletopia.com","port":27015,"enabled":true,"region":"us-central","cc":"us","latitude":41.881832,"longitude":-87.62318,"reserved":0,"last_update":"0001-01-01T00:00:00Z","name_a2s":"Uncletopia | Chicago | 5 | All Maps","protocol":17,"map":"pl_pier","folder":"tf","game":"Team Fortress","app_id":440,"player_count":24,"max_players":24,"Bots":0,"server_type":"Dedicated","server_os":"Linux","password":true,"vac":true,"version":"7961495","steam_id":85568392924866362,"keywords":["nocrits","nodmgspread","payload","uncletopia"],"game_id":440,"stv_port":27016,"stv_name":"Uncletopia | Chicago | 5 | All Maps | STV","players":[{"user_id":642,"name":"Injured","steam_id":76561198137529294,"connected_time":234000000000,"state":"active","ping":60},{"user_id":644,"name":"The One True Luke","steam_id":76561198180891187,"connected_time":171000000000,"state":"active","ping":62},{"user_id":609,"name":"jus a lil dude","steam_id":76561198013326889,"connected_time":2822000000000,"state":"active","ping":75},{"user_id":615,"name":"Grand Piano Tuna","steam_id":76561198135137213,"connected_time":2084000000000,"state":"active","ping":52},{"user_id":635,"name":"Sean","steam_id":76561199367470003,"connected_time":781000000000,"state":"active","ping":101},{"user_id":614,"name":"Plunderphonic","steam_id":76561198062565784,"connected_time":2116000000000,"state":"active","ping":69},{"user_id":640,"name":"ms. capgras","steam_id":76561199080209996,"connected_time":565000000000,"state":"active","ping":61},{"user_id":645,"name":"slep.py","steam_id":76561197988287144,"connected_time":159000000000,"state":"active","ping":60},{"user_id":630,"name":"Mr. Temmie Flakes","steam_id":76561198136990684,"connected_time":1353000000000,"state":"active","ping":57},{"user_id":631,"name":"nobody","steam_id":76561198148059714,"connected_time":1245000000000,"state":"active","ping":61},{"user_id":638,"name":"ayuub","steam_id":76561198339246053,"connected_time":631000000000,"state":"active","ping":55},{"user_id":641,"name":"Bakedmellon","steam_id":76561198104492181,"connected_time":272000000000,"state":"active","ping":83},{"user_id":592,"name":"Snoogs","steam_id":76561198444880931,"connected_time":4487000000000,"state":"active","ping":78},{"user_id":541,"name":"Giggles™","steam_id":76561198058708019,"connected_time":6905000000000,"state":"active","ping":56},{"user_id":578,"name":"AlexLovesYou","steam_id":76561199163263543,"connected_time":4839000000000,"state":"active","ping":95},{"user_id":639,"name":"Mercury","steam_id":76561198059803943,"connected_time":608000000000,"state":"active","ping":91},{"user_id":646,"name":"Pugzilla","steam_id":76561198108088960,"connected_time":126000000000,"state":"active","ping":63},{"user_id":619,"name":"kim wexler","steam_id":76561199199795741,"connected_time":2076000000000,"state":"active","ping":68},{"user_id":632,"name":"LaunchpadMcQuack","steam_id":76561198022302377,"connected_time":1167000000000,"state":"active","ping":67},{"user_id":593,"name":"Kuyumiester","steam_id":76561198126835302,"connected_time":4444000000000,"state":"active","ping":66},{"user_id":647,"name":"UUUURT","steam_id":76561198047468140,"connected_time":125000000000,"state":"active","ping":83},{"user_id":636,"name":"The Foolish Samurai","steam_id":76561198094494945,"connected_time":770000000000,"state":"active","ping":107},{"user_id":648,"name":"J197382645","steam_id":76561198014742440,"connected_time":123000000000,"state":"active","ping":84},{"user_id":643,"name":"Kєliη ☄☄☄","steam_id":76561198025495912,"connected_time":226000000000,"state":"active","ping":60}]},{"server_id":37,"name":"Uncletopia | Chicago | 6 | All Maps","name_short":"chi-6","host":"chi-2.us.uncletopia.com","port":27025,"enabled":true,"region":"us-central","cc":"us","latitude":41.881832,"longitude":-87.62318,"reserved":0,"last_update":"0001-01-01T00:00:00Z","name_a2s":"Uncletopia | Chicago | 6 | All Maps","protocol":17,"map":"cp_process_final","folder":"tf","game":"Team Fortress","app_id":440,"player_count":13,"max_players":24,"Bots":0,"server_type":"Dedicated","server_os":"Linux","password":true,"vac":true,"version":"7961495","steam_id":85568392924866363,"keywords":["cp","nocrits","nodmgspread","uncletopia"],"game_id":440,"stv_port":27026,"stv_name":"Uncletopia | Chicago | 6 | All Maps | STV","players":[{"user_id":435,"name":"A skill issue","steam_id":76561198246701796,"connected_time":3107000000000,"state":"active","ping":74},{"user_id":466,"name":"AlecTheNefarious","steam_id":76561198035291230,"connected_time":79000000000,"state":"active","ping":60},{"user_id":443,"name":"Grishlock","steam_id":76561198000366744,"connected_time":2572000000000,"state":"active","ping":100},{"user_id":464,"name":"Ket","steam_id":76561198241951244,"connected_time":140000000000,"state":"active","ping":63},{"user_id":460,"name":"java","steam_id":76561198030276792,"connected_time":701000000000,"state":"active","ping":46},{"user_id":465,"name":"snls ♥","steam_id":76561198068659329,"connected_time":140000000000,"state":"active","ping":45},{"user_id":445,"name":"Mr. Sandman","steam_id":76561198065870487,"connected_time":2494000000000,"state":"active","ping":55},{"user_id":462,"name":"lanoc","steam_id":76561198055415367,"connected_time":214000000000,"state":"active","ping":63},{"user_id":444,"name":"SNEPPY","steam_id":76561198065040243,"connected_time":2570000000000,"state":"active","ping":64},{"user_id":459,"name":"Shaniqualandaboutfiqashalifa","steam_id":76561198010019214,"connected_time":820000000000,"state":"active","ping":61},{"user_id":458,"name":"sithreis","steam_id":76561198000564263,"connected_time":912000000000,"state":"active","ping":68},{"user_id":436,"name":"winning","steam_id":76561198003206947,"connected_time":3027000000000,"state":"active","ping":66},{"user_id":446,"name":"Evertin","steam_id":76561198139080478,"connected_time":2480000000000,"state":"active","ping":39}]},{"server_id":38,"name":"Uncletopia | Chicago | 7 | Stopwatch","name_short":"chi-7","host":"chi-2.us.uncletopia.com","port":27035,"enabled":true,"region":"us-central","cc":"us","latitude":41.881832,"longitude":-87.62318,"reserved":0,"last_update":"0001-01-01T00:00:00Z","name_a2s":"Uncletopia | Chicago | 7 | Stopwatch","protocol":17,"map":"koth_highpass","folder":"tf","game":"Team Fortress","app_id":440,"player_count":0,"max_players":24,"Bots":0,"server_type":"Dedicated","server_os":"Linux","password":true,"vac":true,"version":"7961495","steam_id":85568392924866364,"keywords":["cp","nocrits","nodmgspread","uncletopia"],"game_id":440,"stv_port":27036,"stv_name":"Uncletopia | Chicago | 7 | Stopwatch | STV","players":null},{"server_id":39,"name":"Uncletopia | Chicago | 8 | Community","name_short":"chi-8","host":"chi-2.us.uncletopia.com","port":27045,"enabled":true,"region":"us-central","cc":"us","latitude":41.881832,"longitude":-87.62318,"reserved":0,"last_update":"0001-01-01T00:00:00Z","name_a2s":"Uncletopia | Chicago | 8 | Community","protocol":17,"map":"pl_pier","folder":"tf","game":"Team Fortress","app_id":440,"player_count":0,"max_players":24,"Bots":0,"server_type":"Dedicated","server_os":"Linux","password":true,"vac":true,"version":"7961495","steam_id":85568392924866365,"keywords":["nocrits","nodmgspread","payload","uncletopia"],"game_id":440,"stv_port":27046,"stv_name":"Uncletopia | Chicago | 8 | Community | STV","players":null},{"server_id":8,"name":"Uncletopia | Dallas | 1 | All Maps","name_short":"dal-1","host":"dal-1.us.uncletopia.com","port":27015,"enabled":true,"region":"us-central","cc":"us","latitude":32.779167,"longitude":-96.80889,"reserved":0,"last_update":"0001-01-01T00:00:00Z","name_a2s":"Uncletopia | Dallas | 1 | All Maps","protocol":17,"map":"pl_swiftwater_final1","folder":"tf","game":"Team Fortress","app_id":440,"player_count":24,"max_players":24,"Bots":0,"server_type":"Dedicated","server_os":"Linux","password":true,"vac":true,"version":"7961495","steam_id":85568392924469986,"keywords":["nocrits","nodmgspread","payload","uncletopia"],"game_id":440,"stv_port":27016,"stv_name":"Uncletopia | Dallas | 1 | All Maps | STV","players":[{"user_id":624,"name":"Mike Bean Burritos","steam_id":76561198173430607,"connected_time":3254000000000,"state":"active","ping":117},{"user_id":681,"name":"seats","steam_id":76561197998756039,"connected_time":230000000000,"state":"active","ping":75},{"user_id":659,"name":"Fireheart888","steam_id":76561198044555953,"connected_time":1955000000000,"state":"active","ping":92},{"user_id":611,"name":"errant","steam_id":76561197961758410,"connected_time":4760000000000,"state":"active","ping":40},{"user_id":671,"name":"Dark","steam_id":76561198004855334,"connected_time":965000000000,"state":"active","ping":85},{"user_id":682,"name":"spoonlift","steam_id":76561198167075606,"connected_time":176000000000,"state":"active","ping":76},{"user_id":628,"name":"fish","steam_id":76561198182052198,"connected_time":3069000000000,"state":"active","ping":90},{"user_id":599,"name":"tac","steam_id":76561198408477421,"connected_time":5593000000000,"state":"active","ping":91},{"user_id":680,"name":"Gr8alex #KILLTF2","steam_id":76561198227675960,"connected_time":267000000000,"state":"active","ping":90},{"user_id":672,"name":"C^a^L","steam_id":76561198241124222,"connected_time":884000000000,"state":"active","ping":91},{"user_id":625,"name":"krebex","steam_id":76561198004660630,"connected_time":3217000000000,"state":"active","ping":56},{"user_id":683,"name":"chilis baby back ribs","steam_id":76561198813516435,"connected_time":161000000000,"state":"active","ping":76},{"user_id":667,"name":"Rainy","steam_id":76561198079005286,"connected_time":1350000000000,"state":"active","ping":58},{"user_id":678,"name":"+","steam_id":76561198262422184,"connected_time":555000000000,"state":"active","ping":104},{"user_id":673,"name":"kaimann_25","steam_id":76561198867926098,"connected_time":879000000000,"state":"active","ping":75},{"user_id":670,"name":"Burny Sanders","steam_id":76561197961879048,"connected_time":1198000000000,"state":"active","ping":45},{"user_id":646,"name":"Cliff Uppercut","steam_id":76561197999439391,"connected_time":2102000000000,"state":"active","ping":88},{"user_id":668,"name":"ZILICON","steam_id":76561199044705592,"connected_time":1348000000000,"state":"active","ping":114},{"user_id":679,"name":"Cliffigriff","steam_id":76561198121924499,"connected_time":544000000000,"state":"active","ping":56},{"user_id":687,"name":"AttackCommander","steam_id":76561198111522679,"connected_time":37000000000,"state":"active","ping":68},{"user_id":662,"name":"THE man is EPIC","steam_id":76561198085410777,"connected_time":1937000000000,"state":"active","ping":108},{"user_id":664,"name":"GangstaPuddin","steam_id":76561198045414782,"connected_time":1593000000000,"state":"active","ping":82},{"user_id":686,"name":"888pain","steam_id":76561198015327889,"connected_time":129000000000,"state":"active","ping":97},{"user_id":639,"name":"plink","steam_id":76561198057829889,"connected_time":2533000000000,"state":"active","ping":60}]},{"server_id":108,"name":"Uncletopia | Dallas | 2 | All Maps","name_short":"dal-2","host":"dal-1.us.uncletopia.com","port":27025,"enabled":true,"region":"us-central","cc":"us","latitude":32.779167,"longitude":-96.80889,"reserved":0,"last_update":"0001-01-01T00:00:00Z","name_a2s":"Uncletopia | Dallas | 2 | All Maps","protocol":17,"map":"koth_lakeside_final","folder":"tf","game":"Team Fortress","app_id":440,"player_count":24,"max_players":24,"Bots":0,"server_type":"Dedicated","server_os":"Linux","password":true,"vac":true,"version":"7961495","steam_id":85568392924469988,"keywords":["cp","nocrits","nodmgspread","uncletopia"],"game_id":440,"stv_port":27026,"stv_name":"Uncletopia | Dallas | 2 | All Maps | STV","players":[{"user_id":652,"name":"Periergos","steam_id":76561198062030412,"connected_time":1337000000000,"state":"active","ping":66},{"user_id":557,"name":"Certified Hood Classic","steam_id":76561199086159354,"connected_time":8911000000000,"state":"active","ping":54},{"user_id":631,"name":"mayonnaise","steam_id":76561198120753890,"connected_time":3460000000000,"state":"active","ping":53},{"user_id":658,"name":"Vari[X]x","steam_id":76561197960474838,"connected_time":382000000000,"state":"active","ping":91},{"user_id":640,"name":"UNIT 220","steam_id":76561198042243497,"connected_time":2291000000000,"state":"active","ping":79},{"user_id":665,"name":"spaghetti-birds","steam_id":76561198271100554,"connected_time":293000000000,"state":"active","ping":86},{"user_id":625,"name":"StudioMania (#SAVETF2)","steam_id":76561198211315795,"connected_time":3919000000000,"state":"active","ping":73},{"user_id":630,"name":"Not a Can","steam_id":76561198064264767,"connected_time":3765000000000,"state":"active","ping":73},{"user_id":657,"name":"Junk","steam_id":76561198024382753,"connected_time":391000000000,"state":"active","ping":59},{"user_id":667,"name":"Satori Komeiji","steam_id":76561198158211423,"connected_time":193000000000,"state":"active","ping":74},{"user_id":651,"name":"Importality","steam_id":76561198049943127,"connected_time":1852000000000,"state":"active","ping":100},{"user_id":663,"name":"The Notorious T.A.F.T.","steam_id":76561198073012352,"connected_time":323000000000,"state":"active","ping":65},{"user_id":590,"name":"room temp IQ","steam_id":76561198018724712,"connected_time":6641000000000,"state":"active","ping":31},{"user_id":661,"name":"d5","steam_id":76561199339997328,"connected_time":363000000000,"state":"active","ping":59},{"user_id":668,"name":"YaBoyUlyssesG","steam_id":76561198042482742,"connected_time":90000000000,"state":"active","ping":76},{"user_id":602,"name":"rAnch","steam_id":76561198024562587,"connected_time":5024000000000,"state":"active","ping":37},{"user_id":645,"name":"Serene Salamander","steam_id":76561198001094770,"connected_time":2189000000000,"state":"active","ping":93},{"user_id":664,"name":"Maid 'n' China","steam_id":76561198423392976,"connected_time":311000000000,"state":"active","ping":90},{"user_id":620,"name":"Smug","steam_id":76561198448205229,"connected_time":4187000000000,"state":"active","ping":81},{"user_id":646,"name":"SleepyCanary","steam_id":76561198071770434,"connected_time":2187000000000,"state":"active","ping":109},{"user_id":633,"name":"CoziestGlobe","steam_id":76561198199237735,"connected_time":3433000000000,"state":"active","ping":77},{"user_id":649,"name":"Shrebbie","steam_id":76561198875230824,"connected_time":2085000000000,"state":"active","ping":79},{"user_id":666,"name":"Dogvan","steam_id":76561198176708643,"connected_time":292000000000,"state":"active","ping":71},{"user_id":617,"name":"the_spaceman","steam_id":76561197997653730,"connected_time":4453000000000,"state":"active","ping":75}]},{"server_id":404,"name":"Uncletopia | Dallas | 3 | All Maps","name_short":"dal-3","host":"dal-1.us.uncletopia.com","port":27035,"enabled":true,"region":"us-central","cc":"us","latitude":32.779167,"longitude":-96.80889,"reserved":0,"last_update":"0001-01-01T00:00:00Z","name_a2s":"Uncletopia | Dallas | 3 | All Maps","protocol":17,"map":"pl_snowycoast","folder":"tf","game":"Team Fortress","app_id":440,"player_count":1,"max_players":24,"Bots":0,"server_type":"Dedicated","server_os":"Linux","password":true,"vac":true,"version":"7961495","steam_id":85568392924515219,"keywords":["nocrits","nodmgspread","payload","uncletopia"],"game_id":440,"stv_port":27036,"stv_name":"Uncletopia | Dallas | 3 | All Maps | STV","players":[{"user_id":526,"name":"hamletespacial","steam_id":76561199084414649,"connected_time":638000000000,"state":"active","ping":63}]},{"server_id":405,"name":"Uncletopia | Dallas | 4 | Community","name_short":"dal-4","host":"dal-1.us.uncletopia.com","port":27045,"enabled":true,"region":"us-central","cc":"us","latitude":32.779167,"longitude":-96.80889,"reserved":0,"last_update":"0001-01-01T00:00:00Z","name_a2s":"Uncletopia | Dallas | 4 | Community","protocol":17,"map":"workshop/koth_ramjam_rc1.ugc459778887","folder":"tf","game":"Team Fortress","app_id":440,"player_count":0,"max_players":24,"Bots":0,"server_type":"Dedicated","server_os":"Linux","password":true,"vac":true,"version":"7961495","steam_id":85568392924515220,"keywords":["cp","nocrits","nodmgspread","uncletopia"],"game_id":440,"stv_port":27046,"stv_name":"Uncletopia | Dallas | 4 | Community | STV","players":null},{"server_id":5,"name":"Uncletopia | Frankfurt | 1 | All Maps","name_short":"frk-1","host":"frk-1.de.uncletopia.com","port":27015,"enabled":true,"region":"eu","cc":"de","latitude":50.110924,"longitude":8.682127,"reserved":0,"last_update":"0001-01-01T00:00:00Z","name_a2s":"Uncletopia | Frankfurt | 1 | All Maps","protocol":17,"map":"koth_highpass","folder":"tf","game":"Team Fortress","app_id":440,"player_count":0,"max_players":24,"Bots":0,"server_type":"Dedicated","server_os":"Linux","password":true,"vac":true,"version":"7961495","steam_id":85568392924469989,"keywords":["cp","nocrits","nodmgspread","uncletopia"],"game_id":440,"stv_port":27016,"stv_name":"Uncletopia | Frankfurt | 1 | All Maps | STV","players":null},{"server_id":110,"name":"Uncletopia | Frankfurt | 2 | All Maps","name_short":"frk-2","host":"frk-1.de.uncletopia.com","port":27025,"enabled":true,"region":"eu","cc":"de","latitude":50.110924,"longitude":8.682127,"reserved":0,"last_update":"0001-01-01T00:00:00Z","name_a2s":"Uncletopia | Frankfurt | 2 | All Maps","protocol":17,"map":"cp_dustbowl","folder":"tf","game":"Team Fortress","app_id":440,"player_count":0,"max_players":24,"Bots":0,"server_type":"Dedicated","server_os":"Linux","password":true,"vac":true,"version":"7961495","steam_id":85568392924469990,"keywords":["cp","nocrits","nodmgspread","uncletopia"],"game_id":440,"stv_port":27026,"stv_name":"Uncletopia | Frankfurt | 2 | All Maps | STV","players":null},{"server_id":308,"name":"Uncletopia | Frankfurt | 3 | All Maps","name_short":"frk-3","host":"frk-1.de.uncletopia.com","port":27035,"enabled":true,"region":"eu","cc":"de","latitude":50.110924,"longitude":8.682127,"reserved":0,"last_update":"0001-01-01T00:00:00Z","name_a2s":"Uncletopia | Frankfurt | 3 | All Maps","protocol":17,"map":"pl_barnblitz","folder":"tf","game":"Team Fortress","app_id":440,"player_count":0,"max_players":24,"Bots":0,"server_type":"Dedicated","server_os":"Linux","password":true,"vac":true,"version":"7961495","steam_id":85568392924504274,"keywords":["nocrits","nodmgspread","payload","uncletopia"],"game_id":440,"stv_port":27036,"stv_name":"Uncletopia | Frankfurt | 3 | All Maps | STV","players":null},{"server_id":309,"name":"Uncletopia | Frankfurt | 4 | All Maps","name_short":"frk-4","host":"frk-1.de.uncletopia.com","port":27045,"enabled":true,"region":"eu","cc":"de","latitude":50.110924,"longitude":8.682127,"reserved":0,"last_update":"0001-01-01T00:00:00Z","name_a2s":"Uncletopia | Frankfurt | 4 | All Maps","protocol":17,"map":"koth_highpass","folder":"tf","game":"Team Fortress","app_id":440,"player_count":0,"max_players":24,"Bots":0,"server_type":"Dedicated","server_os":"Linux","password":true,"vac":true,"version":"7961495","steam_id":85568392924504275,"keywords":["cp","nocrits","nodmgspread","uncletopia"],"game_id":440,"stv_port":27046,"stv_name":"Uncletopia | Frankfurt | 4 | All Maps | STV","players":null},{"server_id":310,"name":"Uncletopia | Frankfurt | 5 | All Maps","name_short":"frk-5","host":"frk-1.de.uncletopia.com","port":27055,"enabled":true,"region":"eu","cc":"de","latitude":50.110924,"longitude":8.682127,"reserved":0,"last_update":"0001-01-01T00:00:00Z","name_a2s":"Uncletopia | Frankfurt | 5 | All Maps","protocol":17,"map":"pl_badwater","folder":"tf","game":"Team Fortress","app_id":440,"player_count":0,"max_players":24,"Bots":0,"server_type":"Dedicated","server_os":"Linux","password":true,"vac":true,"version":"7961495","steam_id":85568392924504277,"keywords":["nocrits","nodmgspread","payload","uncletopia"],"game_id":440,"stv_port":27056,"stv_name":"Uncletopia | Frankfurt | 5 | All Maps | STV","players":null},{"server_id":311,"name":"Uncletopia | Frankfurt | 6 | All Maps","name_short":"frk-6","host":"frk-1.de.uncletopia.com","port":27065,"enabled":true,"region":"eu","cc":"de","latitude":50.110924,"longitude":8.682127,"reserved":0,"last_update":"0001-01-01T00:00:00Z","name_a2s":"Uncletopia | Frankfurt | 6 | All Maps","protocol":17,"map":"cp_altitude","folder":"tf","game":"Team Fortress","app_id":440,"player_count":0,"max_players":24,"Bots":0,"server_type":"Dedicated","server_os":"Linux","password":true,"vac":true,"version":"7961495","steam_id":85568392924504278,"keywords":["cp","nocrits","nodmgspread","uncletopia"],"game_id":440,"stv_port":27066,"stv_name":"Uncletopia | Frankfurt | 6 | All Maps | STV","players":null},{"server_id":23,"name":"Uncletopia | Frankfurt | 7 | Stopwatch","name_short":"frk-7","host":"frk-1.de.uncletopia.com","port":27075,"enabled":true,"region":"eu","cc":"de","latitude":50.110924,"longitude":8.682127,"reserved":0,"last_update":"0001-01-01T00:00:00Z","name_a2s":"Uncletopia | Frankfurt | 7 | Stopwatch","protocol":17,"map":"pl_frontier_final","folder":"tf","game":"Team Fortress","app_id":440,"player_count":0,"max_players":24,"Bots":0,"server_type":"Dedicated","server_os":"Linux","password":true,"vac":true,"version":"7961495","steam_id":85568392924742827,"keywords":["nocrits","nodmgspread","payload","uncletopia"],"game_id":440,"stv_port":27076,"stv_name":"Uncletopia | Frankfurt | 7 | Stopwatch | STV","players":null},{"server_id":24,"name":"Uncletopia | Frankfurt | 8 | Community","name_short":"frk-8","host":"frk-1.de.uncletopia.com","port":27085,"enabled":true,"region":"eu","cc":"de","latitude":50.110924,"longitude":8.682127,"reserved":0,"last_update":"0001-01-01T00:00:00Z","name_a2s":"Uncletopia | Frankfurt | 8 | Community","protocol":17,"map":"cp_mountainlab","folder":"tf","game":"Team Fortress","app_id":440,"player_count":0,"max_players":24,"Bots":0,"server_type":"Dedicated","server_os":"Linux","password":true,"vac":true,"version":"7961495","steam_id":85568392924742828,"keywords":["cp","nocrits","nodmgspread","uncletopia"],"game_id":440,"stv_port":27086,"stv_name":"Uncletopia | Frankfurt | 8 | Community | STV","players":null},{"server_id":202,"name":"Uncletopia | Hong Kong | 1 | All Maps","name_short":"hgk-1","host":"hgk-1.hk.uncletopia.com","port":27015,"enabled":true,"region":"asia","cc":"hk","latitude":22.302711,"longitude":114.177216,"reserved":0,"last_update":"0001-01-01T00:00:00Z","name_a2s":"Uncletopia | Hong Kong | 1 | All Maps","protocol":17,"map":"pl_barnblitz","folder":"tf","game":"Team Fortress","app_id":440,"player_count":0,"max_players":24,"Bots":0,"server_type":"Dedicated","server_os":"Linux","password":true,"vac":true,"version":"7961495","steam_id":85568392924494504,"keywords":["nocrits","nodmgspread","payload","uncletopia"],"game_id":440,"stv_port":27016,"stv_name":"Uncletopia | Hong Kong | 1 | All Maps | STV","players":null},{"server_id":1,"name":"Uncletopia | Los Angeles | 1 | All Maps","name_short":"lax-1","host":"lax-1.us.uncletopia.com","port":27015,"enabled":true,"region":"us-west","cc":"us","latitude":33.94279,"longitude":-118.41004,"reserved":0,"last_update":"0001-01-01T00:00:00Z","name_a2s":"Uncletopia | Los Angeles | 1 | All Maps","protocol":17,"map":"pl_swiftwater_final1","folder":"tf","game":"Team Fortress","app_id":440,"player_count":24,"max_players":24,"Bots":0,"server_type":"Dedicated","server_os":"Linux","password":true,"vac":true,"version":"7961495","steam_id":85568392924469991,"keywords":["nocrits","nodmgspread","payload","uncletopia"],"game_id":440,"stv_port":27016,"stv_name":"Uncletopia | Los Angeles | 1 | All Maps | STV","players":[{"user_id":243,"name":"johnny","steam_id":76561198050225055,"connected_time":4170000000000,"state":"active","ping":46},{"user_id":295,"name":"Cyber LLama","steam_id":76561198323298672,"connected_time":622000000000,"state":"active","ping":76},{"user_id":271,"name":"SomeStranger17","steam_id":76561199488770736,"connected_time":2430000000000,"state":"active","ping":59},{"user_id":300,"name":"Mihalys","steam_id":76561198076645019,"connected_time":235000000000,"state":"active","ping":75},{"user_id":283,"name":"Mafia_Chicken_57","steam_id":76561198880319548,"connected_time":1809000000000,"state":"active","ping":51},{"user_id":80,"name":"Ice cream sandwich","steam_id":76561198172748357,"connected_time":7868000000000,"state":"active","ping":71},{"user_id":287,"name":"Y1719","steam_id":76561198284034248,"connected_time":1349000000000,"state":"active","ping":96},{"user_id":294,"name":"Human Resources Manager","steam_id":76561198066386411,"connected_time":681000000000,"state":"active","ping":60},{"user_id":303,"name":"dAiLyGrInD","steam_id":76561198163531915,"connected_time":178000000000,"state":"active","ping":95},{"user_id":258,"name":"walrooos","steam_id":76561198024521839,"connected_time":3254000000000,"state":"active","ping":43},{"user_id":292,"name":"for the king","steam_id":76561197973488858,"connected_time":964000000000,"state":"active","ping":91},{"user_id":282,"name":"Therapy Goth","steam_id":76561198048448497,"connected_time":2158000000000,"state":"active","ping":115},{"user_id":260,"name":"celestia ludenberg","steam_id":76561199196437823,"connected_time":3092000000000,"state":"active","ping":60},{"user_id":272,"name":"Dietary Thunder","steam_id":76561198036177601,"connected_time":2423000000000,"state":"active","ping":91},{"user_id":253,"name":"SanitysEdge","steam_id":76561198130732813,"connected_time":3653000000000,"state":"active","ping":49},{"user_id":298,"name":"reem","steam_id":76561198050767193,"connected_time":466000000000,"state":"active","ping":53},{"user_id":299,"name":"reknud lft","steam_id":76561198066114874,"connected_time":463000000000,"state":"active","ping":84},{"user_id":281,"name":"Travorski","steam_id":76561198072493142,"connected_time":2196000000000,"state":"active","ping":533},{"user_id":278,"name":"YellowSQUID","steam_id":76561198123259414,"connected_time":2280000000000,"state":"active","ping":70},{"user_id":302,"name":"learning","steam_id":76561198083700067,"connected_time":215000000000,"state":"active","ping":119},{"user_id":289,"name":"Lucky","steam_id":76561198124910662,"connected_time":1322000000000,"state":"active","ping":70},{"user_id":252,"name":"the pizza","steam_id":76561198221331476,"connected_time":3672000000000,"state":"active","ping":45},{"user_id":291,"name":"Violet The Derg","steam_id":76561198002525691,"connected_time":1222000000000,"state":"active","ping":80},{"user_id":255,"name":"t","steam_id":76561198175988929,"connected_time":3398000000000,"state":"active","ping":91}]},{"server_id":112,"name":"Uncletopia | Los Angeles | 2 | All Maps","name_short":"lax-2","host":"lax-1.us.uncletopia.com","port":27025,"enabled":true,"region":"us-west","cc":"us","latitude":33.94279,"longitude":-118.41004,"reserved":0,"last_update":"0001-01-01T00:00:00Z","name_a2s":"Uncletopia | Los Angeles | 2 | All Maps","protocol":17,"map":"koth_highpass","folder":"tf","game":"Team Fortress","app_id":440,"player_count":0,"max_players":24,"Bots":0,"server_type":"Dedicated","server_os":"Linux","password":true,"vac":true,"version":"7961495","steam_id":85568392924469992,"keywords":["cp","nocrits","nodmgspread","uncletopia"],"game_id":440,"stv_port":27026,"stv_name":"Uncletopia | Los Angeles | 2 | All Maps | STV","players":null},{"server_id":324,"name":"Uncletopia | Los Angeles | 3 | All Maps","name_short":"lax-3","host":"lax-1.us.uncletopia.com","port":27035,"enabled":true,"region":"us-west","cc":"us","latitude":33.94279,"longitude":-118.41004,"reserved":0,"last_update":"0001-01-01T00:00:00Z","name_a2s":"Uncletopia | Los Angeles | 3 | All Maps","protocol":17,"map":"cp_process_final","folder":"tf","game":"Team Fortress","app_id":440,"player_count":24,"max_players":24,"Bots":0,"server_type":"Dedicated","server_os":"Linux","password":true,"vac":true,"version":"7961495","steam_id":85568392924510198,"keywords":["cp","nocrits","nodmgspread","uncletopia"],"game_id":440,"stv_port":27036,"stv_name":"Uncletopia | Los Angeles | 3 | All Maps | STV","players":[{"user_id":469,"name":"GrACE n' TrUth","steam_id":76561198042919056,"connected_time":235000000000,"state":"active","ping":88},{"user_id":444,"name":"5oc","steam_id":76561199196300397,"connected_time":1457000000000,"state":"active","ping":66},{"user_id":467,"name":"TheBrocklobster","steam_id":76561198039682984,"connected_time":332000000000,"state":"active","ping":64},{"user_id":446,"name":"Shoe-flipper","steam_id":76561198045964573,"connected_time":1414000000000,"state":"active","ping":45},{"user_id":462,"name":"Paperclip","steam_id":76561198057076337,"connected_time":850000000000,"state":"active","ping":86},{"user_id":441,"name":"skate 4 flumper","steam_id":76561198207881077,"connected_time":1824000000000,"state":"active","ping":97},{"user_id":358,"name":"rat","steam_id":76561198130412963,"connected_time":5168000000000,"state":"active","ping":85},{"user_id":428,"name":"Mighty Morphin Flower Arrangers","steam_id":76561198133158032,"connected_time":2709000000000,"state":"active","ping":56},{"user_id":451,"name":"moe","steam_id":76561198929586245,"connected_time":1210000000000,"state":"active","ping":44},{"user_id":448,"name":"St. Michael","steam_id":76561198037611052,"connected_time":1363000000000,"state":"active","ping":75},{"user_id":402,"name":"i cant aim","steam_id":76561198065873462,"connected_time":3340000000000,"state":"active","ping":49},{"user_id":452,"name":"Taco+Taco=Burrito","steam_id":76561198063128663,"connected_time":1183000000000,"state":"active","ping":48},{"user_id":470,"name":"Soap","steam_id":76561198117342640,"connected_time":235000000000,"state":"active","ping":61},{"user_id":316,"name":"Dongus","steam_id":76561197979056451,"connected_time":6740000000000,"state":"active","ping":76},{"user_id":463,"name":"soccer2010","steam_id":76561198404271005,"connected_time":845000000000,"state":"active","ping":60},{"user_id":454,"name":"player15192","steam_id":76561199498250315,"connected_time":1129000000000,"state":"active","ping":79},{"user_id":455,"name":"mentos14","steam_id":76561198097993629,"connected_time":1123000000000,"state":"active","ping":60},{"user_id":432,"name":"Larry Gooseman","steam_id":76561198018696922,"connected_time":2489000000000,"state":"active","ping":62},{"user_id":464,"name":"Dr. Peelz","steam_id":76561198156452499,"connected_time":839000000000,"state":"active","ping":61},{"user_id":457,"name":"HopeTheNeko","steam_id":76561199159285465,"connected_time":1096000000000,"state":"active","ping":60},{"user_id":460,"name":"Canned Lobster","steam_id":76561198110847328,"connected_time":948000000000,"state":"active","ping":52},{"user_id":466,"name":"blast a hoe","steam_id":76561198294281809,"connected_time":464000000000,"state":"active","ping":56},{"user_id":468,"name":"Wavelengths","steam_id":76561197997621320,"connected_time":332000000000,"state":"active","ping":61},{"user_id":386,"name":"wormie","steam_id":76561199486473985,"connected_time":3817000000000,"state":"active","ping":66}]},{"server_id":25,"name":"Uncletopia | Los Angeles | 4 | Stopwatch","name_short":"lax-4","host":"lax-1.us.uncletopia.com","port":27045,"enabled":true,"region":"us-west","cc":"us","latitude":33.94279,"longitude":-118.41004,"reserved":0,"last_update":"0001-01-01T00:00:00Z","name_a2s":"Uncletopia | Los Angeles | 4 | Stopwatch","protocol":17,"map":"workshop/koth_ashville_final.ugc2130459942","folder":"tf","game":"Team Fortress","app_id":440,"player_count":0,"max_players":24,"Bots":0,"server_type":"Dedicated","server_os":"Linux","password":true,"vac":true,"version":"7961495","steam_id":85568392924510199,"keywords":["cp","nocrits","nodmgspread","uncletopia"],"game_id":440,"stv_port":27046,"stv_name":"Uncletopia | Los Angeles | 4 | Stopwatch | STV","players":null},{"server_id":11,"name":"Uncletopia | London | 1 | All Maps","name_short":"lon-1","host":"lon-1.uk.uncletopia.com","port":27015,"enabled":true,"region":"eu","cc":"gb","latitude":51.509865,"longitude":-0.118092,"reserved":0,"last_update":"0001-01-01T00:00:00Z","name_a2s":"Uncletopia | London | 1 | All Maps","protocol":17,"map":"pl_borneo","folder":"tf","game":"Team Fortress","app_id":440,"player_count":23,"max_players":24,"Bots":0,"server_type":"Dedicated","server_os":"Linux","password":true,"vac":true,"version":"7961495","steam_id":85568392924367362,"keywords":["nocrits","nodmgspread","payload","uncletopia"],"game_id":440,"stv_port":27016,"stv_name":"Uncletopia | London | 1 | All Maps | STV","players":[{"user_id":751,"name":"james_bondage","steam_id":76561199476062624,"connected_time":957000000000,"state":"active","ping":140},{"user_id":716,"name":"jjkun786","steam_id":76561199438517484,"connected_time":3759000000000,"state":"active","ping":73},{"user_id":736,"name":"Calsim","steam_id":76561198164877219,"connected_time":2207000000000,"state":"active","ping":39},{"user_id":755,"name":"Topfix","steam_id":76561198038899333,"connected_time":741000000000,"state":"active","ping":159},{"user_id":765,"name":"Rui","steam_id":76561198263735498,"connected_time":449000000000,"state":"active","ping":85},{"user_id":753,"name":"Chef__7","steam_id":76561199056921540,"connected_time":838000000000,"state":"active","ping":146},{"user_id":719,"name":"agonized.micheal2021","steam_id":76561198007929294,"connected_time":3585000000000,"state":"active","ping":99},{"user_id":741,"name":"gek","steam_id":76561198038982326,"connected_time":1582000000000,"state":"active","ping":71},{"user_id":756,"name":"MIRU","steam_id":76561198053022629,"connected_time":734000000000,"state":"active","ping":83},{"user_id":757,"name":"Monkey","steam_id":76561198093301834,"connected_time":732000000000,"state":"active","ping":71},{"user_id":764,"name":"TeazFuzz","steam_id":76561198094609931,"connected_time":571000000000,"state":"active","ping":69},{"user_id":746,"name":"B_Rocka","steam_id":76561198039425580,"connected_time":1189000000000,"state":"active","ping":52},{"user_id":729,"name":"Sock","steam_id":76561198315420000,"connected_time":2834000000000,"state":"active","ping":148},{"user_id":747,"name":"Wersser","steam_id":76561198371172588,"connected_time":1141000000000,"state":"active","ping":142},{"user_id":759,"name":"去吃胡萝卜笨蛋","steam_id":76561198069649097,"connected_time":730000000000,"state":"active","ping":61},{"user_id":760,"name":"valera","steam_id":76561198188478409,"connected_time":700000000000,"state":"active","ping":96},{"user_id":761,"name":"Lyncurion","steam_id":76561199260022725,"connected_time":675000000000,"state":"active","ping":82},{"user_id":762,"name":"Rachugh","steam_id":76561199235852578,"connected_time":641000000000,"state":"active","ping":178},{"user_id":763,"name":"1# Crazy Frog Fan","steam_id":76561198090215149,"connected_time":640000000000,"state":"active","ping":59},{"user_id":725,"name":"Syke Jr","steam_id":76561198038479641,"connected_time":3215000000000,"state":"active","ping":61},{"user_id":748,"name":"Relativity92","steam_id":76561198167075182,"connected_time":1121000000000,"state":"active","ping":155},{"user_id":766,"name":"Koranae","steam_id":76561198343198306,"connected_time":3000000000,"state":"spawning","ping":72},{"user_id":714,"name":"geroxe cruo","steam_id":76561199480942903,"connected_time":4111000000000,"state":"active","ping":68}]},{"server_id":114,"name":"Uncletopia | London | 2 | All Maps","name_short":"lon-2","host":"lon-1.uk.uncletopia.com","port":27025,"enabled":true,"region":"eu","cc":"gb","latitude":51.509865,"longitude":-0.118092,"reserved":0,"last_update":"0001-01-01T00:00:00Z","name_a2s":"Uncletopia | London | 2 | All Maps","protocol":17,"map":"koth_cascade","folder":"tf","game":"Team Fortress","app_id":440,"player_count":0,"max_players":24,"Bots":0,"server_type":"Dedicated","server_os":"Linux","password":true,"vac":true,"version":"7961495","steam_id":85568392924470941,"keywords":["cp","nocrits","nodmgspread","uncletopia"],"game_id":440,"stv_port":27026,"stv_name":"Uncletopia | London | 2 | All Maps | STV","players":null},{"server_id":320,"name":"Uncletopia | London | 3 | All Maps","name_short":"lon-3","host":"lon-1.uk.uncletopia.com","port":27035,"enabled":true,"region":"eu","cc":"gb","latitude":51.509865,"longitude":-0.118092,"reserved":0,"last_update":"0001-01-01T00:00:00Z","name_a2s":"Uncletopia | London | 3 | All Maps","protocol":17,"map":"pl_badwater","folder":"tf","game":"Team Fortress","app_id":440,"player_count":0,"max_players":24,"Bots":0,"server_type":"Dedicated","server_os":"Linux","password":true,"vac":true,"version":"7961495","steam_id":85568392924510192,"keywords":["nocrits","nodmgspread","payload","uncletopia"],"game_id":440,"stv_port":27036,"stv_name":"Uncletopia | London | 3 | All Maps | STV","players":null},{"server_id":321,"name":"Uncletopia | London | 4 | All Maps","name_short":"lon-4","host":"lon-1.uk.uncletopia.com","port":27045,"enabled":true,"region":"eu","cc":"gb","latitude":51.509865,"longitude":-0.118092,"reserved":0,"last_update":"0001-01-01T00:00:00Z","name_a2s":"Uncletopia | London | 4 | All Maps","protocol":17,"map":"pl_barnblitz","folder":"tf","game":"Team Fortress","app_id":440,"player_count":6,"max_players":24,"Bots":0,"server_type":"Dedicated","server_os":"Linux","password":true,"vac":true,"version":"7961495","steam_id":85568392924510193,"keywords":["nocrits","nodmgspread","payload","uncletopia"],"game_id":440,"stv_port":27046,"stv_name":"Uncletopia | London | 4 | All Maps | STV","players":[{"user_id":711,"name":"DeterminedXD[HUN]","steam_id":76561199469006453,"connected_time":1635000000000,"state":"active","ping":84},{"user_id":713,"name":"Killer-Rabbid306","steam_id":76561198321110188,"connected_time":1065000000000,"state":"active","ping":334},{"user_id":677,"name":"yuno appreciator","steam_id":76561198083286511,"connected_time":5256000000000,"state":"active","ping":34},{"user_id":704,"name":"GunpowderGarry33","steam_id":76561198871691306,"connected_time":4021000000000,"state":"active","ping":86},{"user_id":683,"name":"Rick Makakezzz","steam_id":76561198057495653,"connected_time":4927000000000,"state":"active","ping":75},{"user_id":675,"name":"is it your crocodile?","steam_id":76561198346638308,"connected_time":5282000000000,"state":"active","ping":60}]},{"server_id":21,"name":"Uncletopia | London | 5 | All Maps","name_short":"lon-5","host":"lon-1.uk.uncletopia.com","port":27055,"enabled":true,"region":"eu","cc":"gb","latitude":51.509865,"longitude":-0.118092,"reserved":0,"last_update":"0001-01-01T00:00:00Z","name_a2s":"Uncletopia | London | 5 | All Maps","protocol":17,"map":"koth_lakeside_final","folder":"tf","game":"Team Fortress","app_id":440,"player_count":0,"max_players":24,"Bots":0,"server_type":"Dedicated","server_os":"Linux","password":true,"vac":true,"version":"7961495","steam_id":85568392924742829,"keywords":["cp","nocrits","nodmgspread","uncletopia"],"game_id":440,"stv_port":27056,"stv_name":"Uncletopia | London | 5 | All Maps | STV","players":null},{"server_id":22,"name":"Uncletopia | London | 6 | All Maps","name_short":"lon-6","host":"lon-1.uk.uncletopia.com","port":27065,"enabled":true,"region":"eu","cc":"gb","latitude":51.509865,"longitude":-0.118092,"reserved":0,"last_update":"0001-01-01T00:00:00Z","name_a2s":"Uncletopia | London | 6 | All Maps","protocol":17,"map":"cp_snakewater_final1","folder":"tf","game":"Team Fortress","app_id":440,"player_count":0,"max_players":24,"Bots":0,"server_type":"Dedicated","server_os":"Linux","password":true,"vac":true,"version":"7961495","steam_id":85568392924742830,"keywords":["cp","nocrits","nodmgspread","uncletopia"],"game_id":440,"stv_port":27066,"stv_name":"Uncletopia | London | 6 | All Maps | STV","players":null},{"server_id":40,"name":"Uncletopia | London | 7 | Stopwatch","name_short":"lon-7","host":"lon-1.uk.uncletopia.com","port":27075,"enabled":true,"region":"eu","cc":"gb","latitude":51.509865,"longitude":-0.118092,"reserved":0,"last_update":"0001-01-01T00:00:00Z","name_a2s":"Uncletopia | London | 7 | Stopwatch","protocol":17,"map":"workshop/koth_ramjam_rc1.ugc459778887","folder":"tf","game":"Team Fortress","app_id":440,"player_count":0,"max_players":24,"Bots":0,"server_type":"Dedicated","server_os":"Linux","password":true,"vac":true,"version":"7961495","steam_id":85568392924964314,"keywords":["cp","nocrits","nodmgspread","uncletopia"],"game_id":440,"stv_port":27076,"stv_name":"Uncletopia | London | 7 | Stopwatch | STV","players":null},{"server_id":41,"name":"Uncletopia | London | 8 | Community","name_short":"lon-8","host":"lon-1.uk.uncletopia.com","port":27085,"enabled":true,"region":"eu","cc":"gb","latitude":51.509865,"longitude":-0.118092,"reserved":0,"last_update":"0001-01-01T00:00:00Z","name_a2s":"Uncletopia | London | 8 | Community","protocol":17,"map":"workshop/cp_reckoner_rc6.ugc674719999","folder":"tf","game":"Team Fortress","app_id":440,"player_count":0,"max_players":24,"Bots":0,"server_type":"Dedicated","server_os":"Linux","password":true,"vac":true,"version":"7961495","steam_id":85568392924964315,"keywords":["cp","nocrits","nodmgspread","uncletopia"],"game_id":440,"stv_port":27086,"stv_name":"Uncletopia | London | 8 | Community | STV","players":null},{"server_id":300,"name":"Uncletopia | Montréal | 1 | One Thousand Uncles","name_short":"mtl-1","host":"mtl-1.ca.uncletopia.com","port":27015,"enabled":true,"region":"us-east","cc":"ca","latitude":45.50889,"longitude":-73.56167,"reserved":0,"last_update":"0001-01-01T00:00:00Z","name_a2s":"","protocol":0,"map":"","folder":"","game":"","app_id":0,"player_count":9,"max_players":0,"Bots":0,"server_type":"","server_os":"","password":false,"vac":false,"version":"","steam_id":0,"keywords":null,"game_id":0,"stv_port":0,"stv_name":"","players":[{"user_id":80,"name":"Fishmonger","steam_id":76561198372237027,"connected_time":3225000000000,"state":"active","ping":114},{"user_id":63,"name":"KnightMan","steam_id":76561198143531192,"connected_time":8400000000000,"state":"active","ping":77},{"user_id":79,"name":"mrthugpug1732","steam_id":76561198881200768,"connected_time":3524000000000,"state":"active","ping":117},{"user_id":82,"name":"Harriam","steam_id":76561198147478796,"connected_time":2869000000000,"state":"active","ping":111},{"user_id":83,"name":"GamingJuice42","steam_id":76561198110469437,"connected_time":2824000000000,"state":"active","ping":84},{"user_id":84,"name":"nonagon infinity","steam_id":76561198397662124,"connected_time":2580000000000,"state":"active","ping":94},{"user_id":106,"name":"vioxynteris","steam_id":76561198161428666,"connected_time":443000000000,"state":"active","ping":104},{"user_id":107,"name":"TopHatTyson","steam_id":76561198304226833,"connected_time":162000000000,"state":"active","ping":114},{"user_id":86,"name":"Whompert","steam_id":76561198042939624,"connected_time":2035000000000,"state":"active","ping":75}]},{"server_id":301,"name":"Uncletopia | Montréal | 2 | One Thousand Uncles","name_short":"mtl-2","host":"mtl-1.ca.uncletopia.com","port":27025,"enabled":true,"region":"us-east","cc":"ca","latitude":45.50889,"longitude":-73.56167,"reserved":0,"last_update":"0001-01-01T00:00:00Z","name_a2s":"","protocol":0,"map":"","folder":"","game":"","app_id":0,"player_count":0,"max_players":0,"Bots":0,"server_type":"","server_os":"","password":false,"vac":false,"version":"","steam_id":0,"keywords":null,"game_id":0,"stv_port":0,"stv_name":"","players":null},{"server_id":302,"name":"Uncletopia | Montréal | 3 | One Thousand Uncles","name_short":"mtl-3","host":"mtl-1.ca.uncletopia.com","port":27035,"enabled":true,"region":"us-east","cc":"ca","latitude":45.50889,"longitude":-73.56167,"reserved":0,"last_update":"0001-01-01T00:00:00Z","name_a2s":"","protocol":0,"map":"","folder":"","game":"","app_id":0,"player_count":0,"max_players":0,"Bots":0,"server_type":"","server_os":"","password":false,"vac":false,"version":"","steam_id":0,"keywords":null,"game_id":0,"stv_port":0,"stv_name":"","players":null},{"server_id":13,"name":"Uncletopia | New York City | 1 | All Maps","name_short":"nyc-1","host":"nyc-1.us.uncletopia.com","port":27015,"enabled":true,"region":"us-east","cc":"us","latitude":40.73061,"longitude":-73.93524,"reserved":0,"last_update":"0001-01-01T00:00:00Z","name_a2s":"Uncletopia | New York City | 1 | All Maps","protocol":17,"map":"pl_barnblitz","folder":"tf","game":"Team Fortress","app_id":440,"player_count":24,"max_players":24,"Bots":0,"server_type":"Dedicated","server_os":"Linux","password":true,"vac":true,"version":"7961495","steam_id":85568392924469993,"keywords":["nocrits","nodmgspread","payload","uncletopia"],"game_id":440,"stv_port":27016,"stv_name":"Uncletopia | New York City | 1 | All Maps | STV","players":[{"user_id":692,"name":"kefkja","steam_id":76561198283963218,"connected_time":2161000000000,"state":"active","ping":55},{"user_id":712,"name":"gnome zone","steam_id":76561198883349445,"connected_time":1048000000000,"state":"active","ping":123},{"user_id":693,"name":"Professor Shaggy","steam_id":76561198276926724,"connected_time":2155000000000,"state":"active","ping":49},{"user_id":715,"name":"nyxiadash","steam_id":76561198174415170,"connected_time":747000000000,"state":"active","ping":45},{"user_id":710,"name":"Mr.Bady","steam_id":76561199094651706,"connected_time":1163000000000,"state":"active","ping":57},{"user_id":630,"name":"on that zaza?","steam_id":76561198038713198,"connected_time":7243000000000,"state":"active","ping":48},{"user_id":676,"name":"space man","steam_id":76561198066333670,"connected_time":4277000000000,"state":"active","ping":62},{"user_id":716,"name":"a single slightly peeled banana","steam_id":76561198088228092,"connected_time":436000000000,"state":"active","ping":135},{"user_id":697,"name":"joyeuxnoelle","steam_id":76561198062423120,"connected_time":2005000000000,"state":"active","ping":57},{"user_id":717,"name":"kips","steam_id":76561198047171706,"connected_time":336000000000,"state":"active","ping":119},{"user_id":682,"name":"ROGUE-PLANET","steam_id":76561198116023052,"connected_time":2756000000000,"state":"active","ping":98},{"user_id":686,"name":"An Untitled PNG","steam_id":76561198155511529,"connected_time":2562000000000,"state":"active","ping":92},{"user_id":619,"name":"Emberdened","steam_id":76561199163688421,"connected_time":8292000000000,"state":"active","ping":112},{"user_id":622,"name":"smalFox","steam_id":76561198041243017,"connected_time":8166000000000,"state":"active","ping":83},{"user_id":698,"name":"Luka Doncic","steam_id":76561198072779843,"connected_time":1986000000000,"state":"active","ping":32},{"user_id":704,"name":"LittleLeaf","steam_id":76561198047925893,"connected_time":1806000000000,"state":"active","ping":64},{"user_id":713,"name":"Genetic Komodo (He/Him)","steam_id":76561198174806758,"connected_time":1031000000000,"state":"active","ping":76},{"user_id":721,"name":"Sicko Mode (Chris Pratt Cover)","steam_id":76561198315786174,"connected_time":150000000000,"state":"active","ping":66},{"user_id":718,"name":"Dullahan","steam_id":76561198119668908,"connected_time":278000000000,"state":"active","ping":123},{"user_id":702,"name":"finish that puzzle","steam_id":76561198054815524,"connected_time":1919000000000,"state":"active","ping":49},{"user_id":714,"name":"Silly-Brained Sh3ba","steam_id":76561198047412394,"connected_time":1021000000000,"state":"active","ping":85},{"user_id":719,"name":"Stunner","steam_id":76561198063197896,"connected_time":232000000000,"state":"active","ping":128},{"user_id":711,"name":"A Puppy","steam_id":76561198828184456,"connected_time":1162000000000,"state":"active","ping":46},{"user_id":720,"name":"GreenApples","steam_id":76561198120559543,"connected_time":192000000000,"state":"active","ping":124}]},{"server_id":14,"name":"Uncletopia | New York City | 2 | All Maps","name_short":"nyc-2","host":"nyc-1.us.uncletopia.com","port":27025,"enabled":true,"region":"us-east","cc":"us","latitude":40.73061,"longitude":-73.93524,"reserved":0,"last_update":"0001-01-01T00:00:00Z","name_a2s":"Uncletopia | New York City | 2 | All Maps","protocol":17,"map":"cp_sunshine","folder":"tf","game":"Team Fortress","app_id":440,"player_count":24,"max_players":24,"Bots":0,"server_type":"Dedicated","server_os":"Linux","password":true,"vac":true,"version":"7961495","steam_id":85568392924469994,"keywords":["cp","nocrits","nodmgspread","uncletopia"],"game_id":440,"stv_port":27026,"stv_name":"Uncletopia | New York City | 2 | All Maps | STV","players":[{"user_id":580,"name":"Shemply","steam_id":76561198193658910,"connected_time":1706000000000,"state":"active","ping":88},{"user_id":589,"name":"BradB.","steam_id":76561199163905036,"connected_time":1384000000000,"state":"active","ping":83},{"user_id":556,"name":"Two-Teste Tommy","steam_id":76561198064308936,"connected_time":2763000000000,"state":"active","ping":63},{"user_id":490,"name":"Eiss","steam_id":76561198343183806,"connected_time":6526000000000,"state":"active","ping":60},{"user_id":583,"name":"puto el que lolea","steam_id":76561199093442581,"connected_time":1567000000000,"state":"active","ping":178},{"user_id":600,"name":"bongwater","steam_id":76561198101899047,"connected_time":863000000000,"state":"active","ping":76},{"user_id":567,"name":"Udokotela","steam_id":76561198070839980,"connected_time":2385000000000,"state":"active","ping":86},{"user_id":550,"name":"Useless","steam_id":76561198116079299,"connected_time":3637000000000,"state":"active","ping":104},{"user_id":603,"name":"Person","steam_id":76561198093244204,"connected_time":278000000000,"state":"active","ping":69},{"user_id":597,"name":"quack","steam_id":76561198138783216,"connected_time":1117000000000,"state":"active","ping":39},{"user_id":601,"name":"Cam","steam_id":76561198285054047,"connected_time":765000000000,"state":"active","ping":92},{"user_id":532,"name":"Bran Flakes","steam_id":76561198043552741,"connected_time":4384000000000,"state":"active","ping":95},{"user_id":559,"name":"tek lintowe fan","steam_id":76561198206177593,"connected_time":2752000000000,"state":"active","ping":122},{"user_id":602,"name":"WitheringLeo","steam_id":76561198046722918,"connected_time":411000000000,"state":"active","ping":74},{"user_id":551,"name":"(VIRSY) plump DOGS","steam_id":76561198072621300,"connected_time":3588000000000,"state":"active","ping":57},{"user_id":592,"name":"Trouser Snivy","steam_id":76561198073788829,"connected_time":1239000000000,"state":"active","ping":128},{"user_id":543,"name":"Zephyr","steam_id":76561198063155482,"connected_time":4210000000000,"state":"active","ping":75},{"user_id":593,"name":"Snoopist","steam_id":76561198144023761,"connected_time":1236000000000,"state":"active","ping":57},{"user_id":569,"name":"Mixed Up","steam_id":76561198042570322,"connected_time":2259000000000,"state":"active","ping":78},{"user_id":527,"name":"The Winter Medic","steam_id":76561198197112922,"connected_time":5188000000000,"state":"active","ping":73},{"user_id":606,"name":"Shrimp Fried Rice","steam_id":76561198247688228,"connected_time":111000000000,"state":"active","ping":89},{"user_id":598,"name":"werecat","steam_id":76561198005091213,"connected_time":1100000000000,"state":"active","ping":42},{"user_id":604,"name":"Gut125","steam_id":76561198101787225,"connected_time":262000000000,"state":"active","ping":105},{"user_id":605,"name":"Fairlife Cow","steam_id":76561198242227952,"connected_time":180000000000,"state":"active","ping":86}]},{"server_id":15,"name":"Uncletopia | New York City | 3 | Stopwatch","name_short":"nyc-3","host":"nyc-1.us.uncletopia.com","port":27035,"enabled":true,"region":"us-east","cc":"us","latitude":40.73061,"longitude":-73.93524,"reserved":0,"last_update":"0001-01-01T00:00:00Z","name_a2s":"Uncletopia | New York City | 3 | Stopwatch","protocol":17,"map":"workshop/koth_ashville_final.ugc2130459942","folder":"tf","game":"Team Fortress","app_id":440,"player_count":0,"max_players":24,"Bots":0,"server_type":"Dedicated","server_os":"Linux","password":true,"vac":true,"version":"7961495","steam_id":85568392924742820,"keywords":["cp","nocrits","nodmgspread","uncletopia"],"game_id":440,"stv_port":27036,"stv_name":"Uncletopia | New York City | 3 | Stopwatch | STV","players":null},{"server_id":16,"name":"Uncletopia | New York City | 4 | Community","name_short":"nyc-4","host":"nyc-1.us.uncletopia.com","port":27045,"enabled":true,"region":"us-east","cc":"us","latitude":40.73061,"longitude":-73.93524,"reserved":0,"last_update":"0001-01-01T00:00:00Z","name_a2s":"Uncletopia | New York City | 4 | Community","protocol":17,"map":"workshop/rd_asteroid_redux_b1.ugc2154902912","folder":"tf","game":"Team Fortress","app_id":440,"player_count":0,"max_players":24,"Bots":0,"server_type":"Dedicated","server_os":"Linux","password":true,"vac":true,"version":"7961495","steam_id":85568392924742821,"keywords":["beta","nocrits","nodmgspread","rd","uncletopia"],"game_id":440,"stv_port":27046,"stv_name":"Uncletopia | New York City | 4 | Community | STV","players":null},{"server_id":142,"name":"Uncletopia | São Paulo | 1 | All Maps","name_short":"sao-1","host":"sao-1.br.uncletopia.com","port":27015,"enabled":true,"region":"sa","cc":"br","latitude":-23.533773,"longitude":-46.62529,"reserved":0,"last_update":"0001-01-01T00:00:00Z","name_a2s":"Uncletopia | São Paulo | 1 | All Maps","protocol":17,"map":"koth_lakeside_final","folder":"tf","game":"Team Fortress","app_id":440,"player_count":0,"max_players":24,"Bots":0,"server_type":"Dedicated","server_os":"Linux","password":true,"vac":true,"version":"7961495","steam_id":85568392924469996,"keywords":["cp","nocrits","nodmgspread","uncletopia"],"game_id":440,"stv_port":27016,"stv_name":"Uncletopia | São Paulo | 1 | All Maps | STV","players":null},{"server_id":143,"name":"Uncletopia | São Paulo | 2 | Community","name_short":"sao-2","host":"sao-2.br.uncletopia.com","port":27015,"enabled":true,"region":"sa","cc":"br","latitude":-23.533773,"longitude":-46.62529,"reserved":0,"last_update":"0001-01-01T00:00:00Z","name_a2s":"Uncletopia | São Paulo | 2 | Community","protocol":17,"map":"workshop/koth_kemptown_rc1.ugc767410655","folder":"tf","game":"Team Fortress","app_id":440,"player_count":0,"max_players":24,"Bots":0,"server_type":"Dedicated","server_os":"Linux","password":true,"vac":true,"version":"7961495","steam_id":85568392924485349,"keywords":["cp","nocrits","nodmgspread","uncletopia"],"game_id":440,"stv_port":27016,"stv_name":"Uncletopia | São Paulo | 2 | Community | STV","players":null},{"server_id":7,"name":"Uncletopia | Seattle | 1 | All Maps","name_short":"sea-1","host":"sea-1.us.uncletopia.com","port":27015,"enabled":true,"region":"us-west","cc":"us","latitude":47.608013,"longitude":-122.33517,"reserved":0,"last_update":"0001-01-01T00:00:00Z","name_a2s":"Uncletopia | Seattle | 1 | All Maps","protocol":17,"map":"pl_pier","folder":"tf","game":"Team Fortress","app_id":440,"player_count":24,"max_players":24,"Bots":0,"server_type":"Dedicated","server_os":"Linux","password":true,"vac":true,"version":"7961495","steam_id":85568392924469997,"keywords":["nocrits","nodmgspread","payload","uncletopia"],"game_id":440,"stv_port":27016,"stv_name":"Uncletopia | Seattle | 1 | All Maps | STV","players":[{"user_id":546,"name":"PopcornBucketGames","steam_id":76561199089562026,"connected_time":1721000000000,"state":"active","ping":43},{"user_id":538,"name":"[TrC] Dackstrus","steam_id":76561197973518509,"connected_time":2488000000000,"state":"active","ping":60},{"user_id":533,"name":"Darkgigglemonster","steam_id":76561198870649125,"connected_time":3210000000000,"state":"active","ping":90},{"user_id":516,"name":"oo","steam_id":76561198119626492,"connected_time":4290000000000,"state":"active","ping":88},{"user_id":559,"name":"Sniff","steam_id":76561198010270922,"connected_time":363000000000,"state":"active","ping":71},{"user_id":560,"name":"cerious","steam_id":76561197994365894,"connected_time":95000000000,"state":"active","ping":38},{"user_id":544,"name":"Octopus","steam_id":76561198114639980,"connected_time":1990000000000,"state":"active","ping":54},{"user_id":418,"name":"Corbezy","steam_id":76561197993398349,"connected_time":15164000000000,"state":"active","ping":125},{"user_id":549,"name":"Havi","steam_id":76561198197832829,"connected_time":894000000000,"state":"active","ping":46},{"user_id":562,"name":"a mild amount of tomfoolery","steam_id":76561199181963791,"connected_time":74000000000,"state":"active","ping":57},{"user_id":310,"name":"DaddyGalaxy","steam_id":76561198139697796,"connected_time":27249000000000,"state":"active","ping":53},{"user_id":547,"name":"Warlock","steam_id":76561199033164093,"connected_time":1439000000000,"state":"active","ping":37},{"user_id":540,"name":"DubiousDodo","steam_id":76561198828172686,"connected_time":2452000000000,"state":"active","ping":75},{"user_id":535,"name":"Mignyanne :3","steam_id":76561198048754056,"connected_time":2961000000000,"state":"active","ping":63},{"user_id":554,"name":"Neptune˖⁺｡˚⋆˙♥","steam_id":76561199054203198,"connected_time":839000000000,"state":"active","ping":122},{"user_id":555,"name":"Sweets","steam_id":76561198998446307,"connected_time":839000000000,"state":"active","ping":67},{"user_id":525,"name":"Supersonic","steam_id":76561198042167127,"connected_time":4120000000000,"state":"active","ping":59},{"user_id":496,"name":"Deathkillsme","steam_id":76561198059468746,"connected_time":6456000000000,"state":"active","ping":49},{"user_id":502,"name":"Arsonist Goose","steam_id":76561198147441830,"connected_time":5775000000000,"state":"active","ping":75},{"user_id":552,"name":"Meatball Obsessed Demoman","steam_id":76561198253325844,"connected_time":880000000000,"state":"active","ping":54},{"user_id":530,"name":"sudoku_fiend","steam_id":76561198152029104,"connected_time":3619000000000,"state":"active","ping":88},{"user_id":557,"name":"Kaiga","steam_id":76561198044052046,"connected_time":773000000000,"state":"active","ping":131},{"user_id":500,"name":"Gm_Sweet","steam_id":76561199445091548,"connected_time":6304000000000,"state":"active","ping":60},{"user_id":553,"name":"Dog","steam_id":76561198041841128,"connected_time":865000000000,"state":"active","ping":90}]},{"server_id":119,"name":"Uncletopia | Seattle | 2 | All Maps","name_short":"sea-2","host":"sea-1.us.uncletopia.com","port":27025,"enabled":true,"region":"us-west","cc":"us","latitude":47.608013,"longitude":-122.33517,"reserved":0,"last_update":"0001-01-01T00:00:00Z","name_a2s":"Uncletopia | Seattle | 2 | All Maps","protocol":17,"map":"pl_upward","folder":"tf","game":"Team Fortress","app_id":440,"player_count":24,"max_players":24,"Bots":0,"server_type":"Dedicated","server_os":"Linux","password":true,"vac":true,"version":"7961495","steam_id":85568392924469998,"keywords":["nocrits","nodmgspread","payload","uncletopia"],"game_id":440,"stv_port":27026,"stv_name":"Uncletopia | Seattle | 2 | All Maps | STV","players":[{"user_id":493,"name":"Dealer","steam_id":76561198801450794,"connected_time":610000000000,"state":"active","ping":70},{"user_id":482,"name":"don't get mad","steam_id":76561198064662875,"connected_time":1753000000000,"state":"active","ping":66},{"user_id":453,"name":"lukamine","steam_id":76561198166827208,"connected_time":4451000000000,"state":"active","ping":46},{"user_id":496,"name":"dodecadron","steam_id":76561198027397222,"connected_time":561000000000,"state":"active","ping":90},{"user_id":492,"name":"Blitzoetic","steam_id":76561198053239412,"connected_time":987000000000,"state":"active","ping":77},{"user_id":392,"name":"ilun","steam_id":76561198042913843,"connected_time":8839000000000,"state":"active","ping":60},{"user_id":461,"name":"mraow","steam_id":76561199200969139,"connected_time":3733000000000,"state":"active","ping":142},{"user_id":497,"name":"scout","steam_id":76561199067766868,"connected_time":549000000000,"state":"active","ping":52},{"user_id":506,"name":"aistrrr","steam_id":76561198962174989,"connected_time":63000000000,"state":"active","ping":57},{"user_id":491,"name":"2 Point Tom","steam_id":76561198087617008,"connected_time":1076000000000,"state":"active","ping":55},{"user_id":503,"name":"A bendy straw in disguise","steam_id":76561198257743986,"connected_time":167000000000,"state":"active","ping":91},{"user_id":353,"name":"a familiar cat","steam_id":76561198080046542,"connected_time":12081000000000,"state":"active","ping":45},{"user_id":468,"name":"Strikerbolt","steam_id":76561199095622897,"connected_time":3169000000000,"state":"active","ping":74},{"user_id":488,"name":"[S]Mr. X [No Monitor]","steam_id":76561197963746035,"connected_time":1481000000000,"state":"active","ping":103},{"user_id":451,"name":"Mocha Josie","steam_id":76561198066452726,"connected_time":4511000000000,"state":"active","ping":61},{"user_id":442,"name":"Banana Sword","steam_id":76561199076361445,"connected_time":5095000000000,"state":"active","ping":67},{"user_id":494,"name":"Dr. Inkulus | snlnʞuI ˙ɹᗡ","steam_id":76561198212231033,"connected_time":596000000000,"state":"active","ping":31},{"user_id":472,"name":"Thunder","steam_id":76561198097721532,"connected_time":3060000000000,"state":"active","ping":75},{"user_id":495,"name":"rock gaming","steam_id":76561199402868311,"connected_time":583000000000,"state":"active","ping":86},{"user_id":481,"name":"Jazz Hands","steam_id":76561199225708271,"connected_time":1791000000000,"state":"active","ping":70},{"user_id":498,"name":"Mom","steam_id":76561198207936000,"connected_time":505000000000,"state":"active","ping":59},{"user_id":489,"name":"get off the toilet","steam_id":76561198168492250,"connected_time":1474000000000,"state":"active","ping":61},{"user_id":408,"name":"Elijah123","steam_id":76561199037648021,"connected_time":7786000000000,"state":"active","ping":119},{"user_id":500,"name":"Fast Paced Terrorism","steam_id":76561198216600608,"connected_time":493000000000,"state":"active","ping":73}]},{"server_id":406,"name":"Uncletopia | Seattle | 3 | Stopwatch","name_short":"sea-3","host":"sea-1.us.uncletopia.com","port":27035,"enabled":true,"region":"us-west","cc":"us","latitude":47.608013,"longitude":-122.33517,"reserved":0,"last_update":"0001-01-01T00:00:00Z","name_a2s":"Uncletopia | Seattle | 3 | Stopwatch","protocol":17,"map":"workshop/pl_badwater_pro_v12.ugc2142942074","folder":"tf","game":"Team Fortress","app_id":440,"player_count":0,"max_players":24,"Bots":0,"server_type":"Dedicated","server_os":"Linux","password":true,"vac":true,"version":"7961495","steam_id":85568392924515217,"keywords":["nocrits","nodmgspread","payload","uncletopia"],"game_id":440,"stv_port":27036,"stv_name":"Uncletopia | Seattle | 3 | Stopwatch | STV","players":null},{"server_id":17,"name":"Uncletopia | San Francisco | 1 | All Maps","name_short":"sfo-1","host":"sfo-1.us.uncletopia.com","port":27015,"enabled":true,"region":"us-west","cc":"us","latitude":37.77397,"longitude":-122.4313,"reserved":0,"last_update":"0001-01-01T00:00:00Z","name_a2s":"Uncletopia | San Francisco | 1 | All Maps","protocol":17,"map":"cp_steel","folder":"tf","game":"Team Fortress","app_id":440,"player_count":24,"max_players":24,"Bots":0,"server_type":"Dedicated","server_os":"Linux","password":true,"vac":true,"version":"7961495","steam_id":85568392924469999,"keywords":["cp","nocrits","nodmgspread","uncletopia"],"game_id":440,"stv_port":27016,"stv_name":"Uncletopia | San Francisco | 1 | All Maps | STV","players":[{"user_id":87,"name":"Philanatidae","steam_id":76561198072652934,"connected_time":6067000000000,"state":"active","ping":82},{"user_id":117,"name":"SoldMyKidneyForCollege","steam_id":76561198096329559,"connected_time":3025000000000,"state":"active","ping":60},{"user_id":112,"name":"Cats pretend they're smart","steam_id":76561197987182097,"connected_time":3690000000000,"state":"active","ping":50},{"user_id":16,"name":"thuck","steam_id":76561198858474714,"connected_time":10795000000000,"state":"active","ping":72},{"user_id":100,"name":"Anon","steam_id":76561198109740776,"connected_time":5216000000000,"state":"active","ping":91},{"user_id":136,"name":"sincerelymagicmeister","steam_id":76561198393923543,"connected_time":1710000000000,"state":"active","ping":64},{"user_id":131,"name":"Mechoid","steam_id":76561198017214397,"connected_time":1889000000000,"state":"active","ping":88},{"user_id":147,"name":"meph","steam_id":76561198149683030,"connected_time":807000000000,"state":"active","ping":75},{"user_id":148,"name":"Zetta","steam_id":76561198045710113,"connected_time":789000000000,"state":"active","ping":85},{"user_id":130,"name":"top 10 sidewalks","steam_id":76561198844273999,"connected_time":1893000000000,"state":"active","ping":64},{"user_id":103,"name":"NormanVillage","steam_id":76561198330337371,"connected_time":4997000000000,"state":"active","ping":72},{"user_id":88,"name":"Bige Rone","steam_id":76561198066718191,"connected_time":6066000000000,"state":"active","ping":62},{"user_id":152,"name":"Pissless Pissmass Pissman","steam_id":76561198409907417,"connected_time":670000000000,"state":"active","ping":85},{"user_id":153,"name":"D class hero","steam_id":76561198066091050,"connected_time":349000000000,"state":"active","ping":64},{"user_id":101,"name":"Bird","steam_id":76561198061274314,"connected_time":5065000000000,"state":"active","ping":120},{"user_id":75,"name":"big play","steam_id":76561198011675372,"connected_time":6442000000000,"state":"active","ping":85},{"user_id":154,"name":"TüCold","steam_id":76561198111278197,"connected_time":180000000000,"state":"active","ping":59},{"user_id":139,"name":"mwafle","steam_id":76561198211841060,"connected_time":1581000000000,"state":"active","ping":82},{"user_id":141,"name":"󰀑BoppyDoppy 󰀑","steam_id":76561198976668694,"connected_time":1340000000000,"state":"active","ping":57},{"user_id":111,"name":"Aspect1","steam_id":76561199006943927,"connected_time":3711000000000,"state":"active","ping":51},{"user_id":132,"name":"Gwuf","steam_id":76561198091503282,"connected_time":1881000000000,"state":"active","ping":83},{"user_id":149,"name":"skyrim belongs to henry ford","steam_id":76561198019079798,"connected_time":705000000000,"state":"active","ping":128},{"user_id":144,"name":"hart","steam_id":76561198046073848,"connected_time":1229000000000,"state":"active","ping":69},{"user_id":151,"name":"lol","steam_id":76561198026491738,"connected_time":705000000000,"state":"active","ping":67}]},{"server_id":18,"name":"Uncletopia | San Francisco | 2 | All Maps","name_short":"sfo-2","host":"sfo-1.us.uncletopia.com","port":27025,"enabled":true,"region":"us-west","cc":"us","latitude":37.77397,"longitude":-122.4313,"reserved":0,"last_update":"0001-01-01T00:00:00Z","name_a2s":"Uncletopia | San Francisco | 2 | All Maps","protocol":17,"map":"pl_badwater","folder":"tf","game":"Team Fortress","app_id":440,"player_count":0,"max_players":24,"Bots":0,"server_type":"Dedicated","server_os":"Linux","password":true,"vac":true,"version":"7961495","steam_id":85568392924470000,"keywords":["nocrits","nodmgspread","payload","uncletopia"],"game_id":440,"stv_port":27026,"stv_name":"Uncletopia | San Francisco | 2 | All Maps | STV","players":null},{"server_id":19,"name":"Uncletopia | San Francisco | 3 | Stopwatch","name_short":"sfo-3","host":"sfo-1.us.uncletopia.com","port":27035,"enabled":true,"region":"us-west","cc":"us","latitude":37.77397,"longitude":-122.4313,"reserved":0,"last_update":"0001-01-01T00:00:00Z","name_a2s":"Uncletopia | San Francisco | 3 | Stopwatch","protocol":17,"map":"workshop/koth_bagel_rc6.ugc2514036946","folder":"tf","game":"Team Fortress","app_id":440,"player_count":0,"max_players":24,"Bots":0,"server_type":"Dedicated","server_os":"Linux","password":true,"vac":true,"version":"7961495","steam_id":85568392924742824,"keywords":["cp","nocrits","nodmgspread","uncletopia"],"game_id":440,"stv_port":27036,"stv_name":"Uncletopia | San Francisco | 3 | Stopwatch | STV","players":null},{"server_id":20,"name":"Uncletopia | San Francisco | 4 | Community","name_short":"sfo-4","host":"sfo-1.us.uncletopia.com","port":27045,"enabled":true,"region":"us-west","cc":"us","latitude":37.77397,"longitude":-122.4313,"reserved":0,"last_update":"0001-01-01T00:00:00Z","name_a2s":"Uncletopia | San Francisco | 4 | Community","protocol":17,"map":"pl_pier","folder":"tf","game":"Team Fortress","app_id":440,"player_count":0,"max_players":24,"Bots":0,"server_type":"Dedicated","server_os":"Linux","password":true,"vac":true,"version":"7961495","steam_id":85568392924742826,"keywords":["nocrits","nodmgspread","payload","uncletopia"],"game_id":440,"stv_port":27046,"stv_name":"Uncletopia | San Francisco | 4 | Community | STV","players":null},{"server_id":141,"name":"Uncletopia | Sydney | 1 | All Maps","name_short":"syd-1","host":"syd-1.au.uncletopia.com","port":27015,"enabled":true,"region":"au","cc":"au","latitude":-33.865143,"longitude":151.2099,"reserved":0,"last_update":"0001-01-01T00:00:00Z","name_a2s":"Uncletopia | Sydney | 1 | All Maps","protocol":17,"map":"cp_process_final","folder":"tf","game":"Team Fortress","app_id":440,"player_count":6,"max_players":24,"Bots":0,"server_type":"Dedicated","server_os":"Linux","password":true,"vac":true,"version":"7961495","steam_id":85568392924470001,"keywords":["cp","nocrits","nodmgspread","uncletopia"],"game_id":440,"stv_port":27016,"stv_name":"Uncletopia | Sydney | 1 | All Maps | STV","players":[{"user_id":6,"name":"APVC","steam_id":76561199090168813,"connected_time":1132000000000,"state":"active","ping":45},{"user_id":8,"name":"i love cornflakes so much","steam_id":76561198238031616,"connected_time":860000000000,"state":"active","ping":82},{"user_id":9,"name":"touchem","steam_id":76561199082450690,"connected_time":812000000000,"state":"active","ping":57},{"user_id":10,"name":"pususy","steam_id":76561198031800830,"connected_time":318000000000,"state":"active","ping":60},{"user_id":11,"name":"Shisno","steam_id":76561198028867053,"connected_time":135000000000,"state":"active","ping":100},{"user_id":13,"name":"abyssal wretch","steam_id":76561198799721381,"connected_time":113000000000,"state":"active","ping":46}]},{"server_id":123,"name":"Uncletopia | Sydney | 2 | All Maps","name_short":"syd-2","host":"syd-1.au.uncletopia.com","port":27025,"enabled":true,"region":"au","cc":"au","latitude":-33.865143,"longitude":151.2099,"reserved":0,"last_update":"0001-01-01T00:00:00Z","name_a2s":"Uncletopia | Sydney | 2 | All Maps","protocol":17,"map":"koth_lakeside_final","folder":"tf","game":"Team Fortress","app_id":440,"player_count":0,"max_players":24,"Bots":0,"server_type":"Dedicated","server_os":"Linux","password":true,"vac":true,"version":"7961495","steam_id":85568392924470002,"keywords":["cp","nocrits","nodmgspread","uncletopia"],"game_id":440,"stv_port":27026,"stv_name":"Uncletopia | Sydney | 2 | All Maps | STV","players":null},{"server_id":395,"name":"Uncletopia | Sydney | 3 | All Maps","name_short":"syd-3","host":"syd-1.au.uncletopia.com","port":27035,"enabled":true,"region":"au","cc":"au","latitude":-33.865143,"longitude":151.2099,"reserved":0,"last_update":"0001-01-01T00:00:00Z","name_a2s":"Uncletopia | Sydney | 3 | All Maps","protocol":17,"map":"pl_frontier_final","folder":"tf","game":"Team Fortress","app_id":440,"player_count":0,"max_players":24,"Bots":0,"server_type":"Dedicated","server_os":"Linux","password":true,"vac":true,"version":"7961495","steam_id":85568392925194467,"keywords":["nocrits","nodmgspread","payload","uncletopia"],"game_id":440,"stv_port":27036,"stv_name":"Uncletopia | Sydney | 3 | All Maps | STV","players":null},{"server_id":396,"name":"Uncletopia | Sydney | 4 | All Maps","name_short":"syd-4","host":"syd-1.au.uncletopia.com","port":27045,"enabled":true,"region":"au","cc":"au","latitude":-33.865143,"longitude":151.2099,"reserved":0,"last_update":"0001-01-01T00:00:00Z","name_a2s":"Uncletopia | Sydney | 4 | All Maps","protocol":17,"map":"koth_lakeside_final","folder":"tf","game":"Team Fortress","app_id":440,"player_count":0,"max_players":24,"Bots":0,"server_type":"Dedicated","server_os":"Linux","password":true,"vac":true,"version":"7961495","steam_id":85568392925397958,"keywords":["cp","nocrits","nodmgspread","uncletopia"],"game_id":440,"stv_port":27046,"stv_name":"Uncletopia | Sydney | 4 | All Maps | STV","players":null},{"server_id":58,"name":"Uncletopia | Sydney | 5 | Stopwatch","name_short":"syd-5","host":"syd-1.au.uncletopia.com","port":27055,"enabled":true,"region":"au","cc":"au","latitude":-33.865143,"longitude":151.2099,"reserved":0,"last_update":"0001-01-01T00:00:00Z","name_a2s":"Uncletopia | Sydney | 5 | Stopwatch","protocol":17,"map":"cp_snakewater_final1","folder":"tf","game":"Team Fortress","app_id":440,"player_count":0,"max_players":24,"Bots":0,"server_type":"Dedicated","server_os":"Linux","password":true,"vac":true,"version":"7961495","steam_id":85568392925397959,"keywords":["cp","nocrits","nodmgspread","uncletopia"],"game_id":440,"stv_port":27056,"stv_name":"Uncletopia | Sydney | 5 | Stopwatch | STV","players":null},{"server_id":59,"name":"Uncletopia | Sydney | 6 | Community","name_short":"syd-6","host":"syd-1.au.uncletopia.com","port":27065,"enabled":true,"region":"au","cc":"au","latitude":-33.865143,"longitude":151.2099,"reserved":0,"last_update":"0001-01-01T00:00:00Z","name_a2s":"Uncletopia | Sydney | 6 | Community","protocol":17,"map":"cp_sunshine","folder":"tf","game":"Team Fortress","app_id":440,"player_count":0,"max_players":24,"Bots":0,"server_type":"Dedicated","server_os":"Linux","password":true,"vac":true,"version":"7961495","steam_id":85568392925397960,"keywords":["cp","nocrits","nodmgspread","uncletopia"],"game_id":440,"stv_port":27066,"stv_name":"Uncletopia | Sydney | 6 | Community | STV","players":null},{"server_id":49,"name":"Uncletopia | Warsaw | 1 | One Thousand Uncles","name_short":"waw-1","host":"waw-1.pl.uncletopia.com","port":27015,"enabled":true,"region":"eu","cc":"pl","latitude":52.2297,"longitude":21.017532,"reserved":0,"last_update":"0001-01-01T00:00:00Z","name_a2s":"Uncletopia | Warsaw | 1 | One Thousand Uncles","protocol":17,"map":"koth_highpass","folder":"tf","game":"Team Fortress","app_id":440,"player_count":1,"max_players":32,"Bots":0,"server_type":"Dedicated","server_os":"Linux","password":true,"vac":true,"version":"7961495","steam_id":85568392925397850,"keywords":["alltalk","cp","danepve","increased_maxplayers","nocrits","norespawntime","uncletopia"],"game_id":440,"stv_port":0,"stv_name":"","players":[{"user_id":2,"name":"nigilist","steam_id":76561198388456046,"connected_time":27000000000,"state":"spawning","ping":130}]},{"server_id":50,"name":"Uncletopia | Warsaw | 2 | One Thousand Uncles","name_short":"waw-2","host":"waw-1.pl.uncletopia.com","port":27025,"enabled":true,"region":"eu","cc":"pl","latitude":52.2297,"longitude":21.017532,"reserved":0,"last_update":"0001-01-01T00:00:00Z","name_a2s":"Uncletopia | Warsaw | 2 | One Thousand Uncles","protocol":17,"map":"pl_goldrush","folder":"tf","game":"Team Fortress","app_id":440,"player_count":0,"max_players":32,"Bots":0,"server_type":"Dedicated","server_os":"Linux","password":true,"vac":true,"version":"7961495","steam_id":85568392925397851,"keywords":["alltalk","danepve","increased_maxplayers","nocrits","norespawntime","payload","uncletopia"],"game_id":440,"stv_port":0,"stv_name":"","players":null},{"server_id":51,"name":"Uncletopia | Warsaw | 3 | All Maps","name_short":"waw-3","host":"waw-1.pl.uncletopia.com","port":27035,"enabled":true,"region":"eu","cc":"pl","latitude":52.2297,"longitude":21.017532,"reserved":0,"last_update":"0001-01-01T00:00:00Z","name_a2s":"Uncletopia | Warsaw | 3 | All Maps","protocol":17,"map":"plr_pipeline","folder":"tf","game":"Team Fortress","app_id":440,"player_count":0,"max_players":24,"Bots":0,"server_type":"Dedicated","server_os":"Linux","password":true,"vac":true,"version":"7961495","steam_id":85568392925397852,"keywords":["nocrits","nodmgspread","payload","uncletopia"],"game_id":440,"stv_port":27036,"stv_name":"Uncletopia | Warsaw | 3 | All Maps | STV","players":null},{"server_id":52,"name":"Uncletopia | Warsaw | 4 | All Maps","name_short":"waw-4","host":"waw-1.pl.uncletopia.com","port":27045,"enabled":true,"region":"eu","cc":"pl","latitude":52.2297,"longitude":21.017532,"reserved":0,"last_update":"0001-01-01T00:00:00Z","name_a2s":"Uncletopia | Warsaw | 4 | All Maps","protocol":17,"map":"cp_coldfront","folder":"tf","game":"Team Fortress","app_id":440,"player_count":0,"max_players":24,"Bots":0,"server_type":"Dedicated","server_os":"Linux","password":true,"vac":true,"version":"7961495","steam_id":85568392925397853,"keywords":["cp","nocrits","nodmgspread","uncletopia"],"game_id":440,"stv_port":27046,"stv_name":"Uncletopia | Warsaw | 4 | All Maps | STV","players":null},{"server_id":53,"name":"Uncletopia | Warsaw | 5 | Stopwatch","name_short":"waw-5","host":"waw-1.pl.uncletopia.com","port":27055,"enabled":true,"region":"eu","cc":"pl","latitude":52.2297,"longitude":21.017532,"reserved":0,"last_update":"0001-01-01T00:00:00Z","name_a2s":"Uncletopia | Warsaw | 5 | Stopwatch","protocol":17,"map":"workshop/koth_bagel_rc6.ugc2514036946","folder":"tf","game":"Team Fortress","app_id":440,"player_count":0,"max_players":24,"Bots":0,"server_type":"Dedicated","server_os":"Linux","password":true,"vac":true,"version":"7961495","steam_id":85568392925397854,"keywords":["cp","nocrits","nodmgspread","uncletopia"],"game_id":440,"stv_port":27056,"stv_name":"Uncletopia | Warsaw | 5 | Stopwatch | STV","players":null},{"server_id":54,"name":"Uncletopia | Warsaw | 6 | Community","name_short":"waw-6","host":"waw-1.pl.uncletopia.com","port":27065,"enabled":true,"region":"eu","cc":"pl","latitude":52.2297,"longitude":21.017532,"reserved":0,"last_update":"0001-01-01T00:00:00Z","name_a2s":"Uncletopia | Warsaw | 6 | Community","protocol":17,"map":"workshop/pl_badwater_pro_v12.ugc2142942074","folder":"tf","game":"Team Fortress","app_id":440,"player_count":0,"max_players":24,"Bots":0,"server_type":"Dedicated","server_os":"Linux","password":true,"vac":true,"version":"7961495","steam_id":85568392925397856,"keywords":["nocrits","nodmgspread","payload","uncletopia"],"game_id":440,"stv_port":27066,"stv_name":"Uncletopia | Warsaw | 6 | Community | STV","players":null}]}