{"status":true,"message":"","result":[{"server_id":9,"name":"Uncletopia | Atlanta | 1 | All Maps","name_short":"atl-1","host":"atl-1.us.uncletopia.com","port":27015,"enabled":true,"region":"us-east","cc":"us","latitude":33.753746,"longitude":-84.38633,"reserved":0,"last_update":"0001-01-01T00:00:00Z","name_a2s":"Uncletopia | Atlanta | 1 | All Maps","protocol":17,"map":"pl_pier","folder":"tf","game":"Team Fortress","app_id":440,"player_count":24,"max_players":24,"Bots":0,"server_type":"Dedicated","server_os":"Linux","password":true,"vac":true,"version":"7757534","steam_id":85568392924469982,"keywords":["nocrits","nodmgspread","payload","uncletopia"],"game_id":440,"stv_port":27016,"stv_name":"Uncletopia | Atlanta | 1 | All Maps | STV","players":[{"user_id":244,"name":"Laz","steam_id":76561197990879167,"connected_time":7983000000000,"state":"active","ping":79},{"user_id":327,"name":"BLU1 l Epifiny","steam_id":76561198027958086,"connected_time":475000000000,"state":"active","ping":89},{"user_id":328,"name":"dzcreeper","steam_id":76561198072250723,"connected_time":399000000000,"state":"active","ping":129},{"user_id":305,"name":"shaderoses","steam_id":76561198070800500,"connected_time":2863000000000,"state":"active","ping":76},{"user_id":326,"name":"Huntiairi","steam_id":76561198065935917,"connected_time":698000000000,"state":"active","ping":51},{"user_id":329,"name":"Marie","steam_id":76561198056104899,"connected_time":300000000000,"state":"active","ping":86},{"user_id":318,"name":"Psyloom","steam_id":76561198836978827,"connected_time":1304000000000,"state":"active","ping":65},{"user_id":322,"name":"Anji's onlyfans","steam_id":76561198353160282,"connected_time":924000000000,"state":"active","ping":72},{"user_id":330,"name":"GardenOfStone","steam_id":76561199069870534,"connected_time":237000000000,"state":"active","ping":91},{"user_id":319,"name":"LiquidDip","steam_id":76561198090529456,"connected_time":1273000000000,"state":"active","ping":90},{"user_id":325,"name":"Cobalt Blues","steam_id":76561198309195794,"connected_time":784000000000,"state":"active","ping":72},{"user_id":283,"name":"OrangeCrab","steam_id":76561198982248872,"connected_time":4694000000000,"state":"active","ping":77},{"user_id":310,"name":"-BRH- Tangled up in Bluegrass","steam_id":76561197987181139,"connected_time":2045000000000,"state":"active","ping":85},{"user_id":331,"name":"gettysburg","steam_id":76561198016157051,"connected_time":225000000000,"state":"active","ping":59},{"user_id":292,"name":"Sherfire","steam_id":76561198094123992,"connected_time":3922000000000,"state":"active","ping":132},{"user_id":284,"name":"‚áå StriKer ‚áã","steam_id":76561199389089862,"connected_time":4692000000000,"state":"active","ping":134},{"user_id":48,"name":"RED1 | eish","steam_id":76561198089463603,"connected_time":25938000000000,"state":"active","ping":118},{"user_id":332,"name":"Blue Protogen - 001198","steam_id":76561198145791867,"connected_time":218000000000,"state":"active","ping":119},{"user_id":333,"name":"HE‚ÄôS IN THE GODDAMN WALLS","steam_id":76561198363267009,"connected_time":215000000000,"state":"active","ping":64},{"user_id":243,"name":"RED1 | Le4n!!!","steam_id":76561198045522596,"connected_time":7989000000000,"state":"active","ping":73},{"user_id":210,"name":"BLU1 | Flint","steam_id":76561198066547582,"connected_time":10876000000000,"state":"active","ping":110},{"user_id":321,"name":"SCARY MONSTERS","steam_id":76561198042034176,"connected_time":1174000000000,"state":"active","ping":46},{"user_id":303,"name":"fried sasuages","steam_id":76561198319442494,"connected_time":2877000000000,"state":"active","ping":105},{"user_id":299,"name":"domdominic47","steam_id":76561199011987414,"connected_time":3724000000000,"state":"active","ping":109}]},{"server_id":400,"name":"Uncletopia | Atlanta | 3 | Community","name_short":"atl-3","host":"atl-1.us.uncletopia.com","port":27035,"enabled":true,"region":"us-east","cc":"us","latitude":33.753746,"longitude":-84.38633,"reserved":0,"last_update":"0001-01-01T00:00:00Z","name_a2s":"Uncletopia | Atlanta | 3 | Community","protocol":17,"map":"workshop/cp_mannbase_rc2a.ugc1900737467","folder":"tf","game":"Team Fortress","app_id":440,"player_count":23,"max_players":24,"Bots":0,"server_type":"Dedicated","server_os":"Linux","password":true,"vac":true,"version":"7757534","steam_id":85568392924515187,"keywords":["cp","nocrits","nodmgspread","uncletopia"],"game_id":440,"stv_port":27036,"stv_name":"Uncletopia | Atlanta | 3 | Community | STV","players":[{"user_id":265,"name":"ast_ra","steam_id":76561198041032459,"connected_time":2752000000000,"state":"active","ping":43},{"user_id":237,"name":"awak","steam_id":76561198092135570,"connected_time":4503000000000,"state":"active","ping":61},{"user_id":260,"name":"Jade Jetts [She/They]","steam_id":76561198206130076,"connected_time":2954000000000,"state":"active","ping":110},{"user_id":238,"name":"AYE","steam_id":76561198181368101,"connected_time":4494000000000,"state":"active","ping":161},{"user_id":239,"name":"‚ô°Alyx‚ô°","steam_id":76561198024303978,"connected_time":4488000000000,"state":"active","ping":56},{"user_id":266,"name":"Godfinger","steam_id":76561198426346549,"connected_time":2708000000000,"state":"active","ping":41},{"user_id":283,"name":"Moral Grayzone","steam_id":76561198140208676,"connected_time":1792000000000,"state":"active","ping":100},{"user_id":284,"name":"notatrip (link in bio)","steam_id":76561198046109327,"connected_time":1778000000000,"state":"active","ping":80},{"user_id":275,"name":"Warriorbuilds3","steam_id":76561199214713674,"connected_time":2178000000000,"state":"active","ping":107},{"user_id":240,"name":"MelonLikeAFelon","steam_id":76561198060170336,"connected_time":4431000000000,"state":"active","ping":90},{"user_id":282,"name":"brian eno enjoyer","steam_id":76561198056467179,"connected_time":1844000000000,"state":"active","ping":108},{"user_id":295,"name":"Skelescabard","steam_id":76561199228125159,"connected_time":885000000000,"state":"active","ping":107},{"user_id":285,"name":"Phillip Jeffries","steam_id":76561198064052174,"connected_time":1765000000000,"state":"active","ping":73},{"user_id":296,"name":"ahh","steam_id":76561198083271257,"connected_time":704000000000,"state":"active","ping":64},{"user_id":281,"name":"drooskie","steam_id":76561198036083886,"connected_time":1990000000000,"state":"active","ping":64},{"user_id":297,"name":"Jolt","steam_id":76561198168669087,"connected_time":666000000000,"state":"active","ping":62},{"user_id":301,"name":"uwutang clan","steam_id":76561198361326855,"connected_time":49000000000,"state":"active","ping":70},{"user_id":291,"name":"Resistance","steam_id":76561198146782074,"connected_time":1329000000000,"state":"active","ping":78},{"user_id":298,"name":"WannaSeeA","steam_id":76561198097701042,"connected_time":451000000000,"state":"active","ping":81},{"user_id":299,"name":"Tony Hawk's Pro Skater 4","steam_id":76561198426865621,"connected_time":387000000000,"state":"active","ping":98},{"user_id":289,"name":"ITSmeTOXIC","steam_id":76561199067764423,"connected_time":1576000000000,"state":"active","ping":90},{"user_id":280,"name":"RipHunter77","steam_id":76561198272973014,"connected_time":2028000000000,"state":"active","ping":93},{"user_id":290,"name":"HoaroBatty","steam_id":76561198120361221,"connected_time":1529000000000,"state":"active","ping":60}]},{"server_id":401,"name":"Uncletopia | Atlanta | 4 | No Payload","name_short":"atl-4","host":"atl-1.us.uncletopia.com","port":27045,"enabled":true,"region":"us-east","cc":"us","latitude":33.753746,"longitude":-84.38633,"reserved":0,"last_update":"0001-01-01T00:00:00Z","name_a2s":"","protocol":0,"map":"","folder":"","game":"","app_id":0,"player_count":0,"max_players":0,"Bots":0,"server_type":"","server_os":"","password":false,"vac":false,"version":"","steam_id":0,"keywords":null,"game_id":0,"stv_port":0,"stv_name":"","players":null},{"server_id":2,"name":"Uncletopia | Chicago | 1 | All Maps","name_short":"chi-1","host":"chi-1.us.uncletopia.com","port":27015,"enabled":true,"region":"us-central","cc":"us","latitude":41.881832,"longitude":-87.62318,"reserved":0,"last_update":"0001-01-01T00:00:00Z","name_a2s":"Uncletopia | Chicago | 1 | All Maps","protocol":17,"map":"pl_snowycoast","folder":"tf","game":"Team Fortress","app_id":440,"player_count":17,"max_players":24,"Bots":0,"server_type":"Dedicated","server_os":"Linux","password":true,"vac":true,"version":"7757534","steam_id":85568392924469984,"keywords":["nocrits","nodmgspread","payload","uncletopia"],"game_id":440,"stv_port":27016,"stv_name":"Uncletopia | Chicago | 1 | All Maps | STV","players":[{"user_id":897,"name":"Father Jon","steam_id":76561198324730919,"connected_time":40000000000,"state":"active","ping":83},{"user_id":896,"name":"Goku","steam_id":76561198064143198,"connected_time":137000000000,"state":"active","ping":53},{"user_id":827,"name":"Tako","steam_id":76561199264073138,"connected_time":6507000000000,"state":"active","ping":89},{"user_id":892,"name":"stockhack","steam_id":76561198050220225,"connected_time":576000000000,"state":"active","ping":69},{"user_id":895,"name":"robert","steam_id":76561198001196512,"connected_time":404000000000,"state":"active","ping":48},{"user_id":890,"name":"Rallo","steam_id":76561198324357861,"connected_time":1331000000000,"state":"active","ping":55},{"user_id":864,"name":"rudy","steam_id":76561198088712799,"connected_time":3322000000000,"state":"active","ping":78},{"user_id":893,"name":"Aribari","steam_id":76561198117327938,"connected_time":566000000000,"state":"active","ping":61},{"user_id":861,"name":"Solongty4fish","steam_id":76561198042313014,"connected_time":3577000000000,"state":"active","ping":79},{"user_id":894,"name":"‚í∑‚ì™‚ì™‚ì£‚ì®‚ìí‚ìê‚ìö‚ìî‚ì¢","steam_id":76561198088776421,"connected_time":547000000000,"state":"active","ping":60},{"user_id":831,"name":"Kapreesi","steam_id":76561198163361200,"connected_time":6145000000000,"state":"active","ping":70},{"user_id":884,"name":"ZofoJackson","steam_id":76561197998366861,"connected_time":1710000000000,"state":"active","ping":47},{"user_id":850,"name":"Suburban Sasquatch","steam_id":76561198023628300,"connected_time":4047000000000,"state":"active","ping":75},{"user_id":873,"name":"Astoriae!","steam_id":76561199090168858,"connected_time":2818000000000,"state":"active","ping":65},{"user_id":803,"name":"Esue Ijae","steam_id":76561199268519057,"connected_time":8439000000000,"state":"active","ping":95},{"user_id":838,"name":"Morgster","steam_id":76561198131697761,"connected_time":5375000000000,"state":"active","ping":96},{"user_id":853,"name":"Limasio","steam_id":76561198198176191,"connected_time":4006000000000,"state":"active","ping":78}]},{"server_id":106,"name":"Uncletopia | Chicago | 2 | All Maps","name_short":"chi-2","host":"chi-1.us.uncletopia.com","port":27025,"enabled":true,"region":"us-central","cc":"us","latitude":41.881832,"longitude":-87.62318,"reserved":0,"last_update":"0001-01-01T00:00:00Z","name_a2s":"Uncletopia | Chicago | 2 | All Maps","protocol":17,"map":"pl_barnblitz","folder":"tf","game":"Team Fortress","app_id":440,"player_count":0,"max_players":24,"Bots":0,"server_type":"Dedicated","server_os":"Linux","password":true,"vac":true,"version":"7757534","steam_id":85568392924469985,"keywords":["nocrits","nodmgspread","payload","uncletopia"],"game_id":440,"stv_port":27026,"stv_name":"Uncletopia | Chicago | 2 | All Maps | STV","players":null},{"server_id":402,"name":"Uncletopia | Chicago | 3 | All Maps","name_short":"chi-3","host":"chi-1.us.uncletopia.com","port":27035,"enabled":true,"region":"us-central","cc":"us","latitude":41.881832,"longitude":-87.62318,"reserved":0,"last_update":"0001-01-01T00:00:00Z","name_a2s":"Uncletopia | Chicago | 3 | All Maps","protocol":17,"map":"cp_snakewater_final1","folder":"tf","game":"Team Fortress","app_id":440,"player_count":24,"max_players":24,"Bots":0,"server_type":"Dedicated","server_os":"Linux","password":true,"vac":true,"version":"7757534","steam_id":85568392924515191,"keywords":["cp","nocrits","nodmgspread","uncletopia"],"game_id":440,"stv_port":27036,"stv_name":"Uncletopia | Chicago | 3 | All Maps | STV","players":[{"user_id":517,"name":"Shlartblorf","steam_id":76561198884378616,"connected_time":3046000000000,"state":"active","ping":108},{"user_id":527,"name":"mossy_woods","steam_id":76561198284350370,"connected_time":1993000000000,"state":"active","ping":114},{"user_id":556,"name":"kite man","steam_id":76561198156336213,"connected_time":1196000000000,"state":"active","ping":69},{"user_id":559,"name":"debin","steam_id":76561198070711217,"connected_time":1061000000000,"state":"active","ping":59},{"user_id":530,"name":"jet ant","steam_id":76561198298240981,"connected_time":1964000000000,"state":"active","ping":111},{"user_id":545,"name":"yep","steam_id":76561198068113077,"connected_time":1560000000000,"state":"active","ping":119},{"user_id":548,"name":"250","steam_id":76561198128901451,"connected_time":1359000000000,"state":"active","ping":99},{"user_id":557,"name":"Andrew","steam_id":76561198070615190,"connected_time":1188000000000,"state":"active","ping":60},{"user_id":558,"name":"Din√∂bro","steam_id":76561198065597770,"connected_time":1158000000000,"state":"active","ping":68},{"user_id":526,"name":"Discipline","steam_id":76561198019206178,"connected_time":2484000000000,"state":"active","ping":76},{"user_id":560,"name":"neco-arc (REAL)","steam_id":76561198157437390,"connected_time":1042000000000,"state":"active","ping":82},{"user_id":509,"name":"Oh No! It's Twister!","steam_id":76561198016791916,"connected_time":3489000000000,"state":"active","ping":89},{"user_id":549,"name":"when she travis on my touchdown","steam_id":76561198128164970,"connected_time":1292000000000,"state":"active","ping":111},{"user_id":550,"name":"Platino","steam_id":76561198410957728,"connected_time":1285000000000,"state":"active","ping":45},{"user_id":541,"name":"G6 habib","steam_id":76561198053621664,"connected_time":1650000000000,"state":"active","ping":47},{"user_id":551,"name":"The_Pacific_gamer","steam_id":76561198089491446,"connected_time":1280000000000,"state":"active","ping":95},{"user_id":538,"name":"cheetaz","steam_id":76561198224614084,"connected_time":1840000000000,"state":"active","ping":70},{"user_id":537,"name":"the12xu","steam_id":76561198197086561,"connected_time":1853000000000,"state":"active","ping":76},{"user_id":561,"name":"NoNoWire","steam_id":76561198106308056,"connected_time":980000000000,"state":"active","ping":108},{"user_id":566,"name":"Tommy Pickles is (Very Cool)","steam_id":76561198391261463,"connected_time":21000000000,"state":"active","ping":68},{"user_id":565,"name":"Ye ( I Love Caulk ) West","steam_id":76561198068830312,"connected_time":410000000000,"state":"active","ping":55},{"user_id":564,"name":"Old St. Scat","steam_id":76561198322096569,"connected_time":886000000000,"state":"active","ping":75},{"user_id":563,"name":"NOLSEY","steam_id":76561198108959504,"connected_time":935000000000,"state":"active","ping":58},{"user_id":522,"name":"Hindmost","steam_id":76561199081837220,"connected_time":2950000000000,"state":"active","ping":84}]},{"server_id":403,"name":"Uncletopia | Chicago | 4 | All Maps","name_short":"chi-4","host":"chi-1.us.uncletopia.com","port":27045,"enabled":true,"region":"us-central","cc":"us","latitude":41.881832,"longitude":-87.62318,"reserved":0,"last_update":"0001-01-01T00:00:00Z","name_a2s":"Uncletopia | Chicago | 4 | All Maps","protocol":17,"map":"pl_upward","folder":"tf","game":"Team Fortress","app_id":440,"player_count":0,"max_players":24,"Bots":0,"server_type":"Dedicated","server_os":"Linux","password":true,"vac":true,"version":"7757534","steam_id":85568392924515193,"keywords":["nocrits","nodmgspread","payload","uncletopia"],"game_id":440,"stv_port":27046,"stv_name":"Uncletopia | Chicago | 4 | All Maps | STV","players":null},{"server_id":36,"name":"Uncletopia | Chicago | 5 | All Maps","name_short":"chi-5","host":"chi-2.us.uncletopia.com","port":27015,"enabled":true,"region":"us-central","cc":"us","latitude":41.881832,"longitude":-87.62318,"reserved":0,"last_update":"0001-01-01T00:00:00Z","name_a2s":"Uncletopia | Chicago | 5 | All Maps","protocol":17,"map":"koth_sawmill","folder":"tf","game":"Team Fortress","app_id":440,"player_count":23,"max_players":24,"Bots":0,"server_type":"Dedicated","server_os":"Linux","password":true,"vac":true,"version":"7757534","steam_id":85568392924866362,"keywords":["cp","nocrits","nodmgspread","uncletopia"],"game_id":440,"stv_port":27016,"stv_name":"Uncletopia | Chicago | 5 | All Maps | STV","players":[{"user_id":696,"name":"Grink \"V.F\" da Boy","steam_id":76561197985230768,"connected_time":1710000000000,"state":"active","ping":101},{"user_id":681,"name":"Evolution","steam_id":76561198144767370,"connected_time":2379000000000,"state":"active","ping":47},{"user_id":666,"name":"souperman","steam_id":76561198426458219,"connected_time":3669000000000,"state":"active","ping":108},{"user_id":711,"name":"ZekeN0Tech","steam_id":76561198042151365,"connected_time":101000000000,"state":"active","ping":54},{"user_id":710,"name":"malkshake, flattener","steam_id":76561198031977478,"connected_time":170000000000,"state":"active","ping":60},{"user_id":679,"name":"jrmadmallard","steam_id":76561198275994616,"connected_time":2546000000000,"state":"active","ping":164},{"user_id":683,"name":"Too bad!","steam_id":76561198112388117,"connected_time":2288000000000,"state":"active","ping":76},{"user_id":682,"name":"asterismz","steam_id":76561198271895997,"connected_time":2314000000000,"state":"active","ping":141},{"user_id":631,"name":"last_apoc","steam_id":76561197974910911,"connected_time":5434000000000,"state":"active","ping":61},{"user_id":706,"name":"Depot1324.ttv","steam_id":76561198069639919,"connected_time":688000000000,"state":"active","ping":78},{"user_id":689,"name":"off","steam_id":76561198053513128,"connected_time":2134000000000,"state":"active","ping":77},{"user_id":651,"name":"OMG!!!!","steam_id":76561198069600113,"connected_time":4497000000000,"state":"active","ping":52},{"user_id":671,"name":"Papa Tony","steam_id":76561198257679490,"connected_time":3071000000000,"state":"active","ping":77},{"user_id":703,"name":"Reverie","steam_id":76561198987005784,"connected_time":1337000000000,"state":"active","ping":55},{"user_id":694,"name":"cyal","steam_id":76561198080957000,"connected_time":1949000000000,"state":"active","ping":114},{"user_id":707,"name":"Model CHP-3Y","steam_id":76561198107806145,"connected_time":580000000000,"state":"active","ping":70},{"user_id":702,"name":"neco-jihadist","steam_id":76561198185980055,"connected_time":1427000000000,"state":"active","ping":60},{"user_id":665,"name":"Trollage","steam_id":76561198165396407,"connected_time":3686000000000,"state":"active","ping":72},{"user_id":705,"name":"danbo_","steam_id":76561198041101126,"connected_time":986000000000,"state":"active","ping":111},{"user_id":704,"name":"Jibblious","steam_id":76561198023263962,"connected_time":1335000000000,"state":"active","ping":104},{"user_id":708,"name":"coffee bagel","steam_id":76561198141198352,"connected_time":418000000000,"state":"active","ping":45},{"user_id":669,"name":"darkness.danny3481","steam_id":76561198132808002,"connected_time":3247000000000,"state":"active","ping":104},{"user_id":709,"name":"Luffa Rigno","steam_id":76561197998700507,"connected_time":242000000000,"state":"active","ping":124}]},{"server_id":37,"name":"Uncletopia | Chicago | 6 | All Maps","name_short":"chi-6","host":"chi-2.us.uncletopia.com","port":27025,"enabled":true,"region":"us-central","cc":"us","latitude":41.881832,"longitude":-87.62318,"reserved":0,"last_update":"0001-01-01T00:00:00Z","name_a2s":"Uncletopia | Chicago | 6 | All Maps","protocol":17,"map":"pl_pier","folder":"tf","game":"Team Fortress","app_id":440,"player_count":23,"max_players":24,"Bots":0,"server_type":"Dedicated","server_os":"Linux","password":true,"vac":true,"version":"7757534","steam_id":85568392924866363,"keywords":["nocrits","nodmgspread","payload","uncletopia"],"game_id":440,"stv_port":27026,"stv_name":"Uncletopia | Chicago | 6 | All Maps | STV","players":[{"user_id":637,"name":"ToughGuy311","steam_id":76561198131458027,"connected_time":8260000000000,"state":"active","ping":72},{"user_id":753,"name":"I'mWillow","steam_id":76561198229691912,"connected_time":428000000000,"state":"active","ping":63},{"user_id":638,"name":"Inspecteur Spie","steam_id":76561198082825407,"connected_time":8257000000000,"state":"active","ping":90},{"user_id":664,"name":"Soap Man","steam_id":76561198000490235,"connected_time":6671000000000,"state":"active","ping":121},{"user_id":755,"name":"pest","steam_id":76561198052571208,"connected_time":10000000000,"state":"spawning","ping":66},{"user_id":730,"name":"CrazyMush","steam_id":76561198141783855,"connected_time":2033000000000,"state":"active","ping":66},{"user_id":726,"name":"Sugercrash","steam_id":76561199187685119,"connected_time":2466000000000,"state":"active","ping":99},{"user_id":727,"name":"Koopa Paratroopa","steam_id":76561198035448426,"connected_time":2372000000000,"state":"active","ping":96},{"user_id":747,"name":"itsmajestic","steam_id":76561198304790008,"connected_time":1014000000000,"state":"active","ping":68},{"user_id":750,"name":"Banjo","steam_id":76561198004652853,"connected_time":903000000000,"state":"active","ping":95},{"user_id":731,"name":"SMHTMFTTF","steam_id":76561199079614516,"connected_time":2004000000000,"state":"active","ping":51},{"user_id":743,"name":"breadman","steam_id":76561198125955327,"connected_time":1590000000000,"state":"active","ping":88},{"user_id":734,"name":"SubZeroDestruction","steam_id":76561198145082209,"connected_time":1875000000000,"state":"active","ping":70},{"user_id":735,"name":"SleepingBrim","steam_id":76561198067650229,"connected_time":1870000000000,"state":"active","ping":97},{"user_id":752,"name":"onsceler","steam_id":76561198183663605,"connected_time":623000000000,"state":"active","ping":76},{"user_id":736,"name":"Samsiel","steam_id":76561198094134951,"connected_time":1858000000000,"state":"active","ping":96},{"user_id":748,"name":"dmitri","steam_id":76561198060559286,"connected_time":998000000000,"state":"active","ping":92},{"user_id":718,"name":"GamingGamesGamer2014","steam_id":76561198261540591,"connected_time":3562000000000,"state":"active","ping":119},{"user_id":738,"name":"meat-case","steam_id":76561198202183768,"connected_time":1851000000000,"state":"active","ping":83},{"user_id":739,"name":"ROGUE-PLANET","steam_id":76561198116023052,"connected_time":1827000000000,"state":"active","ping":75},{"user_id":749,"name":"üêáBunnyüêá","steam_id":76561198822773578,"connected_time":975000000000,"state":"active","ping":104},{"user_id":740,"name":"Hameas","steam_id":76561198195620918,"connected_time":1823000000000,"state":"active","ping":118},{"user_id":742,"name":"LevelZ3R0","steam_id":76561199239710681,"connected_time":1801000000000,"state":"active","ping":96}]},{"server_id":38,"name":"Uncletopia | Chicago | 7 | Stopwatch Beta","name_short":"chi-7","host":"chi-2.us.uncletopia.com","port":27035,"enabled":true,"region":"us-central","cc":"us","latitude":41.881832,"longitude":-87.62318,"reserved":0,"last_update":"0001-01-01T00:00:00Z","name_a2s":"Uncletopia | Chicago | 7 | Stopwatch Beta","protocol":17,"map":"workshop/pl_barnblitz_pro7.ugc582280235","folder":"tf","game":"Team Fortress","app_id":440,"player_count":0,"max_players":24,"Bots":0,"server_type":"Dedicated","server_os":"Linux","password":true,"vac":true,"version":"7757534","steam_id":85568392924866364,"keywords":["nocrits","nodmgspread","payload","uncletopia"],"game_id":440,"stv_port":27036,"stv_name":"Uncletopia | Chicago | 7 | Stopwatch Beta | STV","players":null},{"server_id":39,"name":"Uncletopia | Chicago | 8 | Community","name_short":"chi-8","host":"chi-2.us.uncletopia.com","port":27045,"enabled":true,"region":"us-central","cc":"us","latitude":41.881832,"longitude":-87.62318,"reserved":0,"last_update":"0001-01-01T00:00:00Z","name_a2s":"Uncletopia | Chicago | 8 | Community","protocol":17,"map":"workshop/koth_product_final.ugc454272353","folder":"tf","game":"Team Fortress","app_id":440,"player_count":0,"max_players":24,"Bots":0,"server_type":"Dedicated","server_os":"Linux","password":true,"vac":true,"version":"7757534","steam_id":85568392924866365,"keywords":["cp","nocrits","nodmgspread","uncletopia"],"game_id":440,"stv_port":27046,"stv_name":"Uncletopia | Chicago | 8 | Community | STV","players":null},{"server_id":8,"name":"Uncletopia | Dallas | 1 | All Maps","name_short":"dal-1","host":"dal-1.us.uncletopia.com","port":27015,"enabled":true,"region":"us-central","cc":"us","latitude":32.779167,"longitude":-96.80889,"reserved":0,"last_update":"0001-01-01T00:00:00Z","name_a2s":"Uncletopia | Dallas | 1 | All Maps","protocol":17,"map":"pl_barnblitz","folder":"tf","game":"Team Fortress","app_id":440,"player_count":24,"max_players":24,"Bots":0,"server_type":"Dedicated","server_os":"Linux","password":true,"vac":true,"version":"7757534","steam_id":85568392924469986,"keywords":["nocrits","nodmgspread","payload","uncletopia"],"game_id":440,"stv_port":27016,"stv_name":"Uncletopia | Dallas | 1 | All Maps | STV","players":[{"user_id":667,"name":"Gavil√°n","steam_id":76561198285212453,"connected_time":1824000000000,"state":"active","ping":85},{"user_id":681,"name":"moe","steam_id":76561198929586245,"connected_time":44000000000,"state":"active","ping":91},{"user_id":648,"name":"Krow","steam_id":76561198010392099,"connected_time":2881000000000,"state":"active","ping":49},{"user_id":606,"name":"DrBenjas","steam_id":76561198345883103,"connected_time":6287000000000,"state":"active","ping":105},{"user_id":663,"name":"Dylancyclone","steam_id":76561198000959790,"connected_time":1855000000000,"state":"active","ping":60},{"user_id":680,"name":"MoonWolf","steam_id":76561198095735033,"connected_time":95000000000,"state":"active","ping":55},{"user_id":632,"name":"Etomb","steam_id":76561198210017208,"connected_time":4825000000000,"state":"active","ping":99},{"user_id":583,"name":"Sydney","steam_id":76561198797603297,"connected_time":8116000000000,"state":"active","ping":45},{"user_id":642,"name":"Can You Feel It Mr.Krabs","steam_id":76561198128302414,"connected_time":4196000000000,"state":"active","ping":64},{"user_id":634,"name":"Peaceful Chaos","steam_id":76561198087989602,"connected_time":4726000000000,"state":"active","ping":99},{"user_id":669,"name":"DRISZI","steam_id":76561198209217272,"connected_time":1554000000000,"state":"active","ping":101},{"user_id":678,"name":"KneeofJustice5","steam_id":76561198873644050,"connected_time":622000000000,"state":"active","ping":114},{"user_id":652,"name":"General_Jack","steam_id":76561198045894433,"connected_time":2776000000000,"state":"active","ping":92},{"user_id":654,"name":"+","steam_id":76561198262422184,"connected_time":2631000000000,"state":"active","ping":47},{"user_id":682,"name":"Mr. Comrade","steam_id":76561198155667562,"connected_time":24000000000,"state":"active","ping":92},{"user_id":673,"name":"Lordgvh","steam_id":76561198067563760,"connected_time":895000000000,"state":"active","ping":81},{"user_id":664,"name":"GeekyFox3","steam_id":76561198267733290,"connected_time":1851000000000,"state":"active","ping":92},{"user_id":671,"name":"JJunkit the First","steam_id":76561198024595354,"connected_time":1427000000000,"state":"active","ping":103},{"user_id":647,"name":"KingOfLewd","steam_id":76561198180034311,"connected_time":2913000000000,"state":"active","ping":87},{"user_id":670,"name":"Spiker!","steam_id":76561198344491858,"connected_time":1545000000000,"state":"active","ping":91},{"user_id":679,"name":"Xevon","steam_id":76561198355618921,"connected_time":175000000000,"state":"active","ping":97},{"user_id":666,"name":"Fat Orc","steam_id":76561198071116475,"connected_time":1835000000000,"state":"active","ping":77},{"user_id":675,"name":"Rise for the National Spamton","steam_id":76561198138468982,"connected_time":871000000000,"state":"active","ping":113},{"user_id":676,"name":"Big Cock Brock","steam_id":76561198093244204,"connected_time":833000000000,"state":"active","ping":89}]},{"server_id":108,"name":"Uncletopia | Dallas | 2 | All Maps","name_short":"dal-2","host":"dal-1.us.uncletopia.com","port":27025,"enabled":true,"region":"us-central","cc":"us","latitude":32.779167,"longitude":-96.80889,"reserved":0,"last_update":"0001-01-01T00:00:00Z","name_a2s":"Uncletopia | Dallas | 2 | All Maps","protocol":17,"map":"cp_sunshine","folder":"tf","game":"Team Fortress","app_id":440,"player_count":17,"max_players":24,"Bots":0,"server_type":"Dedicated","server_os":"Linux","password":true,"vac":true,"version":"7757534","steam_id":85568392924469988,"keywords":["cp","nocrits","nodmgspread","uncletopia"],"game_id":440,"stv_port":27026,"stv_name":"Uncletopia | Dallas | 2 | All Maps | STV","players":[{"user_id":904,"name":"cmdpnt","steam_id":76561198136441803,"connected_time":1171000000000,"state":"active","ping":100},{"user_id":888,"name":"dash23‚Ñ¢","steam_id":76561198314951185,"connected_time":1909000000000,"state":"active","ping":75},{"user_id":885,"name":"VixianUwU","steam_id":76561198948815060,"connected_time":2029000000000,"state":"active","ping":72},{"user_id":908,"name":"SinfulNugget","steam_id":76561198293092211,"connected_time":514000000000,"state":"active","ping":57},{"user_id":905,"name":"Agent Q","steam_id":76561198830829003,"connected_time":1160000000000,"state":"active","ping":96},{"user_id":896,"name":"STAR","steam_id":76561198271612664,"connected_time":1688000000000,"state":"active","ping":70},{"user_id":909,"name":"on the beans","steam_id":76561198265035553,"connected_time":420000000000,"state":"active","ping":55},{"user_id":892,"name":"*****setget","steam_id":76561198118824188,"connected_time":1755000000000,"state":"active","ping":126},{"user_id":907,"name":"MistakesWereMade","steam_id":76561199059220481,"connected_time":584000000000,"state":"active","ping":86},{"user_id":898,"name":"Stanley'sSuperSauce","steam_id":76561198057946400,"connected_time":1615000000000,"state":"active","ping":77},{"user_id":855,"name":"ansoonii","steam_id":76561198092494136,"connected_time":3101000000000,"state":"active","ping":39},{"user_id":872,"name":"Satori Komeiji","steam_id":76561198158211423,"connected_time":2549000000000,"state":"active","ping":76},{"user_id":903,"name":"Calypso","steam_id":76561198082939544,"connected_time":1332000000000,"state":"active","ping":113},{"user_id":776,"name":"FAC","steam_id":76561198009818412,"connected_time":8288000000000,"state":"active","ping":65},{"user_id":777,"name":"kiko","steam_id":76561198018564445,"connected_time":8282000000000,"state":"active","ping":59},{"user_id":877,"name":"Alley_YAMBO","steam_id":76561198055651850,"connected_time":2385000000000,"state":"active","ping":66},{"user_id":876,"name":"skyhoor","steam_id":76561199199717249,"connected_time":2467000000000,"state":"active","ping":89}]},{"server_id":5,"name":"Uncletopia | Frankfurt | 1 | All Maps","name_short":"frk-1","host":"frk-1.de.uncletopia.com","port":27015,"enabled":true,"region":"eu","cc":"de","latitude":50.110924,"longitude":8.682127,"reserved":0,"last_update":"0001-01-01T00:00:00Z","name_a2s":"Uncletopia | Frankfurt | 1 | All Maps","protocol":17,"map":"pl_snowycoast","folder":"tf","game":"Team Fortress","app_id":440,"player_count":0,"max_players":24,"Bots":0,"server_type":"Dedicated","server_os":"Linux","password":true,"vac":true,"version":"7757534","steam_id":85568392924469989,"keywords":["nocrits","nodmgspread","payload","uncletopia"],"game_id":440,"stv_port":27016,"stv_name":"Uncletopia | Frankfurt | 1 | All Maps | STV","players":null},{"server_id":110,"name":"Uncletopia | Frankfurt | 2 | All Maps","name_short":"frk-2","host":"frk-1.de.uncletopia.com","port":27025,"enabled":true,"region":"eu","cc":"de","latitude":50.110924,"longitude":8.682127,"reserved":0,"last_update":"0001-01-01T00:00:00Z","name_a2s":"Uncletopia | Frankfurt | 2 | All Maps","protocol":17,"map":"pl_snowycoast","folder":"tf","game":"Team Fortress","app_id":440,"player_count":0,"max_players":24,"Bots":0,"server_type":"Dedicated","server_os":"Linux","password":true,"vac":true,"version":"7757534","steam_id":85568392924469990,"keywords":["nocrits","nodmgspread","payload","uncletopia"],"game_id":440,"stv_port":27026,"stv_name":"Uncletopia | Frankfurt | 2 | All Maps | STV","players":null},{"server_id":308,"name":"Uncletopia | Frankfurt | 3 | All Maps","name_short":"frk-3","host":"frk-1.de.uncletopia.com","port":27035,"enabled":true,"region":"eu","cc":"de","latitude":50.110924,"longitude":8.682127,"reserved":0,"last_update":"0001-01-01T00:00:00Z","name_a2s":"Uncletopia | Frankfurt | 3 | All Maps","protocol":17,"map":"cp_altitude","folder":"tf","game":"Team Fortress","app_id":440,"player_count":0,"max_players":24,"Bots":0,"server_type":"Dedicated","server_os":"Linux","password":true,"vac":true,"version":"7757534","steam_id":85568392924504274,"keywords":["cp","nocrits","nodmgspread","uncletopia"],"game_id":440,"stv_port":27036,"stv_name":"Uncletopia | Frankfurt | 3 | All Maps | STV","players":null},{"server_id":309,"name":"Uncletopia | Frankfurt | 4 | All Maps","name_short":"frk-4","host":"frk-1.de.uncletopia.com","port":27045,"enabled":true,"region":"eu","cc":"de","latitude":50.110924,"longitude":8.682127,"reserved":0,"last_update":"0001-01-01T00:00:00Z","name_a2s":"Uncletopia | Frankfurt | 4 | All Maps","protocol":17,"map":"cp_altitude","folder":"tf","game":"Team Fortress","app_id":440,"player_count":0,"max_players":24,"Bots":0,"server_type":"Dedicated","server_os":"Linux","password":true,"vac":true,"version":"7757534","steam_id":85568392924504275,"keywords":["cp","nocrits","nodmgspread","uncletopia"],"game_id":440,"stv_port":27046,"stv_name":"Uncletopia | Frankfurt | 4 | All Maps | STV","players":null},{"server_id":310,"name":"Uncletopia | Frankfurt | 5 | All Maps","name_short":"frk-5","host":"frk-1.de.uncletopia.com","port":27055,"enabled":true,"region":"eu","cc":"de","latitude":50.110924,"longitude":8.682127,"reserved":0,"last_update":"0001-01-01T00:00:00Z","name_a2s":"Uncletopia | Frankfurt | 5 | All Maps","protocol":17,"map":"cp_altitude","folder":"tf","game":"Team Fortress","app_id":440,"player_count":0,"max_players":24,"Bots":0,"server_type":"Dedicated","server_os":"Linux","password":true,"vac":true,"version":"7757534","steam_id":85568392924504277,"keywords":["cp","nocrits","nodmgspread","uncletopia"],"game_id":440,"stv_port":27056,"stv_name":"Uncletopia | Frankfurt | 5 | All Maps | STV","players":null},{"server_id":311,"name":"Uncletopia | Frankfurt | 6 | All Maps","name_short":"frk-6","host":"frk-1.de.uncletopia.com","port":27065,"enabled":true,"region":"eu","cc":"de","latitude":50.110924,"longitude":8.682127,"reserved":0,"last_update":"0001-01-01T00:00:00Z","name_a2s":"Uncletopia | Frankfurt | 6 | All Maps","protocol":17,"map":"koth_highpass","folder":"tf","game":"Team Fortress","app_id":440,"player_count":0,"max_players":24,"Bots":0,"server_type":"Dedicated","server_os":"Linux","password":true,"vac":true,"version":"7757534","steam_id":85568392924504278,"keywords":["cp","nocrits","nodmgspread","uncletopia"],"game_id":440,"stv_port":27066,"stv_name":"Uncletopia | Frankfurt | 6 | All Maps | STV","players":null},{"server_id":23,"name":"Uncletopia | Frankfurt | 7 | Stopwatch Beta","name_short":"frk-7","host":"frk-1.de.uncletopia.com","port":27075,"enabled":true,"region":"eu","cc":"de","latitude":50.110924,"longitude":8.682127,"reserved":0,"last_update":"0001-01-01T00:00:00Z","name_a2s":"Uncletopia | Frankfurt | 7 | Stopwatch Beta","protocol":17,"map":"pl_frontier_final","folder":"tf","game":"Team Fortress","app_id":440,"player_count":0,"max_players":24,"Bots":0,"server_type":"Dedicated","server_os":"Linux","password":true,"vac":true,"version":"7757534","steam_id":85568392924742827,"keywords":["nocrits","nodmgspread","payload","uncletopia"],"game_id":440,"stv_port":27076,"stv_name":"Uncletopia | Frankfurt | 7 | Stopwatch Beta | STV","players":null},{"server_id":24,"name":"Uncletopia | Frankfurt | 8 | Community","name_short":"frk-8","host":"frk-1.de.uncletopia.com","port":27085,"enabled":true,"region":"eu","cc":"de","latitude":50.110924,"longitude":8.682127,"reserved":0,"last_update":"0001-01-01T00:00:00Z","name_a2s":"Uncletopia | Frankfurt | 8 | Community","protocol":17,"map":"pl_badwater","folder":"tf","game":"Team Fortress","app_id":440,"player_count":0,"max_players":24,"Bots":0,"server_type":"Dedicated","server_os":"Linux","password":true,"vac":true,"version":"7757534","steam_id":85568392924742828,"keywords":["nocrits","nodmgspread","payload","uncletopia"],"game_id":440,"stv_port":27086,"stv_name":"Uncletopia | Frankfurt | 8 | Community | STV","players":null},{"server_id":202,"name":"Uncletopia | Hong Kong | 1 | All Maps","name_short":"hgk-1","host":"hgk-1.hk.uncletopia.com","port":27015,"enabled":true,"region":"asia","cc":"hk","latitude":22.302711,"longitude":114.177216,"reserved":0,"last_update":"0001-01-01T00:00:00Z","name_a2s":"Uncletopia | Hong Kong | 1 | All Maps","protocol":17,"map":"pl_upward","folder":"tf","game":"Team Fortress","app_id":440,"player_count":14,"max_players":24,"Bots":0,"server_type":"Dedicated","server_os":"Linux","password":true,"vac":true,"version":"7757534","steam_id":85568392924494504,"keywords":["nocrits","nodmgspread","payload","uncletopia"],"game_id":440,"stv_port":27016,"stv_name":"Uncletopia | Hong Kong | 1 | All Maps | STV","players":[{"user_id":38,"name":"Waltuh (CEO of Chicanery)","steam_id":76561199257300024,"connected_time":980000000000,"state":"active","ping":78},{"user_id":35,"name":"Shienn__","steam_id":76561199174019837,"connected_time":1764000000000,"state":"active","ping":102},{"user_id":45,"name":"real","steam_id":76561199044555397,"connected_time":268000000000,"state":"active","ping":92},{"user_id":37,"name":"BEST CARRY PLAYER","steam_id":76561198846610729,"connected_time":1490000000000,"state":"active","ping":104},{"user_id":41,"name":"Pisces","steam_id":76561198429887240,"connected_time":523000000000,"state":"active","ping":64},{"user_id":42,"name":"Ramnuoel","steam_id":76561198983883794,"connected_time":506000000000,"state":"active","ping":70},{"user_id":43,"name":"peppermint","steam_id":76561198820630422,"connected_time":452000000000,"state":"active","ping":85},{"user_id":46,"name":"Telekhine","steam_id":76561198387120618,"connected_time":259000000000,"state":"active","ping":53},{"user_id":47,"name":"Smoke Weed Every Night","steam_id":76561199445694770,"connected_time":161000000000,"state":"active","ping":128},{"user_id":48,"name":"C√° Th√°ng 4","steam_id":76561198047162026,"connected_time":99000000000,"state":"active","ping":74},{"user_id":49,"name":"uptriste","steam_id":76561198158666692,"connected_time":38000000000,"state":"active","ping":40},{"user_id":50,"name":"DarkGamer TF2","steam_id":76561199234460334,"connected_time":31000000000,"state":"active","ping":99},{"user_id":51,"name":"Ame","steam_id":76561198127308435,"connected_time":19000000000,"state":"spawning","ping":113},{"user_id":52,"name":"Â∞èÁÉèÈæúÈ†≠Áóõ","steam_id":76561198201078982,"connected_time":11000000000,"state":"active","ping":87}]},{"server_id":1,"name":"Uncletopia | Los Angeles | 1 | All Maps","name_short":"lax-1","host":"lax-1.us.uncletopia.com","port":27015,"enabled":true,"region":"us-west","cc":"us","latitude":33.94279,"longitude":-118.41004,"reserved":0,"last_update":"0001-01-01T00:00:00Z","name_a2s":"Uncletopia | Los Angeles | 1 | All Maps","protocol":17,"map":"pl_goldrush","folder":"tf","game":"Team Fortress","app_id":440,"player_count":24,"max_players":24,"Bots":0,"server_type":"Dedicated","server_os":"Linux","password":true,"vac":true,"version":"7757534","steam_id":85568392924469991,"keywords":["nocrits","nodmgspread","payload","uncletopia"],"game_id":440,"stv_port":27016,"stv_name":"Uncletopia | Los Angeles | 1 | All Maps | STV","players":[{"user_id":309,"name":"hakken","steam_id":76561199102391736,"connected_time":3292000000000,"state":"active","ping":46},{"user_id":312,"name":"Schnitz(Lost my Glasses)","steam_id":76561198265484253,"connected_time":3114000000000,"state":"active","ping":55},{"user_id":317,"name":"Nate","steam_id":76561198045186954,"connected_time":1964000000000,"state":"active","ping":50},{"user_id":325,"name":"K.A.R.M.A.","steam_id":76561198240750142,"connected_time":1446000000000,"state":"active","ping":46},{"user_id":240,"name":"Kevin McCarthy","steam_id":76561198843868609,"connected_time":9223000000000,"state":"active","ping":42},{"user_id":308,"name":"ChieF BEEF QueeF","steam_id":76561198078294539,"connected_time":3332000000000,"state":"active","ping":60},{"user_id":305,"name":"Sinister","steam_id":76561198023493258,"connected_time":3861000000000,"state":"active","ping":89},{"user_id":330,"name":"SuperEvilPasta","steam_id":76561198078258907,"connected_time":1066000000000,"state":"active","ping":50},{"user_id":326,"name":"shoe","steam_id":76561198451476220,"connected_time":1427000000000,"state":"active","ping":79},{"user_id":311,"name":"MEATBALL MAN","steam_id":76561198062962998,"connected_time":3276000000000,"state":"active","ping":70},{"user_id":182,"name":"AmyPercent","steam_id":76561198071896932,"connected_time":14315000000000,"state":"active","ping":75},{"user_id":306,"name":"Algerian Egirl :3c","steam_id":76561198349345477,"connected_time":3769000000000,"state":"active","ping":82},{"user_id":333,"name":"rmbl","steam_id":76561198150137369,"connected_time":581000000000,"state":"active","ping":46},{"user_id":244,"name":"David DePape","steam_id":76561198340989889,"connected_time":9207000000000,"state":"active","ping":44},{"user_id":322,"name":"JimmyDribblerJibblerGribbler","steam_id":76561198274536607,"connected_time":1554000000000,"state":"active","ping":92},{"user_id":296,"name":"HOG RIDER","steam_id":76561198298589502,"connected_time":4536000000000,"state":"active","ping":47},{"user_id":329,"name":"Verboten Code","steam_id":76561198162202770,"connected_time":1183000000000,"state":"active","ping":116},{"user_id":292,"name":"bake sale","steam_id":76561198133360797,"connected_time":4625000000000,"state":"active","ping":50},{"user_id":323,"name":"Belmore","steam_id":76561198009355231,"connected_time":1538000000000,"state":"active","ping":49},{"user_id":328,"name":"Puny Punny","steam_id":76561198060143203,"connected_time":1378000000000,"state":"active","ping":53},{"user_id":341,"name":"eggplantgirl‚ô•","steam_id":76561198811515692,"connected_time":19000000000,"state":"spawning","ping":40},{"user_id":334,"name":"OddSlaush","steam_id":76561198043898488,"connected_time":543000000000,"state":"active","ping":44},{"user_id":327,"name":"Squatter","steam_id":76561198078987734,"connected_time":1425000000000,"state":"active","ping":77},{"user_id":319,"name":"Canned Lobster","steam_id":76561198110847328,"connected_time":1597000000000,"state":"active","ping":57}]},{"server_id":112,"name":"Uncletopia | Los Angeles | 2 | All Maps","name_short":"lax-2","host":"lax-1.us.uncletopia.com","port":27025,"enabled":true,"region":"us-west","cc":"us","latitude":33.94279,"longitude":-118.41004,"reserved":0,"last_update":"0001-01-01T00:00:00Z","name_a2s":"Uncletopia | Los Angeles | 2 | All Maps","protocol":17,"map":"cp_altitude","folder":"tf","game":"Team Fortress","app_id":440,"player_count":0,"max_players":24,"Bots":0,"server_type":"Dedicated","server_os":"Linux","password":true,"vac":true,"version":"7757534","steam_id":85568392924469992,"keywords":["cp","nocrits","nodmgspread","uncletopia"],"game_id":440,"stv_port":27026,"stv_name":"Uncletopia | Los Angeles | 2 | All Maps | STV","players":null},{"server_id":324,"name":"Uncletopia | Los Angeles | 3 | All Maps","name_short":"lax-3","host":"lax-1.us.uncletopia.com","port":27035,"enabled":true,"region":"us-west","cc":"us","latitude":33.94279,"longitude":-118.41004,"reserved":0,"last_update":"0001-01-01T00:00:00Z","name_a2s":"Uncletopia | Los Angeles | 3 | All Maps","protocol":17,"map":"koth_cascade","folder":"tf","game":"Team Fortress","app_id":440,"player_count":0,"max_players":24,"Bots":0,"server_type":"Dedicated","server_os":"Linux","password":true,"vac":true,"version":"7757534","steam_id":85568392924510198,"keywords":["cp","nocrits","nodmgspread","uncletopia"],"game_id":440,"stv_port":27036,"stv_name":"Uncletopia | Los Angeles | 3 | All Maps | STV","players":null},{"server_id":25,"name":"Uncletopia | Los Angeles | 4 | Stopwatch Beta","name_short":"lax-4","host":"lax-1.us.uncletopia.com","port":27045,"enabled":true,"region":"us-west","cc":"us","latitude":33.94279,"longitude":-118.41004,"reserved":0,"last_update":"0001-01-01T00:00:00Z","name_a2s":"Uncletopia | Los Angeles | 4 | Stopwatch Beta","protocol":17,"map":"workshop/pl_badwater_pro_v12.ugc2142942074","folder":"tf","game":"Team Fortress","app_id":440,"player_count":0,"max_players":24,"Bots":0,"server_type":"Dedicated","server_os":"Linux","password":true,"vac":true,"version":"7757534","steam_id":85568392924510199,"keywords":["nocrits","nodmgspread","payload","uncletopia"],"game_id":440,"stv_port":27046,"stv_name":"Uncletopia | Los Angeles | 4 | Stopwatch Beta | STV","players":null},{"server_id":11,"name":"Uncletopia | London | 1 | All Maps","name_short":"lon-1","host":"lon-1.uk.uncletopia.com","port":27015,"enabled":true,"region":"eu","cc":"gb","latitude":51.509865,"longitude":-0.118092,"reserved":0,"last_update":"0001-01-01T00:00:00Z","name_a2s":"Uncletopia | London | 1 | All Maps","protocol":17,"map":"pl_frontier_final","folder":"tf","game":"Team Fortress","app_id":440,"player_count":19,"max_players":24,"Bots":0,"server_type":"Dedicated","server_os":"Linux","password":true,"vac":true,"version":"7757534","steam_id":85568392924367362,"keywords":["nocrits","nodmgspread","payload","uncletopia"],"game_id":440,"stv_port":27016,"stv_name":"Uncletopia | London | 1 | All Maps | STV","players":[{"user_id":8,"name":"posht0 @_@","steam_id":76561198106182078,"connected_time":2048000000000,"state":"active","ping":105},{"user_id":9,"name":"sabaka jebanoia","steam_id":76561198147249160,"connected_time":2005000000000,"state":"active","ping":114},{"user_id":33,"name":"Finn","steam_id":76561198179960193,"connected_time":44000000000,"state":"active","ping":30},{"user_id":11,"name":"Rave Robber","steam_id":76561199414716848,"connected_time":1882000000000,"state":"active","ping":74},{"user_id":13,"name":"DocTwoEight","steam_id":76561198153488940,"connected_time":1578000000000,"state":"active","ping":74},{"user_id":14,"name":"VibingWave[Outer Heaven]","steam_id":76561198866358613,"connected_time":1379000000000,"state":"active","ping":155},{"user_id":15,"name":"Coffee","steam_id":76561199077316448,"connected_time":1229000000000,"state":"active","ping":73},{"user_id":16,"name":"Alin","steam_id":76561198059679991,"connected_time":1211000000000,"state":"active","ping":92},{"user_id":17,"name":"DarkFady","steam_id":76561198179099523,"connected_time":1118000000000,"state":"active","ping":108},{"user_id":18,"name":"Rouxls Kaard","steam_id":76561199439917592,"connected_time":997000000000,"state":"active","ping":87},{"user_id":31,"name":"Sneaky boi","steam_id":76561199195985387,"connected_time":188000000000,"state":"active","ping":87},{"user_id":23,"name":"Yelowchy","steam_id":76561198199416121,"connected_time":862000000000,"state":"active","ping":67},{"user_id":24,"name":"TK","steam_id":76561199384193338,"connected_time":831000000000,"state":"active","ping":61},{"user_id":25,"name":"Pixie","steam_id":76561198044038797,"connected_time":824000000000,"state":"active","ping":83},{"user_id":26,"name":"MRLOLENO","steam_id":76561198450911838,"connected_time":746000000000,"state":"active","ping":87},{"user_id":27,"name":"Cetroz","steam_id":76561199100567476,"connected_time":554000000000,"state":"active","ping":98},{"user_id":32,"name":"Jimortal","steam_id":76561198342426856,"connected_time":133000000000,"state":"active","ping":60},{"user_id":29,"name":"Poleeyan","steam_id":76561198885522435,"connected_time":402000000000,"state":"active","ping":81},{"user_id":30,"name":"caps.","steam_id":76561198116528817,"connected_time":359000000000,"state":"active","ping":59}]},{"server_id":114,"name":"Uncletopia | London | 2 | All Maps","name_short":"lon-2","host":"lon-1.uk.uncletopia.com","port":27025,"enabled":true,"region":"eu","cc":"gb","latitude":51.509865,"longitude":-0.118092,"reserved":0,"last_update":"0001-01-01T00:00:00Z","name_a2s":"Uncletopia | London | 2 | All Maps","protocol":17,"map":"cp_dustbowl","folder":"tf","game":"Team Fortress","app_id":440,"player_count":0,"max_players":24,"Bots":0,"server_type":"Dedicated","server_os":"Linux","password":true,"vac":true,"version":"7757534","steam_id":85568392924470941,"keywords":["cp","nocrits","nodmgspread","uncletopia"],"game_id":440,"stv_port":27026,"stv_name":"Uncletopia | London | 2 | All Maps | STV","players":null},{"server_id":320,"name":"Uncletopia | London | 3 | All Maps","name_short":"lon-3","host":"lon-1.uk.uncletopia.com","port":27035,"enabled":true,"region":"eu","cc":"gb","latitude":51.509865,"longitude":-0.118092,"reserved":0,"last_update":"0001-01-01T00:00:00Z","name_a2s":"Uncletopia | London | 3 | All Maps","protocol":17,"map":"pl_badwater","folder":"tf","game":"Team Fortress","app_id":440,"player_count":0,"max_players":24,"Bots":0,"server_type":"Dedicated","server_os":"Linux","password":true,"vac":true,"version":"7757534","steam_id":85568392924510192,"keywords":["nocrits","nodmgspread","payload","uncletopia"],"game_id":440,"stv_port":27036,"stv_name":"Uncletopia | London | 3 | All Maps | STV","players":null},{"server_id":321,"name":"Uncletopia | London | 4 | All Maps","name_short":"lon-4","host":"lon-1.uk.uncletopia.com","port":27045,"enabled":true,"region":"eu","cc":"gb","latitude":51.509865,"longitude":-0.118092,"reserved":0,"last_update":"0001-01-01T00:00:00Z","name_a2s":"Uncletopia | London | 4 | All Maps","protocol":17,"map":"koth_viaduct","folder":"tf","game":"Team Fortress","app_id":440,"player_count":0,"max_players":24,"Bots":0,"server_type":"Dedicated","server_os":"Linux","password":true,"vac":true,"version":"7757534","steam_id":85568392924510193,"keywords":["cp","nocrits","nodmgspread","uncletopia"],"game_id":440,"stv_port":27046,"stv_name":"Uncletopia | London | 4 | All Maps | STV","players":null},{"server_id":21,"name":"Uncletopia | London | 5 | All Maps","name_short":"lon-5","host":"lon-1.uk.uncletopia.com","port":27055,"enabled":true,"region":"eu","cc":"gb","latitude":51.509865,"longitude":-0.118092,"reserved":0,"last_update":"0001-01-01T00:00:00Z","name_a2s":"Uncletopia | London | 5 | All Maps","protocol":17,"map":"cp_snakewater_final1","folder":"tf","game":"Team Fortress","app_id":440,"player_count":0,"max_players":24,"Bots":0,"server_type":"Dedicated","server_os":"Linux","password":true,"vac":true,"version":"7757534","steam_id":85568392924742829,"keywords":["cp","nocrits","nodmgspread","uncletopia"],"game_id":440,"stv_port":27056,"stv_name":"Uncletopia | London | 5 | All Maps | STV","players":null},{"server_id":22,"name":"Uncletopia | London | 6 | All Maps","name_short":"lon-6","host":"lon-1.uk.uncletopia.com","port":27065,"enabled":true,"region":"eu","cc":"gb","latitude":51.509865,"longitude":-0.118092,"reserved":0,"last_update":"0001-01-01T00:00:00Z","name_a2s":"Uncletopia | London | 6 | All Maps","protocol":17,"map":"koth_cascade","folder":"tf","game":"Team Fortress","app_id":440,"player_count":0,"max_players":24,"Bots":0,"server_type":"Dedicated","server_os":"Linux","password":true,"vac":true,"version":"7757534","steam_id":85568392924742830,"keywords":["cp","nocrits","nodmgspread","uncletopia"],"game_id":440,"stv_port":27066,"stv_name":"Uncletopia | London | 6 | All Maps | STV","players":null},{"server_id":40,"name":"Uncletopia | London | 7 | No Payload","name_short":"lon-7","host":"lon-1.uk.uncletopia.com","port":27075,"enabled":true,"region":"eu","cc":"gb","latitude":51.509865,"longitude":-0.118092,"reserved":0,"last_update":"0001-01-01T00:00:00Z","name_a2s":"Uncletopia | London | 7 | No Payload","protocol":17,"map":"cp_process_final","folder":"tf","game":"Team Fortress","app_id":440,"player_count":0,"max_players":24,"Bots":0,"server_type":"Dedicated","server_os":"Linux","password":true,"vac":true,"version":"7757534","steam_id":85568392924964314,"keywords":["cp","nocrits","nodmgspread","uncletopia"],"game_id":440,"stv_port":27076,"stv_name":"Uncletopia | London | 7 | No Payload | STV","players":null},{"server_id":41,"name":"Uncletopia | London | 8 | Community","name_short":"lon-8","host":"lon-1.uk.uncletopia.com","port":27085,"enabled":true,"region":"eu","cc":"gb","latitude":51.509865,"longitude":-0.118092,"reserved":0,"last_update":"0001-01-01T00:00:00Z","name_a2s":"Uncletopia | London | 8 | Community","protocol":17,"map":"pl_upward","folder":"tf","game":"Team Fortress","app_id":440,"player_count":0,"max_players":24,"Bots":0,"server_type":"Dedicated","server_os":"Linux","password":true,"vac":true,"version":"7757534","steam_id":85568392924964315,"keywords":["nocrits","nodmgspread","payload","uncletopia"],"game_id":440,"stv_port":27086,"stv_name":"Uncletopia | London | 8 | Community | STV","players":null},{"server_id":300,"name":"Uncletopia | Montr√©al | 1 | All Maps","name_short":"mtl-1","host":"mtl-1.ca.uncletopia.com","port":27015,"enabled":true,"region":"us-east","cc":"ca","latitude":45.50889,"longitude":-73.56167,"reserved":0,"last_update":"0001-01-01T00:00:00Z","name_a2s":"Uncletopia | Montr√©al | 1 | All Maps","protocol":17,"map":"pl_snowycoast","folder":"tf","game":"Team Fortress","app_id":440,"player_count":0,"max_players":24,"Bots":0,"server_type":"Dedicated","server_os":"Linux","password":true,"vac":true,"version":"7757534","steam_id":85568392924500087,"keywords":["nocrits","nodmgspread","payload","uncletopia"],"game_id":440,"stv_port":27016,"stv_name":"Uncletopia | Montr√©al | 1 | All Maps | STV","players":null},{"server_id":301,"name":"Uncletopia | Montr√©al | 2 | All Maps","name_short":"mtl-2","host":"mtl-1.ca.uncletopia.com","port":27025,"enabled":true,"region":"us-east","cc":"ca","latitude":45.50889,"longitude":-73.56167,"reserved":0,"last_update":"0001-01-01T00:00:00Z","name_a2s":"Uncletopia | Montr√©al | 2 | All Maps","protocol":17,"map":"cp_dustbowl","folder":"tf","game":"Team Fortress","app_id":440,"player_count":0,"max_players":24,"Bots":0,"server_type":"Dedicated","server_os":"Linux","password":true,"vac":true,"version":"7757534","steam_id":85568392924500088,"keywords":["cp","nocrits","nodmgspread","uncletopia"],"game_id":440,"stv_port":27026,"stv_name":"Uncletopia | Montr√©al | 2 | All Maps | STV","players":null},{"server_id":302,"name":"Uncletopia | Montr√©al | 3 | All Maps","name_short":"mtl-3","host":"mtl-1.ca.uncletopia.com","port":27035,"enabled":true,"region":"us-east","cc":"ca","latitude":45.50889,"longitude":-73.56167,"reserved":0,"last_update":"0001-01-01T00:00:00Z","name_a2s":"Uncletopia | Montr√©al | 3 | All Maps","protocol":17,"map":"koth_cascade","folder":"tf","game":"Team Fortress","app_id":440,"player_count":0,"max_players":24,"Bots":0,"server_type":"Dedicated","server_os":"Linux","password":true,"vac":true,"version":"7757534","steam_id":85568392924500089,"keywords":["cp","nocrits","nodmgspread","uncletopia"],"game_id":440,"stv_port":27036,"stv_name":"Uncletopia | Montr√©al | 3 | All Maps | STV","players":null},{"server_id":303,"name":"Uncletopia | Montr√©al | 4 | No Payload","name_short":"mtl-4","host":"mtl-1.ca.uncletopia.com","port":27045,"enabled":true,"region":"us-east","cc":"ca","latitude":45.50889,"longitude":-73.56167,"reserved":0,"last_update":"0001-01-01T00:00:00Z","name_a2s":"Uncletopia | Montr√©al | 4 | No Payload","protocol":17,"map":"cp_standin_final","folder":"tf","game":"Team Fortress","app_id":440,"player_count":0,"max_players":24,"Bots":0,"server_type":"Dedicated","server_os":"Linux","password":true,"vac":true,"version":"7757534","steam_id":85568392924500090,"keywords":["cp","nocrits","nodmgspread","uncletopia"],"game_id":440,"stv_port":27046,"stv_name":"Uncletopia | Montr√©al | 4 | No Payload | STV","players":null},{"server_id":13,"name":"Uncletopia | New York City | 1 | All Maps","name_short":"nyc-1","host":"nyc-1.us.uncletopia.com","port":27015,"enabled":true,"region":"us-east","cc":"us","latitude":40.73061,"longitude":-73.93524,"reserved":0,"last_update":"0001-01-01T00:00:00Z","name_a2s":"Uncletopia | New York City | 1 | All Maps","protocol":17,"map":"pl_snowycoast","folder":"tf","game":"Team Fortress","app_id":440,"player_count":9,"max_players":24,"Bots":0,"server_type":"Dedicated","server_os":"Linux","password":true,"vac":true,"version":"7757534","steam_id":85568392924469993,"keywords":["nocrits","nodmgspread","payload","uncletopia"],"game_id":440,"stv_port":27016,"stv_name":"Uncletopia | New York City | 1 | All Maps | STV","players":[{"user_id":802,"name":"The Walnut","steam_id":76561198080583044,"connected_time":2454000000000,"state":"active","ping":68},{"user_id":824,"name":"g√∂khan","steam_id":76561199008085020,"connected_time":779000000000,"state":"active","ping":59},{"user_id":815,"name":"cart simpson","steam_id":76561198047689205,"connected_time":1563000000000,"state":"active","ping":60},{"user_id":753,"name":"Vitzenhauzer","steam_id":76561198116449787,"connected_time":6316000000000,"state":"active","ping":48},{"user_id":826,"name":"Uncle Iroh","steam_id":76561198131467867,"connected_time":684000000000,"state":"active","ping":93},{"user_id":775,"name":"Sakiayuo","steam_id":76561198055408083,"connected_time":3898000000000,"state":"active","ping":74},{"user_id":807,"name":"jiim jaam","steam_id":76561198069814977,"connected_time":2313000000000,"state":"active","ping":59},{"user_id":750,"name":"Chops","steam_id":76561198093726531,"connected_time":6695000000000,"state":"active","ping":52},{"user_id":818,"name":"Tohubohu","steam_id":76561198077838448,"connected_time":1469000000000,"state":"active","ping":133}]},{"server_id":14,"name":"Uncletopia | New York City | 2 | All Maps","name_short":"nyc-2","host":"nyc-1.us.uncletopia.com","port":27025,"enabled":true,"region":"us-east","cc":"us","latitude":40.73061,"longitude":-73.93524,"reserved":0,"last_update":"0001-01-01T00:00:00Z","name_a2s":"Uncletopia | New York City | 2 | All Maps","protocol":17,"map":"koth_harvest_final","folder":"tf","game":"Team Fortress","app_id":440,"player_count":18,"max_players":24,"Bots":0,"server_type":"Dedicated","server_os":"Linux","password":true,"vac":true,"version":"7757534","steam_id":85568392924469994,"keywords":["cp","nocrits","nodmgspread","uncletopia"],"game_id":440,"stv_port":27026,"stv_name":"Uncletopia | New York City | 2 | All Maps | STV","players":[{"user_id":815,"name":"matkaster","steam_id":76561197998546486,"connected_time":3048000000000,"state":"active","ping":76},{"user_id":846,"name":"JGatsby","steam_id":76561198023307584,"connected_time":1068000000000,"state":"active","ping":64},{"user_id":847,"name":"Rein","steam_id":76561198300340427,"connected_time":992000000000,"state":"active","ping":67},{"user_id":852,"name":"Your Personal Demon","steam_id":76561198156230733,"connected_time":187000000000,"state":"active","ping":103},{"user_id":836,"name":"Saycrain","steam_id":76561198116502752,"connected_time":1709000000000,"state":"active","ping":128},{"user_id":849,"name":"noelle","steam_id":76561198842577534,"connected_time":486000000000,"state":"active","ping":115},{"user_id":799,"name":"whoa...","steam_id":76561198143132686,"connected_time":5207000000000,"state":"active","ping":105},{"user_id":850,"name":"goop","steam_id":76561198311256085,"connected_time":347000000000,"state":"active","ping":60},{"user_id":800,"name":"dicksouls26","steam_id":76561198838196266,"connected_time":5159000000000,"state":"active","ping":58},{"user_id":838,"name":"flora","steam_id":76561197994492154,"connected_time":1547000000000,"state":"active","ping":143},{"user_id":842,"name":"–ì—É–Ω–Ω–∞—Ä","steam_id":76561198409761557,"connected_time":1306000000000,"state":"active","ping":86},{"user_id":845,"name":"Big whest","steam_id":76561198147749990,"connected_time":1210000000000,"state":"active","ping":113},{"user_id":814,"name":"Frontier Psychiatrist","steam_id":76561198038689088,"connected_time":3454000000000,"state":"active","ping":92},{"user_id":820,"name":"Tom Cr√∫aich","steam_id":76561197999439911,"connected_time":3006000000000,"state":"active","ping":92},{"user_id":829,"name":"Rusty","steam_id":76561198055585129,"connected_time":2010000000000,"state":"active","ping":113},{"user_id":822,"name":"Satan","steam_id":76561198049821475,"connected_time":2999000000000,"state":"active","ping":61},{"user_id":823,"name":"dubious little creature","steam_id":76561198113251746,"connected_time":2996000000000,"state":"active","ping":108},{"user_id":826,"name":"www.lesbian.com","steam_id":76561198029274581,"connected_time":2799000000000,"state":"active","ping":72}]},{"server_id":15,"name":"Uncletopia | New York City | 3 | Stopwatch Beta","name_short":"nyc-3","host":"nyc-1.us.uncletopia.com","port":27035,"enabled":true,"region":"us-east","cc":"us","latitude":40.73061,"longitude":-73.93524,"reserved":0,"last_update":"0001-01-01T00:00:00Z","name_a2s":"Uncletopia | New York City | 3 | Stopwatch Beta","protocol":17,"map":"pl_swiftwater_final1","folder":"tf","game":"Team Fortress","app_id":440,"player_count":0,"max_players":24,"Bots":0,"server_type":"Dedicated","server_os":"Linux","password":true,"vac":true,"version":"7757534","steam_id":85568392924742820,"keywords":["nocrits","nodmgspread","payload","uncletopia"],"game_id":440,"stv_port":27036,"stv_name":"Uncletopia | New York City | 3 | Stopwatch Beta | STV","players":null},{"server_id":16,"name":"Uncletopia | New York City | 4 | Community","name_short":"nyc-4","host":"nyc-1.us.uncletopia.com","port":27045,"enabled":true,"region":"us-east","cc":"us","latitude":40.73061,"longitude":-73.93524,"reserved":0,"last_update":"0001-01-01T00:00:00Z","name_a2s":"Uncletopia | New York City | 4 | Community","protocol":17,"map":"workshop/koth_synthetic_rc6a.ugc1549817316","folder":"tf","game":"Team Fortress","app_id":440,"player_count":0,"max_players":24,"Bots":0,"server_type":"Dedicated","server_os":"Linux","password":true,"vac":true,"version":"7757534","steam_id":85568392924742821,"keywords":["cp","nocrits","nodmgspread","uncletopia"],"game_id":440,"stv_port":27046,"stv_name":"Uncletopia | New York City | 4 | Community | STV","players":null},{"server_id":142,"name":"Uncletopia | S√£o Paulo | 1 | All Maps","name_short":"sao-1","host":"sao-1.br.uncletopia.com","port":27015,"enabled":true,"region":"sa","cc":"br","latitude":-23.533773,"longitude":-46.62529,"reserved":0,"last_update":"0001-01-01T00:00:00Z","name_a2s":"Uncletopia | S√£o Paulo | 1 | All Maps","protocol":17,"map":"koth_viaduct","folder":"tf","game":"Team Fortress","app_id":440,"player_count":0,"max_players":24,"Bots":0,"server_type":"Dedicated","server_os":"Linux","password":true,"vac":true,"version":"7757534","steam_id":85568392924469996,"keywords":["cp","nocrits","nodmgspread","uncletopia"],"game_id":440,"stv_port":27016,"stv_name":"Uncletopia | S√£o Paulo | 1 | All Maps | STV","players":null},{"server_id":143,"name":"Uncletopia | S√£o Paulo | 2 | All Maps","name_short":"sao-2","host":"sao-2.br.uncletopia.com","port":27015,"enabled":true,"region":"sa","cc":"br","latitude":-23.533773,"longitude":-46.62529,"reserved":0,"last_update":"0001-01-01T00:00:00Z","name_a2s":"Uncletopia | S√£o Paulo | 2 | All Maps","protocol":17,"map":"koth_lakeside_final","folder":"tf","game":"Team Fortress","app_id":440,"player_count":0,"max_players":24,"Bots":0,"server_type":"Dedicated","server_os":"Linux","password":true,"vac":true,"version":"7757534","steam_id":85568392924485349,"keywords":["cp","nocrits","nodmgspread","uncletopia"],"game_id":440,"stv_port":27016,"stv_name":"Uncletopia | S√£o Paulo | 2 | All Maps | STV","players":null},{"server_id":7,"name":"Uncletopia | Seattle | 1 | All Maps","name_short":"sea-1","host":"sea-1.us.uncletopia.com","port":27015,"enabled":true,"region":"us-west","cc":"us","latitude":47.608013,"longitude":-122.33517,"reserved":0,"last_update":"0001-01-01T00:00:00Z","name_a2s":"Uncletopia | Seattle | 1 | All Maps","protocol":17,"map":"cp_altitude","folder":"tf","game":"Team Fortress","app_id":440,"player_count":24,"max_players":24,"Bots":0,"server_type":"Dedicated","server_os":"Linux","password":true,"vac":true,"version":"7757534","steam_id":85568392924469997,"keywords":["cp","nocrits","nodmgspread","uncletopia"],"game_id":440,"stv_port":27016,"stv_name":"Uncletopia | Seattle | 1 | All Maps | STV","players":[{"user_id":636,"name":"rat gets the cheese","steam_id":76561198031234032,"connected_time":12639000000000,"state":"active","ping":147},{"user_id":795,"name":"TheRatMan","steam_id":76561198035094735,"connected_time":1680000000000,"state":"spawning","ping":35},{"user_id":800,"name":"thunderous prophet","steam_id":76561198131166135,"connected_time":1509000000000,"state":"active","ping":84},{"user_id":720,"name":"Arsonist Goose","steam_id":76561198147441830,"connected_time":4482000000000,"state":"active","ping":167},{"user_id":699,"name":"discord kitten","steam_id":76561198210322871,"connected_time":6990000000000,"state":"active","ping":77},{"user_id":648,"name":"Level 99 Mudcrab","steam_id":76561198077452771,"connected_time":11960000000000,"state":"active","ping":348},{"user_id":671,"name":"Haydob13","steam_id":76561198110378191,"connected_time":10440000000000,"state":"active","ping":253},{"user_id":793,"name":"p9 squash","steam_id":76561198150281353,"connected_time":2046000000000,"state":"active","ping":170},{"user_id":724,"name":"Dentivent","steam_id":76561197971953043,"connected_time":4262000000000,"state":"active","ping":393},{"user_id":801,"name":"Many Bees' Chilling","steam_id":76561198079641282,"connected_time":1423000000000,"state":"active","ping":98},{"user_id":804,"name":"Harold","steam_id":76561198057317770,"connected_time":652000000000,"state":"active","ping":84},{"user_id":728,"name":"Ayayahuasca","steam_id":76561199002906056,"connected_time":4245000000000,"state":"active","ping":83},{"user_id":792,"name":"loppy","steam_id":76561198081870327,"connected_time":2194000000000,"state":"active","ping":181},{"user_id":802,"name":"gorlab","steam_id":76561198025089694,"connected_time":762000000000,"state":"active","ping":143},{"user_id":810,"name":"ChibiFerrari","steam_id":76561198825330201,"connected_time":177000000000,"state":"active","ping":148},{"user_id":798,"name":"goldhed","steam_id":76561198051751133,"connected_time":1571000000000,"state":"spawning","ping":76},{"user_id":812,"name":"Sniff","steam_id":76561198010270922,"connected_time":85000000000,"state":"spawning","ping":50},{"user_id":790,"name":"‚ô• President Shitfart ‚ô•","steam_id":76561198141819053,"connected_time":2225000000000,"state":"active","ping":108},{"user_id":799,"name":"Malmart_Employee","steam_id":76561198320388704,"connected_time":1554000000000,"state":"active","ping":57},{"user_id":787,"name":"carmillalover1334","steam_id":76561198325306660,"connected_time":2470000000000,"state":"active","ping":239},{"user_id":789,"name":"hooray","steam_id":76561198099655713,"connected_time":2300000000000,"state":"active","ping":203},{"user_id":808,"name":"weegeebad","steam_id":76561198280841437,"connected_time":634000000000,"state":"spawning","ping":96},{"user_id":803,"name":"2 Point Tom","steam_id":76561198087617008,"connected_time":761000000000,"state":"active","ping":86},{"user_id":811,"name":"rorywashere /·ê† - Àï -„Éû ‚≥ä","steam_id":76561198065825165,"connected_time":138000000000,"state":"spawning","ping":125}]},{"server_id":119,"name":"Uncletopia | Seattle | 2 | All Maps","name_short":"sea-2","host":"sea-1.us.uncletopia.com","port":27025,"enabled":true,"region":"us-west","cc":"us","latitude":47.608013,"longitude":-122.33517,"reserved":0,"last_update":"0001-01-01T00:00:00Z","name_a2s":"Uncletopia | Seattle | 2 | All Maps","protocol":17,"map":"pl_goldrush","folder":"tf","game":"Team Fortress","app_id":440,"player_count":24,"max_players":24,"Bots":0,"server_type":"Dedicated","server_os":"Linux","password":true,"vac":true,"version":"7757534","steam_id":85568392924469998,"keywords":["nocrits","nodmgspread","payload","uncletopia"],"game_id":440,"stv_port":27026,"stv_name":"Uncletopia | Seattle | 2 | All Maps | STV","players":[{"user_id":549,"name":"Suukin","steam_id":76561197992107925,"connected_time":1133000000000,"state":"active","ping":56},{"user_id":559,"name":"Thequirka","steam_id":76561198968058652,"connected_time":465000000000,"state":"active","ping":47},{"user_id":557,"name":"American Dad Funny Moments #32","steam_id":76561198254874328,"connected_time":508000000000,"state":"active","ping":76},{"user_id":560,"name":"pookus","steam_id":76561198114239912,"connected_time":455000000000,"state":"active","ping":50},{"user_id":562,"name":"air bud","steam_id":76561198040475254,"connected_time":444000000000,"state":"active","ping":41},{"user_id":564,"name":"StrangeMachine","steam_id":76561198046628064,"connected_time":131000000000,"state":"active","ping":45},{"user_id":523,"name":"twitch.tv/ladyloki_ch","steam_id":76561198280150602,"connected_time":3853000000000,"state":"active","ping":57},{"user_id":488,"name":"Kangroe","steam_id":76561198346844814,"connected_time":6060000000000,"state":"active","ping":116},{"user_id":489,"name":"GodBlessAmerica","steam_id":76561198144384685,"connected_time":6045000000000,"state":"active","ping":152},{"user_id":547,"name":"Zekiozeso","steam_id":76561198162816824,"connected_time":1587000000000,"state":"active","ping":80},{"user_id":520,"name":"Angry_p3nguin","steam_id":76561198086275722,"connected_time":4274000000000,"state":"active","ping":46},{"user_id":563,"name":"toxin","steam_id":76561199083297362,"connected_time":228000000000,"state":"active","ping":61},{"user_id":551,"name":"COOL master_9","steam_id":76561198073041151,"connected_time":1090000000000,"state":"active","ping":170},{"user_id":544,"name":"The dreaded jar","steam_id":76561199087010656,"connected_time":2131000000000,"state":"active","ping":58},{"user_id":552,"name":"the splotchiest splochter","steam_id":76561198419896433,"connected_time":1034000000000,"state":"active","ping":43},{"user_id":565,"name":"Baby Llama","steam_id":76561198407155682,"connected_time":40000000000,"state":"active","ping":118},{"user_id":543,"name":"SvicidalBug","steam_id":76561198221390504,"connected_time":2382000000000,"state":"active","ping":66},{"user_id":526,"name":"mub","steam_id":76561197961943948,"connected_time":3814000000000,"state":"active","ping":48},{"user_id":536,"name":"Sam","steam_id":76561198146472900,"connected_time":2817000000000,"state":"active","ping":64},{"user_id":555,"name":"Glenn","steam_id":76561198059313367,"connected_time":843000000000,"state":"active","ping":41},{"user_id":504,"name":"mr.meaner","steam_id":76561199468236392,"connected_time":5392000000000,"state":"active","ping":87},{"user_id":540,"name":"S Q U I S H E  T H A T  C A T","steam_id":76561198293865429,"connected_time":2655000000000,"state":"active","ping":44},{"user_id":541,"name":"THAT CAT","steam_id":76561198010828625,"connected_time":2643000000000,"state":"active","ping":44},{"user_id":527,"name":"That \"Spud\" Guy","steam_id":76561197997444126,"connected_time":3280000000000,"state":"active","ping":47}]},{"server_id":406,"name":"Uncletopia | Seattle | 3 | Stopwatch Beta","name_short":"sea-3","host":"sea-1.us.uncletopia.com","port":27035,"enabled":true,"region":"us-west","cc":"us","latitude":47.608013,"longitude":-122.33517,"reserved":0,"last_update":"0001-01-01T00:00:00Z","name_a2s":"Uncletopia | Seattle | 3 | Stopwatch Beta","protocol":17,"map":"cp_granary","folder":"tf","game":"Team Fortress","app_id":440,"player_count":9,"max_players":24,"Bots":0,"server_type":"Dedicated","server_os":"Linux","password":true,"vac":true,"version":"7757534","steam_id":85568392924515217,"keywords":["cp","nocrits","nodmgspread","uncletopia"],"game_id":440,"stv_port":27036,"stv_name":"Uncletopia | Seattle | 3 | Stopwatch Beta | STV","players":[{"user_id":30,"name":"Porytal","steam_id":76561198306101889,"connected_time":2793000000000,"state":"active","ping":49},{"user_id":31,"name":"girr","steam_id":76561198995114110,"connected_time":2773000000000,"state":"active","ping":60},{"user_id":33,"name":"mafia is mafia","steam_id":76561198042574722,"connected_time":2335000000000,"state":"active","ping":47},{"user_id":35,"name":"autumnal.messenger","steam_id":76561199345816635,"connected_time":1295000000000,"state":"active","ping":41},{"user_id":45,"name":"BManB","steam_id":76561199061447785,"connected_time":253000000000,"state":"active","ping":224},{"user_id":38,"name":"Sconedog04","steam_id":76561198410923783,"connected_time":990000000000,"state":"active","ping":117},{"user_id":46,"name":"Bobdude","steam_id":76561198075956967,"connected_time":236000000000,"state":"active","ping":56},{"user_id":40,"name":"sink","steam_id":76561198084132037,"connected_time":907000000000,"state":"active","ping":57},{"user_id":41,"name":"yogurtcup","steam_id":76561198113831698,"connected_time":865000000000,"state":"active","ping":35}]},{"server_id":17,"name":"Uncletopia | San Francisco | 1 | All Maps","name_short":"sfo-1","host":"sfo-1.us.uncletopia.com","port":27015,"enabled":true,"region":"us-west","cc":"us","latitude":37.77397,"longitude":-122.4313,"reserved":0,"last_update":"0001-01-01T00:00:00Z","name_a2s":"Uncletopia | San Francisco | 1 | All Maps","protocol":17,"map":"pl_borneo","folder":"tf","game":"Team Fortress","app_id":440,"player_count":24,"max_players":24,"Bots":0,"server_type":"Dedicated","server_os":"Linux","password":true,"vac":true,"version":"7757534","steam_id":85568392924469999,"keywords":["nocrits","nodmgspread","payload","uncletopia"],"game_id":440,"stv_port":27016,"stv_name":"Uncletopia | San Francisco | 1 | All Maps | STV","players":[{"user_id":716,"name":"en.wikipedia.org/wiki/Nae_Nae","steam_id":76561198418288939,"connected_time":3757000000000,"state":"active","ping":62},{"user_id":763,"name":"gorebastard","steam_id":76561198295113883,"connected_time":347000000000,"state":"active","ping":91},{"user_id":737,"name":"MORE BOUNCE TO THE OUNCE","steam_id":76561198243399336,"connected_time":2006000000000,"state":"active","ping":69},{"user_id":764,"name":"walidov","steam_id":76561198079965605,"connected_time":291000000000,"state":"active","ping":105},{"user_id":761,"name":"TheRealChizz","steam_id":76561198016055769,"connected_time":433000000000,"state":"active","ping":55},{"user_id":760,"name":"Poor Mimic","steam_id":76561198200706173,"connected_time":973000000000,"state":"active","ping":76},{"user_id":677,"name":"Cinna Mon","steam_id":76561198005840633,"connected_time":6766000000000,"state":"active","ping":73},{"user_id":762,"name":"WHOPPER EQUIPPED","steam_id":76561198852855840,"connected_time":378000000000,"state":"active","ping":72},{"user_id":731,"name":"served","steam_id":76561199438267625,"connected_time":2477000000000,"state":"active","ping":52},{"user_id":743,"name":"Citizen Toxie","steam_id":76561197961107982,"connected_time":1435000000000,"state":"active","ping":104},{"user_id":755,"name":"Biggest Dude In Town 4U","steam_id":76561198070281464,"connected_time":1185000000000,"state":"active","ping":89},{"user_id":766,"name":"Varrick","steam_id":76561198018461983,"connected_time":129000000000,"state":"active","ping":92},{"user_id":750,"name":"Farseer Ulwithy","steam_id":76561197965179245,"connected_time":1307000000000,"state":"active","ping":87},{"user_id":765,"name":"A UsedNom","steam_id":76561198402832756,"connected_time":277000000000,"state":"active","ping":50},{"user_id":749,"name":"Danzuniverse","steam_id":76561198179817943,"connected_time":1385000000000,"state":"active","ping":76},{"user_id":650,"name":"Pyrotek‚Å¥","steam_id":76561198072747672,"connected_time":8024000000000,"state":"active","ping":48},{"user_id":741,"name":"PonYOOOOOOO","steam_id":76561199067424111,"connected_time":1656000000000,"state":"active","ping":67},{"user_id":719,"name":"Gamut","steam_id":76561199185822800,"connected_time":3560000000000,"state":"active","ping":100},{"user_id":665,"name":"NotAWeeb","steam_id":76561198165530739,"connected_time":7331000000000,"state":"active","ping":45},{"user_id":757,"name":"M√©duse","steam_id":76561198044987757,"connected_time":1144000000000,"state":"active","ping":96},{"user_id":740,"name":"tobrehto","steam_id":76561198097544038,"connected_time":1857000000000,"state":"active","ping":68},{"user_id":735,"name":"‚úømika‚úø","steam_id":76561198021771036,"connected_time":2413000000000,"state":"active","ping":131},{"user_id":753,"name":"Battery_Included","steam_id":76561198067164431,"connected_time":1200000000000,"state":"active","ping":49},{"user_id":729,"name":"Saggle","steam_id":76561198056075147,"connected_time":3014000000000,"state":"active","ping":175}]},{"server_id":18,"name":"Uncletopia | San Francisco | 2 | All Maps","name_short":"sfo-2","host":"sfo-1.us.uncletopia.com","port":27025,"enabled":true,"region":"us-west","cc":"us","latitude":37.77397,"longitude":-122.4313,"reserved":0,"last_update":"0001-01-01T00:00:00Z","name_a2s":"Uncletopia | San Francisco | 2 | All Maps","protocol":17,"map":"pl_borneo","folder":"tf","game":"Team Fortress","app_id":440,"player_count":23,"max_players":24,"Bots":0,"server_type":"Dedicated","server_os":"Linux","password":true,"vac":true,"version":"7757534","steam_id":85568392924470000,"keywords":["nocrits","nodmgspread","payload","uncletopia"],"game_id":440,"stv_port":27026,"stv_name":"Uncletopia | San Francisco | 2 | All Maps | STV","players":[{"user_id":215,"name":"Jesus_Extrocent","steam_id":76561198147006723,"connected_time":4420000000000,"state":"active","ping":54},{"user_id":247,"name":"Ronin.","steam_id":76561198800028107,"connected_time":2438000000000,"state":"active","ping":104},{"user_id":252,"name":"Death Bird","steam_id":76561198041329791,"connected_time":834000000000,"state":"active","ping":59},{"user_id":256,"name":"mumbles","steam_id":76561197994528974,"connected_time":582000000000,"state":"active","ping":101},{"user_id":210,"name":"ASCE","steam_id":76561198169768539,"connected_time":5367000000000,"state":"active","ping":68},{"user_id":243,"name":"Bobby Ray","steam_id":76561198044131188,"connected_time":2593000000000,"state":"active","ping":108},{"user_id":231,"name":"Oomitch","steam_id":76561198071702759,"connected_time":3003000000000,"state":"active","ping":68},{"user_id":248,"name":"luminen","steam_id":76561198044479631,"connected_time":1459000000000,"state":"active","ping":97},{"user_id":241,"name":"Dragonsalt","steam_id":76561198141927559,"connected_time":2733000000000,"state":"active","ping":71},{"user_id":232,"name":"nicolas the mercenary","steam_id":76561199077641644,"connected_time":3000000000000,"state":"active","ping":110},{"user_id":235,"name":"riSygneD","steam_id":76561198331618687,"connected_time":2956000000000,"state":"active","ping":45},{"user_id":216,"name":"Tuna","steam_id":76561198129907971,"connected_time":4405000000000,"state":"active","ping":69},{"user_id":193,"name":"Guavaz!","steam_id":76561198282290924,"connected_time":6107000000000,"state":"active","ping":58},{"user_id":259,"name":"Gorilla Radio","steam_id":76561198136665829,"connected_time":173000000000,"state":"active","ping":48},{"user_id":204,"name":"FROYO b4nny","steam_id":76561197970669109,"connected_time":5572000000000,"state":"active","ping":60},{"user_id":258,"name":"berserker_tf2 ttv","steam_id":76561198303464488,"connected_time":357000000000,"state":"active","ping":95},{"user_id":242,"name":"SpockterWho","steam_id":76561198146653460,"connected_time":2662000000000,"state":"active","ping":54},{"user_id":220,"name":"themadlad67","steam_id":76561199309554436,"connected_time":3584000000000,"state":"active","ping":71},{"user_id":251,"name":"Gnome Chompski","steam_id":76561198003130703,"connected_time":1138000000000,"state":"active","ping":104},{"user_id":233,"name":"SneekiCheekiQbone","steam_id":76561198045077980,"connected_time":2993000000000,"state":"active","ping":54},{"user_id":208,"name":"Assassin","steam_id":76561198321410235,"connected_time":5517000000000,"state":"active","ping":56},{"user_id":236,"name":"T√ñZI","steam_id":76561198045268695,"connected_time":2944000000000,"state":"active","ping":111},{"user_id":167,"name":"Chap","steam_id":76561198294226443,"connected_time":7644000000000,"state":"active","ping":71}]},{"server_id":19,"name":"Uncletopia | San Francisco | 3 | Stopwatch Beta","name_short":"sfo-3","host":"sfo-1.us.uncletopia.com","port":27035,"enabled":true,"region":"us-west","cc":"us","latitude":37.77397,"longitude":-122.4313,"reserved":0,"last_update":"0001-01-01T00:00:00Z","name_a2s":"Uncletopia | San Francisco | 3 | Stopwatch Beta","protocol":17,"map":"pl_borneo","folder":"tf","game":"Team Fortress","app_id":440,"player_count":0,"max_players":24,"Bots":0,"server_type":"Dedicated","server_os":"Linux","password":true,"vac":true,"version":"7757534","steam_id":85568392924742824,"keywords":["nocrits","nodmgspread","payload","uncletopia"],"game_id":440,"stv_port":27036,"stv_name":"Uncletopia | San Francisco | 3 | Stopwatch Beta | STV","players":null},{"server_id":20,"name":"Uncletopia | San Francisco | 4 | Community","name_short":"sfo-4","host":"sfo-1.us.uncletopia.com","port":27045,"enabled":true,"region":"us-west","cc":"us","latitude":37.77397,"longitude":-122.4313,"reserved":0,"last_update":"0001-01-01T00:00:00Z","name_a2s":"Uncletopia | San Francisco | 4 | Community","protocol":17,"map":"workshop/pl_divulgence_b4b.ugc2884808746","folder":"tf","game":"Team Fortress","app_id":440,"player_count":0,"max_players":24,"Bots":0,"server_type":"Dedicated","server_os":"Linux","password":true,"vac":true,"version":"7757534","steam_id":85568392924742826,"keywords":["nocrits","nodmgspread","payload","uncletopia"],"game_id":440,"stv_port":27046,"stv_name":"Uncletopia | San Francisco | 4 | Community | STV","players":null},{"server_id":141,"name":"Uncletopia | Sydney | 1 | All Maps","name_short":"syd-1","host":"syd-1.au.uncletopia.com","port":27015,"enabled":true,"region":"au","cc":"au","latitude":-33.865143,"longitude":151.2099,"reserved":0,"last_update":"0001-01-01T00:00:00Z","name_a2s":"Uncletopia | Sydney | 1 | All Maps","protocol":17,"map":"koth_lakeside_final","folder":"tf","game":"Team Fortress","app_id":440,"player_count":23,"max_players":24,"Bots":0,"server_type":"Dedicated","server_os":"Linux","password":true,"vac":true,"version":"7757534","steam_id":85568392924470001,"keywords":["cp","nocrits","nodmgspread","uncletopia"],"game_id":440,"stv_port":27016,"stv_name":"Uncletopia | Sydney | 1 | All Maps | STV","players":[{"user_id":332,"name":"Smash.exe","steam_id":76561199135394975,"connected_time":464000000000,"state":"active","ping":369},{"user_id":322,"name":"‚ô•Alfred2‚ô•","steam_id":76561198806268791,"connected_time":972000000000,"state":"active","ping":54},{"user_id":307,"name":"A Spaceman","steam_id":76561198400378180,"connected_time":1481000000000,"state":"active","ping":50},{"user_id":339,"name":"orange is fucking trash","steam_id":76561198207940839,"connected_time":55000000000,"state":"active","ping":55},{"user_id":325,"name":"tuxy","steam_id":76561198996816684,"connected_time":893000000000,"state":"active","ping":51},{"user_id":341,"name":"Fresh Produce Gaming","steam_id":76561198358483352,"connected_time":8000000000,"state":"spawning","ping":62},{"user_id":329,"name":"Nyanderthal","steam_id":76561198843075573,"connected_time":646000000000,"state":"active","ping":57},{"user_id":326,"name":"Evelyn ‚ô•","steam_id":76561199054620764,"connected_time":863000000000,"state":"active","ping":55},{"user_id":338,"name":"soupy","steam_id":76561198073734936,"connected_time":120000000000,"state":"active","ping":87},{"user_id":249,"name":"SaltierThanYou","steam_id":76561198444395188,"connected_time":5892000000000,"state":"active","ping":82},{"user_id":321,"name":"normans on sabbatical honey","steam_id":76561198082423230,"connected_time":1124000000000,"state":"active","ping":75},{"user_id":330,"name":"Pickled Cow","steam_id":76561198292517991,"connected_time":627000000000,"state":"active","ping":45},{"user_id":337,"name":"anger324","steam_id":76561198074317875,"connected_time":140000000000,"state":"active","ping":44},{"user_id":327,"name":"uso","steam_id":76561198028756598,"connected_time":714000000000,"state":"active","ping":85},{"user_id":305,"name":"Strike","steam_id":76561198254083849,"connected_time":1530000000000,"state":"active","ping":70},{"user_id":324,"name":"The Man Behind The Slaughter","steam_id":76561198242072204,"connected_time":941000000000,"state":"active","ping":122},{"user_id":306,"name":"Lukey","steam_id":76561197999887960,"connected_time":1523000000000,"state":"active","ping":47},{"user_id":342,"name":"AnimalMother","steam_id":76561198079662021,"connected_time":4000000000,"state":"spawning","ping":114},{"user_id":335,"name":"wG [VIP]","steam_id":76561198186769550,"connected_time":172000000000,"state":"active","ping":53},{"user_id":320,"name":"Corgo","steam_id":76561198162174985,"connected_time":1206000000000,"state":"active","ping":49},{"user_id":336,"name":"Erl","steam_id":76561198041082043,"connected_time":158000000000,"state":"active","ping":105},{"user_id":331,"name":"Hi I'm Aiden","steam_id":76561198838987466,"connected_time":623000000000,"state":"active","ping":63},{"user_id":315,"name":"wG enrith","steam_id":76561198051825104,"connected_time":1371000000000,"state":"active","ping":62}]},{"server_id":123,"name":"Uncletopia | Sydney | 2 | All Maps","name_short":"syd-2","host":"syd-1.au.uncletopia.com","port":27025,"enabled":true,"region":"au","cc":"au","latitude":-33.865143,"longitude":151.2099,"reserved":0,"last_update":"0001-01-01T00:00:00Z","name_a2s":"Uncletopia | Sydney | 2 | All Maps","protocol":17,"map":"cp_altitude","folder":"tf","game":"Team Fortress","app_id":440,"player_count":23,"max_players":24,"Bots":0,"server_type":"Dedicated","server_os":"Linux","password":true,"vac":true,"version":"7757534","steam_id":85568392924470002,"keywords":["cp","nocrits","nodmgspread","uncletopia"],"game_id":440,"stv_port":27026,"stv_name":"Uncletopia | Sydney | 2 | All Maps | STV","players":[{"user_id":282,"name":"sausage slinger","steam_id":76561198442260055,"connected_time":482000000000,"state":"active","ping":70},{"user_id":225,"name":"Balsamic Vinegar","steam_id":76561198260148888,"connected_time":2734000000000,"state":"active","ping":51},{"user_id":271,"name":"Almond_Robin","steam_id":76561198823996617,"connected_time":922000000000,"state":"active","ping":71},{"user_id":272,"name":"Shimmel","steam_id":76561198343050242,"connected_time":905000000000,"state":"active","ping":56},{"user_id":252,"name":"EXTRA THICC","steam_id":76561198333936835,"connected_time":1464000000000,"state":"active","ping":61},{"user_id":288,"name":"i know kung fu","steam_id":76561198011433474,"connected_time":8000000000,"state":"spawning","ping":42},{"user_id":286,"name":"no teles 4 u","steam_id":76561198018478297,"connected_time":120000000000,"state":"active","ping":72},{"user_id":259,"name":"Muffin","steam_id":76561198075391119,"connected_time":1203000000000,"state":"active","ping":59},{"user_id":284,"name":"Jizfellow","steam_id":76561198067993108,"connected_time":352000000000,"state":"active","ping":47},{"user_id":264,"name":"Milk Boi","steam_id":76561198238708000,"connected_time":1056000000000,"state":"active","ping":87},{"user_id":274,"name":"XtremeN00b1337","steam_id":76561199228990627,"connected_time":875000000000,"state":"active","ping":65},{"user_id":278,"name":"CareBear","steam_id":76561198152496674,"connected_time":842000000000,"state":"active","ping":101},{"user_id":249,"name":"Rashid Of The Dank Memes","steam_id":76561198281398078,"connected_time":1589000000000,"state":"active","ping":60},{"user_id":269,"name":"Common sense, what's that?","steam_id":76561199257116847,"connected_time":995000000000,"state":"active","ping":55},{"user_id":285,"name":"veteran","steam_id":76561199457046392,"connected_time":288000000000,"state":"active","ping":77},{"user_id":287,"name":"slime","steam_id":76561199176020333,"connected_time":86000000000,"state":"active","ping":59},{"user_id":262,"name":"Aden","steam_id":76561198028555097,"connected_time":1151000000000,"state":"active","ping":75},{"user_id":267,"name":"adammagee","steam_id":76561197972653972,"connected_time":1029000000000,"state":"active","ping":54},{"user_id":268,"name":"...","steam_id":76561198309750355,"connected_time":1028000000000,"state":"active","ping":56},{"user_id":276,"name":"Coroth","steam_id":76561199128969325,"connected_time":869000000000,"state":"active","ping":62},{"user_id":277,"name":"Jontohil2","steam_id":76561198114091810,"connected_time":859000000000,"state":"active","ping":107},{"user_id":279,"name":"BlueAtla404","steam_id":76561199119529048,"connected_time":820000000000,"state":"active","ping":61},{"user_id":281,"name":"DYES","steam_id":76561198026017661,"connected_time":775000000000,"state":"active","ping":68}]},{"server_id":395,"name":"Uncletopia | Sydney | 3 | All Maps","name_short":"syd-3","host":"syd-1.au.uncletopia.com","port":27035,"enabled":true,"region":"au","cc":"au","latitude":-33.865143,"longitude":151.2099,"reserved":0,"last_update":"0001-01-01T00:00:00Z","name_a2s":"Uncletopia | Sydney | 3 | All Maps","protocol":17,"map":"plr_bananabay","folder":"tf","game":"Team Fortress","app_id":440,"player_count":1,"max_players":24,"Bots":0,"server_type":"Dedicated","server_os":"Linux","password":true,"vac":true,"version":"7757534","steam_id":85568392925194467,"keywords":["nocrits","nodmgspread","payload","uncletopia"],"game_id":440,"stv_port":27036,"stv_name":"Uncletopia | Sydney | 3 | All Maps | STV","players":[{"user_id":23,"name":"banan bay resident","steam_id":76561199083645515,"connected_time":450000000000,"state":"active","ping":63}]},{"server_id":396,"name":"Uncletopia | Sydney | 4 | All Maps","name_short":"syd-4","host":"syd-1.au.uncletopia.com","port":27045,"enabled":true,"region":"au","cc":"au","latitude":-33.865143,"longitude":151.2099,"reserved":0,"last_update":"0001-01-01T00:00:00Z","name_a2s":"Uncletopia | Sydney | 4 | All Maps","protocol":17,"map":"koth_lakeside_final","folder":"tf","game":"Team Fortress","app_id":440,"player_count":0,"max_players":24,"Bots":0,"server_type":"Dedicated","server_os":"Linux","password":true,"vac":true,"version":"7757534","steam_id":85568392925397958,"keywords":["cp","nocrits","nodmgspread","uncletopia"],"game_id":440,"stv_port":27046,"stv_name":"Uncletopia | Sydney | 4 | All Maps | STV","players":null},{"server_id":58,"name":"Uncletopia | Sydney | 5 | Stopwatch Beta","name_short":"syd-5","host":"syd-1.au.uncletopia.com","port":27055,"enabled":true,"region":"au","cc":"au","latitude":-33.865143,"longitude":151.2099,"reserved":0,"last_update":"0001-01-01T00:00:00Z","name_a2s":"Uncletopia | Sydney | 5 | Stopwatch Beta","protocol":17,"map":"koth_highpass","folder":"tf","game":"Team Fortress","app_id":440,"player_count":0,"max_players":24,"Bots":0,"server_type":"Dedicated","server_os":"Linux","password":true,"vac":true,"version":"7757534","steam_id":85568392925397959,"keywords":["cp","nocrits","nodmgspread","uncletopia"],"game_id":440,"stv_port":27056,"stv_name":"Uncletopia | Sydney | 5 | Stopwatch Beta | STV","players":null},{"server_id":59,"name":"Uncletopia | Sydney | 6 | Community","name_short":"syd-6","host":"syd-1.au.uncletopia.com","port":27065,"enabled":true,"region":"au","cc":"au","latitude":-33.865143,"longitude":151.2099,"reserved":0,"last_update":"0001-01-01T00:00:00Z","name_a2s":"Uncletopia | Sydney | 6 | Community","protocol":17,"map":"workshop/koth_ramjam_rc1.ugc459778887","folder":"tf","game":"Team Fortress","app_id":440,"player_count":10,"max_players":24,"Bots":0,"server_type":"Dedicated","server_os":"Linux","password":true,"vac":true,"version":"7757534","steam_id":85568392925397960,"keywords":["cp","nocrits","nodmgspread","uncletopia"],"game_id":440,"stv_port":27066,"stv_name":"Uncletopia | Sydney | 6 | Community | STV","players":[{"user_id":9,"name":"Gerald Master of Nans","steam_id":76561199082606935,"connected_time":4882000000000,"state":"active","ping":55},{"user_id":10,"name":"Rupidup","steam_id":76561198201996454,"connected_time":4876000000000,"state":"active","ping":46},{"user_id":11,"name":"Vinny","steam_id":76561198279837819,"connected_time":4797000000000,"state":"active","ping":273},{"user_id":29,"name":"SpacyCron","steam_id":76561198201524273,"connected_time":385000000000,"state":"active","ping":278},{"user_id":23,"name":"banan consumer","steam_id":76561199446773766,"connected_time":1007000000000,"state":"active","ping":84},{"user_id":27,"name":"Barry","steam_id":76561198994478643,"connected_time":665000000000,"state":"active","ping":63},{"user_id":28,"name":"Meihronias","steam_id":76561199163845108,"connected_time":569000000000,"state":"active","ping":55},{"user_id":31,"name":"N√∏rska","steam_id":76561199052150545,"connected_time":279000000000,"state":"active","ping":72},{"user_id":35,"name":"Skullasti","steam_id":76561199186664054,"connected_time":49000000000,"state":"active","ping":102},{"user_id":33,"name":"TsvndereFvn53","steam_id":76561197975953955,"connected_time":135000000000,"state":"active","ping":43}]},{"server_id":49,"name":"Uncletopia | Warsaw | 1 | All Maps","name_short":"waw-1","host":"waw-1.pl.uncletopia.com","port":27015,"enabled":true,"region":"eu","cc":"pl","latitude":52.2297,"longitude":21.017532,"reserved":0,"last_update":"0001-01-01T00:00:00Z","name_a2s":"","protocol":0,"map":"","folder":"","game":"","app_id":0,"player_count":0,"max_players":0,"Bots":0,"server_type":"","server_os":"","password":false,"vac":false,"version":"","steam_id":0,"keywords":null,"game_id":0,"stv_port":0,"stv_name":"","players":null},{"server_id":50,"name":"Uncletopia | Warsaw | 2 | All Maps","name_short":"waw-2","host":"waw-1.pl.uncletopia.com","port":27025,"enabled":true,"region":"eu","cc":"pl","latitude":52.2297,"longitude":21.017532,"reserved":0,"last_update":"0001-01-01T00:00:00Z","name_a2s":"Uncletopia | Warsaw | 2 | All Maps","protocol":17,"map":"cp_process_final","folder":"tf","game":"Team Fortress","app_id":440,"player_count":0,"max_players":24,"Bots":0,"server_type":"Dedicated","server_os":"Linux","password":true,"vac":true,"version":"7757534","steam_id":85568392925397851,"keywords":["cp","nocrits","nodmgspread","uncletopia"],"game_id":440,"stv_port":27026,"stv_name":"Uncletopia | Warsaw | 2 | All Maps | STV","players":null},{"server_id":51,"name":"Uncletopia | Warsaw | 3 | All Maps","name_short":"waw-3","host":"waw-1.pl.uncletopia.com","port":27035,"enabled":true,"region":"eu","cc":"pl","latitude":52.2297,"longitude":21.017532,"reserved":0,"last_update":"0001-01-01T00:00:00Z","name_a2s":"Uncletopia | Warsaw | 3 | All Maps","protocol":17,"map":"pl_barnblitz","folder":"tf","game":"Team Fortress","app_id":440,"player_count":0,"max_players":24,"Bots":0,"server_type":"Dedicated","server_os":"Linux","password":true,"vac":true,"version":"7757534","steam_id":85568392925397852,"keywords":["nocrits","nodmgspread","payload","uncletopia"],"game_id":440,"stv_port":27036,"stv_name":"Uncletopia | Warsaw | 3 | All Maps | STV","players":null},{"server_id":52,"name":"Uncletopia | Warsaw | 4 | All Maps","name_short":"waw-4","host":"waw-1.pl.uncletopia.com","port":27045,"enabled":true,"region":"eu","cc":"pl","latitude":52.2297,"longitude":21.017532,"reserved":0,"last_update":"0001-01-01T00:00:00Z","name_a2s":"Uncletopia | Warsaw | 4 | All Maps","protocol":17,"map":"pl_snowycoast","folder":"tf","game":"Team Fortress","app_id":440,"player_count":0,"max_players":24,"Bots":0,"server_type":"Dedicated","server_os":"Linux","password":true,"vac":true,"version":"7757534","steam_id":85568392925397853,"keywords":["nocrits","nodmgspread","payload","uncletopia"],"game_id":440,"stv_port":27046,"stv_name":"Uncletopia | Warsaw | 4 | All Maps | STV","players":null},{"server_id":53,"name":"Uncletopia | Warsaw | 5 | Stopwatch Beta","name_short":"waw-5","host":"waw-1.pl.uncletopia.com","port":27055,"enabled":true,"region":"eu","cc":"pl","latitude":52.2297,"longitude":21.017532,"reserved":0,"last_update":"0001-01-01T00:00:00Z","name_a2s":"Uncletopia | Warsaw | 5 | Stopwatch Beta","protocol":17,"map":"pl_barnblitz","folder":"tf","game":"Team Fortress","app_id":440,"player_count":0,"max_players":24,"Bots":0,"server_type":"Dedicated","server_os":"Linux","password":true,"vac":true,"version":"7757534","steam_id":85568392925397854,"keywords":["nocrits","nodmgspread","payload","uncletopia"],"game_id":440,"stv_port":27056,"stv_name":"Uncletopia | Warsaw | 5 | Stopwatch Beta | STV","players":null},{"server_id":54,"name":"Uncletopia | Warsaw | 6 | Community","name_short":"waw-6","host":"waw-1.pl.uncletopia.com","port":27065,"enabled":true,"region":"eu","cc":"pl","latitude":52.2297,"longitude":21.017532,"reserved":0,"last_update":"0001-01-01T00:00:00Z","name_a2s":"Uncletopia | Warsaw | 6 | Community","protocol":17,"map":"pl_swiftwater_final1","folder":"tf","game":"Team Fortress","app_id":440,"player_count":0,"max_players":24,"Bots":0,"server_type":"Dedicated","server_os":"Linux","password":true,"vac":true,"version":"7757534","steam_id":85568392925397856,"keywords":["nocrits","nodmgspread","payload","uncletopia"],"game_id":440,"stv_port":27066,"stv_name":"Uncletopia | Warsaw | 6 | Community | STV","players":null}]}