{"status":true,"message":"","result":[{"server_id":9,"name":"Uncletopia | Atlanta | 1 | All Maps","name_short":"atl-1","host":"atl-1.us.uncletopia.com","port":27015,"enabled":true,"region":"us-east","cc":"us","latitude":33.753746,"longitude":-84.38633,"reserved":0,"last_update":"0001-01-01T00:00:00Z","name_a2s":"Uncletopia | Atlanta | 1 | All Maps","protocol":17,"map":"koth_highpass","folder":"tf","game":"Team Fortress","app_id":440,"player_count":21,"max_players":24,"Bots":0,"server_type":"Dedicated","server_os":"Linux","password":true,"vac":true,"version":"7742253","steam_id":85568392924469982,"keywords":["cp","nocrits","nodmgspread","uncletopia"],"game_id":440,"stv_port":27016,"stv_name":"Uncletopia | Atlanta | 1 | All Maps | STV","players":[{"user_id":11,"name":"ATL1 | to4st","steam_id":76561198981009008,"connected_time":6093000000000,"state":"active","ping":66},{"user_id":63,"name":"Uppercut Enjoyer","steam_id":76561198097432114,"connected_time":1139000000000,"state":"active","ping":85},{"user_id":77,"name":"amagicowl","steam_id":76561199060487814,"connected_time":218000000000,"state":"active","ping":113},{"user_id":65,"name":"SomeCozyKid","steam_id":76561198086113234,"connected_time":679000000000,"state":"active","ping":68},{"user_id":68,"name":"Quetzalcoatl","steam_id":76561198011983876,"connected_time":665000000000,"state":"active","ping":69},{"user_id":30,"name":"SLEEPMODE","steam_id":76561198100942212,"connected_time":3944000000000,"state":"active","ping":60},{"user_id":45,"name":"QuanFromQuan","steam_id":76561198968008799,"connected_time":3370000000000,"state":"active","ping":76},{"user_id":19,"name":"blazzeh","steam_id":76561198053407069,"connected_time":4352000000000,"state":"active","ping":82},{"user_id":78,"name":"Don Piccolo","steam_id":76561198118539302,"connected_time":155000000000,"state":"active","ping":69},{"user_id":64,"name":"Karate","steam_id":76561198352187445,"connected_time":682000000000,"state":"active","ping":48},{"user_id":80,"name":"Strigby","steam_id":76561198004116353,"connected_time":53000000000,"state":"active","ping":68},{"user_id":46,"name":"quality_ch3ck","steam_id":76561198361132101,"connected_time":3186000000000,"state":"active","ping":83},{"user_id":32,"name":"survivalist keeda","steam_id":76561198277979851,"connected_time":3908000000000,"state":"active","ping":69},{"user_id":33,"name":"ch","steam_id":76561198012566405,"connected_time":3894000000000,"state":"active","ping":78},{"user_id":76,"name":"Knower","steam_id":76561198036213722,"connected_time":362000000000,"state":"active","ping":63},{"user_id":62,"name":"Dark Horse","steam_id":76561198121786844,"connected_time":1482000000000,"state":"active","ping":82},{"user_id":36,"name":"_Lusty_","steam_id":76561198876948142,"connected_time":3785000000000,"state":"active","ping":68},{"user_id":52,"name":"bladeefan2003","steam_id":76561198413930183,"connected_time":2730000000000,"state":"active","ping":61},{"user_id":66,"name":"mousejumper","steam_id":76561198220181353,"connected_time":677000000000,"state":"active","ping":65},{"user_id":74,"name":"Paco","steam_id":76561198023504958,"connected_time":565000000000,"state":"active","ping":46},{"user_id":43,"name":"DuckMann","steam_id":76561198197058638,"connected_time":3487000000000,"state":"active","ping":60}]},{"server_id":400,"name":"Uncletopia | Atlanta | 3 | Stopwatch Beta","name_short":"atl-3","host":"atl-1.us.uncletopia.com","port":27035,"enabled":true,"region":"us-east","cc":"us","latitude":33.753746,"longitude":-84.38633,"reserved":0,"last_update":"0001-01-01T00:00:00Z","name_a2s":"Uncletopia | Atlanta | 3 | Stopwatch Beta","protocol":17,"map":"pl_pier","folder":"tf","game":"Team Fortress","app_id":440,"player_count":0,"max_players":24,"Bots":0,"server_type":"Dedicated","server_os":"Linux","password":true,"vac":true,"version":"7742253","steam_id":85568392924515187,"keywords":["nocrits","nodmgspread","payload","uncletopia"],"game_id":440,"stv_port":27036,"stv_name":"Uncletopia | Atlanta | 3 | Stopwatch Beta | STV","players":null},{"server_id":401,"name":"Uncletopia | Atlanta | 4 | No Payload","name_short":"atl-4","host":"atl-1.us.uncletopia.com","port":27045,"enabled":true,"region":"us-east","cc":"us","latitude":33.753746,"longitude":-84.38633,"reserved":0,"last_update":"0001-01-01T00:00:00Z","name_a2s":"Uncletopia | Atlanta | 4 | No Payload","protocol":17,"map":"pl_pier","folder":"tf","game":"Team Fortress","app_id":440,"player_count":0,"max_players":24,"Bots":0,"server_type":"Dedicated","server_os":"Linux","password":true,"vac":true,"version":"7723704","steam_id":85568392924515188,"keywords":["nocrits","nodmgspread","payload","uncletopia"],"game_id":440,"stv_port":27046,"stv_name":"Uncletopia | Atlanta | 4 | No Payload | STV","players":null},{"server_id":2,"name":"Uncletopia | Chicago | 1 | All Maps","name_short":"chi-1","host":"chi-1.us.uncletopia.com","port":27015,"enabled":true,"region":"us-central","cc":"us","latitude":41.881832,"longitude":-87.62318,"reserved":0,"last_update":"0001-01-01T00:00:00Z","name_a2s":"Uncletopia | Chicago | 1 | All Maps","protocol":17,"map":"cp_sunshine","folder":"tf","game":"Team Fortress","app_id":440,"player_count":24,"max_players":24,"Bots":0,"server_type":"Dedicated","server_os":"Linux","password":true,"vac":true,"version":"7742253","steam_id":85568392924469984,"keywords":["cp","nocrits","nodmgspread","uncletopia"],"game_id":440,"stv_port":27016,"stv_name":"Uncletopia | Chicago | 1 | All Maps | STV","players":[{"user_id":78,"name":"Pixler544","steam_id":76561198240575132,"connected_time":2703000000000,"state":"active","ping":81},{"user_id":100,"name":"Roz257","steam_id":76561198842844532,"connected_time":1480000000000,"state":"active","ping":83},{"user_id":122,"name":"recycle","steam_id":76561198819562111,"connected_time":144000000000,"state":"active","ping":71},{"user_id":14,"name":"beta central","steam_id":76561198301876831,"connected_time":6944000000000,"state":"active","ping":60},{"user_id":120,"name":"[slug]","steam_id":76561197989592178,"connected_time":259000000000,"state":"active","ping":62},{"user_id":115,"name":"Cat07","steam_id":76561198040019846,"connected_time":815000000000,"state":"active","ping":159},{"user_id":97,"name":"Bush.exe","steam_id":76561198124385307,"connected_time":1672000000000,"state":"active","ping":69},{"user_id":124,"name":"Foomfa","steam_id":76561198007033616,"connected_time":77000000000,"state":"active","ping":76},{"user_id":98,"name":"hi","steam_id":76561198809577048,"connected_time":1585000000000,"state":"active","ping":101},{"user_id":117,"name":"Iggy Dogg","steam_id":76561198059602545,"connected_time":639000000000,"state":"active","ping":51},{"user_id":113,"name":"VermillionSon","steam_id":76561198258362014,"connected_time":1053000000000,"state":"active","ping":76},{"user_id":88,"name":"GuyGoom","steam_id":76561198254522178,"connected_time":2106000000000,"state":"active","ping":55},{"user_id":91,"name":"Squatchamo","steam_id":76561198012968239,"connected_time":1949000000000,"state":"active","ping":75},{"user_id":99,"name":"richard clock","steam_id":76561198048455671,"connected_time":1529000000000,"state":"active","ping":55},{"user_id":104,"name":"16th","steam_id":76561197999694138,"connected_time":1401000000000,"state":"active","ping":169},{"user_id":82,"name":"Wilhelmktx","steam_id":76561198158102295,"connected_time":2543000000000,"state":"active","ping":84},{"user_id":123,"name":"Mailer","steam_id":76561198062690074,"connected_time":140000000000,"state":"active","ping":136},{"user_id":103,"name":"Robomandude","steam_id":76561198043909566,"connected_time":1421000000000,"state":"active","ping":82},{"user_id":70,"name":"TheNicksta","steam_id":76561198241988360,"connected_time":3421000000000,"state":"active","ping":56},{"user_id":96,"name":"Broccoli","steam_id":76561198006251462,"connected_time":1723000000000,"state":"active","ping":139},{"user_id":116,"name":"LittleJoeRambler","steam_id":76561198015890576,"connected_time":800000000000,"state":"active","ping":72},{"user_id":106,"name":"SpookeyDoopyDo","steam_id":76561198430148780,"connected_time":1342000000000,"state":"active","ping":76},{"user_id":112,"name":"boofgall319","steam_id":76561199122095813,"connected_time":1125000000000,"state":"active","ping":71},{"user_id":118,"name":"Corbe","steam_id":76561198353893927,"connected_time":613000000000,"state":"active","ping":81}]},{"server_id":106,"name":"Uncletopia | Chicago | 2 | All Maps","name_short":"chi-2","host":"chi-1.us.uncletopia.com","port":27025,"enabled":true,"region":"us-central","cc":"us","latitude":41.881832,"longitude":-87.62318,"reserved":0,"last_update":"0001-01-01T00:00:00Z","name_a2s":"Uncletopia | Chicago | 2 | All Maps","protocol":17,"map":"koth_cascade","folder":"tf","game":"Team Fortress","app_id":440,"player_count":0,"max_players":24,"Bots":0,"server_type":"Dedicated","server_os":"Linux","password":true,"vac":true,"version":"7742253","steam_id":85568392924469985,"keywords":["cp","nocrits","nodmgspread","uncletopia"],"game_id":440,"stv_port":27026,"stv_name":"Uncletopia | Chicago | 2 | All Maps | STV","players":null},{"server_id":402,"name":"Uncletopia | Chicago | 3 | All Maps","name_short":"chi-3","host":"chi-1.us.uncletopia.com","port":27035,"enabled":true,"region":"us-central","cc":"us","latitude":41.881832,"longitude":-87.62318,"reserved":0,"last_update":"0001-01-01T00:00:00Z","name_a2s":"Uncletopia | Chicago | 3 | All Maps","protocol":17,"map":"koth_viaduct","folder":"tf","game":"Team Fortress","app_id":440,"player_count":0,"max_players":24,"Bots":0,"server_type":"Dedicated","server_os":"Linux","password":true,"vac":true,"version":"7742253","steam_id":85568392924515191,"keywords":["cp","nocrits","nodmgspread","uncletopia"],"game_id":440,"stv_port":27036,"stv_name":"Uncletopia | Chicago | 3 | All Maps | STV","players":null},{"server_id":403,"name":"Uncletopia | Chicago | 4 | All Maps","name_short":"chi-4","host":"chi-1.us.uncletopia.com","port":27045,"enabled":true,"region":"us-central","cc":"us","latitude":41.881832,"longitude":-87.62318,"reserved":0,"last_update":"0001-01-01T00:00:00Z","name_a2s":"Uncletopia | Chicago | 4 | All Maps","protocol":17,"map":"pl_badwater","folder":"tf","game":"Team Fortress","app_id":440,"player_count":0,"max_players":24,"Bots":0,"server_type":"Dedicated","server_os":"Linux","password":true,"vac":true,"version":"7742253","steam_id":85568392924515193,"keywords":["nocrits","nodmgspread","payload","uncletopia"],"game_id":440,"stv_port":27046,"stv_name":"Uncletopia | Chicago | 4 | All Maps | STV","players":null},{"server_id":36,"name":"Uncletopia | Chicago | 5 | All Maps","name_short":"chi-5","host":"chi-2.us.uncletopia.com","port":27015,"enabled":true,"region":"us-central","cc":"us","latitude":41.881832,"longitude":-87.62318,"reserved":0,"last_update":"0001-01-01T00:00:00Z","name_a2s":"Uncletopia | Chicago | 5 | All Maps","protocol":17,"map":"pl_borneo","folder":"tf","game":"Team Fortress","app_id":440,"player_count":0,"max_players":24,"Bots":0,"server_type":"Dedicated","server_os":"Linux","password":true,"vac":true,"version":"7742253","steam_id":85568392924866362,"keywords":["nocrits","nodmgspread","payload","uncletopia"],"game_id":440,"stv_port":27016,"stv_name":"Uncletopia | Chicago | 5 | All Maps | STV","players":null},{"server_id":37,"name":"Uncletopia | Chicago | 6 | All Maps","name_short":"chi-6","host":"chi-2.us.uncletopia.com","port":27025,"enabled":true,"region":"us-central","cc":"us","latitude":41.881832,"longitude":-87.62318,"reserved":0,"last_update":"0001-01-01T00:00:00Z","name_a2s":"Uncletopia | Chicago | 6 | All Maps","protocol":17,"map":"cp_sunshine","folder":"tf","game":"Team Fortress","app_id":440,"player_count":0,"max_players":24,"Bots":0,"server_type":"Dedicated","server_os":"Linux","password":true,"vac":true,"version":"7742253","steam_id":85568392924866363,"keywords":["cp","nocrits","nodmgspread","uncletopia"],"game_id":440,"stv_port":27026,"stv_name":"Uncletopia | Chicago | 6 | All Maps | STV","players":null},{"server_id":38,"name":"Uncletopia | Chicago | 7 | Stopwatch Beta","name_short":"chi-7","host":"chi-2.us.uncletopia.com","port":27035,"enabled":true,"region":"us-central","cc":"us","latitude":41.881832,"longitude":-87.62318,"reserved":0,"last_update":"0001-01-01T00:00:00Z","name_a2s":"Uncletopia | Chicago | 7 | Stopwatch Beta","protocol":17,"map":"koth_lakeside_final","folder":"tf","game":"Team Fortress","app_id":440,"player_count":0,"max_players":24,"Bots":0,"server_type":"Dedicated","server_os":"Linux","password":true,"vac":true,"version":"7742253","steam_id":85568392924866364,"keywords":["cp","nocrits","nodmgspread","uncletopia"],"game_id":440,"stv_port":27036,"stv_name":"Uncletopia | Chicago | 7 | Stopwatch Beta | STV","players":null},{"server_id":39,"name":"Uncletopia | Chicago | 8 | Community","name_short":"chi-8","host":"chi-2.us.uncletopia.com","port":27045,"enabled":true,"region":"us-central","cc":"us","latitude":41.881832,"longitude":-87.62318,"reserved":0,"last_update":"0001-01-01T00:00:00Z","name_a2s":"Uncletopia | Chicago | 8 | Community","protocol":17,"map":"koth_lakeside_final","folder":"tf","game":"Team Fortress","app_id":440,"player_count":0,"max_players":24,"Bots":0,"server_type":"Dedicated","server_os":"Linux","password":true,"vac":true,"version":"7742253","steam_id":85568392924866365,"keywords":["cp","nocrits","nodmgspread","uncletopia"],"game_id":440,"stv_port":27046,"stv_name":"Uncletopia | Chicago | 8 | Community | STV","players":null},{"server_id":8,"name":"Uncletopia | Dallas | 1 | All Maps","name_short":"dal-1","host":"dal-1.us.uncletopia.com","port":27015,"enabled":true,"region":"us-central","cc":"us","latitude":32.779167,"longitude":-96.80889,"reserved":0,"last_update":"0001-01-01T00:00:00Z","name_a2s":"Uncletopia | Dallas | 1 | All Maps","protocol":17,"map":"cp_sunshine","folder":"tf","game":"Team Fortress","app_id":440,"player_count":0,"max_players":24,"Bots":0,"server_type":"Dedicated","server_os":"Linux","password":true,"vac":true,"version":"7742253","steam_id":85568392924469986,"keywords":["cp","nocrits","nodmgspread","uncletopia"],"game_id":440,"stv_port":27016,"stv_name":"Uncletopia | Dallas | 1 | All Maps | STV","players":null},{"server_id":108,"name":"Uncletopia | Dallas | 2 | All Maps","name_short":"dal-2","host":"dal-1.us.uncletopia.com","port":27025,"enabled":true,"region":"us-central","cc":"us","latitude":32.779167,"longitude":-96.80889,"reserved":0,"last_update":"0001-01-01T00:00:00Z","name_a2s":"Uncletopia | Dallas | 2 | All Maps","protocol":17,"map":"pl_upward","folder":"tf","game":"Team Fortress","app_id":440,"player_count":0,"max_players":24,"Bots":0,"server_type":"Dedicated","server_os":"Linux","password":true,"vac":true,"version":"7742253","steam_id":85568392924469988,"keywords":["nocrits","nodmgspread","payload","uncletopia"],"game_id":440,"stv_port":27026,"stv_name":"Uncletopia | Dallas | 2 | All Maps | STV","players":null},{"server_id":5,"name":"Uncletopia | Frankfurt | 1 | All Maps","name_short":"frk-1","host":"frk-1.de.uncletopia.com","port":27015,"enabled":true,"region":"eu","cc":"de","latitude":50.110924,"longitude":8.682127,"reserved":0,"last_update":"0001-01-01T00:00:00Z","name_a2s":"Uncletopia | Frankfurt | 1 | All Maps","protocol":17,"map":"pl_borneo","folder":"tf","game":"Team Fortress","app_id":440,"player_count":24,"max_players":24,"Bots":0,"server_type":"Dedicated","server_os":"Linux","password":true,"vac":true,"version":"7742253","steam_id":85568392924469989,"keywords":["nocrits","nodmgspread","payload","uncletopia"],"game_id":440,"stv_port":27016,"stv_name":"Uncletopia | Frankfurt | 1 | All Maps | STV","players":[{"user_id":461,"name":"Daan77","steam_id":76561198129940468,"connected_time":2924000000000,"state":"active","ping":65},{"user_id":491,"name":"Rahzza","steam_id":76561198103606132,"connected_time":728000000000,"state":"active","ping":52},{"user_id":493,"name":"madman hesus","steam_id":76561198159702599,"connected_time":687000000000,"state":"active","ping":65},{"user_id":474,"name":"CampMaster49","steam_id":76561198353096926,"connected_time":2577000000000,"state":"active","ping":89},{"user_id":486,"name":"Atu","steam_id":76561199081828900,"connected_time":859000000000,"state":"active","ping":63},{"user_id":481,"name":"Sadao","steam_id":76561199020066945,"connected_time":943000000000,"state":"active","ping":79},{"user_id":490,"name":"78","steam_id":76561198208328357,"connected_time":810000000000,"state":"active","ping":82},{"user_id":485,"name":"Small Mouse","steam_id":76561198286085100,"connected_time":867000000000,"state":"active","ping":78},{"user_id":408,"name":"Mal ‚òÖ","steam_id":76561198262337669,"connected_time":6434000000000,"state":"active","ping":63},{"user_id":499,"name":"i5","steam_id":76561198212702751,"connected_time":302000000000,"state":"active","ping":83},{"user_id":466,"name":"p!ke","steam_id":76561198416081952,"connected_time":2873000000000,"state":"active","ping":59},{"user_id":498,"name":"Joe","steam_id":76561198061717026,"connected_time":421000000000,"state":"active","ping":60},{"user_id":496,"name":"Ocelot9610","steam_id":76561199227216384,"connected_time":552000000000,"state":"active","ping":69},{"user_id":501,"name":"MR.CRAB","steam_id":76561198329833659,"connected_time":0,"state":"spawning","ping":32},{"user_id":484,"name":"COFFEE","steam_id":76561198869355986,"connected_time":877000000000,"state":"active","ping":67},{"user_id":495,"name":"Intheweb33","steam_id":76561198082873786,"connected_time":567000000000,"state":"active","ping":78},{"user_id":471,"name":"your opinion \u003c my shit after a ","steam_id":76561198152620745,"connected_time":2803000000000,"state":"active","ping":66},{"user_id":477,"name":"Gordon Birdman","steam_id":76561198013382324,"connected_time":2154000000000,"state":"active","ping":80},{"user_id":497,"name":"imthegerman","steam_id":76561198053401077,"connected_time":545000000000,"state":"active","ping":100},{"user_id":430,"name":"Smoking Sax","steam_id":76561199057726100,"connected_time":5383000000000,"state":"active","ping":62},{"user_id":492,"name":"Zateske","steam_id":76561198047446276,"connected_time":704000000000,"state":"active","ping":60},{"user_id":476,"name":"SimplePig","steam_id":76561198071862153,"connected_time":2191000000000,"state":"active","ping":103},{"user_id":494,"name":"6onions","steam_id":76561198039313199,"connected_time":617000000000,"state":"active","ping":57},{"user_id":483,"name":"Patrick Bateman","steam_id":76561198408829424,"connected_time":889000000000,"state":"active","ping":75}]},{"server_id":110,"name":"Uncletopia | Frankfurt | 2 | All Maps","name_short":"frk-2","host":"frk-1.de.uncletopia.com","port":27025,"enabled":true,"region":"eu","cc":"de","latitude":50.110924,"longitude":8.682127,"reserved":0,"last_update":"0001-01-01T00:00:00Z","name_a2s":"Uncletopia | Frankfurt | 2 | All Maps","protocol":17,"map":"pl_borneo","folder":"tf","game":"Team Fortress","app_id":440,"player_count":24,"max_players":24,"Bots":0,"server_type":"Dedicated","server_os":"Linux","password":true,"vac":true,"version":"7742253","steam_id":85568392924469990,"keywords":["nocrits","nodmgspread","payload","uncletopia"],"game_id":440,"stv_port":27026,"stv_name":"Uncletopia | Frankfurt | 2 | All Maps | STV","players":[{"user_id":360,"name":"Barry","steam_id":76561198351154533,"connected_time":1949000000000,"state":"active","ping":73},{"user_id":333,"name":"Jesus","steam_id":76561198119288049,"connected_time":3248000000000,"state":"active","ping":57},{"user_id":357,"name":"Bumblebee","steam_id":76561198033551105,"connected_time":2450000000000,"state":"active","ping":57},{"user_id":359,"name":"‚ù§BezLyapchik‚ù§","steam_id":76561199447261771,"connected_time":1965000000000,"state":"active","ping":99},{"user_id":372,"name":"Chris","steam_id":76561198117525854,"connected_time":1227000000000,"state":"active","ping":80},{"user_id":330,"name":"Malphite","steam_id":76561198073313660,"connected_time":3294000000000,"state":"active","ping":59},{"user_id":264,"name":"Sleetler","steam_id":76561198021646640,"connected_time":8262000000000,"state":"active","ping":60},{"user_id":382,"name":"azi","steam_id":76561198084056439,"connected_time":267000000000,"state":"active","ping":53},{"user_id":379,"name":"Wayward Smile","steam_id":76561198058841506,"connected_time":444000000000,"state":"active","ping":62},{"user_id":369,"name":"Frylock","steam_id":76561198050292560,"connected_time":1549000000000,"state":"active","ping":45},{"user_id":377,"name":"Totally Something","steam_id":76561198916824935,"connected_time":469000000000,"state":"active","ping":71},{"user_id":375,"name":"whoppr","steam_id":76561198886757115,"connected_time":580000000000,"state":"active","ping":60},{"user_id":364,"name":"Optimist 50","steam_id":76561198039631442,"connected_time":1673000000000,"state":"active","ping":75},{"user_id":365,"name":"frying pan (real)","steam_id":76561198875409640,"connected_time":1663000000000,"state":"active","ping":67},{"user_id":376,"name":"fucking diabolical","steam_id":76561198193357946,"connected_time":496000000000,"state":"active","ping":108},{"user_id":378,"name":"Doriian","steam_id":76561198071438810,"connected_time":464000000000,"state":"active","ping":75},{"user_id":366,"name":"ksg","steam_id":76561198042894236,"connected_time":1646000000000,"state":"active","ping":74},{"user_id":346,"name":"Noob_with_source","steam_id":76561198870362103,"connected_time":2634000000000,"state":"active","ping":59},{"user_id":347,"name":"Jorge","steam_id":76561198267317192,"connected_time":2634000000000,"state":"active","ping":98},{"user_id":374,"name":"ShawnDawn2","steam_id":76561198165013522,"connected_time":914000000000,"state":"active","ping":47},{"user_id":303,"name":"ivanmixo","steam_id":76561198160213989,"connected_time":4673000000000,"state":"active","ping":63},{"user_id":380,"name":"NALA","steam_id":76561198039806469,"connected_time":440000000000,"state":"active","ping":72},{"user_id":371,"name":"Solymr ibn Wali Barad","steam_id":76561198044008976,"connected_time":1281000000000,"state":"active","ping":73},{"user_id":381,"name":"Blo","steam_id":76561198161651469,"connected_time":432000000000,"state":"active","ping":52}]},{"server_id":308,"name":"Uncletopia | Frankfurt | 3 | All Maps","name_short":"frk-3","host":"frk-1.de.uncletopia.com","port":27035,"enabled":true,"region":"eu","cc":"de","latitude":50.110924,"longitude":8.682127,"reserved":0,"last_update":"0001-01-01T00:00:00Z","name_a2s":"Uncletopia | Frankfurt | 3 | All Maps","protocol":17,"map":"pl_frontier_final","folder":"tf","game":"Team Fortress","app_id":440,"player_count":24,"max_players":24,"Bots":0,"server_type":"Dedicated","server_os":"Linux","password":true,"vac":true,"version":"7742253","steam_id":85568392924504274,"keywords":["nocrits","nodmgspread","payload","uncletopia"],"game_id":440,"stv_port":27036,"stv_name":"Uncletopia | Frankfurt | 3 | All Maps | STV","players":[{"user_id":287,"name":"punchy bill","steam_id":76561198083615367,"connected_time":947000000000,"state":"active","ping":49},{"user_id":278,"name":"–ò–Ω—Å–ø–µ–∫—Ç–æ—Ä –ê—Ç–∞—Å","steam_id":76561199175688390,"connected_time":1315000000000,"state":"active","ping":75},{"user_id":289,"name":"Stepoface","steam_id":76561198091569863,"connected_time":805000000000,"state":"active","ping":55},{"user_id":290,"name":"Korki","steam_id":76561198146829203,"connected_time":800000000000,"state":"active","ping":59},{"user_id":274,"name":"Parapluie","steam_id":76561197971640301,"connected_time":1530000000000,"state":"active","ping":56},{"user_id":304,"name":"dripstein","steam_id":76561198059598696,"connected_time":260000000000,"state":"active","ping":55},{"user_id":215,"name":"aspect","steam_id":76561198315032412,"connected_time":4802000000000,"state":"active","ping":56},{"user_id":291,"name":"Gotharski","steam_id":76561198012263719,"connected_time":784000000000,"state":"active","ping":70},{"user_id":309,"name":"Gebagemid","steam_id":76561198003684717,"connected_time":91000000000,"state":"active","ping":67},{"user_id":300,"name":"ambatukam","steam_id":76561198175433731,"connected_time":686000000000,"state":"active","ping":66},{"user_id":307,"name":"Dzan50","steam_id":76561198059758591,"connected_time":130000000000,"state":"active","ping":175},{"user_id":302,"name":"stoppen","steam_id":76561197960281482,"connected_time":424000000000,"state":"active","ping":72},{"user_id":296,"name":"Kinas","steam_id":76561198084438097,"connected_time":735000000000,"state":"active","ping":159},{"user_id":264,"name":"Fengerros","steam_id":76561199008363999,"connected_time":1953000000000,"state":"active","ping":68},{"user_id":294,"name":"benifis163","steam_id":76561198420973492,"connected_time":760000000000,"state":"active","ping":102},{"user_id":279,"name":"Coenoes","steam_id":76561199085694898,"connected_time":1311000000000,"state":"active","ping":61},{"user_id":308,"name":"Desp4","steam_id":76561198040767473,"connected_time":122000000000,"state":"active","ping":68},{"user_id":276,"name":"Spootnak","steam_id":76561198049052518,"connected_time":1509000000000,"state":"active","ping":67},{"user_id":306,"name":"riccardorazzoli37","steam_id":76561199447811005,"connected_time":250000000000,"state":"active","ping":92},{"user_id":295,"name":"cof","steam_id":76561199128417805,"connected_time":760000000000,"state":"active","ping":64},{"user_id":211,"name":"Chinese censorship Bureau","steam_id":76561198397898616,"connected_time":5319000000000,"state":"active","ping":58},{"user_id":256,"name":"Welder","steam_id":76561198355300561,"connected_time":2153000000000,"state":"active","ping":70},{"user_id":301,"name":"videogamedani","steam_id":76561198977415354,"connected_time":639000000000,"state":"active","ping":70},{"user_id":310,"name":"tealoverr.190","steam_id":76561199028497703,"connected_time":77000000000,"state":"active","ping":100}]},{"server_id":309,"name":"Uncletopia | Frankfurt | 4 | All Maps","name_short":"frk-4","host":"frk-1.de.uncletopia.com","port":27045,"enabled":true,"region":"eu","cc":"de","latitude":50.110924,"longitude":8.682127,"reserved":0,"last_update":"0001-01-01T00:00:00Z","name_a2s":"Uncletopia | Frankfurt | 4 | All Maps","protocol":17,"map":"cp_steel","folder":"tf","game":"Team Fortress","app_id":440,"player_count":22,"max_players":24,"Bots":0,"server_type":"Dedicated","server_os":"Linux","password":true,"vac":true,"version":"7742253","steam_id":85568392924504275,"keywords":["cp","nocrits","nodmgspread","uncletopia"],"game_id":440,"stv_port":27046,"stv_name":"Uncletopia | Frankfurt | 4 | All Maps | STV","players":[{"user_id":350,"name":"InfamousAxe","steam_id":76561198099504739,"connected_time":532000000000,"state":"active","ping":103},{"user_id":342,"name":"kackboon","steam_id":76561198044189114,"connected_time":1593000000000,"state":"active","ping":56},{"user_id":303,"name":"quakeworm","steam_id":76561198036730191,"connected_time":5290000000000,"state":"active","ping":52},{"user_id":343,"name":"Agent_Jo","steam_id":76561198274204780,"connected_time":1466000000000,"state":"active","ping":53},{"user_id":346,"name":"Julez","steam_id":76561198045505082,"connected_time":826000000000,"state":"active","ping":69},{"user_id":355,"name":"Wutvillain","steam_id":76561198205501279,"connected_time":412000000000,"state":"active","ping":85},{"user_id":315,"name":"bad at gaem","steam_id":76561198072373587,"connected_time":3814000000000,"state":"active","ping":65},{"user_id":330,"name":"tictak211","steam_id":76561198128091924,"connected_time":2476000000000,"state":"active","ping":67},{"user_id":275,"name":"Frazzle","steam_id":76561198262577951,"connected_time":7382000000000,"state":"active","ping":76},{"user_id":335,"name":"swallowed 10 pennies please hel","steam_id":76561198055816412,"connected_time":2197000000000,"state":"active","ping":62},{"user_id":329,"name":"Michael Jesus","steam_id":76561198060895626,"connected_time":2967000000000,"state":"active","ping":72},{"user_id":351,"name":"miev","steam_id":76561198078278737,"connected_time":485000000000,"state":"active","ping":67},{"user_id":336,"name":"Fiendish Beandish","steam_id":76561198095237028,"connected_time":2193000000000,"state":"active","ping":58},{"user_id":356,"name":"good tea, nice house","steam_id":76561198041995133,"connected_time":397000000000,"state":"active","ping":69},{"user_id":324,"name":"Salih","steam_id":76561198287934839,"connected_time":3386000000000,"state":"active","ping":54},{"user_id":354,"name":"XiuXiuforLife","steam_id":76561199060683386,"connected_time":449000000000,"state":"active","ping":72},{"user_id":357,"name":"AproX","steam_id":76561198880652045,"connected_time":378000000000,"state":"active","ping":85},{"user_id":317,"name":"E","steam_id":76561198166340115,"connected_time":3803000000000,"state":"active","ping":73},{"user_id":328,"name":"F1-M","steam_id":76561198198409875,"connected_time":3021000000000,"state":"active","ping":121},{"user_id":358,"name":"groelb","steam_id":76561199243984376,"connected_time":354000000000,"state":"active","ping":64},{"user_id":359,"name":"lelop15","steam_id":76561198277363229,"connected_time":337000000000,"state":"active","ping":71},{"user_id":360,"name":"Hangaro","steam_id":76561198045849684,"connected_time":325000000000,"state":"active","ping":98}]},{"server_id":310,"name":"Uncletopia | Frankfurt | 5 | All Maps","name_short":"frk-5","host":"frk-1.de.uncletopia.com","port":27055,"enabled":true,"region":"eu","cc":"de","latitude":50.110924,"longitude":8.682127,"reserved":0,"last_update":"0001-01-01T00:00:00Z","name_a2s":"Uncletopia | Frankfurt | 5 | All Maps","protocol":17,"map":"pl_pier","folder":"tf","game":"Team Fortress","app_id":440,"player_count":24,"max_players":24,"Bots":0,"server_type":"Dedicated","server_os":"Linux","password":true,"vac":true,"version":"7742253","steam_id":85568392924504277,"keywords":["nocrits","nodmgspread","payload","uncletopia"],"game_id":440,"stv_port":27056,"stv_name":"Uncletopia | Frankfurt | 5 | All Maps | STV","players":[{"user_id":228,"name":"Milosz52","steam_id":76561199060940204,"connected_time":1703000000000,"state":"active","ping":72},{"user_id":231,"name":"justajem101","steam_id":76561199228510573,"connected_time":1626000000000,"state":"active","ping":72},{"user_id":221,"name":"Stucent","steam_id":76561198147498713,"connected_time":2050000000000,"state":"active","ping":54},{"user_id":202,"name":"Mr. Mundy","steam_id":76561198132008918,"connected_time":2654000000000,"state":"active","ping":76},{"user_id":206,"name":"joona","steam_id":76561198156305446,"connected_time":2418000000000,"state":"active","ping":112},{"user_id":235,"name":"JoJo1105","steam_id":76561198926013207,"connected_time":1399000000000,"state":"active","ping":104},{"user_id":243,"name":"JohnTraveltime","steam_id":76561199244281754,"connected_time":399000000000,"state":"active","ping":73},{"user_id":210,"name":"dissatisfaction","steam_id":76561198132004093,"connected_time":2357000000000,"state":"active","ping":78},{"user_id":245,"name":"RIFT","steam_id":76561198991622379,"connected_time":304000000000,"state":"active","ping":53},{"user_id":237,"name":"kiki","steam_id":76561199246979394,"connected_time":1354000000000,"state":"active","ping":67},{"user_id":205,"name":"Krof enjoyer","steam_id":76561199101777637,"connected_time":2431000000000,"state":"active","ping":66},{"user_id":212,"name":"tekt","steam_id":76561198044554387,"connected_time":2292000000000,"state":"active","ping":101},{"user_id":232,"name":"SODA!!!!!!!","steam_id":76561198107362485,"connected_time":1601000000000,"state":"active","ping":63},{"user_id":241,"name":"DocTwoEight","steam_id":76561198153488940,"connected_time":706000000000,"state":"active","ping":83},{"user_id":239,"name":"VIN WEASEL","steam_id":76561198014387066,"connected_time":877000000000,"state":"active","ping":52},{"user_id":225,"name":"the boil","steam_id":76561199236080782,"connected_time":1934000000000,"state":"active","ping":118},{"user_id":240,"name":"Bruschetta","steam_id":76561198251927162,"connected_time":845000000000,"state":"active","ping":53},{"user_id":227,"name":"typicalcrimson","steam_id":76561198295439747,"connected_time":1811000000000,"state":"active","ping":62},{"user_id":244,"name":"help","steam_id":76561199056338917,"connected_time":358000000000,"state":"active","ping":162},{"user_id":233,"name":"Ellele","steam_id":76561199008196067,"connected_time":1452000000000,"state":"active","ping":83},{"user_id":230,"name":"¬°!Ulexos!¬°","steam_id":76561198087502998,"connected_time":1662000000000,"state":"active","ping":60},{"user_id":223,"name":"Ori","steam_id":76561198035220182,"connected_time":2036000000000,"state":"active","ping":73},{"user_id":242,"name":"zak","steam_id":76561197998895428,"connected_time":697000000000,"state":"active","ping":60},{"user_id":192,"name":"Nick","steam_id":76561198036109469,"connected_time":3696000000000,"state":"active","ping":89}]},{"server_id":311,"name":"Uncletopia | Frankfurt | 6 | All Maps","name_short":"frk-6","host":"frk-1.de.uncletopia.com","port":27065,"enabled":true,"region":"eu","cc":"de","latitude":50.110924,"longitude":8.682127,"reserved":0,"last_update":"0001-01-01T00:00:00Z","name_a2s":"Uncletopia | Frankfurt | 6 | All Maps","protocol":17,"map":"koth_lakeside_final","folder":"tf","game":"Team Fortress","app_id":440,"player_count":0,"max_players":24,"Bots":0,"server_type":"Dedicated","server_os":"Linux","password":true,"vac":true,"version":"7742253","steam_id":85568392924504278,"keywords":["cp","nocrits","nodmgspread","uncletopia"],"game_id":440,"stv_port":27066,"stv_name":"Uncletopia | Frankfurt | 6 | All Maps | STV","players":null},{"server_id":23,"name":"Uncletopia | Frankfurt | 7 | Stopwatch Beta","name_short":"frk-7","host":"frk-1.de.uncletopia.com","port":27075,"enabled":true,"region":"eu","cc":"de","latitude":50.110924,"longitude":8.682127,"reserved":0,"last_update":"0001-01-01T00:00:00Z","name_a2s":"Uncletopia | Frankfurt | 7 | Stopwatch Beta","protocol":17,"map":"workshop/pl_badwater_pro_v12.ugc2142942074","folder":"tf","game":"Team Fortress","app_id":440,"player_count":0,"max_players":24,"Bots":0,"server_type":"Dedicated","server_os":"Linux","password":true,"vac":true,"version":"7742253","steam_id":85568392924742827,"keywords":["nocrits","nodmgspread","payload","uncletopia"],"game_id":440,"stv_port":27076,"stv_name":"Uncletopia | Frankfurt | 7 | Stopwatch Beta | STV","players":null},{"server_id":24,"name":"Uncletopia | Frankfurt | 8 | Community","name_short":"frk-8","host":"frk-1.de.uncletopia.com","port":27085,"enabled":true,"region":"eu","cc":"de","latitude":50.110924,"longitude":8.682127,"reserved":0,"last_update":"0001-01-01T00:00:00Z","name_a2s":"Uncletopia | Frankfurt | 8 | Community","protocol":17,"map":"workshop/cp_overgrown_rc7b.ugc503939302","folder":"tf","game":"Team Fortress","app_id":440,"player_count":0,"max_players":24,"Bots":0,"server_type":"Dedicated","server_os":"Linux","password":true,"vac":true,"version":"7742253","steam_id":85568392924742828,"keywords":["cp","nocrits","nodmgspread","uncletopia"],"game_id":440,"stv_port":27086,"stv_name":"Uncletopia | Frankfurt | 8 | Community | STV","players":null},{"server_id":202,"name":"Uncletopia | Hong Kong | 1 | All Maps","name_short":"hgk-1","host":"hgk-1.hk.uncletopia.com","port":27015,"enabled":true,"region":"asia","cc":"hk","latitude":22.302711,"longitude":114.177216,"reserved":0,"last_update":"0001-01-01T00:00:00Z","name_a2s":"Uncletopia | Hong Kong | 1 | All Maps","protocol":17,"map":"cp_process_final","folder":"tf","game":"Team Fortress","app_id":440,"player_count":13,"max_players":24,"Bots":0,"server_type":"Dedicated","server_os":"Linux","password":true,"vac":true,"version":"7742253","steam_id":85568392924494504,"keywords":["cp","nocrits","nodmgspread","uncletopia"],"game_id":440,"stv_port":27016,"stv_name":"Uncletopia | Hong Kong | 1 | All Maps | STV","players":[{"user_id":883,"name":"twipes","steam_id":76561198965889429,"connected_time":6972000000000,"state":"active","ping":94},{"user_id":948,"name":"bad goth girl","steam_id":76561198118989010,"connected_time":1308000000000,"state":"active","ping":60},{"user_id":959,"name":"cucumber","steam_id":76561198157549908,"connected_time":3000000000,"state":"spawning","ping":101},{"user_id":931,"name":"Kurtie","steam_id":76561198144737876,"connected_time":2753000000000,"state":"active","ping":55},{"user_id":944,"name":"VirtualButt","steam_id":76561198389938134,"connected_time":1573000000000,"state":"active","ping":150},{"user_id":888,"name":"Waltuh (CEO of Chicanery)","steam_id":76561199257300024,"connected_time":6680000000000,"state":"active","ping":76},{"user_id":914,"name":"Avg KFC Enjoyer","steam_id":76561198959978678,"connected_time":4428000000000,"state":"active","ping":81},{"user_id":890,"name":"Zacy","steam_id":76561198114841670,"connected_time":6648000000000,"state":"active","ping":63},{"user_id":950,"name":"plu","steam_id":76561198876909057,"connected_time":1094000000000,"state":"active","ping":102},{"user_id":921,"name":"ÊØç„ÅÆËÇâÂõ£Â≠ê","steam_id":76561198069561896,"connected_time":3632000000000,"state":"active","ping":32},{"user_id":951,"name":"Ê≠ªÁ•û√óÂ†ïÂ§©‰Ωø","steam_id":76561198875021891,"connected_time":961000000000,"state":"active","ping":73},{"user_id":927,"name":"Mars","steam_id":76561198846610729,"connected_time":3020000000000,"state":"active","ping":98}]},{"server_id":1,"name":"Uncletopia | Los Angeles | 1 | All Maps","name_short":"lax-1","host":"lax-1.us.uncletopia.com","port":27015,"enabled":true,"region":"us-west","cc":"us","latitude":33.94279,"longitude":-118.41004,"reserved":0,"last_update":"0001-01-01T00:00:00Z","name_a2s":"Uncletopia | Los Angeles | 1 | All Maps","protocol":17,"map":"cp_mountainlab","folder":"tf","game":"Team Fortress","app_id":440,"player_count":0,"max_players":24,"Bots":0,"server_type":"Dedicated","server_os":"Linux","password":true,"vac":true,"version":"7742253","steam_id":85568392924469991,"keywords":["cp","nocrits","nodmgspread","uncletopia"],"game_id":440,"stv_port":27016,"stv_name":"Uncletopia | Los Angeles | 1 | All Maps | STV","players":null},{"server_id":112,"name":"Uncletopia | Los Angeles | 2 | All Maps","name_short":"lax-2","host":"lax-1.us.uncletopia.com","port":27025,"enabled":true,"region":"us-west","cc":"us","latitude":33.94279,"longitude":-118.41004,"reserved":0,"last_update":"0001-01-01T00:00:00Z","name_a2s":"Uncletopia | Los Angeles | 2 | All Maps","protocol":17,"map":"pl_frontier_final","folder":"tf","game":"Team Fortress","app_id":440,"player_count":0,"max_players":24,"Bots":0,"server_type":"Dedicated","server_os":"Linux","password":true,"vac":true,"version":"7742253","steam_id":85568392924469992,"keywords":["nocrits","nodmgspread","payload","uncletopia"],"game_id":440,"stv_port":27026,"stv_name":"Uncletopia | Los Angeles | 2 | All Maps | STV","players":null},{"server_id":324,"name":"Uncletopia | Los Angeles | 3 | All Maps","name_short":"lax-3","host":"lax-1.us.uncletopia.com","port":27035,"enabled":true,"region":"us-west","cc":"us","latitude":33.94279,"longitude":-118.41004,"reserved":0,"last_update":"0001-01-01T00:00:00Z","name_a2s":"Uncletopia | Los Angeles | 3 | All Maps","protocol":17,"map":"cp_snakewater_final1","folder":"tf","game":"Team Fortress","app_id":440,"player_count":0,"max_players":24,"Bots":0,"server_type":"Dedicated","server_os":"Linux","password":true,"vac":true,"version":"7742253","steam_id":85568392924510198,"keywords":["cp","nocrits","nodmgspread","uncletopia"],"game_id":440,"stv_port":27036,"stv_name":"Uncletopia | Los Angeles | 3 | All Maps | STV","players":null},{"server_id":25,"name":"Uncletopia | Los Angeles | 4 | Stopwatch Beta","name_short":"lax-4","host":"lax-1.us.uncletopia.com","port":27045,"enabled":true,"region":"us-west","cc":"us","latitude":33.94279,"longitude":-118.41004,"reserved":0,"last_update":"0001-01-01T00:00:00Z","name_a2s":"Uncletopia | Los Angeles | 4 | Stopwatch Beta","protocol":17,"map":"cp_snakewater_final1","folder":"tf","game":"Team Fortress","app_id":440,"player_count":0,"max_players":24,"Bots":0,"server_type":"Dedicated","server_os":"Linux","password":true,"vac":true,"version":"7742253","steam_id":85568392924510199,"keywords":["cp","nocrits","nodmgspread","uncletopia"],"game_id":440,"stv_port":27046,"stv_name":"Uncletopia | Los Angeles | 4 | Stopwatch Beta | STV","players":null},{"server_id":11,"name":"Uncletopia | London | 1 | All Maps","name_short":"lon-1","host":"lon-1.uk.uncletopia.com","port":27015,"enabled":true,"region":"eu","cc":"gb","latitude":51.509865,"longitude":-0.118092,"reserved":0,"last_update":"0001-01-01T00:00:00Z","name_a2s":"Uncletopia | London | 1 | All Maps","protocol":17,"map":"pl_borneo","folder":"tf","game":"Team Fortress","app_id":440,"player_count":23,"max_players":24,"Bots":0,"server_type":"Dedicated","server_os":"Linux","password":true,"vac":true,"version":"7742253","steam_id":85568392924367362,"keywords":["nocrits","nodmgspread","payload","uncletopia"],"game_id":440,"stv_port":27016,"stv_name":"Uncletopia | London | 1 | All Maps | STV","players":[{"user_id":508,"name":"Clamor_","steam_id":76561198104368295,"connected_time":641000000000,"state":"connecting","ping":116},{"user_id":511,"name":"BEEFMAN","steam_id":76561199108767373,"connected_time":274000000000,"state":"connecting","ping":169},{"user_id":485,"name":"man juice","steam_id":76561198126524735,"connected_time":1918000000000,"state":"connecting","ping":98},{"user_id":447,"name":"Mr Prince","steam_id":76561199006591691,"connected_time":4363000000000,"state":"connecting","ping":55},{"user_id":387,"name":"Nemium","steam_id":76561198070757635,"connected_time":9087000000000,"state":"connecting","ping":83},{"user_id":452,"name":"xenia","steam_id":76561198062107879,"connected_time":4300000000000,"state":"connecting","ping":105},{"user_id":464,"name":"ciliorkun18","steam_id":76561198228942500,"connected_time":3347000000000,"state":"connecting","ping":119},{"user_id":502,"name":"Dominus.","steam_id":76561199065917088,"connected_time":814000000000,"state":"connecting","ping":71},{"user_id":494,"name":"Kotlet schabowy","steam_id":76561198048983509,"connected_time":1050000000000,"state":"connecting","ping":124},{"user_id":465,"name":"Grim the lemon","steam_id":76561199083433988,"connected_time":2992000000000,"state":"connecting","ping":56},{"user_id":505,"name":"waddle dork","steam_id":76561198297349985,"connected_time":705000000000,"state":"connecting","ping":75},{"user_id":512,"name":"GARbageTrash","steam_id":76561199101269633,"connected_time":28000000000,"state":"connecting","ping":290},{"user_id":496,"name":"loveless","steam_id":76561198142256651,"connected_time":1035000000000,"state":"connecting","ping":109},{"user_id":473,"name":"profreshional cactus","steam_id":76561198837919828,"connected_time":2798000000000,"state":"connecting","ping":132},{"user_id":506,"name":"fector","steam_id":76561199204249586,"connected_time":701000000000,"state":"connecting","ping":126},{"user_id":478,"name":"Kahvi","steam_id":76561198723244199,"connected_time":2673000000000,"state":"connecting","ping":94},{"user_id":509,"name":"Toom","steam_id":76561198005637020,"connected_time":627000000000,"state":"connecting","ping":91},{"user_id":490,"name":"Daven","steam_id":76561198036522928,"connected_time":1372000000000,"state":"connecting","ping":80},{"user_id":501,"name":"frosty","steam_id":76561198094560834,"connected_time":819000000000,"state":"connecting","ping":67},{"user_id":503,"name":"ErJu","steam_id":76561198106273165,"connected_time":801000000000,"state":"connecting","ping":93},{"user_id":477,"name":"He/Him","steam_id":76561198126398022,"connected_time":2792000000000,"state":"connecting","ping":110}]},{"server_id":114,"name":"Uncletopia | London | 2 | All Maps","name_short":"lon-2","host":"lon-1.uk.uncletopia.com","port":27025,"enabled":true,"region":"eu","cc":"gb","latitude":51.509865,"longitude":-0.118092,"reserved":0,"last_update":"0001-01-01T00:00:00Z","name_a2s":"Uncletopia | London | 2 | All Maps","protocol":17,"map":"cp_dustbowl","folder":"tf","game":"Team Fortress","app_id":440,"player_count":24,"max_players":24,"Bots":0,"server_type":"Dedicated","server_os":"Linux","password":true,"vac":true,"version":"7742253","steam_id":85568392924470941,"keywords":["cp","nocrits","nodmgspread","uncletopia"],"game_id":440,"stv_port":27026,"stv_name":"Uncletopia | London | 2 | All Maps | STV","players":[{"user_id":413,"name":"Mannequin","steam_id":76561198128833974,"connected_time":3474000000000,"state":"active","ping":55},{"user_id":436,"name":"LemonLeCitron","steam_id":76561198215545267,"connected_time":1771000000000,"state":"active","ping":63},{"user_id":454,"name":"A fish and sea","steam_id":76561198194745827,"connected_time":498000000000,"state":"active","ping":61},{"user_id":453,"name":"(())","steam_id":76561198103299625,"connected_time":516000000000,"state":"active","ping":44},{"user_id":406,"name":"Dark_Prelate","steam_id":76561199065671442,"connected_time":3567000000000,"state":"active","ping":60},{"user_id":447,"name":"KarlRanzeier","steam_id":76561198066281337,"connected_time":901000000000,"state":"active","ping":68},{"user_id":459,"name":"√ãmpr√´ss‚òÖC√•ky„ÉÖ","steam_id":76561198174621178,"connected_time":157000000000,"state":"active","ping":63},{"user_id":456,"name":"YBOT554","steam_id":76561198836830645,"connected_time":332000000000,"state":"active","ping":81},{"user_id":460,"name":"System","steam_id":76561199442503973,"connected_time":100000000000,"state":"active","ping":43},{"user_id":380,"name":".quickfast.","steam_id":76561199438900919,"connected_time":4908000000000,"state":"active","ping":47},{"user_id":384,"name":"Redkiller","steam_id":76561199453655288,"connected_time":4562000000000,"state":"active","ping":121},{"user_id":391,"name":"Celdis","steam_id":76561198079741434,"connected_time":4277000000000,"state":"active","ping":59},{"user_id":457,"name":"scantron","steam_id":76561199103959197,"connected_time":324000000000,"state":"active","ping":98},{"user_id":433,"name":"XXDANTEFANXX","steam_id":76561198197910725,"connected_time":1863000000000,"state":"active","ping":58},{"user_id":434,"name":"Jan005","steam_id":76561198410047633,"connected_time":1848000000000,"state":"active","ping":61},{"user_id":449,"name":"lerodai","steam_id":76561199084810384,"connected_time":795000000000,"state":"active","ping":123},{"user_id":419,"name":"pumpkin spice go.ggez.ro","steam_id":76561198449957490,"connected_time":2891000000000,"state":"active","ping":84},{"user_id":425,"name":"Lil Top","steam_id":76561198168740408,"connected_time":2625000000000,"state":"active","ping":45},{"user_id":435,"name":"êÇÉ","steam_id":76561198874987906,"connected_time":1826000000000,"state":"active","ping":93},{"user_id":450,"name":"WHUSSKEY","steam_id":76561198137827441,"connected_time":774000000000,"state":"active","ping":74},{"user_id":437,"name":"Carrot Arc","steam_id":76561198164957006,"connected_time":1768000000000,"state":"active","ping":77},{"user_id":390,"name":"cris","steam_id":76561198047662200,"connected_time":4458000000000,"state":"active","ping":51},{"user_id":412,"name":"Jonathan","steam_id":76561198087988880,"connected_time":3527000000000,"state":"active","ping":70},{"user_id":442,"name":"I am the one who donks","steam_id":76561198419583460,"connected_time":1358000000000,"state":"active","ping":64}]},{"server_id":320,"name":"Uncletopia | London | 3 | All Maps","name_short":"lon-3","host":"lon-1.uk.uncletopia.com","port":27035,"enabled":true,"region":"eu","cc":"gb","latitude":51.509865,"longitude":-0.118092,"reserved":0,"last_update":"0001-01-01T00:00:00Z","name_a2s":"Uncletopia | London | 3 | All Maps","protocol":17,"map":"pl_thundermountain","folder":"tf","game":"Team Fortress","app_id":440,"player_count":17,"max_players":24,"Bots":0,"server_type":"Dedicated","server_os":"Linux","password":true,"vac":true,"version":"7742253","steam_id":85568392924510192,"keywords":["nocrits","nodmgspread","payload","uncletopia"],"game_id":440,"stv_port":27036,"stv_name":"Uncletopia | London | 3 | All Maps | STV","players":[{"user_id":242,"name":"Quartermistress","steam_id":76561198140199123,"connected_time":201000000000,"state":"active","ping":42},{"user_id":195,"name":"It hurts when i pee (real)","steam_id":76561198139404261,"connected_time":5098000000000,"state":"active","ping":41},{"user_id":243,"name":"Alberto Balsam","steam_id":76561198091814810,"connected_time":187000000000,"state":"active","ping":180},{"user_id":205,"name":"Keelan","steam_id":76561198013665543,"connected_time":3747000000000,"state":"active","ping":62},{"user_id":244,"name":"chearz narz roaping","steam_id":76561199062586342,"connected_time":145000000000,"state":"active","ping":55},{"user_id":245,"name":"S√©bastien RickHunter","steam_id":76561198015425879,"connected_time":110000000000,"state":"spawning","ping":123},{"user_id":194,"name":"Walking Vomit","steam_id":76561198071873301,"connected_time":5141000000000,"state":"active","ping":49},{"user_id":246,"name":"mud","steam_id":76561198141497461,"connected_time":102000000000,"state":"spawning","ping":105},{"user_id":247,"name":"gvd2002","steam_id":76561198346318605,"connected_time":85000000000,"state":"active","ping":112},{"user_id":250,"name":"I'm using Tilt Controls.","steam_id":76561198077864552,"connected_time":22000000000,"state":"spawning","ping":63},{"user_id":249,"name":"yeldad","steam_id":76561198447264153,"connected_time":49000000000,"state":"active","ping":115},{"user_id":237,"name":"Daoloth, Render of the Veils","steam_id":76561198115106008,"connected_time":625000000000,"state":"active","ping":51},{"user_id":218,"name":"Adopted?","steam_id":76561198118667043,"connected_time":3265000000000,"state":"active","ping":46},{"user_id":220,"name":"Carrot","steam_id":76561198119340863,"connected_time":2862000000000,"state":"active","ping":36},{"user_id":240,"name":"MtnDew","steam_id":76561199100059743,"connected_time":586000000000,"state":"active","ping":114},{"user_id":217,"name":"Maik","steam_id":76561198795607661,"connected_time":3307000000000,"state":"active","ping":63},{"user_id":241,"name":"cactus varo","steam_id":76561198968770670,"connected_time":559000000000,"state":"active","ping":94}]},{"server_id":321,"name":"Uncletopia | London | 4 | All Maps","name_short":"lon-4","host":"lon-1.uk.uncletopia.com","port":27045,"enabled":true,"region":"eu","cc":"gb","latitude":51.509865,"longitude":-0.118092,"reserved":0,"last_update":"0001-01-01T00:00:00Z","name_a2s":"Uncletopia | London | 4 | All Maps","protocol":17,"map":"koth_highpass","folder":"tf","game":"Team Fortress","app_id":440,"player_count":0,"max_players":24,"Bots":0,"server_type":"Dedicated","server_os":"Linux","password":true,"vac":true,"version":"7742253","steam_id":85568392924510193,"keywords":["cp","nocrits","nodmgspread","uncletopia"],"game_id":440,"stv_port":27046,"stv_name":"Uncletopia | London | 4 | All Maps | STV","players":null},{"server_id":21,"name":"Uncletopia | London | 5 | All Maps","name_short":"lon-5","host":"lon-1.uk.uncletopia.com","port":27055,"enabled":true,"region":"eu","cc":"gb","latitude":51.509865,"longitude":-0.118092,"reserved":0,"last_update":"0001-01-01T00:00:00Z","name_a2s":"Uncletopia | London | 5 | All Maps","protocol":17,"map":"koth_harvest_final","folder":"tf","game":"Team Fortress","app_id":440,"player_count":24,"max_players":24,"Bots":0,"server_type":"Dedicated","server_os":"Linux","password":true,"vac":true,"version":"7742253","steam_id":85568392924742829,"keywords":["cp","nocrits","nodmgspread","uncletopia"],"game_id":440,"stv_port":27056,"stv_name":"Uncletopia | London | 5 | All Maps | STV","players":[{"user_id":76,"name":"KLAMA  ‚ù§","steam_id":76561198351549661,"connected_time":432000000000,"state":"active","ping":74},{"user_id":33,"name":"Frazzles","steam_id":76561199228009586,"connected_time":2127000000000,"state":"active","ping":53},{"user_id":70,"name":"heisenburger","steam_id":76561199113824680,"connected_time":732000000000,"state":"active","ping":47},{"user_id":68,"name":"Honeybunch","steam_id":76561198014850580,"connected_time":843000000000,"state":"active","ping":178},{"user_id":81,"name":"Jack","steam_id":76561198325505238,"connected_time":232000000000,"state":"active","ping":80},{"user_id":71,"name":"Abby","steam_id":76561198170528489,"connected_time":705000000000,"state":"active","ping":60},{"user_id":82,"name":"cyborgowl","steam_id":76561198057489492,"connected_time":139000000000,"state":"active","ping":104},{"user_id":78,"name":"Acxsa","steam_id":76561198098979449,"connected_time":336000000000,"state":"active","ping":71},{"user_id":28,"name":"SaltBoy","steam_id":76561198112561381,"connected_time":2913000000000,"state":"active","ping":60},{"user_id":61,"name":"Greencoffee","steam_id":76561198842090589,"connected_time":1141000000000,"state":"active","ping":59},{"user_id":42,"name":"zen","steam_id":76561198160747675,"connected_time":1450000000000,"state":"active","ping":90},{"user_id":41,"name":"Blyatwork","steam_id":76561198825379598,"connected_time":1483000000000,"state":"active","ping":47},{"user_id":43,"name":"Sulatejuusto","steam_id":76561198063971856,"connected_time":1398000000000,"state":"active","ping":95},{"user_id":72,"name":"Spore","steam_id":76561198889433116,"connected_time":700000000000,"state":"active","ping":63},{"user_id":45,"name":"I SMOKE PCP","steam_id":76561198129866997,"connected_time":1350000000000,"state":"active","ping":85},{"user_id":64,"name":"CMRDGI","steam_id":76561198141356233,"connected_time":1060000000000,"state":"active","ping":61},{"user_id":73,"name":"WildPanda","steam_id":76561199451893770,"connected_time":584000000000,"state":"active","ping":58},{"user_id":65,"name":"Woonters","steam_id":76561198095951465,"connected_time":1003000000000,"state":"active","ping":50},{"user_id":63,"name":"Control Panel","steam_id":76561198154677956,"connected_time":1076000000000,"state":"active","ping":70},{"user_id":79,"name":"UltimateSlayer","steam_id":76561198384109309,"connected_time":335000000000,"state":"active","ping":59},{"user_id":59,"name":"gaming","steam_id":76561198054146505,"connected_time":1151000000000,"state":"active","ping":46},{"user_id":54,"name":"My ball itch","steam_id":76561199121794613,"connected_time":1242000000000,"state":"active","ping":81},{"user_id":66,"name":"practicing","steam_id":76561198176202865,"connected_time":989000000000,"state":"active","ping":91},{"user_id":75,"name":"Trioud","steam_id":76561198093992054,"connected_time":516000000000,"state":"active","ping":51}]},{"server_id":22,"name":"Uncletopia | London | 6 | All Maps","name_short":"lon-6","host":"lon-1.uk.uncletopia.com","port":27065,"enabled":true,"region":"eu","cc":"gb","latitude":51.509865,"longitude":-0.118092,"reserved":0,"last_update":"0001-01-01T00:00:00Z","name_a2s":"Uncletopia | London | 6 | All Maps","protocol":17,"map":"cp_sunshine","folder":"tf","game":"Team Fortress","app_id":440,"player_count":24,"max_players":24,"Bots":0,"server_type":"Dedicated","server_os":"Linux","password":true,"vac":true,"version":"7742253","steam_id":85568392924742830,"keywords":["cp","nocrits","nodmgspread","uncletopia"],"game_id":440,"stv_port":27066,"stv_name":"Uncletopia | London | 6 | All Maps | STV","players":[{"user_id":132,"name":"Espa√±aa","steam_id":76561198879587832,"connected_time":2608000000000,"state":"active","ping":75},{"user_id":156,"name":"The one who knocks","steam_id":76561198089341471,"connected_time":1437000000000,"state":"active","ping":62},{"user_id":146,"name":"[FP] Scewtch","steam_id":76561198120500488,"connected_time":2420000000000,"state":"active","ping":48},{"user_id":173,"name":"Ankle Pain","steam_id":76561199105755048,"connected_time":595000000000,"state":"active","ping":68},{"user_id":134,"name":"Penis Contortionist","steam_id":76561198073663784,"connected_time":2557000000000,"state":"active","ping":38},{"user_id":179,"name":"ogurecheck gaming","steam_id":76561198374072595,"connected_time":45000000000,"state":"active","ping":96},{"user_id":135,"name":"[FP] Shiken","steam_id":76561198257905663,"connected_time":2553000000000,"state":"active","ping":62},{"user_id":176,"name":"MEDiUM","steam_id":76561198112328561,"connected_time":405000000000,"state":"active","ping":67},{"user_id":172,"name":"d u k k i","steam_id":76561198071807437,"connected_time":646000000000,"state":"active","ping":87},{"user_id":120,"name":"QuorglepleegJR","steam_id":76561198984658438,"connected_time":3576000000000,"state":"active","ping":46},{"user_id":145,"name":"My Name is Jeff XDDDDDD","steam_id":76561198163644527,"connected_time":2429000000000,"state":"active","ping":45},{"user_id":155,"name":"[FP] Rune","steam_id":76561198030842879,"connected_time":1875000000000,"state":"active","ping":39},{"user_id":175,"name":"Can my wife use your toilet?","steam_id":76561198132926700,"connected_time":442000000000,"state":"active","ping":61},{"user_id":177,"name":"Hedj","steam_id":76561198108369687,"connected_time":285000000000,"state":"active","ping":43},{"user_id":164,"name":"Brugvald Bronzebeard","steam_id":76561198119220824,"connected_time":897000000000,"state":"active","ping":46},{"user_id":165,"name":"jazztree14","steam_id":76561199239395356,"connected_time":852000000000,"state":"active","ping":165},{"user_id":180,"name":"Adam Sandler","steam_id":76561198310408309,"connected_time":18000000000,"state":"spawning","ping":50},{"user_id":119,"name":"Dr Sex","steam_id":76561198029044617,"connected_time":3762000000000,"state":"active","ping":49},{"user_id":140,"name":"\u003c blank \u003e","steam_id":76561199177668753,"connected_time":2512000000000,"state":"active","ping":42},{"user_id":167,"name":"Platform666","steam_id":76561198314266851,"connected_time":833000000000,"state":"active","ping":128},{"user_id":141,"name":"LavenderJayJay","steam_id":76561198966667657,"connected_time":2505000000000,"state":"active","ping":45},{"user_id":169,"name":"John Daly","steam_id":76561197993849325,"connected_time":789000000000,"state":"active","ping":78},{"user_id":170,"name":"bAdmon","steam_id":76561197961785793,"connected_time":743000000000,"state":"active","ping":46},{"user_id":178,"name":"Dolcelatte","steam_id":76561198038501770,"connected_time":234000000000,"state":"active","ping":61}]},{"server_id":40,"name":"Uncletopia | London | 7 | No Payload","name_short":"lon-7","host":"lon-1.uk.uncletopia.com","port":27075,"enabled":true,"region":"eu","cc":"gb","latitude":51.509865,"longitude":-0.118092,"reserved":0,"last_update":"0001-01-01T00:00:00Z","name_a2s":"Uncletopia | London | 7 | No Payload","protocol":17,"map":"koth_viaduct","folder":"tf","game":"Team Fortress","app_id":440,"player_count":0,"max_players":24,"Bots":0,"server_type":"Dedicated","server_os":"Linux","password":true,"vac":true,"version":"7742253","steam_id":85568392924964314,"keywords":["cp","nocrits","nodmgspread","uncletopia"],"game_id":440,"stv_port":27076,"stv_name":"Uncletopia | London | 7 | No Payload | STV","players":null},{"server_id":41,"name":"Uncletopia | London | 8 | Community","name_short":"lon-8","host":"lon-1.uk.uncletopia.com","port":27085,"enabled":true,"region":"eu","cc":"gb","latitude":51.509865,"longitude":-0.118092,"reserved":0,"last_update":"0001-01-01T00:00:00Z","name_a2s":"Uncletopia | London | 8 | Community","protocol":17,"map":"workshop/cp_sulfur_rc2.ugc619869471","folder":"tf","game":"Team Fortress","app_id":440,"player_count":0,"max_players":24,"Bots":0,"server_type":"Dedicated","server_os":"Linux","password":true,"vac":true,"version":"7742253","steam_id":85568392924964315,"keywords":["cp","nocrits","nodmgspread","uncletopia"],"game_id":440,"stv_port":27086,"stv_name":"Uncletopia | London | 8 | Community | STV","players":null},{"server_id":300,"name":"Uncletopia | Montr√©al | 1 | All Maps","name_short":"mtl-1","host":"mtl-1.ca.uncletopia.com","port":27015,"enabled":true,"region":"us-east","cc":"ca","latitude":45.50889,"longitude":-73.56167,"reserved":0,"last_update":"0001-01-01T00:00:00Z","name_a2s":"Uncletopia | Montr√©al | 1 | All Maps","protocol":17,"map":"pl_pier","folder":"tf","game":"Team Fortress","app_id":440,"player_count":0,"max_players":24,"Bots":0,"server_type":"Dedicated","server_os":"Linux","password":true,"vac":true,"version":"7742253","steam_id":85568392924500087,"keywords":["nocrits","nodmgspread","payload","uncletopia"],"game_id":440,"stv_port":27016,"stv_name":"Uncletopia | Montr√©al | 1 | All Maps | STV","players":null},{"server_id":301,"name":"Uncletopia | Montr√©al | 2 | All Maps","name_short":"mtl-2","host":"mtl-1.ca.uncletopia.com","port":27025,"enabled":true,"region":"us-east","cc":"ca","latitude":45.50889,"longitude":-73.56167,"reserved":0,"last_update":"0001-01-01T00:00:00Z","name_a2s":"Uncletopia | Montr√©al | 2 | All Maps","protocol":17,"map":"koth_highpass","folder":"tf","game":"Team Fortress","app_id":440,"player_count":0,"max_players":24,"Bots":0,"server_type":"Dedicated","server_os":"Linux","password":true,"vac":true,"version":"7742253","steam_id":85568392924500088,"keywords":["cp","nocrits","nodmgspread","uncletopia"],"game_id":440,"stv_port":27026,"stv_name":"Uncletopia | Montr√©al | 2 | All Maps | STV","players":null},{"server_id":302,"name":"Uncletopia | Montr√©al | 3 | All Maps","name_short":"mtl-3","host":"mtl-1.ca.uncletopia.com","port":27035,"enabled":true,"region":"us-east","cc":"ca","latitude":45.50889,"longitude":-73.56167,"reserved":0,"last_update":"0001-01-01T00:00:00Z","name_a2s":"Uncletopia | Montr√©al | 3 | All Maps","protocol":17,"map":"cp_mountainlab","folder":"tf","game":"Team Fortress","app_id":440,"player_count":0,"max_players":24,"Bots":0,"server_type":"Dedicated","server_os":"Linux","password":true,"vac":true,"version":"7742253","steam_id":85568392924500089,"keywords":["cp","nocrits","nodmgspread","uncletopia"],"game_id":440,"stv_port":27036,"stv_name":"Uncletopia | Montr√©al | 3 | All Maps | STV","players":null},{"server_id":303,"name":"Uncletopia | Montr√©al | 4 | No Payload","name_short":"mtl-4","host":"mtl-1.ca.uncletopia.com","port":27045,"enabled":true,"region":"us-east","cc":"ca","latitude":45.50889,"longitude":-73.56167,"reserved":0,"last_update":"0001-01-01T00:00:00Z","name_a2s":"Uncletopia | Montr√©al | 4 | No Payload","protocol":17,"map":"cp_snakewater_final1","folder":"tf","game":"Team Fortress","app_id":440,"player_count":0,"max_players":24,"Bots":0,"server_type":"Dedicated","server_os":"Linux","password":true,"vac":true,"version":"7742253","steam_id":85568392924500090,"keywords":["cp","nocrits","nodmgspread","uncletopia"],"game_id":440,"stv_port":27046,"stv_name":"Uncletopia | Montr√©al | 4 | No Payload | STV","players":null},{"server_id":13,"name":"Uncletopia | New York City | 1 | All Maps","name_short":"nyc-1","host":"nyc-1.us.uncletopia.com","port":27015,"enabled":true,"region":"us-east","cc":"us","latitude":40.73061,"longitude":-73.93524,"reserved":0,"last_update":"0001-01-01T00:00:00Z","name_a2s":"Uncletopia | New York City | 1 | All Maps","protocol":17,"map":"pl_barnblitz","folder":"tf","game":"Team Fortress","app_id":440,"player_count":11,"max_players":24,"Bots":0,"server_type":"Dedicated","server_os":"Linux","password":true,"vac":true,"version":"7742253","steam_id":85568392924469993,"keywords":["nocrits","nodmgspread","payload","uncletopia"],"game_id":440,"stv_port":27016,"stv_name":"Uncletopia | New York City | 1 | All Maps | STV","players":[{"user_id":141,"name":"Loafus","steam_id":76561198154561111,"connected_time":4276000000000,"state":"active","ping":74},{"user_id":176,"name":"AshBoomstick1","steam_id":76561198373230261,"connected_time":1527000000000,"state":"active","ping":78},{"user_id":167,"name":"nalezinik","steam_id":76561198030026119,"connected_time":1892000000000,"state":"active","ping":60},{"user_id":172,"name":"Blue","steam_id":76561198179382918,"connected_time":1643000000000,"state":"active","ping":89},{"user_id":153,"name":"Yaztec","steam_id":76561198851003008,"connected_time":2883000000000,"state":"active","ping":142},{"user_id":180,"name":"boymilk","steam_id":76561199074208922,"connected_time":1298000000000,"state":"active","ping":145},{"user_id":162,"name":"Amogus The Sussy Baka ‡∂û","steam_id":76561198008577961,"connected_time":2240000000000,"state":"active","ping":61},{"user_id":183,"name":"Samus","steam_id":76561198121933439,"connected_time":1231000000000,"state":"active","ping":53},{"user_id":188,"name":"CD-Player","steam_id":76561199107223362,"connected_time":257000000000,"state":"active","ping":60},{"user_id":155,"name":"Bravo to Alpha","steam_id":76561198149821972,"connected_time":2705000000000,"state":"active","ping":58},{"user_id":186,"name":"Your Fwend","steam_id":76561198154773643,"connected_time":1150000000000,"state":"active","ping":43}]},{"server_id":14,"name":"Uncletopia | New York City | 2 | All Maps","name_short":"nyc-2","host":"nyc-1.us.uncletopia.com","port":27025,"enabled":true,"region":"us-east","cc":"us","latitude":40.73061,"longitude":-73.93524,"reserved":0,"last_update":"0001-01-01T00:00:00Z","name_a2s":"Uncletopia | New York City | 2 | All Maps","protocol":17,"map":"pl_swiftwater_final1","folder":"tf","game":"Team Fortress","app_id":440,"player_count":24,"max_players":24,"Bots":0,"server_type":"Dedicated","server_os":"Linux","password":true,"vac":true,"version":"7742253","steam_id":85568392924469994,"keywords":["nocrits","nodmgspread","payload","uncletopia"],"game_id":440,"stv_port":27026,"stv_name":"Uncletopia | New York City | 2 | All Maps | STV","players":[{"user_id":143,"name":"Kamin","steam_id":76561198255299559,"connected_time":602000000000,"state":"active","ping":109},{"user_id":142,"name":"Brown_Dream","steam_id":76561198975766145,"connected_time":607000000000,"state":"active","ping":69},{"user_id":144,"name":"Watt Dafuq","steam_id":76561198194402925,"connected_time":572000000000,"state":"active","ping":88},{"user_id":89,"name":"Mogwr","steam_id":76561198124942972,"connected_time":3944000000000,"state":"active","ping":60},{"user_id":145,"name":"Jailbreak","steam_id":76561198802085218,"connected_time":499000000000,"state":"active","ping":94},{"user_id":146,"name":"walterfishing_17","steam_id":76561198976904099,"connected_time":495000000000,"state":"active","ping":76},{"user_id":138,"name":"Zelda King","steam_id":76561198043352811,"connected_time":1458000000000,"state":"active","ping":80},{"user_id":161,"name":"Holdie","steam_id":76561198070378200,"connected_time":50000000000,"state":"active","ping":61},{"user_id":148,"name":"L0gicz","steam_id":76561198082466196,"connected_time":486000000000,"state":"active","ping":89},{"user_id":152,"name":"lauren/","steam_id":76561198048745798,"connected_time":376000000000,"state":"active","ping":71},{"user_id":55,"name":"funny","steam_id":76561198041026017,"connected_time":5617000000000,"state":"active","ping":53},{"user_id":141,"name":"lfty","steam_id":76561198283841707,"connected_time":629000000000,"state":"active","ping":53},{"user_id":125,"name":"moodi catgirl","steam_id":76561198124028045,"connected_time":2239000000000,"state":"active","ping":50},{"user_id":99,"name":"y6101176","steam_id":76561199435454093,"connected_time":3401000000000,"state":"active","ping":43},{"user_id":136,"name":"sasharudzik","steam_id":76561199126617781,"connected_time":1917000000000,"state":"active","ping":78},{"user_id":158,"name":"um.its.worth","steam_id":76561198170152714,"connected_time":222000000000,"state":"active","ping":67},{"user_id":159,"name":"Tones","steam_id":76561198039572032,"connected_time":187000000000,"state":"active","ping":59},{"user_id":153,"name":"Spycrab Gaming #SaveTF2","steam_id":76561199239497059,"connected_time":363000000000,"state":"active","ping":186},{"user_id":155,"name":"pencilneck","steam_id":76561198865971290,"connected_time":310000000000,"state":"active","ping":83},{"user_id":156,"name":"BOT SJumper13l","steam_id":76561198223118584,"connected_time":297000000000,"state":"active","ping":74},{"user_id":106,"name":"DJJohnny59","steam_id":76561199032438138,"connected_time":3138000000000,"state":"active","ping":96},{"user_id":157,"name":"who ate the cheese","steam_id":76561198275408467,"connected_time":267000000000,"state":"active","ping":49},{"user_id":160,"name":"Milk Curdle","steam_id":76561198305106477,"connected_time":146000000000,"state":"active","ping":58},{"user_id":134,"name":"Wang of Wall St","steam_id":76561198047460598,"connected_time":2028000000000,"state":"active","ping":56}]},{"server_id":15,"name":"Uncletopia | New York City | 3 | Stopwatch Beta","name_short":"nyc-3","host":"nyc-1.us.uncletopia.com","port":27035,"enabled":true,"region":"us-east","cc":"us","latitude":40.73061,"longitude":-73.93524,"reserved":0,"last_update":"0001-01-01T00:00:00Z","name_a2s":"Uncletopia | New York City | 3 | Stopwatch Beta","protocol":17,"map":"pl_pier","folder":"tf","game":"Team Fortress","app_id":440,"player_count":0,"max_players":24,"Bots":0,"server_type":"Dedicated","server_os":"Linux","password":true,"vac":true,"version":"7742253","steam_id":85568392924742820,"keywords":["nocrits","nodmgspread","payload","uncletopia"],"game_id":440,"stv_port":27036,"stv_name":"Uncletopia | New York City | 3 | Stopwatch Beta | STV","players":null},{"server_id":16,"name":"Uncletopia | New York City | 4 | Community","name_short":"nyc-4","host":"nyc-1.us.uncletopia.com","port":27045,"enabled":true,"region":"us-east","cc":"us","latitude":40.73061,"longitude":-73.93524,"reserved":0,"last_update":"0001-01-01T00:00:00Z","name_a2s":"Uncletopia | New York City | 4 | Community","protocol":17,"map":"koth_viaduct","folder":"tf","game":"Team Fortress","app_id":440,"player_count":0,"max_players":24,"Bots":0,"server_type":"Dedicated","server_os":"Linux","password":true,"vac":true,"version":"7742253","steam_id":85568392924742821,"keywords":["cp","nocrits","nodmgspread","uncletopia"],"game_id":440,"stv_port":27046,"stv_name":"Uncletopia | New York City | 4 | Community | STV","players":null},{"server_id":142,"name":"Uncletopia | S√£o Paulo | 1 | All Maps","name_short":"sao-1","host":"sao-1.br.uncletopia.com","port":27015,"enabled":true,"region":"sa","cc":"br","latitude":-23.533773,"longitude":-46.62529,"reserved":0,"last_update":"0001-01-01T00:00:00Z","name_a2s":"Uncletopia | S√£o Paulo | 1 | All Maps","protocol":17,"map":"koth_viaduct","folder":"tf","game":"Team Fortress","app_id":440,"player_count":0,"max_players":24,"Bots":0,"server_type":"Dedicated","server_os":"Linux","password":true,"vac":true,"version":"7742253","steam_id":85568392924469996,"keywords":["cp","nocrits","nodmgspread","uncletopia"],"game_id":440,"stv_port":27016,"stv_name":"Uncletopia | S√£o Paulo | 1 | All Maps | STV","players":null},{"server_id":143,"name":"Uncletopia | S√£o Paulo | 2 | All Maps","name_short":"sao-2","host":"sao-2.br.uncletopia.com","port":27015,"enabled":true,"region":"sa","cc":"br","latitude":-23.533773,"longitude":-46.62529,"reserved":0,"last_update":"0001-01-01T00:00:00Z","name_a2s":"Uncletopia | S√£o Paulo | 2 | All Maps","protocol":17,"map":"koth_viaduct","folder":"tf","game":"Team Fortress","app_id":440,"player_count":0,"max_players":24,"Bots":0,"server_type":"Dedicated","server_os":"Linux","password":true,"vac":true,"version":"7742253","steam_id":85568392924485349,"keywords":["cp","nocrits","nodmgspread","uncletopia"],"game_id":440,"stv_port":27016,"stv_name":"Uncletopia | S√£o Paulo | 2 | All Maps | STV","players":null},{"server_id":7,"name":"Uncletopia | Seattle | 1 | All Maps","name_short":"sea-1","host":"sea-1.us.uncletopia.com","port":27015,"enabled":true,"region":"us-west","cc":"us","latitude":47.608013,"longitude":-122.33517,"reserved":0,"last_update":"0001-01-01T00:00:00Z","name_a2s":"Uncletopia | Seattle | 1 | All Maps","protocol":17,"map":"pl_snowycoast","folder":"tf","game":"Team Fortress","app_id":440,"player_count":22,"max_players":24,"Bots":0,"server_type":"Dedicated","server_os":"Linux","password":true,"vac":true,"version":"7742253","steam_id":85568392924469997,"keywords":["nocrits","nodmgspread","payload","uncletopia"],"game_id":440,"stv_port":27016,"stv_name":"Uncletopia | Seattle | 1 | All Maps | STV","players":[{"user_id":59,"name":"SuperJagops","steam_id":76561198034689716,"connected_time":7057000000000,"state":"active","ping":116},{"user_id":100,"name":"ella guru","steam_id":76561198287124402,"connected_time":3228000000000,"state":"active","ping":122},{"user_id":131,"name":"Phantom_03","steam_id":76561198217929829,"connected_time":526000000000,"state":"active","ping":71},{"user_id":71,"name":"C papi","steam_id":76561198027779564,"connected_time":6341000000000,"state":"active","ping":105},{"user_id":123,"name":"Flyinglab","steam_id":76561198042161408,"connected_time":1223000000000,"state":"active","ping":119},{"user_id":8,"name":"jon","steam_id":76561198065314212,"connected_time":9991000000000,"state":"active","ping":57},{"user_id":121,"name":"Arrythmia","steam_id":76561198093748123,"connected_time":1473000000000,"state":"active","ping":58},{"user_id":122,"name":"J3SUS","steam_id":76561198368965383,"connected_time":1259000000000,"state":"active","ping":91},{"user_id":83,"name":"daemon","steam_id":76561198001541433,"connected_time":4165000000000,"state":"active","ping":105},{"user_id":12,"name":"Soap Man","steam_id":76561198000490235,"connected_time":9962000000000,"state":"active","ping":65},{"user_id":126,"name":"PLATYPUS","steam_id":76561198255796625,"connected_time":1115000000000,"state":"active","ping":154},{"user_id":87,"name":"The Great Eagle Scourge of 1822","steam_id":76561198325086209,"connected_time":4007000000000,"state":"active","ping":88},{"user_id":134,"name":"rmbl","steam_id":76561198150137369,"connected_time":228000000000,"state":"active","ping":75},{"user_id":109,"name":"Ulrich Stern","steam_id":76561198101739682,"connected_time":2354000000000,"state":"active","ping":121},{"user_id":101,"name":"McDumDum","steam_id":76561198040738807,"connected_time":3077000000000,"state":"active","ping":112},{"user_id":118,"name":"Midgeotto","steam_id":76561198885495596,"connected_time":1955000000000,"state":"active","ping":120},{"user_id":127,"name":"Shark Sandwich","steam_id":76561198025007938,"connected_time":822000000000,"state":"active","ping":90},{"user_id":76,"name":"not shouleil","steam_id":76561198970370243,"connected_time":5486000000000,"state":"active","ping":105},{"user_id":135,"name":"blood bitch","steam_id":76561198325306660,"connected_time":167000000000,"state":"active","ping":57},{"user_id":128,"name":"Florist","steam_id":76561198009121060,"connected_time":798000000000,"state":"active","ping":45},{"user_id":115,"name":"Whizzo the Clown","steam_id":76561197995910627,"connected_time":2154000000000,"state":"active","ping":135},{"user_id":84,"name":"t.tv/ibbKitty ‚àë:3","steam_id":76561198110858518,"connected_time":4165000000000,"state":"active","ping":116}]},{"server_id":119,"name":"Uncletopia | Seattle | 2 | All Maps","name_short":"sea-2","host":"sea-1.us.uncletopia.com","port":27025,"enabled":true,"region":"us-west","cc":"us","latitude":47.608013,"longitude":-122.33517,"reserved":0,"last_update":"0001-01-01T00:00:00Z","name_a2s":"Uncletopia | Seattle | 2 | All Maps","protocol":17,"map":"cp_sunshine","folder":"tf","game":"Team Fortress","app_id":440,"player_count":0,"max_players":24,"Bots":0,"server_type":"Dedicated","server_os":"Linux","password":true,"vac":true,"version":"7742253","steam_id":85568392924469998,"keywords":["cp","nocrits","nodmgspread","uncletopia"],"game_id":440,"stv_port":27026,"stv_name":"Uncletopia | Seattle | 2 | All Maps | STV","players":null},{"server_id":406,"name":"Uncletopia | Seattle | 3 | Stopwatch Beta","name_short":"sea-3","host":"sea-1.us.uncletopia.com","port":27035,"enabled":true,"region":"us-west","cc":"us","latitude":47.608013,"longitude":-122.33517,"reserved":0,"last_update":"0001-01-01T00:00:00Z","name_a2s":"Uncletopia | Seattle | 3 | Stopwatch Beta","protocol":17,"map":"cp_altitude","folder":"tf","game":"Team Fortress","app_id":440,"player_count":0,"max_players":24,"Bots":0,"server_type":"Dedicated","server_os":"Linux","password":true,"vac":true,"version":"7742253","steam_id":85568392924515217,"keywords":["cp","nocrits","nodmgspread","uncletopia"],"game_id":440,"stv_port":27036,"stv_name":"Uncletopia | Seattle | 3 | Stopwatch Beta | STV","players":null},{"server_id":17,"name":"Uncletopia | San Francisco | 1 | All Maps","name_short":"sfo-1","host":"sfo-1.us.uncletopia.com","port":27015,"enabled":true,"region":"us-west","cc":"us","latitude":37.77397,"longitude":-122.4313,"reserved":0,"last_update":"0001-01-01T00:00:00Z","name_a2s":"Uncletopia | San Francisco | 1 | All Maps","protocol":17,"map":"pl_snowycoast","folder":"tf","game":"Team Fortress","app_id":440,"player_count":0,"max_players":24,"Bots":0,"server_type":"Dedicated","server_os":"Linux","password":true,"vac":true,"version":"7742253","steam_id":85568392924469999,"keywords":["nocrits","nodmgspread","payload","uncletopia"],"game_id":440,"stv_port":27016,"stv_name":"Uncletopia | San Francisco | 1 | All Maps | STV","players":null},{"server_id":18,"name":"Uncletopia | San Francisco | 2 | All Maps","name_short":"sfo-2","host":"sfo-1.us.uncletopia.com","port":27025,"enabled":true,"region":"us-west","cc":"us","latitude":37.77397,"longitude":-122.4313,"reserved":0,"last_update":"0001-01-01T00:00:00Z","name_a2s":"Uncletopia | San Francisco | 2 | All Maps","protocol":17,"map":"cp_altitude","folder":"tf","game":"Team Fortress","app_id":440,"player_count":0,"max_players":24,"Bots":0,"server_type":"Dedicated","server_os":"Linux","password":true,"vac":true,"version":"7742253","steam_id":85568392924470000,"keywords":["cp","nocrits","nodmgspread","uncletopia"],"game_id":440,"stv_port":27026,"stv_name":"Uncletopia | San Francisco | 2 | All Maps | STV","players":null},{"server_id":19,"name":"Uncletopia | San Francisco | 3 | Stopwatch Beta","name_short":"sfo-3","host":"sfo-1.us.uncletopia.com","port":27035,"enabled":true,"region":"us-west","cc":"us","latitude":37.77397,"longitude":-122.4313,"reserved":0,"last_update":"0001-01-01T00:00:00Z","name_a2s":"Uncletopia | San Francisco | 3 | Stopwatch Beta","protocol":17,"map":"cp_snakewater_final1","folder":"tf","game":"Team Fortress","app_id":440,"player_count":0,"max_players":24,"Bots":0,"server_type":"Dedicated","server_os":"Linux","password":true,"vac":true,"version":"7742253","steam_id":85568392924742824,"keywords":["cp","nocrits","nodmgspread","uncletopia"],"game_id":440,"stv_port":27036,"stv_name":"Uncletopia | San Francisco | 3 | Stopwatch Beta | STV","players":null},{"server_id":20,"name":"Uncletopia | San Francisco | 4 | Community","name_short":"sfo-4","host":"sfo-1.us.uncletopia.com","port":27045,"enabled":true,"region":"us-west","cc":"us","latitude":37.77397,"longitude":-122.4313,"reserved":0,"last_update":"0001-01-01T00:00:00Z","name_a2s":"Uncletopia | San Francisco | 4 | Community","protocol":17,"map":"workshop/rd_asteroid_redux_b1.ugc2154902912","folder":"tf","game":"Team Fortress","app_id":440,"player_count":0,"max_players":24,"Bots":0,"server_type":"Dedicated","server_os":"Linux","password":true,"vac":true,"version":"7742253","steam_id":85568392924742826,"keywords":["beta","nocrits","nodmgspread","rd","uncletopia"],"game_id":440,"stv_port":27046,"stv_name":"Uncletopia | San Francisco | 4 | Community | STV","players":null},{"server_id":141,"name":"Uncletopia | Sydney | 1 | All Maps","name_short":"syd-1","host":"syd-1.au.uncletopia.com","port":27015,"enabled":true,"region":"au","cc":"au","latitude":-33.865143,"longitude":151.2099,"reserved":0,"last_update":"0001-01-01T00:00:00Z","name_a2s":"Uncletopia | Sydney | 1 | All Maps","protocol":17,"map":"koth_highpass","folder":"tf","game":"Team Fortress","app_id":440,"player_count":0,"max_players":24,"Bots":0,"server_type":"Dedicated","server_os":"Linux","password":true,"vac":true,"version":"7742253","steam_id":85568392924470001,"keywords":["cp","nocrits","nodmgspread","uncletopia"],"game_id":440,"stv_port":27016,"stv_name":"Uncletopia | Sydney | 1 | All Maps | STV","players":null},{"server_id":123,"name":"Uncletopia | Sydney | 2 | All Maps","name_short":"syd-2","host":"syd-1.au.uncletopia.com","port":27025,"enabled":true,"region":"au","cc":"au","latitude":-33.865143,"longitude":151.2099,"reserved":0,"last_update":"0001-01-01T00:00:00Z","name_a2s":"Uncletopia | Sydney | 2 | All Maps","protocol":17,"map":"koth_lakeside_final","folder":"tf","game":"Team Fortress","app_id":440,"player_count":0,"max_players":24,"Bots":0,"server_type":"Dedicated","server_os":"Linux","password":true,"vac":true,"version":"7742253","steam_id":85568392924470002,"keywords":["cp","nocrits","nodmgspread","uncletopia"],"game_id":440,"stv_port":27026,"stv_name":"Uncletopia | Sydney | 2 | All Maps | STV","players":null},{"server_id":395,"name":"Uncletopia | Sydney | 3 | All Maps","name_short":"syd-3","host":"syd-1.au.uncletopia.com","port":27035,"enabled":true,"region":"au","cc":"au","latitude":-33.865143,"longitude":151.2099,"reserved":0,"last_update":"0001-01-01T00:00:00Z","name_a2s":"Uncletopia | Sydney | 3 | All Maps","protocol":17,"map":"koth_highpass","folder":"tf","game":"Team Fortress","app_id":440,"player_count":0,"max_players":24,"Bots":0,"server_type":"Dedicated","server_os":"Linux","password":true,"vac":true,"version":"7742253","steam_id":85568392925194467,"keywords":["cp","nocrits","nodmgspread","uncletopia"],"game_id":440,"stv_port":27036,"stv_name":"Uncletopia | Sydney | 3 | All Maps | STV","players":null},{"server_id":396,"name":"Uncletopia | Sydney | 4 | All Maps","name_short":"syd-4","host":"syd-1.au.uncletopia.com","port":27045,"enabled":true,"region":"au","cc":"au","latitude":-33.865143,"longitude":151.2099,"reserved":0,"last_update":"0001-01-01T00:00:00Z","name_a2s":"Uncletopia | Sydney | 4 | All Maps","protocol":17,"map":"koth_lakeside_final","folder":"tf","game":"Team Fortress","app_id":440,"player_count":0,"max_players":24,"Bots":0,"server_type":"Dedicated","server_os":"Linux","password":true,"vac":true,"version":"7742253","steam_id":85568392925397958,"keywords":["cp","nocrits","nodmgspread","uncletopia"],"game_id":440,"stv_port":27046,"stv_name":"Uncletopia | Sydney | 4 | All Maps | STV","players":null},{"server_id":58,"name":"Uncletopia | Sydney | 5 | Stopwatch Beta","name_short":"syd-5","host":"syd-1.au.uncletopia.com","port":27055,"enabled":true,"region":"au","cc":"au","latitude":-33.865143,"longitude":151.2099,"reserved":0,"last_update":"0001-01-01T00:00:00Z","name_a2s":"Uncletopia | Sydney | 5 | Stopwatch Beta","protocol":17,"map":"workshop/koth_ashville_final.ugc2130459942","folder":"tf","game":"Team Fortress","app_id":440,"player_count":0,"max_players":24,"Bots":0,"server_type":"Dedicated","server_os":"Linux","password":true,"vac":true,"version":"7742253","steam_id":85568392925397959,"keywords":["cp","nocrits","nodmgspread","uncletopia"],"game_id":440,"stv_port":27056,"stv_name":"Uncletopia | Sydney | 5 | Stopwatch Beta | STV","players":null},{"server_id":59,"name":"Uncletopia | Sydney | 6 | Community","name_short":"syd-6","host":"syd-1.au.uncletopia.com","port":27065,"enabled":true,"region":"au","cc":"au","latitude":-33.865143,"longitude":151.2099,"reserved":0,"last_update":"0001-01-01T00:00:00Z","name_a2s":"Uncletopia | Sydney | 6 | Community","protocol":17,"map":"workshop/koth_slaughter_rc1.ugc1712845210","folder":"tf","game":"Team Fortress","app_id":440,"player_count":0,"max_players":24,"Bots":0,"server_type":"Dedicated","server_os":"Linux","password":true,"vac":true,"version":"7742253","steam_id":85568392925397960,"keywords":["cp","nocrits","nodmgspread","uncletopia"],"game_id":440,"stv_port":27066,"stv_name":"Uncletopia | Sydney | 6 | Community | STV","players":null},{"server_id":49,"name":"Uncletopia | Warsaw | 1 | All Maps","name_short":"waw-1","host":"waw-1.pl.uncletopia.com","port":27015,"enabled":true,"region":"eu","cc":"pl","latitude":52.2297,"longitude":21.017532,"reserved":0,"last_update":"0001-01-01T00:00:00Z","name_a2s":"","protocol":0,"map":"","folder":"","game":"","app_id":0,"player_count":0,"max_players":0,"Bots":0,"server_type":"","server_os":"","password":false,"vac":false,"version":"","steam_id":0,"keywords":null,"game_id":0,"stv_port":0,"stv_name":"","players":null},{"server_id":50,"name":"Uncletopia | Warsaw | 2 | All Maps","name_short":"waw-2","host":"waw-1.pl.uncletopia.com","port":27025,"enabled":true,"region":"eu","cc":"pl","latitude":52.2297,"longitude":21.017532,"reserved":0,"last_update":"0001-01-01T00:00:00Z","name_a2s":"Uncletopia | Warsaw | 2 | All Maps","protocol":17,"map":"cp_mountainlab","folder":"tf","game":"Team Fortress","app_id":440,"player_count":24,"max_players":24,"Bots":0,"server_type":"Dedicated","server_os":"Linux","password":true,"vac":true,"version":"7742253","steam_id":85568392925397851,"keywords":["cp","nocrits","nodmgspread","uncletopia"],"game_id":440,"stv_port":27026,"stv_name":"Uncletopia | Warsaw | 2 | All Maps | STV","players":[{"user_id":17,"name":"‚ôãFireShark224‚ôã","steam_id":76561199124513042,"connected_time":3964000000000,"state":"active","ping":79},{"user_id":11,"name":"engineergaming","steam_id":76561199423207269,"connected_time":4844000000000,"state":"active","ping":42},{"user_id":48,"name":"jakov inwestowaƒá","steam_id":76561198052282542,"connected_time":1540000000000,"state":"active","ping":51},{"user_id":66,"name":"Dr. Drive07","steam_id":76561199285435663,"connected_time":647000000000,"state":"active","ping":162},{"user_id":46,"name":"PEDRO AMIGOS","steam_id":76561198133530053,"connected_time":1762000000000,"state":"active","ping":56},{"user_id":68,"name":"P-47 Thunderbolt","steam_id":76561198153197815,"connected_time":556000000000,"state":"active","ping":81},{"user_id":54,"name":"Nameless_Mann","steam_id":76561198015543601,"connected_time":1086000000000,"state":"active","ping":47},{"user_id":69,"name":"DaDogeDev","steam_id":76561199098626049,"connected_time":396000000000,"state":"active","ping":99},{"user_id":76,"name":"Metal Fetishist","steam_id":76561198022726596,"connected_time":169000000000,"state":"active","ping":71},{"user_id":55,"name":"Chopper","steam_id":76561199013212815,"connected_time":1011000000000,"state":"active","ping":40},{"user_id":56,"name":"mesoni","steam_id":76561199141290973,"connected_time":1006000000000,"state":"active","ping":103},{"user_id":70,"name":"snecks","steam_id":76561198298118078,"connected_time":280000000000,"state":"active","ping":86},{"user_id":59,"name":"torn","steam_id":76561198223003236,"connected_time":981000000000,"state":"active","ping":85},{"user_id":58,"name":"waffle toaster","steam_id":76561198799089628,"connected_time":991000000000,"state":"active","ping":75},{"user_id":60,"name":"·¥ç…™ ü·¥ã Cryspoeth47","steam_id":76561198892776023,"connected_time":962000000000,"state":"active","ping":154},{"user_id":61,"name":"geese","steam_id":76561198944578383,"connected_time":942000000000,"state":"active","ping":102},{"user_id":62,"name":"LOBZIK","steam_id":76561198114830120,"connected_time":916000000000,"state":"active","ping":47},{"user_id":71,"name":"RoutaKanki","steam_id":76561198995568303,"connected_time":254000000000,"state":"active","ping":90},{"user_id":79,"name":"geo_eo112","steam_id":76561198157082747,"connected_time":37000000000,"state":"spawning","ping":101},{"user_id":73,"name":"Efebic","steam_id":76561198067392958,"connected_time":225000000000,"state":"active","ping":60},{"user_id":75,"name":"Minimi","steam_id":76561198873850443,"connected_time":184000000000,"state":"active","ping":65},{"user_id":77,"name":"b√•lly","steam_id":76561198037922597,"connected_time":151000000000,"state":"active","ping":74},{"user_id":78,"name":"soigan","steam_id":76561199375185205,"connected_time":113000000000,"state":"spawning","ping":135},{"user_id":80,"name":"Oxitocin","steam_id":76561198119542899,"connected_time":11000000000,"state":"spawning","ping":99}]},{"server_id":51,"name":"Uncletopia | Warsaw | 3 | All Maps","name_short":"waw-3","host":"waw-1.pl.uncletopia.com","port":27035,"enabled":true,"region":"eu","cc":"pl","latitude":52.2297,"longitude":21.017532,"reserved":0,"last_update":"0001-01-01T00:00:00Z","name_a2s":"Uncletopia | Warsaw | 3 | All Maps","protocol":17,"map":"ctf_snowfall_final","folder":"tf","game":"Team Fortress","app_id":440,"player_count":0,"max_players":24,"Bots":0,"server_type":"Dedicated","server_os":"Linux","password":true,"vac":true,"version":"7742253","steam_id":85568392925397852,"keywords":["ctf","nocrits","nodmgspread","uncletopia"],"game_id":440,"stv_port":27036,"stv_name":"Uncletopia | Warsaw | 3 | All Maps | STV","players":null},{"server_id":52,"name":"Uncletopia | Warsaw | 4 | All Maps","name_short":"waw-4","host":"waw-1.pl.uncletopia.com","port":27045,"enabled":true,"region":"eu","cc":"pl","latitude":52.2297,"longitude":21.017532,"reserved":0,"last_update":"0001-01-01T00:00:00Z","name_a2s":"Uncletopia | Warsaw | 4 | All Maps","protocol":17,"map":"pl_borneo","folder":"tf","game":"Team Fortress","app_id":440,"player_count":0,"max_players":24,"Bots":0,"server_type":"Dedicated","server_os":"Linux","password":true,"vac":true,"version":"7742253","steam_id":85568392925397853,"keywords":["nocrits","nodmgspread","payload","uncletopia"],"game_id":440,"stv_port":27046,"stv_name":"Uncletopia | Warsaw | 4 | All Maps | STV","players":null},{"server_id":53,"name":"Uncletopia | Warsaw | 5 | Stopwatch Beta","name_short":"waw-5","host":"waw-1.pl.uncletopia.com","port":27055,"enabled":true,"region":"eu","cc":"pl","latitude":52.2297,"longitude":21.017532,"reserved":0,"last_update":"0001-01-01T00:00:00Z","name_a2s":"Uncletopia | Warsaw | 5 | Stopwatch Beta","protocol":17,"map":"pl_swiftwater_final1","folder":"tf","game":"Team Fortress","app_id":440,"player_count":0,"max_players":24,"Bots":0,"server_type":"Dedicated","server_os":"Linux","password":true,"vac":true,"version":"7742253","steam_id":85568392925397854,"keywords":["nocrits","nodmgspread","payload","uncletopia"],"game_id":440,"stv_port":27056,"stv_name":"Uncletopia | Warsaw | 5 | Stopwatch Beta | STV","players":null},{"server_id":54,"name":"Uncletopia | Warsaw | 6 | Community","name_short":"waw-6","host":"waw-1.pl.uncletopia.com","port":27065,"enabled":true,"region":"eu","cc":"pl","latitude":52.2297,"longitude":21.017532,"reserved":0,"last_update":"0001-01-01T00:00:00Z","name_a2s":"Uncletopia | Warsaw | 6 | Community","protocol":17,"map":"koth_highpass","folder":"tf","game":"Team Fortress","app_id":440,"player_count":0,"max_players":24,"Bots":0,"server_type":"Dedicated","server_os":"Linux","password":true,"vac":true,"version":"7742253","steam_id":85568392925397856,"keywords":["cp","nocrits","nodmgspread","uncletopia"],"game_id":440,"stv_port":27066,"stv_name":"Uncletopia | Warsaw | 6 | Community | STV","players":null}]}