{"status":true,"message":"","result":[{"server_id":9,"name":"Uncletopia | Atlanta | 1 | All Maps","name_short":"atl-1","host":"atl-1.us.uncletopia.com","port":27015,"enabled":true,"region":"us-east","cc":"us","latitude":33.753746,"longitude":-84.38633,"reserved":0,"last_update":"0001-01-01T00:00:00Z","name_a2s":"Uncletopia | Atlanta | 1 | All Maps","protocol":17,"map":"pl_badwater","folder":"tf","game":"Team Fortress","app_id":440,"player_count":25,"max_players":24,"Bots":0,"server_type":"Dedicated","server_os":"Linux","password":true,"vac":true,"version":"7961495","steam_id":85568392924469982,"keywords":["nocrits","nodmgspread","payload","uncletopia"],"game_id":440,"stv_port":27016,"stv_name":"Uncletopia | Atlanta | 1 | All Maps | STV","players":[{"user_id":604,"name":"Bimbonito","steam_id":76561198069676563,"connected_time":2038000000000,"state":"active","ping":53},{"user_id":584,"name":"BIG HOG","steam_id":76561198079923652,"connected_time":3812000000000,"state":"active","ping":65},{"user_id":471,"name":"eish","steam_id":76561198089463603,"connected_time":11460000000000,"state":"active","ping":117},{"user_id":588,"name":"♥Bixit♥","steam_id":76561198958823160,"connected_time":3425000000000,"state":"active","ping":75},{"user_id":582,"name":"ash","steam_id":76561198127890645,"connected_time":4237000000000,"state":"active","ping":72},{"user_id":571,"name":"Albino Jellyfish","steam_id":76561198208561097,"connected_time":5348000000000,"state":"active","ping":51},{"user_id":585,"name":"xX_BimboSwallower_Xx","steam_id":76561198016029965,"connected_time":3448000000000,"state":"active","ping":59},{"user_id":605,"name":"Dullahan","steam_id":76561198119668908,"connected_time":1995000000000,"state":"active","ping":110},{"user_id":606,"name":"GreenApples","steam_id":76561198120559543,"connected_time":1968000000000,"state":"active","ping":109},{"user_id":602,"name":"Lumi The ✧Lesbian✧","steam_id":76561198089978036,"connected_time":2168000000000,"state":"active","ping":59},{"user_id":625,"name":"Tyvek homewrap [NGW]","steam_id":76561198979625736,"connected_time":592000000000,"state":"active","ping":56},{"user_id":626,"name":"KexruTv","steam_id":76561198374399876,"connected_time":9000000000,"state":"spawning","ping":57},{"user_id":621,"name":"ATL 1 | Save your wifi","steam_id":76561198286147372,"connected_time":644000000000,"state":"active","ping":69},{"user_id":610,"name":"Maestro","steam_id":76561198157325020,"connected_time":1881000000000,"state":"active","ping":63},{"user_id":615,"name":"Pack Smoker (chexo4)","steam_id":76561198150532531,"connected_time":788000000000,"state":"active","ping":51},{"user_id":601,"name":"Chernov","steam_id":76561198014463424,"connected_time":2216000000000,"state":"active","ping":61},{"user_id":611,"name":"mangokip","steam_id":76561198156471516,"connected_time":1876000000000,"state":"active","ping":64},{"user_id":566,"name":"lil hog","steam_id":76561199230929836,"connected_time":5858000000000,"state":"active","ping":86},{"user_id":627,"name":"Tyco","steam_id":76561197978414167,"connected_time":9000000000,"state":"spawning","ping":79},{"user_id":603,"name":"Smooth, Refreshing Bleach™","steam_id":76561197981060504,"connected_time":2137000000000,"state":"active","ping":64},{"user_id":612,"name":"Mr. White","steam_id":76561197988730902,"connected_time":1780000000000,"state":"active","ping":82},{"user_id":600,"name":"nomad","steam_id":76561197998740399,"connected_time":2409000000000,"state":"active","ping":64},{"user_id":623,"name":"cron","steam_id":76561198041348890,"connected_time":634000000000,"state":"active","ping":67},{"user_id":594,"name":"Meet The Amazing Bret","steam_id":76561198137326099,"connected_time":3288000000000,"state":"active","ping":106},{"user_id":616,"name":"ATL1 | cola","steam_id":76561198374390458,"connected_time":788000000000,"state":"active","ping":61}]},{"server_id":104,"name":"Uncletopia | Atlanta | 2 | All Maps","name_short":"atl-2","host":"atl-1.us.uncletopia.com","port":27025,"enabled":true,"region":"us-east","cc":"us","latitude":33.753746,"longitude":-84.38633,"reserved":0,"last_update":"0001-01-01T00:00:00Z","name_a2s":"Uncletopia | Atlanta | 2 | All Maps","protocol":17,"map":"cp_dustbowl","folder":"tf","game":"Team Fortress","app_id":440,"player_count":0,"max_players":24,"Bots":0,"server_type":"Dedicated","server_os":"Linux","password":true,"vac":true,"version":"7961495","steam_id":85568392924469983,"keywords":["cp","nocrits","nodmgspread","uncletopia"],"game_id":440,"stv_port":27026,"stv_name":"Uncletopia | Atlanta | 2 | All Maps | STV","players":null},{"server_id":400,"name":"Uncletopia | Atlanta | 3 | Stopwatch","name_short":"atl-3","host":"atl-1.us.uncletopia.com","port":27035,"enabled":true,"region":"us-east","cc":"us","latitude":33.753746,"longitude":-84.38633,"reserved":0,"last_update":"0001-01-01T00:00:00Z","name_a2s":"Uncletopia | Atlanta | 3 | Stopwatch","protocol":17,"map":"workshop/koth_product_final.ugc454272353","folder":"tf","game":"Team Fortress","app_id":440,"player_count":0,"max_players":24,"Bots":0,"server_type":"Dedicated","server_os":"Linux","password":true,"vac":true,"version":"7961495","steam_id":85568392924515187,"keywords":["cp","nocrits","nodmgspread","uncletopia"],"game_id":440,"stv_port":27036,"stv_name":"Uncletopia | Atlanta | 3 | Stopwatch | STV","players":null},{"server_id":401,"name":"Uncletopia | Atlanta | 4 | Community","name_short":"atl-4","host":"atl-1.us.uncletopia.com","port":27045,"enabled":true,"region":"us-east","cc":"us","latitude":33.753746,"longitude":-84.38633,"reserved":0,"last_update":"0001-01-01T00:00:00Z","name_a2s":"Uncletopia | Atlanta | 4 | Community","protocol":17,"map":"workshop/pl_highwood_b19.ugc1769496557","folder":"tf","game":"Team Fortress","app_id":440,"player_count":0,"max_players":24,"Bots":0,"server_type":"Dedicated","server_os":"Linux","password":true,"vac":true,"version":"7961495","steam_id":85568392924515188,"keywords":["nocrits","nodmgspread","payload","uncletopia"],"game_id":440,"stv_port":27046,"stv_name":"Uncletopia | Atlanta | 4 | Community | STV","players":null},{"server_id":2,"name":"Uncletopia | Chicago | 1 | All Maps","name_short":"chi-1","host":"chi-1.us.uncletopia.com","port":27015,"enabled":true,"region":"us-central","cc":"us","latitude":41.881832,"longitude":-87.62318,"reserved":0,"last_update":"0001-01-01T00:00:00Z","name_a2s":"Uncletopia | Chicago | 1 | All Maps","protocol":17,"map":"pl_badwater","folder":"tf","game":"Team Fortress","app_id":440,"player_count":24,"max_players":24,"Bots":0,"server_type":"Dedicated","server_os":"Linux","password":true,"vac":true,"version":"7961495","steam_id":85568392924469984,"keywords":["nocrits","nodmgspread","payload","uncletopia"],"game_id":440,"stv_port":27016,"stv_name":"Uncletopia | Chicago | 1 | All Maps | STV","players":[{"user_id":726,"name":"Boofenshmirtz","steam_id":76561198071649858,"connected_time":183000000000,"state":"active","ping":54},{"user_id":690,"name":"Emberformula","steam_id":76561198171526119,"connected_time":3760000000000,"state":"active","ping":74},{"user_id":722,"name":"THE gabagool","steam_id":76561198066449282,"connected_time":1110000000000,"state":"active","ping":74},{"user_id":696,"name":"SN0W","steam_id":76561198153665468,"connected_time":2649000000000,"state":"active","ping":45},{"user_id":723,"name":"have blue","steam_id":76561198054260599,"connected_time":877000000000,"state":"active","ping":76},{"user_id":698,"name":"gyozaking","steam_id":76561197972312696,"connected_time":2611000000000,"state":"active","ping":129},{"user_id":710,"name":"Magnet Dood","steam_id":76561198364178746,"connected_time":2134000000000,"state":"active","ping":45},{"user_id":707,"name":"rin","steam_id":76561198155841915,"connected_time":2188000000000,"state":"active","ping":64},{"user_id":717,"name":"RocketRabbit","steam_id":76561198803062131,"connected_time":1705000000000,"state":"active","ping":57},{"user_id":668,"name":"Uwu Micster","steam_id":76561198843890616,"connected_time":4498000000000,"state":"active","ping":89},{"user_id":711,"name":"zigs","steam_id":76561198154084372,"connected_time":2127000000000,"state":"active","ping":181},{"user_id":691,"name":"OH BOY","steam_id":76561199052273428,"connected_time":3582000000000,"state":"active","ping":49},{"user_id":706,"name":"Azalea","steam_id":76561198105514182,"connected_time":2199000000000,"state":"active","ping":120},{"user_id":682,"name":"Boston","steam_id":76561198061078236,"connected_time":3996000000000,"state":"active","ping":81},{"user_id":669,"name":"Praise_to_the_Flashlight!","steam_id":76561199001728789,"connected_time":4451000000000,"state":"active","ping":65},{"user_id":704,"name":"Rudy","steam_id":76561198013456828,"connected_time":2316000000000,"state":"active","ping":75},{"user_id":720,"name":"Rein","steam_id":76561198300340427,"connected_time":1170000000000,"state":"active","ping":61},{"user_id":727,"name":"IGOR","steam_id":76561199128786637,"connected_time":162000000000,"state":"active","ping":96},{"user_id":697,"name":"rynz500","steam_id":76561198043872361,"connected_time":2627000000000,"state":"active","ping":78},{"user_id":725,"name":"Vin Diesel","steam_id":76561197969386201,"connected_time":438000000000,"state":"active","ping":45},{"user_id":688,"name":"Oops","steam_id":76561198015032646,"connected_time":3873000000000,"state":"active","ping":101},{"user_id":670,"name":"The strongest ⑨ ball","steam_id":76561198126760743,"connected_time":4340000000000,"state":"active","ping":75},{"user_id":728,"name":"Colin102004","steam_id":76561198202384334,"connected_time":150000000000,"state":"active","ping":65},{"user_id":719,"name":"Tibalt Nyahuma","steam_id":76561198034779431,"connected_time":1527000000000,"state":"active","ping":62}]},{"server_id":106,"name":"Uncletopia | Chicago | 2 | All Maps","name_short":"chi-2","host":"chi-1.us.uncletopia.com","port":27025,"enabled":true,"region":"us-central","cc":"us","latitude":41.881832,"longitude":-87.62318,"reserved":0,"last_update":"0001-01-01T00:00:00Z","name_a2s":"Uncletopia | Chicago | 2 | All Maps","protocol":17,"map":"pl_snowycoast","folder":"tf","game":"Team Fortress","app_id":440,"player_count":24,"max_players":24,"Bots":0,"server_type":"Dedicated","server_os":"Linux","password":true,"vac":true,"version":"7961495","steam_id":85568392924469985,"keywords":["nocrits","nodmgspread","payload","uncletopia"],"game_id":440,"stv_port":27026,"stv_name":"Uncletopia | Chicago | 2 | All Maps | STV","players":[{"user_id":765,"name":"SofaKing","steam_id":76561198176691859,"connected_time":5548000000000,"state":"active","ping":92},{"user_id":823,"name":"gogurt","steam_id":76561199051096093,"connected_time":1565000000000,"state":"active","ping":59},{"user_id":815,"name":"Dwanor","steam_id":76561198039571887,"connected_time":2360000000000,"state":"active","ping":69},{"user_id":830,"name":"hempstar","steam_id":76561198159477619,"connected_time":444000000000,"state":"active","ping":89},{"user_id":820,"name":"wtf is a headshot","steam_id":76561198799224408,"connected_time":1900000000000,"state":"active","ping":57},{"user_id":831,"name":"Mana_Kaktus","steam_id":76561198110468307,"connected_time":431000000000,"state":"active","ping":80},{"user_id":824,"name":"Grundle Thunder","steam_id":76561197960790338,"connected_time":1519000000000,"state":"active","ping":74},{"user_id":808,"name":"SPYCHECK ME","steam_id":76561198980994364,"connected_time":3125000000000,"state":"active","ping":89},{"user_id":810,"name":"NotoriousThicc","steam_id":76561198244650474,"connected_time":3093000000000,"state":"active","ping":94},{"user_id":782,"name":"Sentinel","steam_id":76561198057008450,"connected_time":4974000000000,"state":"active","ping":76},{"user_id":805,"name":"tack","steam_id":76561198408477421,"connected_time":3282000000000,"state":"active","ping":76},{"user_id":803,"name":"EvilPi99let","steam_id":76561197987243470,"connected_time":3536000000000,"state":"active","ping":75},{"user_id":756,"name":"Harry S. Truman","steam_id":76561197993339757,"connected_time":5761000000000,"state":"active","ping":71},{"user_id":812,"name":"DanFango","steam_id":76561198078300753,"connected_time":2847000000000,"state":"active","ping":67},{"user_id":825,"name":"BiggFoot","steam_id":76561197998605599,"connected_time":1519000000000,"state":"active","ping":68},{"user_id":821,"name":"wheat","steam_id":76561197971158435,"connected_time":1809000000000,"state":"active","ping":63},{"user_id":832,"name":"Sarbanes-Oxley","steam_id":76561197975898479,"connected_time":404000000000,"state":"active","ping":79},{"user_id":833,"name":"sheep","steam_id":76561198994761483,"connected_time":309000000000,"state":"active","ping":75},{"user_id":826,"name":"Crescent","steam_id":76561198095124633,"connected_time":1516000000000,"state":"active","ping":76},{"user_id":759,"name":"Spooky Boo","steam_id":76561198078213827,"connected_time":5658000000000,"state":"active","ping":74},{"user_id":828,"name":"guy","steam_id":76561198163306561,"connected_time":1346000000000,"state":"active","ping":81},{"user_id":779,"name":"Mr. Tickle","steam_id":76561198126684647,"connected_time":5143000000000,"state":"active","ping":74},{"user_id":834,"name":"Chillin Turt","steam_id":76561198025796849,"connected_time":307000000000,"state":"active","ping":70}]},{"server_id":402,"name":"Uncletopia | Chicago | 3 | All Maps","name_short":"chi-3","host":"chi-1.us.uncletopia.com","port":27035,"enabled":true,"region":"us-central","cc":"us","latitude":41.881832,"longitude":-87.62318,"reserved":0,"last_update":"0001-01-01T00:00:00Z","name_a2s":"Uncletopia | Chicago | 3 | All Maps","protocol":17,"map":"cp_sunshine","folder":"tf","game":"Team Fortress","app_id":440,"player_count":2,"max_players":24,"Bots":0,"server_type":"Dedicated","server_os":"Linux","password":true,"vac":true,"version":"7961495","steam_id":85568392924515191,"keywords":["cp","nocrits","nodmgspread","uncletopia"],"game_id":440,"stv_port":27036,"stv_name":"Uncletopia | Chicago | 3 | All Maps | STV","players":[{"user_id":773,"name":"AidenSpot","steam_id":76561198324152195,"connected_time":1132000000000,"state":"active","ping":71},{"user_id":768,"name":"IcyScrumpy","steam_id":76561198084605065,"connected_time":2073000000000,"state":"active","ping":48}]},{"server_id":403,"name":"Uncletopia | Chicago | 4 | All Maps","name_short":"chi-4","host":"chi-1.us.uncletopia.com","port":27045,"enabled":true,"region":"us-central","cc":"us","latitude":41.881832,"longitude":-87.62318,"reserved":0,"last_update":"0001-01-01T00:00:00Z","name_a2s":"Uncletopia | Chicago | 4 | All Maps","protocol":17,"map":"pl_frontier_final","folder":"tf","game":"Team Fortress","app_id":440,"player_count":21,"max_players":24,"Bots":0,"server_type":"Dedicated","server_os":"Linux","password":true,"vac":true,"version":"7961495","steam_id":85568392924515193,"keywords":["nocrits","nodmgspread","payload","uncletopia"],"game_id":440,"stv_port":27046,"stv_name":"Uncletopia | Chicago | 4 | All Maps | STV","players":[{"user_id":464,"name":"We Make It Look Easy™","steam_id":76561198024442760,"connected_time":972000000000,"state":"active","ping":57},{"user_id":476,"name":"OHMYGEEEEEEZ22","steam_id":76561198375884178,"connected_time":187000000000,"state":"active","ping":74},{"user_id":470,"name":"Big Chungus Gaming","steam_id":76561198068794194,"connected_time":696000000000,"state":"active","ping":50},{"user_id":411,"name":"Lennu","steam_id":76561198060730154,"connected_time":5051000000000,"state":"active","ping":69},{"user_id":477,"name":"Topaz Tom","steam_id":76561199214479904,"connected_time":156000000000,"state":"active","ping":73},{"user_id":469,"name":"Amoxicilina","steam_id":76561198168486429,"connected_time":871000000000,"state":"active","ping":119},{"user_id":466,"name":"SiltyStar85","steam_id":76561198309175923,"connected_time":927000000000,"state":"active","ping":96},{"user_id":481,"name":"MMMJoey","steam_id":76561198399036706,"connected_time":65000000000,"state":"active","ping":59},{"user_id":468,"name":"RusticCarp42989","steam_id":76561198361151865,"connected_time":922000000000,"state":"active","ping":111},{"user_id":478,"name":"ghosti","steam_id":76561198284538714,"connected_time":152000000000,"state":"active","ping":54},{"user_id":474,"name":"Alcohol Hominid","steam_id":76561198320313950,"connected_time":204000000000,"state":"active","ping":65},{"user_id":475,"name":"mootier","steam_id":76561198030365192,"connected_time":203000000000,"state":"active","ping":64},{"user_id":479,"name":"costum","steam_id":76561198197086561,"connected_time":111000000000,"state":"active","ping":53},{"user_id":480,"name":"Kracko","steam_id":76561198240580798,"connected_time":92000000000,"state":"active","ping":59},{"user_id":462,"name":"theconqueror","steam_id":76561199229806456,"connected_time":1645000000000,"state":"active","ping":56},{"user_id":471,"name":"pussy DEMOLISHER","steam_id":76561199024788950,"connected_time":426000000000,"state":"active","ping":66},{"user_id":482,"name":"Prot4g","steam_id":76561198036164393,"connected_time":37000000000,"state":"spawning","ping":64},{"user_id":463,"name":"bomba","steam_id":76561198301585642,"connected_time":1018000000000,"state":"active","ping":66},{"user_id":483,"name":"Crunchy","steam_id":76561198318645825,"connected_time":6000000000,"state":"spawning","ping":104},{"user_id":445,"name":"Dr Oshawott","steam_id":76561198042021629,"connected_time":2779000000000,"state":"active","ping":50},{"user_id":443,"name":"inx_is_trans","steam_id":76561198223991316,"connected_time":2915000000000,"state":"active","ping":89}]},{"server_id":36,"name":"Uncletopia | Chicago | 5 | All Maps","name_short":"chi-5","host":"chi-2.us.uncletopia.com","port":27015,"enabled":true,"region":"us-central","cc":"us","latitude":41.881832,"longitude":-87.62318,"reserved":0,"last_update":"0001-01-01T00:00:00Z","name_a2s":"Uncletopia | Chicago | 5 | All Maps","protocol":17,"map":"pl_barnblitz","folder":"tf","game":"Team Fortress","app_id":440,"player_count":24,"max_players":24,"Bots":0,"server_type":"Dedicated","server_os":"Linux","password":true,"vac":true,"version":"7961495","steam_id":85568392924866362,"keywords":["nocrits","nodmgspread","payload","uncletopia"],"game_id":440,"stv_port":27016,"stv_name":"Uncletopia | Chicago | 5 | All Maps | STV","players":[{"user_id":293,"name":"Unwavering Flavor","steam_id":76561198053306065,"connected_time":86000000000,"state":"active","ping":68},{"user_id":241,"name":"twix","steam_id":76561198040912048,"connected_time":3866000000000,"state":"active","ping":55},{"user_id":265,"name":"lytewerk","steam_id":76561198002819791,"connected_time":1318000000000,"state":"active","ping":75},{"user_id":237,"name":"beebo babbo","steam_id":76561198097175164,"connected_time":3953000000000,"state":"active","ping":59},{"user_id":273,"name":"astrobob911","steam_id":76561199099110654,"connected_time":1154000000000,"state":"active","ping":68},{"user_id":262,"name":"MacawAbalone","steam_id":76561198015127948,"connected_time":1463000000000,"state":"active","ping":43},{"user_id":220,"name":"panzerkampfwagen xi schlange","steam_id":76561198006883248,"connected_time":4742000000000,"state":"active","ping":75},{"user_id":288,"name":"TheColdChiliPepper","steam_id":76561199027155811,"connected_time":217000000000,"state":"active","ping":80},{"user_id":278,"name":"Skudge Sister","steam_id":76561198041766766,"connected_time":856000000000,"state":"active","ping":96},{"user_id":286,"name":"BLØRG","steam_id":76561198036126673,"connected_time":272000000000,"state":"active","ping":81},{"user_id":284,"name":"DeepLarkem","steam_id":76561198823247730,"connected_time":516000000000,"state":"active","ping":113},{"user_id":281,"name":"SCROWEN","steam_id":76561198150382695,"connected_time":765000000000,"state":"active","ping":77},{"user_id":287,"name":"Zont","steam_id":76561197985526581,"connected_time":254000000000,"state":"active","ping":64},{"user_id":289,"name":"Copter_Boy","steam_id":76561198322921312,"connected_time":213000000000,"state":"active","ping":66},{"user_id":270,"name":"HenryHJ","steam_id":76561198206291528,"connected_time":1196000000000,"state":"active","ping":95},{"user_id":192,"name":"fish (2:3)","steam_id":76561198134331073,"connected_time":6297000000000,"state":"active","ping":103},{"user_id":240,"name":"[`420`] FADED THAN A HOE","steam_id":76561198058540459,"connected_time":3916000000000,"state":"active","ping":68},{"user_id":290,"name":"-W3E- grim10465","steam_id":76561198045698581,"connected_time":180000000000,"state":"active","ping":54},{"user_id":263,"name":"Shulgin_4-HO_MET","steam_id":76561198038784254,"connected_time":1420000000000,"state":"active","ping":58},{"user_id":234,"name":"shrrrk","steam_id":76561198006029693,"connected_time":4190000000000,"state":"active","ping":74},{"user_id":294,"name":"big boobs","steam_id":76561198151150175,"connected_time":64000000000,"state":"active","ping":58},{"user_id":292,"name":"DaniLoRiver","steam_id":76561198048611123,"connected_time":113000000000,"state":"active","ping":99},{"user_id":245,"name":"tap to collect gold","steam_id":76561198822328368,"connected_time":3721000000000,"state":"active","ping":136},{"user_id":243,"name":"Large Man","steam_id":76561198880396651,"connected_time":3833000000000,"state":"active","ping":88}]},{"server_id":37,"name":"Uncletopia | Chicago | 6 | All Maps","name_short":"chi-6","host":"chi-2.us.uncletopia.com","port":27025,"enabled":true,"region":"us-central","cc":"us","latitude":41.881832,"longitude":-87.62318,"reserved":0,"last_update":"0001-01-01T00:00:00Z","name_a2s":"Uncletopia | Chicago | 6 | All Maps","protocol":17,"map":"pl_borneo","folder":"tf","game":"Team Fortress","app_id":440,"player_count":24,"max_players":24,"Bots":0,"server_type":"Dedicated","server_os":"Linux","password":true,"vac":true,"version":"7961495","steam_id":85568392924866363,"keywords":["nocrits","nodmgspread","payload","uncletopia"],"game_id":440,"stv_port":27026,"stv_name":"Uncletopia | Chicago | 6 | All Maps | STV","players":[{"user_id":308,"name":"StudioMania (#SAVETF2)","steam_id":76561198211315795,"connected_time":3620000000000,"state":"active","ping":55},{"user_id":336,"name":"zach.moore11","steam_id":76561199248933027,"connected_time":1324000000000,"state":"active","ping":87},{"user_id":276,"name":"wagoogus","steam_id":76561198050618142,"connected_time":5838000000000,"state":"active","ping":92},{"user_id":285,"name":"rachel","steam_id":76561198052588144,"connected_time":4525000000000,"state":"active","ping":78},{"user_id":323,"name":"kicks","steam_id":76561199228854923,"connected_time":2539000000000,"state":"active","ping":49},{"user_id":348,"name":"Whisper","steam_id":76561198197327722,"connected_time":298000000000,"state":"active","ping":71},{"user_id":352,"name":"BLITZ","steam_id":76561198980779200,"connected_time":21000000000,"state":"active","ping":53},{"user_id":310,"name":"Elias","steam_id":76561198106431732,"connected_time":3562000000000,"state":"active","ping":57},{"user_id":254,"name":"whirlybird","steam_id":76561198353887173,"connected_time":6865000000000,"state":"active","ping":61},{"user_id":333,"name":"REspecWizard","steam_id":76561198097950624,"connected_time":1974000000000,"state":"active","ping":86},{"user_id":337,"name":"onion","steam_id":76561198242311084,"connected_time":1320000000000,"state":"active","ping":60},{"user_id":335,"name":"steven","steam_id":76561198173047169,"connected_time":1926000000000,"state":"active","ping":60},{"user_id":326,"name":"Shmashing Zilla","steam_id":76561198071829822,"connected_time":2462000000000,"state":"active","ping":62},{"user_id":317,"name":"Scarecrow","steam_id":76561198045870511,"connected_time":3045000000000,"state":"active","ping":52},{"user_id":325,"name":"weird bite","steam_id":76561198043757637,"connected_time":2487000000000,"state":"active","ping":75},{"user_id":343,"name":"Guts","steam_id":76561198436383373,"connected_time":1114000000000,"state":"active","ping":124},{"user_id":296,"name":"Your Loyal Familiar","steam_id":76561198106476075,"connected_time":4018000000000,"state":"active","ping":80},{"user_id":329,"name":"BurritoCat","steam_id":76561198059822805,"connected_time":2338000000000,"state":"active","ping":90},{"user_id":330,"name":"Soda","steam_id":76561198219209367,"connected_time":2301000000000,"state":"active","ping":69},{"user_id":346,"name":"Scotty","steam_id":76561198268006443,"connected_time":382000000000,"state":"active","ping":92},{"user_id":322,"name":"Talented","steam_id":76561198800259660,"connected_time":2699000000000,"state":"active","ping":61},{"user_id":345,"name":"M","steam_id":76561198174958927,"connected_time":401000000000,"state":"active","ping":70},{"user_id":351,"name":"urine trouble","steam_id":76561199013266640,"connected_time":228000000000,"state":"active","ping":50},{"user_id":338,"name":"TRIPLE AAARON","steam_id":76561198066835150,"connected_time":1320000000000,"state":"active","ping":65}]},{"server_id":38,"name":"Uncletopia | Chicago | 7 | Stopwatch","name_short":"chi-7","host":"chi-2.us.uncletopia.com","port":27035,"enabled":true,"region":"us-central","cc":"us","latitude":41.881832,"longitude":-87.62318,"reserved":0,"last_update":"0001-01-01T00:00:00Z","name_a2s":"Uncletopia | Chicago | 7 | Stopwatch","protocol":17,"map":"pl_swiftwater_final1","folder":"tf","game":"Team Fortress","app_id":440,"player_count":0,"max_players":24,"Bots":0,"server_type":"Dedicated","server_os":"Linux","password":true,"vac":true,"version":"7961495","steam_id":85568392924866364,"keywords":["nocrits","nodmgspread","payload","uncletopia"],"game_id":440,"stv_port":27036,"stv_name":"Uncletopia | Chicago | 7 | Stopwatch | STV","players":null},{"server_id":39,"name":"Uncletopia | Chicago | 8 | Community","name_short":"chi-8","host":"chi-2.us.uncletopia.com","port":27045,"enabled":true,"region":"us-central","cc":"us","latitude":41.881832,"longitude":-87.62318,"reserved":0,"last_update":"0001-01-01T00:00:00Z","name_a2s":"Uncletopia | Chicago | 8 | Community","protocol":17,"map":"workshop/koth_slaughter_rc1.ugc1712845210","folder":"tf","game":"Team Fortress","app_id":440,"player_count":0,"max_players":24,"Bots":0,"server_type":"Dedicated","server_os":"Linux","password":true,"vac":true,"version":"7961495","steam_id":85568392924866365,"keywords":["cp","nocrits","nodmgspread","uncletopia"],"game_id":440,"stv_port":27046,"stv_name":"Uncletopia | Chicago | 8 | Community | STV","players":null},{"server_id":8,"name":"Uncletopia | Dallas | 1 | All Maps","name_short":"dal-1","host":"dal-1.us.uncletopia.com","port":27015,"enabled":true,"region":"us-central","cc":"us","latitude":32.779167,"longitude":-96.80889,"reserved":0,"last_update":"0001-01-01T00:00:00Z","name_a2s":"Uncletopia | Dallas | 1 | All Maps","protocol":17,"map":"pl_badwater","folder":"tf","game":"Team Fortress","app_id":440,"player_count":24,"max_players":24,"Bots":0,"server_type":"Dedicated","server_os":"Linux","password":true,"vac":true,"version":"7961495","steam_id":85568392924469986,"keywords":["nocrits","nodmgspread","payload","uncletopia"],"game_id":440,"stv_port":27016,"stv_name":"Uncletopia | Dallas | 1 | All Maps | STV","players":[{"user_id":657,"name":"NOBODY","steam_id":76561198094578887,"connected_time":1630000000000,"state":"active","ping":78},{"user_id":658,"name":"PaninuS","steam_id":76561198131996634,"connected_time":1443000000000,"state":"active","ping":85},{"user_id":664,"name":"Nebe0","steam_id":76561199133770186,"connected_time":678000000000,"state":"active","ping":78},{"user_id":675,"name":"Butler Chako","steam_id":76561198070631112,"connected_time":342000000000,"state":"active","ping":73},{"user_id":672,"name":"the.land.of.avalon","steam_id":76561198245431668,"connected_time":409000000000,"state":"active","ping":90},{"user_id":665,"name":"shoota","steam_id":76561198284992433,"connected_time":658000000000,"state":"active","ping":75},{"user_id":630,"name":"zoinks","steam_id":76561198127238003,"connected_time":3258000000000,"state":"active","ping":72},{"user_id":673,"name":"GuyGoom","steam_id":76561198254522178,"connected_time":372000000000,"state":"active","ping":87},{"user_id":660,"name":"$","steam_id":76561198126247970,"connected_time":1431000000000,"state":"active","ping":72},{"user_id":639,"name":"Bogey","steam_id":76561198096227944,"connected_time":2742000000000,"state":"active","ping":50},{"user_id":666,"name":"wrongthink","steam_id":76561198830293087,"connected_time":648000000000,"state":"active","ping":70},{"user_id":649,"name":"this","steam_id":76561197995469460,"connected_time":2367000000000,"state":"active","ping":73},{"user_id":667,"name":"M0T0BREATH  \\TG/","steam_id":76561197961205221,"connected_time":636000000000,"state":"active","ping":87},{"user_id":620,"name":"allahsdroptop (Bag/Chaser)","steam_id":76561198133195238,"connected_time":3732000000000,"state":"active","ping":79},{"user_id":636,"name":"Caster","steam_id":76561198131592341,"connected_time":2963000000000,"state":"active","ping":77},{"user_id":668,"name":"Envi","steam_id":76561198040700667,"connected_time":630000000000,"state":"active","ping":75},{"user_id":662,"name":"Monte","steam_id":76561198097499917,"connected_time":927000000000,"state":"active","ping":76},{"user_id":579,"name":"Spinch","steam_id":76561198296224166,"connected_time":6993000000000,"state":"active","ping":68},{"user_id":602,"name":"Publo","steam_id":76561198161777140,"connected_time":5192000000000,"state":"active","ping":61},{"user_id":669,"name":"MoomyBoomy","steam_id":76561198150787961,"connected_time":624000000000,"state":"active","ping":54},{"user_id":674,"name":"Jetstream Sam","steam_id":76561198842076296,"connected_time":349000000000,"state":"active","ping":51},{"user_id":653,"name":"Unlimited_Trees","steam_id":76561198299141443,"connected_time":2277000000000,"state":"active","ping":90},{"user_id":677,"name":"TacoMan4Life","steam_id":76561198832562728,"connected_time":243000000000,"state":"active","ping":85},{"user_id":633,"name":"starry","steam_id":76561198989740125,"connected_time":3098000000000,"state":"active","ping":82}]},{"server_id":108,"name":"Uncletopia | Dallas | 2 | All Maps","name_short":"dal-2","host":"dal-1.us.uncletopia.com","port":27025,"enabled":true,"region":"us-central","cc":"us","latitude":32.779167,"longitude":-96.80889,"reserved":0,"last_update":"0001-01-01T00:00:00Z","name_a2s":"Uncletopia | Dallas | 2 | All Maps","protocol":17,"map":"cp_process_final","folder":"tf","game":"Team Fortress","app_id":440,"player_count":24,"max_players":24,"Bots":0,"server_type":"Dedicated","server_os":"Linux","password":true,"vac":true,"version":"7961495","steam_id":85568392924469988,"keywords":["cp","nocrits","nodmgspread","uncletopia"],"game_id":440,"stv_port":27026,"stv_name":"Uncletopia | Dallas | 2 | All Maps | STV","players":[{"user_id":446,"name":"coolmothgames.com","steam_id":76561198143132686,"connected_time":341000000000,"state":"active","ping":76},{"user_id":415,"name":"Schizo Femboy","steam_id":76561199162627150,"connected_time":1910000000000,"state":"active","ping":113},{"user_id":423,"name":"sithreis","steam_id":76561198000564263,"connected_time":1639000000000,"state":"active","ping":69},{"user_id":424,"name":"King","steam_id":76561198010019214,"connected_time":1625000000000,"state":"active","ping":82},{"user_id":428,"name":"Dreamzapp","steam_id":76561199084936632,"connected_time":1187000000000,"state":"active","ping":81},{"user_id":429,"name":"Stillkill","steam_id":76561198065069057,"connected_time":1180000000000,"state":"active","ping":41},{"user_id":412,"name":"AlecTheNefarious","steam_id":76561198035291230,"connected_time":1975000000000,"state":"active","ping":49},{"user_id":447,"name":"shadowtaco69","steam_id":76561198112453714,"connected_time":251000000000,"state":"active","ping":59},{"user_id":413,"name":"Dr. W0lv","steam_id":76561198129237487,"connected_time":1974000000000,"state":"active","ping":56},{"user_id":416,"name":"Chicken1178","steam_id":76561199396985158,"connected_time":1906000000000,"state":"active","ping":106},{"user_id":439,"name":"Queuetimeevent","steam_id":76561198079438423,"connected_time":716000000000,"state":"active","ping":60},{"user_id":448,"name":"SnareString","steam_id":76561199082119457,"connected_time":180000000000,"state":"active","ping":100},{"user_id":379,"name":"lanoc","steam_id":76561198055415367,"connected_time":5161000000000,"state":"active","ping":60},{"user_id":380,"name":"Monday","steam_id":76561198310811821,"connected_time":5150000000000,"state":"active","ping":103},{"user_id":438,"name":"java","steam_id":76561198030276792,"connected_time":753000000000,"state":"active","ping":75},{"user_id":440,"name":"☹","steam_id":76561198804763186,"connected_time":715000000000,"state":"active","ping":89},{"user_id":265,"name":"Harbor Seal","steam_id":76561198162631724,"connected_time":13499000000000,"state":"active","ping":87},{"user_id":441,"name":"Yongle","steam_id":76561198068591156,"connected_time":711000000000,"state":"active","ping":83},{"user_id":444,"name":"checkswing","steam_id":76561198999816132,"connected_time":551000000000,"state":"active","ping":90},{"user_id":442,"name":"Brillum","steam_id":76561199087903915,"connected_time":708000000000,"state":"active","ping":71},{"user_id":433,"name":"guts' theme (Cut \u0026 Looped)","steam_id":76561198012829728,"connected_time":1132000000000,"state":"active","ping":58},{"user_id":418,"name":"Dingus","steam_id":76561198121488783,"connected_time":1774000000000,"state":"active","ping":77},{"user_id":419,"name":"FiddyFoMike","steam_id":76561198057072581,"connected_time":1759000000000,"state":"active","ping":92},{"user_id":443,"name":"Brigadier Brownie","steam_id":76561198040852898,"connected_time":688000000000,"state":"active","ping":76}]},{"server_id":404,"name":"Uncletopia | Dallas | 3 | All Maps","name_short":"dal-3","host":"dal-1.us.uncletopia.com","port":27035,"enabled":true,"region":"us-central","cc":"us","latitude":32.779167,"longitude":-96.80889,"reserved":0,"last_update":"0001-01-01T00:00:00Z","name_a2s":"Uncletopia | Dallas | 3 | All Maps","protocol":17,"map":"pl_frontier_final","folder":"tf","game":"Team Fortress","app_id":440,"player_count":10,"max_players":24,"Bots":0,"server_type":"Dedicated","server_os":"Linux","password":true,"vac":true,"version":"7961495","steam_id":85568392924515219,"keywords":["nocrits","nodmgspread","payload","uncletopia"],"game_id":440,"stv_port":27036,"stv_name":"Uncletopia | Dallas | 3 | All Maps | STV","players":[{"user_id":595,"name":"LORDMARF","steam_id":76561198143122675,"connected_time":2061000000000,"state":"active","ping":49},{"user_id":596,"name":"AbnerSquared","steam_id":76561198146428192,"connected_time":2029000000000,"state":"active","ping":45},{"user_id":597,"name":"nickname","steam_id":76561198994984181,"connected_time":2023000000000,"state":"active","ping":77},{"user_id":598,"name":"DudeGuy","steam_id":76561198316165460,"connected_time":2023000000000,"state":"active","ping":65},{"user_id":611,"name":"HawkeyeWill","steam_id":76561198101899251,"connected_time":221000000000,"state":"active","ping":46},{"user_id":600,"name":"PuzzledRadish","steam_id":76561198085357114,"connected_time":2015000000000,"state":"active","ping":46},{"user_id":601,"name":"Rabbit01000","steam_id":76561198279656719,"connected_time":2014000000000,"state":"active","ping":77},{"user_id":602,"name":"ButtFaceMcGee","steam_id":76561198137905725,"connected_time":2011000000000,"state":"active","ping":77},{"user_id":604,"name":"put fentanyl back in pepsi","steam_id":76561198238592900,"connected_time":1899000000000,"state":"active","ping":65},{"user_id":610,"name":"daddy","steam_id":76561198967158026,"connected_time":346000000000,"state":"active","ping":71}]},{"server_id":405,"name":"Uncletopia | Dallas | 4 | Community","name_short":"dal-4","host":"dal-1.us.uncletopia.com","port":27045,"enabled":true,"region":"us-central","cc":"us","latitude":32.779167,"longitude":-96.80889,"reserved":0,"last_update":"0001-01-01T00:00:00Z","name_a2s":"Uncletopia | Dallas | 4 | Community","protocol":17,"map":"workshop/cp_alloy_rc3.ugc592805587","folder":"tf","game":"Team Fortress","app_id":440,"player_count":14,"max_players":24,"Bots":0,"server_type":"Dedicated","server_os":"Linux","password":true,"vac":true,"version":"7961495","steam_id":85568392924515220,"keywords":["cp","nocrits","nodmgspread","uncletopia"],"game_id":440,"stv_port":27046,"stv_name":"Uncletopia | Dallas | 4 | Community | STV","players":[{"user_id":201,"name":"Luglige","steam_id":76561198094827948,"connected_time":2781000000000,"state":"active","ping":69},{"user_id":231,"name":"ACE3224","steam_id":76561198215546837,"connected_time":16000000000,"state":"active","ping":58},{"user_id":197,"name":"KennytheHedgehog","steam_id":76561198094607721,"connected_time":2878000000000,"state":"active","ping":47},{"user_id":196,"name":"Cheesed Burger","steam_id":76561198066425198,"connected_time":2892000000000,"state":"active","ping":83},{"user_id":219,"name":"ham and cheese and tomato","steam_id":76561198135559825,"connected_time":1614000000000,"state":"active","ping":46},{"user_id":226,"name":"type \"bad med\" to kick","steam_id":76561198076402476,"connected_time":1213000000000,"state":"active","ping":82},{"user_id":199,"name":"Cahootles","steam_id":76561198056407485,"connected_time":2870000000000,"state":"active","ping":39},{"user_id":221,"name":"BananaMangoFestival2013","steam_id":76561198218558897,"connected_time":1598000000000,"state":"active","ping":146},{"user_id":194,"name":"Lezabel","steam_id":76561198970753261,"connected_time":2947000000000,"state":"active","ping":69},{"user_id":204,"name":"ethan434","steam_id":76561198133113490,"connected_time":2750000000000,"state":"active","ping":87},{"user_id":224,"name":"vioxynteris","steam_id":76561198161428666,"connected_time":1374000000000,"state":"active","ping":61},{"user_id":211,"name":"Scrooge McCuck","steam_id":76561198045919938,"connected_time":2292000000000,"state":"active","ping":35},{"user_id":225,"name":"Genderneutron","steam_id":76561199022773775,"connected_time":1347000000000,"state":"active","ping":63},{"user_id":208,"name":"xbox record that","steam_id":76561198150117455,"connected_time":2528000000000,"state":"active","ping":64}]},{"server_id":5,"name":"Uncletopia | Frankfurt | 1 | All Maps","name_short":"frk-1","host":"frk-1.de.uncletopia.com","port":27015,"enabled":true,"region":"eu","cc":"de","latitude":50.110924,"longitude":8.682127,"reserved":0,"last_update":"0001-01-01T00:00:00Z","name_a2s":"Uncletopia | Frankfurt | 1 | All Maps","protocol":17,"map":"cp_badlands","folder":"tf","game":"Team Fortress","app_id":440,"player_count":0,"max_players":24,"Bots":0,"server_type":"Dedicated","server_os":"Linux","password":true,"vac":true,"version":"7961495","steam_id":85568392924469989,"keywords":["cp","nocrits","nodmgspread","uncletopia"],"game_id":440,"stv_port":27016,"stv_name":"Uncletopia | Frankfurt | 1 | All Maps | STV","players":null},{"server_id":110,"name":"Uncletopia | Frankfurt | 2 | All Maps","name_short":"frk-2","host":"frk-1.de.uncletopia.com","port":27025,"enabled":true,"region":"eu","cc":"de","latitude":50.110924,"longitude":8.682127,"reserved":0,"last_update":"0001-01-01T00:00:00Z","name_a2s":"Uncletopia | Frankfurt | 2 | All Maps","protocol":17,"map":"plr_hightower","folder":"tf","game":"Team Fortress","app_id":440,"player_count":0,"max_players":24,"Bots":0,"server_type":"Dedicated","server_os":"Linux","password":true,"vac":true,"version":"7961495","steam_id":85568392924469990,"keywords":["nocrits","nodmgspread","payload","uncletopia"],"game_id":440,"stv_port":27026,"stv_name":"Uncletopia | Frankfurt | 2 | All Maps | STV","players":null},{"server_id":308,"name":"Uncletopia | Frankfurt | 3 | All Maps","name_short":"frk-3","host":"frk-1.de.uncletopia.com","port":27035,"enabled":true,"region":"eu","cc":"de","latitude":50.110924,"longitude":8.682127,"reserved":0,"last_update":"0001-01-01T00:00:00Z","name_a2s":"Uncletopia | Frankfurt | 3 | All Maps","protocol":17,"map":"cp_metalworks","folder":"tf","game":"Team Fortress","app_id":440,"player_count":0,"max_players":24,"Bots":0,"server_type":"Dedicated","server_os":"Linux","password":true,"vac":true,"version":"7961495","steam_id":85568392924504274,"keywords":["cp","nocrits","nodmgspread","uncletopia"],"game_id":440,"stv_port":27036,"stv_name":"Uncletopia | Frankfurt | 3 | All Maps | STV","players":null},{"server_id":309,"name":"Uncletopia | Frankfurt | 4 | All Maps","name_short":"frk-4","host":"frk-1.de.uncletopia.com","port":27045,"enabled":true,"region":"eu","cc":"de","latitude":50.110924,"longitude":8.682127,"reserved":0,"last_update":"0001-01-01T00:00:00Z","name_a2s":"Uncletopia | Frankfurt | 4 | All Maps","protocol":17,"map":"cp_gorge","folder":"tf","game":"Team Fortress","app_id":440,"player_count":0,"max_players":24,"Bots":0,"server_type":"Dedicated","server_os":"Linux","password":true,"vac":true,"version":"7961495","steam_id":85568392924504275,"keywords":["cp","nocrits","nodmgspread","uncletopia"],"game_id":440,"stv_port":27046,"stv_name":"Uncletopia | Frankfurt | 4 | All Maps | STV","players":null},{"server_id":310,"name":"Uncletopia | Frankfurt | 5 | All Maps","name_short":"frk-5","host":"frk-1.de.uncletopia.com","port":27055,"enabled":true,"region":"eu","cc":"de","latitude":50.110924,"longitude":8.682127,"reserved":0,"last_update":"0001-01-01T00:00:00Z","name_a2s":"Uncletopia | Frankfurt | 5 | All Maps","protocol":17,"map":"cp_mountainlab","folder":"tf","game":"Team Fortress","app_id":440,"player_count":0,"max_players":24,"Bots":0,"server_type":"Dedicated","server_os":"Linux","password":true,"vac":true,"version":"7961495","steam_id":85568392924504277,"keywords":["cp","nocrits","nodmgspread","uncletopia"],"game_id":440,"stv_port":27056,"stv_name":"Uncletopia | Frankfurt | 5 | All Maps | STV","players":null},{"server_id":311,"name":"Uncletopia | Frankfurt | 6 | All Maps","name_short":"frk-6","host":"frk-1.de.uncletopia.com","port":27065,"enabled":true,"region":"eu","cc":"de","latitude":50.110924,"longitude":8.682127,"reserved":0,"last_update":"0001-01-01T00:00:00Z","name_a2s":"Uncletopia | Frankfurt | 6 | All Maps","protocol":17,"map":"cp_coldfront","folder":"tf","game":"Team Fortress","app_id":440,"player_count":0,"max_players":24,"Bots":0,"server_type":"Dedicated","server_os":"Linux","password":true,"vac":true,"version":"7961495","steam_id":85568392924504278,"keywords":["cp","nocrits","nodmgspread","uncletopia"],"game_id":440,"stv_port":27066,"stv_name":"Uncletopia | Frankfurt | 6 | All Maps | STV","players":null},{"server_id":23,"name":"Uncletopia | Frankfurt | 7 | Stopwatch","name_short":"frk-7","host":"frk-1.de.uncletopia.com","port":27075,"enabled":true,"region":"eu","cc":"de","latitude":50.110924,"longitude":8.682127,"reserved":0,"last_update":"0001-01-01T00:00:00Z","name_a2s":"Uncletopia | Frankfurt | 7 | Stopwatch","protocol":17,"map":"cp_sunshine","folder":"tf","game":"Team Fortress","app_id":440,"player_count":0,"max_players":24,"Bots":0,"server_type":"Dedicated","server_os":"Linux","password":true,"vac":true,"version":"7961495","steam_id":85568392924742827,"keywords":["cp","nocrits","nodmgspread","uncletopia"],"game_id":440,"stv_port":27076,"stv_name":"Uncletopia | Frankfurt | 7 | Stopwatch | STV","players":null},{"server_id":24,"name":"Uncletopia | Frankfurt | 8 | Community","name_short":"frk-8","host":"frk-1.de.uncletopia.com","port":27085,"enabled":true,"region":"eu","cc":"de","latitude":50.110924,"longitude":8.682127,"reserved":0,"last_update":"0001-01-01T00:00:00Z","name_a2s":"Uncletopia | Frankfurt | 8 | Community","protocol":17,"map":"workshop/pl_boundary_final1.ugc456799153","folder":"tf","game":"Team Fortress","app_id":440,"player_count":0,"max_players":24,"Bots":0,"server_type":"Dedicated","server_os":"Linux","password":true,"vac":true,"version":"7961495","steam_id":85568392924742828,"keywords":["nocrits","nodmgspread","payload","uncletopia"],"game_id":440,"stv_port":27086,"stv_name":"Uncletopia | Frankfurt | 8 | Community | STV","players":null},{"server_id":202,"name":"Uncletopia | Hong Kong | 1 | All Maps","name_short":"hgk-1","host":"hgk-1.hk.uncletopia.com","port":27015,"enabled":true,"region":"asia","cc":"hk","latitude":22.302711,"longitude":114.177216,"reserved":0,"last_update":"0001-01-01T00:00:00Z","name_a2s":"Uncletopia | Hong Kong | 1 | All Maps","protocol":17,"map":"koth_lakeside_final","folder":"tf","game":"Team Fortress","app_id":440,"player_count":0,"max_players":24,"Bots":0,"server_type":"Dedicated","server_os":"Linux","password":true,"vac":true,"version":"7961495","steam_id":85568392924494504,"keywords":["cp","nocrits","nodmgspread","uncletopia"],"game_id":440,"stv_port":27016,"stv_name":"Uncletopia | Hong Kong | 1 | All Maps | STV","players":null},{"server_id":1,"name":"Uncletopia | Los Angeles | 1 | All Maps","name_short":"lax-1","host":"lax-1.us.uncletopia.com","port":27015,"enabled":true,"region":"us-west","cc":"us","latitude":33.94279,"longitude":-118.41004,"reserved":0,"last_update":"0001-01-01T00:00:00Z","name_a2s":"Uncletopia | Los Angeles | 1 | All Maps","protocol":17,"map":"cp_gorge","folder":"tf","game":"Team Fortress","app_id":440,"player_count":7,"max_players":24,"Bots":0,"server_type":"Dedicated","server_os":"Linux","password":true,"vac":true,"version":"7961495","steam_id":85568392924469991,"keywords":["cp","nocrits","nodmgspread","uncletopia"],"game_id":440,"stv_port":27016,"stv_name":"Uncletopia | Los Angeles | 1 | All Maps | STV","players":[{"user_id":38,"name":"junebug","steam_id":76561198126662775,"connected_time":667000000000,"state":"active","ping":102},{"user_id":39,"name":"Sintra Olivia Leslie","steam_id":76561198412835748,"connected_time":658000000000,"state":"active","ping":128},{"user_id":41,"name":"salam","steam_id":76561199020854883,"connected_time":645000000000,"state":"active","ping":82},{"user_id":42,"name":"Sceptimus","steam_id":76561198179580927,"connected_time":645000000000,"state":"active","ping":55},{"user_id":43,"name":"nanto.","steam_id":76561198194262645,"connected_time":626000000000,"state":"active","ping":90},{"user_id":44,"name":"asteriskhearts","steam_id":76561198145619560,"connected_time":586000000000,"state":"active","ping":109},{"user_id":46,"name":"Stellara","steam_id":76561198254791360,"connected_time":567000000000,"state":"active","ping":92}]},{"server_id":112,"name":"Uncletopia | Los Angeles | 2 | All Maps","name_short":"lax-2","host":"lax-1.us.uncletopia.com","port":27025,"enabled":true,"region":"us-west","cc":"us","latitude":33.94279,"longitude":-118.41004,"reserved":0,"last_update":"0001-01-01T00:00:00Z","name_a2s":"Uncletopia | Los Angeles | 2 | All Maps","protocol":17,"map":"pl_badwater","folder":"tf","game":"Team Fortress","app_id":440,"player_count":24,"max_players":24,"Bots":0,"server_type":"Dedicated","server_os":"Linux","password":true,"vac":true,"version":"7961495","steam_id":85568392924469992,"keywords":["nocrits","nodmgspread","payload","uncletopia"],"game_id":440,"stv_port":27026,"stv_name":"Uncletopia | Los Angeles | 2 | All Maps | STV","players":[{"user_id":457,"name":"Melon","steam_id":76561199202306398,"connected_time":3381000000000,"state":"active","ping":41},{"user_id":504,"name":"bengineer","steam_id":76561198171912174,"connected_time":194000000000,"state":"active","ping":66},{"user_id":496,"name":"Copy","steam_id":76561198025031590,"connected_time":1185000000000,"state":"active","ping":87},{"user_id":487,"name":"HumbDoe","steam_id":76561198065556553,"connected_time":1432000000000,"state":"active","ping":47},{"user_id":503,"name":"ElShaggy","steam_id":76561198148870214,"connected_time":224000000000,"state":"active","ping":45},{"user_id":481,"name":"ThePalmTopSushi","steam_id":76561198847076153,"connected_time":1638000000000,"state":"active","ping":36},{"user_id":502,"name":"Weegee","steam_id":76561198140095755,"connected_time":226000000000,"state":"active","ping":50},{"user_id":485,"name":"fish man \u003c\u003e\u003c","steam_id":76561198967838535,"connected_time":1543000000000,"state":"active","ping":47},{"user_id":489,"name":"Pocky","steam_id":76561199096774182,"connected_time":1320000000000,"state":"active","ping":46},{"user_id":469,"name":"renargh","steam_id":76561199494380613,"connected_time":2425000000000,"state":"active","ping":81},{"user_id":475,"name":"Magician357","steam_id":76561198009308255,"connected_time":2305000000000,"state":"active","ping":50},{"user_id":403,"name":"SD","steam_id":76561198217410988,"connected_time":7946000000000,"state":"active","ping":50},{"user_id":484,"name":"Pastaroni","steam_id":76561199114277354,"connected_time":1568000000000,"state":"active","ping":53},{"user_id":498,"name":"The Businessman","steam_id":76561198352531234,"connected_time":1054000000000,"state":"active","ping":72},{"user_id":483,"name":"Soap Man","steam_id":76561198000490235,"connected_time":1607000000000,"state":"active","ping":78},{"user_id":474,"name":"cheezbox","steam_id":76561199088002705,"connected_time":2402000000000,"state":"active","ping":49},{"user_id":505,"name":"TeriyakiDynamite","steam_id":76561198050049346,"connected_time":26000000000,"state":"active","ping":54},{"user_id":491,"name":"⛧ AlphaSatanOmega ⛧","steam_id":76561198035125511,"connected_time":1251000000000,"state":"active","ping":105},{"user_id":433,"name":"inoricaM","steam_id":76561199199257149,"connected_time":5473000000000,"state":"active","ping":65},{"user_id":500,"name":"Timewaves","steam_id":76561198000186054,"connected_time":697000000000,"state":"active","ping":52},{"user_id":493,"name":"Jade","steam_id":76561198092408457,"connected_time":1217000000000,"state":"active","ping":70},{"user_id":494,"name":"Captain Buggy","steam_id":76561198024444448,"connected_time":1216000000000,"state":"active","ping":65},{"user_id":501,"name":"Ray","steam_id":76561198048011618,"connected_time":534000000000,"state":"active","ping":59},{"user_id":499,"name":"KYBB","steam_id":76561198141390049,"connected_time":1049000000000,"state":"active","ping":61}]},{"server_id":324,"name":"Uncletopia | Los Angeles | 3 | All Maps","name_short":"lax-3","host":"lax-1.us.uncletopia.com","port":27035,"enabled":true,"region":"us-west","cc":"us","latitude":33.94279,"longitude":-118.41004,"reserved":0,"last_update":"0001-01-01T00:00:00Z","name_a2s":"Uncletopia | Los Angeles | 3 | All Maps","protocol":17,"map":"cp_steel","folder":"tf","game":"Team Fortress","app_id":440,"player_count":24,"max_players":24,"Bots":0,"server_type":"Dedicated","server_os":"Linux","password":true,"vac":true,"version":"7961495","steam_id":85568392924510198,"keywords":["cp","nocrits","nodmgspread","uncletopia"],"game_id":440,"stv_port":27036,"stv_name":"Uncletopia | Los Angeles | 3 | All Maps | STV","players":[{"user_id":109,"name":"Antwan","steam_id":76561198246200638,"connected_time":826000000000,"state":"active","ping":75},{"user_id":83,"name":"FROYO b4nny","steam_id":76561197970669109,"connected_time":3155000000000,"state":"active","ping":54},{"user_id":107,"name":"Admiral","steam_id":76561198200288543,"connected_time":883000000000,"state":"active","ping":48},{"user_id":113,"name":"Perry the Platypus","steam_id":76561198273045773,"connected_time":574000000000,"state":"active","ping":77},{"user_id":84,"name":"Hobbes","steam_id":76561198087956236,"connected_time":3033000000000,"state":"active","ping":46},{"user_id":91,"name":"Bry-ant","steam_id":76561198091982601,"connected_time":1977000000000,"state":"active","ping":94},{"user_id":33,"name":"Sterling Nano","steam_id":76561198048580088,"connected_time":6975000000000,"state":"active","ping":62},{"user_id":92,"name":"walrooos","steam_id":76561198024521839,"connected_time":1934000000000,"state":"active","ping":45},{"user_id":120,"name":"nanoboosts","steam_id":76561199500861337,"connected_time":325000000000,"state":"active","ping":50},{"user_id":102,"name":"Evarrel","steam_id":76561199508242414,"connected_time":1542000000000,"state":"active","ping":75},{"user_id":108,"name":"Antzen","steam_id":76561198041343470,"connected_time":879000000000,"state":"active","ping":65},{"user_id":114,"name":"Silverkeys","steam_id":76561197986012496,"connected_time":564000000000,"state":"active","ping":103},{"user_id":97,"name":"blobmasterer","steam_id":76561198001131403,"connected_time":1659000000000,"state":"active","ping":42},{"user_id":47,"name":"Master Of Whales","steam_id":76561198349104889,"connected_time":5263000000000,"state":"active","ping":44},{"user_id":85,"name":"SoCal Kaizer","steam_id":76561198334361081,"connected_time":3007000000000,"state":"active","ping":58},{"user_id":117,"name":"luigiclub","steam_id":76561198180548194,"connected_time":440000000000,"state":"active","ping":96},{"user_id":87,"name":"Starfruit66","steam_id":76561198069917277,"connected_time":2857000000000,"state":"active","ping":51},{"user_id":119,"name":"Clagger","steam_id":76561198066701092,"connected_time":370000000000,"state":"active","ping":74},{"user_id":121,"name":"Sasuri","steam_id":76561198404769732,"connected_time":320000000000,"state":"active","ping":51},{"user_id":122,"name":"toby1673","steam_id":76561198453203619,"connected_time":302000000000,"state":"active","ping":46},{"user_id":123,"name":"lordstinkdemon666","steam_id":76561198073914311,"connected_time":209000000000,"state":"active","ping":48},{"user_id":56,"name":"Ichibanprofen","steam_id":76561199192132061,"connected_time":5042000000000,"state":"active","ping":64},{"user_id":103,"name":"Lambchop","steam_id":76561198043900363,"connected_time":1529000000000,"state":"active","ping":69},{"user_id":124,"name":"fatmonkeyflowey","steam_id":76561199245293641,"connected_time":39000000000,"state":"active","ping":69}]},{"server_id":25,"name":"Uncletopia | Los Angeles | 4 | Stopwatch","name_short":"lax-4","host":"lax-1.us.uncletopia.com","port":27045,"enabled":true,"region":"us-west","cc":"us","latitude":33.94279,"longitude":-118.41004,"reserved":0,"last_update":"0001-01-01T00:00:00Z","name_a2s":"Uncletopia | Los Angeles | 4 | Stopwatch","protocol":17,"map":"workshop/pl_badwater_pro_v12.ugc2142942074","folder":"tf","game":"Team Fortress","app_id":440,"player_count":0,"max_players":24,"Bots":0,"server_type":"Dedicated","server_os":"Linux","password":true,"vac":true,"version":"7961495","steam_id":85568392924510199,"keywords":["nocrits","nodmgspread","payload","uncletopia"],"game_id":440,"stv_port":27046,"stv_name":"Uncletopia | Los Angeles | 4 | Stopwatch | STV","players":null},{"server_id":11,"name":"Uncletopia | London | 1 | All Maps","name_short":"lon-1","host":"lon-1.uk.uncletopia.com","port":27015,"enabled":true,"region":"eu","cc":"gb","latitude":51.509865,"longitude":-0.118092,"reserved":0,"last_update":"0001-01-01T00:00:00Z","name_a2s":"Uncletopia | London | 1 | All Maps","protocol":17,"map":"koth_nucleus","folder":"tf","game":"Team Fortress","app_id":440,"player_count":0,"max_players":24,"Bots":0,"server_type":"Dedicated","server_os":"Linux","password":true,"vac":true,"version":"7961495","steam_id":85568392924367362,"keywords":["cp","nocrits","nodmgspread","uncletopia"],"game_id":440,"stv_port":27016,"stv_name":"Uncletopia | London | 1 | All Maps | STV","players":null},{"server_id":114,"name":"Uncletopia | London | 2 | All Maps","name_short":"lon-2","host":"lon-1.uk.uncletopia.com","port":27025,"enabled":true,"region":"eu","cc":"gb","latitude":51.509865,"longitude":-0.118092,"reserved":0,"last_update":"0001-01-01T00:00:00Z","name_a2s":"Uncletopia | London | 2 | All Maps","protocol":17,"map":"pl_snowycoast","folder":"tf","game":"Team Fortress","app_id":440,"player_count":0,"max_players":24,"Bots":0,"server_type":"Dedicated","server_os":"Linux","password":true,"vac":true,"version":"7961495","steam_id":85568392924470941,"keywords":["nocrits","nodmgspread","payload","uncletopia"],"game_id":440,"stv_port":27026,"stv_name":"Uncletopia | London | 2 | All Maps | STV","players":null},{"server_id":320,"name":"Uncletopia | London | 3 | All Maps","name_short":"lon-3","host":"lon-1.uk.uncletopia.com","port":27035,"enabled":true,"region":"eu","cc":"gb","latitude":51.509865,"longitude":-0.118092,"reserved":0,"last_update":"0001-01-01T00:00:00Z","name_a2s":"Uncletopia | London | 3 | All Maps","protocol":17,"map":"koth_cascade","folder":"tf","game":"Team Fortress","app_id":440,"player_count":0,"max_players":24,"Bots":0,"server_type":"Dedicated","server_os":"Linux","password":true,"vac":true,"version":"7961495","steam_id":85568392924510192,"keywords":["cp","nocrits","nodmgspread","uncletopia"],"game_id":440,"stv_port":27036,"stv_name":"Uncletopia | London | 3 | All Maps | STV","players":null},{"server_id":321,"name":"Uncletopia | London | 4 | All Maps","name_short":"lon-4","host":"lon-1.uk.uncletopia.com","port":27045,"enabled":true,"region":"eu","cc":"gb","latitude":51.509865,"longitude":-0.118092,"reserved":0,"last_update":"0001-01-01T00:00:00Z","name_a2s":"Uncletopia | London | 4 | All Maps","protocol":17,"map":"koth_highpass","folder":"tf","game":"Team Fortress","app_id":440,"player_count":0,"max_players":24,"Bots":0,"server_type":"Dedicated","server_os":"Linux","password":true,"vac":true,"version":"7961495","steam_id":85568392924510193,"keywords":["cp","nocrits","nodmgspread","uncletopia"],"game_id":440,"stv_port":27046,"stv_name":"Uncletopia | London | 4 | All Maps | STV","players":null},{"server_id":21,"name":"Uncletopia | London | 5 | All Maps","name_short":"lon-5","host":"lon-1.uk.uncletopia.com","port":27055,"enabled":true,"region":"eu","cc":"gb","latitude":51.509865,"longitude":-0.118092,"reserved":0,"last_update":"0001-01-01T00:00:00Z","name_a2s":"Uncletopia | London | 5 | All Maps","protocol":17,"map":"pl_snowycoast","folder":"tf","game":"Team Fortress","app_id":440,"player_count":0,"max_players":24,"Bots":0,"server_type":"Dedicated","server_os":"Linux","password":true,"vac":true,"version":"7961495","steam_id":85568392924742829,"keywords":["nocrits","nodmgspread","payload","uncletopia"],"game_id":440,"stv_port":27056,"stv_name":"Uncletopia | London | 5 | All Maps | STV","players":null},{"server_id":22,"name":"Uncletopia | London | 6 | All Maps","name_short":"lon-6","host":"lon-1.uk.uncletopia.com","port":27065,"enabled":true,"region":"eu","cc":"gb","latitude":51.509865,"longitude":-0.118092,"reserved":0,"last_update":"0001-01-01T00:00:00Z","name_a2s":"Uncletopia | London | 6 | All Maps","protocol":17,"map":"koth_lakeside_final","folder":"tf","game":"Team Fortress","app_id":440,"player_count":0,"max_players":24,"Bots":0,"server_type":"Dedicated","server_os":"Linux","password":true,"vac":true,"version":"7961495","steam_id":85568392924742830,"keywords":["cp","nocrits","nodmgspread","uncletopia"],"game_id":440,"stv_port":27066,"stv_name":"Uncletopia | London | 6 | All Maps | STV","players":null},{"server_id":40,"name":"Uncletopia | London | 7 | Stopwatch","name_short":"lon-7","host":"lon-1.uk.uncletopia.com","port":27075,"enabled":true,"region":"eu","cc":"gb","latitude":51.509865,"longitude":-0.118092,"reserved":0,"last_update":"0001-01-01T00:00:00Z","name_a2s":"Uncletopia | London | 7 | Stopwatch","protocol":17,"map":"koth_highpass","folder":"tf","game":"Team Fortress","app_id":440,"player_count":0,"max_players":24,"Bots":0,"server_type":"Dedicated","server_os":"Linux","password":true,"vac":true,"version":"7961495","steam_id":85568392924964314,"keywords":["cp","nocrits","nodmgspread","uncletopia"],"game_id":440,"stv_port":27076,"stv_name":"Uncletopia | London | 7 | Stopwatch | STV","players":null},{"server_id":41,"name":"Uncletopia | London | 8 | Community","name_short":"lon-8","host":"lon-1.uk.uncletopia.com","port":27085,"enabled":true,"region":"eu","cc":"gb","latitude":51.509865,"longitude":-0.118092,"reserved":0,"last_update":"0001-01-01T00:00:00Z","name_a2s":"Uncletopia | London | 8 | Community","protocol":17,"map":"workshop/pl_divulgence_b4b.ugc2884808746","folder":"tf","game":"Team Fortress","app_id":440,"player_count":0,"max_players":24,"Bots":0,"server_type":"Dedicated","server_os":"Linux","password":true,"vac":true,"version":"7961495","steam_id":85568392924964315,"keywords":["nocrits","nodmgspread","payload","uncletopia"],"game_id":440,"stv_port":27086,"stv_name":"Uncletopia | London | 8 | Community | STV","players":null},{"server_id":300,"name":"Uncletopia | Montréal | 1 | One Thousand Uncles","name_short":"mtl-1","host":"mtl-1.ca.uncletopia.com","port":27015,"enabled":true,"region":"us-east","cc":"ca","latitude":45.50889,"longitude":-73.56167,"reserved":0,"last_update":"0001-01-01T00:00:00Z","name_a2s":"Uncletopia | Montréal | 1 | One Thousand Uncles","protocol":17,"map":"pl_upward","folder":"tf","game":"Team Fortress","app_id":440,"player_count":0,"max_players":32,"Bots":0,"server_type":"Dedicated","server_os":"Linux","password":true,"vac":true,"version":"7961495","steam_id":85568392924500087,"keywords":["alltalk","danepve","increased_maxplayers","norespawntime","payload","uncletopia"],"game_id":440,"stv_port":0,"stv_name":"","players":null},{"server_id":301,"name":"Uncletopia | Montréal | 2 | One Thousand Uncles","name_short":"mtl-2","host":"mtl-1.ca.uncletopia.com","port":27025,"enabled":true,"region":"us-east","cc":"ca","latitude":45.50889,"longitude":-73.56167,"reserved":0,"last_update":"0001-01-01T00:00:00Z","name_a2s":"Uncletopia | Montréal | 2 | One Thousand Uncles","protocol":17,"map":"pl_chilly","folder":"tf","game":"Team Fortress","app_id":440,"player_count":0,"max_players":32,"Bots":0,"server_type":"Dedicated","server_os":"Linux","password":true,"vac":true,"version":"7961495","steam_id":85568392924500088,"keywords":["alltalk","danepve","increased_maxplayers","norespawntime","payload","uncletopia"],"game_id":440,"stv_port":0,"stv_name":"","players":null},{"server_id":302,"name":"Uncletopia | Montréal | 3 | One Thousand Uncles","name_short":"mtl-3","host":"mtl-1.ca.uncletopia.com","port":27035,"enabled":true,"region":"us-east","cc":"ca","latitude":45.50889,"longitude":-73.56167,"reserved":0,"last_update":"0001-01-01T00:00:00Z","name_a2s":"Uncletopia | Montréal | 3 | One Thousand Uncles","protocol":17,"map":"cp_dustbowl","folder":"tf","game":"Team Fortress","app_id":440,"player_count":0,"max_players":32,"Bots":0,"server_type":"Dedicated","server_os":"Linux","password":true,"vac":true,"version":"7961495","steam_id":85568392924500089,"keywords":["alltalk","cp","danepve","increased_maxplayers","norespawntime","uncletopia"],"game_id":440,"stv_port":0,"stv_name":"","players":null},{"server_id":13,"name":"Uncletopia | New York City | 1 | All Maps","name_short":"nyc-1","host":"nyc-1.us.uncletopia.com","port":27015,"enabled":true,"region":"us-east","cc":"us","latitude":40.73061,"longitude":-73.93524,"reserved":0,"last_update":"0001-01-01T00:00:00Z","name_a2s":"Uncletopia | New York City | 1 | All Maps","protocol":17,"map":"pl_upward","folder":"tf","game":"Team Fortress","app_id":440,"player_count":24,"max_players":24,"Bots":0,"server_type":"Dedicated","server_os":"Linux","password":true,"vac":true,"version":"7961495","steam_id":85568392924469993,"keywords":["nocrits","nodmgspread","payload","uncletopia"],"game_id":440,"stv_port":27016,"stv_name":"Uncletopia | New York City | 1 | All Maps | STV","players":[{"user_id":554,"name":"Logern","steam_id":76561198085243794,"connected_time":203000000000,"state":"active","ping":134},{"user_id":541,"name":"raisedbybirds","steam_id":76561198131531646,"connected_time":466000000000,"state":"active","ping":60},{"user_id":526,"name":"Cthulhu's Malewife","steam_id":76561198085888959,"connected_time":740000000000,"state":"active","ping":62},{"user_id":529,"name":"SoundKitKiller","steam_id":76561198053535873,"connected_time":640000000000,"state":"active","ping":59},{"user_id":555,"name":"haus","steam_id":76561198054730429,"connected_time":178000000000,"state":"active","ping":70},{"user_id":504,"name":"Majattack","steam_id":76561198319421259,"connected_time":2115000000000,"state":"active","ping":62},{"user_id":520,"name":"Fish Fisherman","steam_id":76561198018656022,"connected_time":1012000000000,"state":"active","ping":46},{"user_id":506,"name":"Some Guy","steam_id":76561198447348725,"connected_time":2095000000000,"state":"active","ping":124},{"user_id":397,"name":"GummybearKillr","steam_id":76561198031235750,"connected_time":10431000000000,"state":"active","ping":44},{"user_id":413,"name":"Yuzu","steam_id":76561198417913035,"connected_time":9949000000000,"state":"active","ping":57},{"user_id":532,"name":"Herdez Hot Salsa","steam_id":76561197991740906,"connected_time":572000000000,"state":"active","ping":59},{"user_id":527,"name":"Little T","steam_id":76561198880511271,"connected_time":733000000000,"state":"active","ping":56},{"user_id":517,"name":"Is.Kip","steam_id":76561198799304824,"connected_time":1066000000000,"state":"active","ping":65},{"user_id":518,"name":"zpalmtree","steam_id":76561198134307620,"connected_time":1047000000000,"state":"active","ping":69},{"user_id":521,"name":"Colossal Falafel","steam_id":76561198108086245,"connected_time":1009000000000,"state":"active","ping":55},{"user_id":522,"name":"Who?","steam_id":76561199229661082,"connected_time":1000000000000,"state":"active","ping":60},{"user_id":508,"name":"GUH","steam_id":76561199013202758,"connected_time":2080000000000,"state":"active","ping":103},{"user_id":534,"name":"Klitz Penischmidt","steam_id":76561198050582941,"connected_time":522000000000,"state":"active","ping":68},{"user_id":528,"name":"Hentai Lord","steam_id":76561199030449654,"connected_time":731000000000,"state":"active","ping":62},{"user_id":544,"name":"me when i see women","steam_id":76561198442685742,"connected_time":331000000000,"state":"active","ping":87},{"user_id":500,"name":"Phyre112","steam_id":76561198064367510,"connected_time":2635000000000,"state":"active","ping":118},{"user_id":524,"name":"Dick to ball ratio","steam_id":76561198072205512,"connected_time":920000000000,"state":"active","ping":69},{"user_id":523,"name":"Mufalito","steam_id":76561198951889482,"connected_time":948000000000,"state":"active","ping":170},{"user_id":537,"name":"Enfield","steam_id":76561197961097111,"connected_time":505000000000,"state":"active","ping":64}]},{"server_id":14,"name":"Uncletopia | New York City | 2 | All Maps","name_short":"nyc-2","host":"nyc-1.us.uncletopia.com","port":27025,"enabled":true,"region":"us-east","cc":"us","latitude":40.73061,"longitude":-73.93524,"reserved":0,"last_update":"0001-01-01T00:00:00Z","name_a2s":"Uncletopia | New York City | 2 | All Maps","protocol":17,"map":"pl_frontier_final","folder":"tf","game":"Team Fortress","app_id":440,"player_count":0,"max_players":24,"Bots":0,"server_type":"Dedicated","server_os":"Linux","password":true,"vac":true,"version":"7961495","steam_id":85568392924469994,"keywords":["nocrits","nodmgspread","payload","uncletopia"],"game_id":440,"stv_port":27026,"stv_name":"Uncletopia | New York City | 2 | All Maps | STV","players":null},{"server_id":15,"name":"Uncletopia | New York City | 3 | Stopwatch","name_short":"nyc-3","host":"nyc-1.us.uncletopia.com","port":27035,"enabled":true,"region":"us-east","cc":"us","latitude":40.73061,"longitude":-73.93524,"reserved":0,"last_update":"0001-01-01T00:00:00Z","name_a2s":"Uncletopia | New York City | 3 | Stopwatch","protocol":17,"map":"workshop/koth_ashville_final.ugc2130459942","folder":"tf","game":"Team Fortress","app_id":440,"player_count":0,"max_players":24,"Bots":0,"server_type":"Dedicated","server_os":"Linux","password":true,"vac":true,"version":"7961495","steam_id":85568392924742820,"keywords":["cp","nocrits","nodmgspread","uncletopia"],"game_id":440,"stv_port":27036,"stv_name":"Uncletopia | New York City | 3 | Stopwatch | STV","players":null},{"server_id":16,"name":"Uncletopia | New York City | 4 | Community","name_short":"nyc-4","host":"nyc-1.us.uncletopia.com","port":27045,"enabled":true,"region":"us-east","cc":"us","latitude":40.73061,"longitude":-73.93524,"reserved":0,"last_update":"0001-01-01T00:00:00Z","name_a2s":"Uncletopia | New York City | 4 | Community","protocol":17,"map":"workshop/pl_boundary_final1.ugc456799153","folder":"tf","game":"Team Fortress","app_id":440,"player_count":0,"max_players":24,"Bots":0,"server_type":"Dedicated","server_os":"Linux","password":true,"vac":true,"version":"7961495","steam_id":85568392924742821,"keywords":["nocrits","nodmgspread","payload","uncletopia"],"game_id":440,"stv_port":27046,"stv_name":"Uncletopia | New York City | 4 | Community | STV","players":null},{"server_id":142,"name":"Uncletopia | São Paulo | 1 | All Maps","name_short":"sao-1","host":"sao-1.br.uncletopia.com","port":27015,"enabled":true,"region":"sa","cc":"br","latitude":-23.533773,"longitude":-46.62529,"reserved":0,"last_update":"0001-01-01T00:00:00Z","name_a2s":"Uncletopia | São Paulo | 1 | All Maps","protocol":17,"map":"koth_highpass","folder":"tf","game":"Team Fortress","app_id":440,"player_count":0,"max_players":24,"Bots":0,"server_type":"Dedicated","server_os":"Linux","password":true,"vac":true,"version":"7961495","steam_id":85568392924469996,"keywords":["cp","nocrits","nodmgspread","uncletopia"],"game_id":440,"stv_port":27016,"stv_name":"Uncletopia | São Paulo | 1 | All Maps | STV","players":null},{"server_id":143,"name":"Uncletopia | São Paulo | 2 | Community","name_short":"sao-2","host":"sao-2.br.uncletopia.com","port":27015,"enabled":true,"region":"sa","cc":"br","latitude":-23.533773,"longitude":-46.62529,"reserved":0,"last_update":"0001-01-01T00:00:00Z","name_a2s":"Uncletopia | São Paulo | 2 | Community","protocol":17,"map":"workshop/koth_slaughter_rc1.ugc1712845210","folder":"tf","game":"Team Fortress","app_id":440,"player_count":0,"max_players":24,"Bots":0,"server_type":"Dedicated","server_os":"Linux","password":true,"vac":true,"version":"7961495","steam_id":85568392924485349,"keywords":["cp","nocrits","nodmgspread","uncletopia"],"game_id":440,"stv_port":27016,"stv_name":"Uncletopia | São Paulo | 2 | Community | STV","players":null},{"server_id":7,"name":"Uncletopia | Seattle | 1 | All Maps","name_short":"sea-1","host":"sea-1.us.uncletopia.com","port":27015,"enabled":true,"region":"us-west","cc":"us","latitude":47.608013,"longitude":-122.33517,"reserved":0,"last_update":"0001-01-01T00:00:00Z","name_a2s":"Uncletopia | Seattle | 1 | All Maps","protocol":17,"map":"cp_mercenarypark","folder":"tf","game":"Team Fortress","app_id":440,"player_count":24,"max_players":24,"Bots":0,"server_type":"Dedicated","server_os":"Linux","password":true,"vac":true,"version":"7961495","steam_id":85568392924469997,"keywords":["cp","nocrits","nodmgspread","uncletopia"],"game_id":440,"stv_port":27016,"stv_name":"Uncletopia | Seattle | 1 | All Maps | STV","players":[{"user_id":642,"name":"Banana Man","steam_id":76561199012105803,"connected_time":12120000000000,"state":"active","ping":41},{"user_id":749,"name":"Loading...","steam_id":76561198075555396,"connected_time":1964000000000,"state":"active","ping":42},{"user_id":763,"name":"blinkerton city","steam_id":76561198054270410,"connected_time":528000000000,"state":"active","ping":54},{"user_id":758,"name":"MrYadaization","steam_id":76561198050770818,"connected_time":775000000000,"state":"active","ping":53},{"user_id":738,"name":"soup","steam_id":76561198043209046,"connected_time":3804000000000,"state":"active","ping":59},{"user_id":743,"name":"Themasterman75","steam_id":76561199385573293,"connected_time":2984000000000,"state":"active","ping":57},{"user_id":767,"name":"squash","steam_id":76561198150281353,"connected_time":103000000000,"state":"active","ping":57},{"user_id":764,"name":"thunderous prophet","steam_id":76561198131166135,"connected_time":523000000000,"state":"active","ping":41},{"user_id":765,"name":"Bullwinkle J. Moose","steam_id":76561198075977196,"connected_time":464000000000,"state":"active","ping":104},{"user_id":727,"name":"Gary, 40, soul sucking 9-5","steam_id":76561198073812888,"connected_time":4421000000000,"state":"active","ping":36},{"user_id":766,"name":"Skabbety","steam_id":76561198168044257,"connected_time":459000000000,"state":"active","ping":38},{"user_id":744,"name":"Cream Criminal","steam_id":76561198120802986,"connected_time":2645000000000,"state":"active","ping":65},{"user_id":740,"name":"Nom Skirrett","steam_id":76561198014600788,"connected_time":3742000000000,"state":"active","ping":66},{"user_id":761,"name":"spenca","steam_id":76561198025371154,"connected_time":593000000000,"state":"active","ping":58},{"user_id":760,"name":"NEBULA","steam_id":76561198086878595,"connected_time":598000000000,"state":"active","ping":72},{"user_id":757,"name":"-_-","steam_id":76561199190800520,"connected_time":806000000000,"state":"active","ping":42},{"user_id":734,"name":"mega","steam_id":76561198089520959,"connected_time":3890000000000,"state":"active","ping":85},{"user_id":756,"name":"Mignyanne :3","steam_id":76561198048754056,"connected_time":977000000000,"state":"active","ping":66},{"user_id":754,"name":"Cancerous Pineapple","steam_id":76561198097307656,"connected_time":1174000000000,"state":"active","ping":76},{"user_id":759,"name":"LmaoWhoNeedsAName","steam_id":76561198807863638,"connected_time":601000000000,"state":"active","ping":46},{"user_id":755,"name":"Sefren","steam_id":76561198007657340,"connected_time":1013000000000,"state":"active","ping":47},{"user_id":729,"name":"Sniff","steam_id":76561198010270922,"connected_time":4239000000000,"state":"active","ping":55},{"user_id":736,"name":"TROY","steam_id":76561197983852176,"connected_time":3850000000000,"state":"active","ping":75},{"user_id":762,"name":"The Shaq Attack","steam_id":76561198075285534,"connected_time":593000000000,"state":"active","ping":37}]},{"server_id":119,"name":"Uncletopia | Seattle | 2 | All Maps","name_short":"sea-2","host":"sea-1.us.uncletopia.com","port":27025,"enabled":true,"region":"us-west","cc":"us","latitude":47.608013,"longitude":-122.33517,"reserved":0,"last_update":"0001-01-01T00:00:00Z","name_a2s":"Uncletopia | Seattle | 2 | All Maps","protocol":17,"map":"koth_viaduct","folder":"tf","game":"Team Fortress","app_id":440,"player_count":22,"max_players":24,"Bots":0,"server_type":"Dedicated","server_os":"Linux","password":true,"vac":true,"version":"7961495","steam_id":85568392924469998,"keywords":["cp","nocrits","nodmgspread","uncletopia"],"game_id":440,"stv_port":27026,"stv_name":"Uncletopia | Seattle | 2 | All Maps | STV","players":[{"user_id":33,"name":"Azary56","steam_id":76561198321404617,"connected_time":7476000000000,"state":"active","ping":59},{"user_id":78,"name":"CubeDio","steam_id":76561198403403639,"connected_time":2317000000000,"state":"active","ping":62},{"user_id":109,"name":"Chris P. Wiener","steam_id":76561198168808551,"connected_time":166000000000,"state":"active","ping":46},{"user_id":90,"name":"RIP Bashar Jackson","steam_id":76561198062940197,"connected_time":1275000000000,"state":"active","ping":43},{"user_id":110,"name":"notkadenk","steam_id":76561198837454396,"connected_time":116000000000,"state":"active","ping":47},{"user_id":75,"name":"Humble Learner","steam_id":76561198066091050,"connected_time":2630000000000,"state":"active","ping":56},{"user_id":79,"name":"Lemonade Juice","steam_id":76561198402892608,"connected_time":2311000000000,"state":"active","ping":74},{"user_id":111,"name":"uegue","steam_id":76561198254639173,"connected_time":12000000000,"state":"spawning","ping":89},{"user_id":69,"name":"meph","steam_id":76561198149683030,"connected_time":3306000000000,"state":"active","ping":73},{"user_id":76,"name":"Lawyer","steam_id":76561197974126447,"connected_time":2403000000000,"state":"active","ping":71},{"user_id":101,"name":"pipi","steam_id":76561198450073779,"connected_time":734000000000,"state":"active","ping":44},{"user_id":50,"name":"lol","steam_id":76561198026491738,"connected_time":3915000000000,"state":"active","ping":79},{"user_id":93,"name":"Cigarette Fish","steam_id":76561199086973797,"connected_time":1150000000000,"state":"active","ping":100},{"user_id":77,"name":"Sassy","steam_id":76561197977382238,"connected_time":2365000000000,"state":"active","ping":71},{"user_id":91,"name":"Lily Thorn","steam_id":76561198305488625,"connected_time":1189000000000,"state":"active","ping":54},{"user_id":92,"name":"holiday-sized update","steam_id":76561198023324513,"connected_time":1188000000000,"state":"active","ping":42},{"user_id":94,"name":"R5-D4","steam_id":76561198025196439,"connected_time":1035000000000,"state":"active","ping":52},{"user_id":104,"name":"Rusty","steam_id":76561198055585129,"connected_time":517000000000,"state":"active","ping":45},{"user_id":96,"name":"Cryptids are hot","steam_id":76561198317229013,"connected_time":946000000000,"state":"active","ping":72},{"user_id":107,"name":"👁 sumixodic","steam_id":76561198090770710,"connected_time":244000000000,"state":"active","ping":47},{"user_id":82,"name":"Sudsen","steam_id":76561198370603787,"connected_time":2011000000000,"state":"active","ping":70},{"user_id":108,"name":"Rotary","steam_id":76561198059572705,"connected_time":236000000000,"state":"active","ping":120}]},{"server_id":406,"name":"Uncletopia | Seattle | 3 | Stopwatch","name_short":"sea-3","host":"sea-1.us.uncletopia.com","port":27035,"enabled":true,"region":"us-west","cc":"us","latitude":47.608013,"longitude":-122.33517,"reserved":0,"last_update":"0001-01-01T00:00:00Z","name_a2s":"Uncletopia | Seattle | 3 | Stopwatch","protocol":17,"map":"workshop/pl_vigil_rc10.ugc1266210012","folder":"tf","game":"Team Fortress","app_id":440,"player_count":0,"max_players":24,"Bots":0,"server_type":"Dedicated","server_os":"Linux","password":true,"vac":true,"version":"7961495","steam_id":85568392924515217,"keywords":["nocrits","nodmgspread","payload","uncletopia"],"game_id":440,"stv_port":27036,"stv_name":"Uncletopia | Seattle | 3 | Stopwatch | STV","players":null},{"server_id":17,"name":"Uncletopia | San Francisco | 1 | All Maps","name_short":"sfo-1","host":"sfo-1.us.uncletopia.com","port":27015,"enabled":true,"region":"us-west","cc":"us","latitude":37.77397,"longitude":-122.4313,"reserved":0,"last_update":"0001-01-01T00:00:00Z","name_a2s":"Uncletopia | San Francisco | 1 | All Maps","protocol":17,"map":"pl_badwater","folder":"tf","game":"Team Fortress","app_id":440,"player_count":23,"max_players":24,"Bots":0,"server_type":"Dedicated","server_os":"Linux","password":true,"vac":true,"version":"7961495","steam_id":85568392924469999,"keywords":["nocrits","nodmgspread","payload","uncletopia"],"game_id":440,"stv_port":27016,"stv_name":"Uncletopia | San Francisco | 1 | All Maps | STV","players":[{"user_id":365,"name":"Maid 'n' China","steam_id":76561198423392976,"connected_time":707000000000,"state":"active","ping":42},{"user_id":165,"name":"Marzbee115","steam_id":76561198095821025,"connected_time":12365000000000,"state":"active","ping":52},{"user_id":362,"name":"Kerrplunk","steam_id":76561198058211496,"connected_time":1231000000000,"state":"active","ping":56},{"user_id":332,"name":"A Pile Of Bacon","steam_id":76561198105243785,"connected_time":3989000000000,"state":"active","ping":54},{"user_id":364,"name":"Cosmo","steam_id":76561197984119828,"connected_time":1002000000000,"state":"active","ping":62},{"user_id":376,"name":"P1Darkie (She/Her)","steam_id":76561199508141875,"connected_time":149000000000,"state":"active","ping":103},{"user_id":357,"name":"insertdubname","steam_id":76561199080036154,"connected_time":1665000000000,"state":"active","ping":57},{"user_id":373,"name":"Baron Davis","steam_id":76561198012411292,"connected_time":515000000000,"state":"active","ping":51},{"user_id":368,"name":"Captain Crunch","steam_id":76561199141538581,"connected_time":676000000000,"state":"active","ping":55},{"user_id":370,"name":"Mom","steam_id":76561198207936000,"connected_time":629000000000,"state":"active","ping":30},{"user_id":371,"name":"cblr","steam_id":76561198058629391,"connected_time":607000000000,"state":"active","ping":60},{"user_id":337,"name":"kiwi","steam_id":76561198052177917,"connected_time":3601000000000,"state":"active","ping":60},{"user_id":348,"name":"Optimore","steam_id":76561198047662990,"connected_time":2496000000000,"state":"active","ping":50},{"user_id":343,"name":"Ian","steam_id":76561198159334435,"connected_time":3150000000000,"state":"active","ping":175},{"user_id":339,"name":"Wender","steam_id":76561198995247917,"connected_time":3495000000000,"state":"active","ping":56},{"user_id":372,"name":"player4","steam_id":76561197985140870,"connected_time":563000000000,"state":"active","ping":58},{"user_id":374,"name":"garten of banban","steam_id":76561198110145844,"connected_time":493000000000,"state":"active","ping":47},{"user_id":375,"name":"Tideflat","steam_id":76561198179850851,"connected_time":419000000000,"state":"active","ping":67},{"user_id":321,"name":"Drake from State Farm","steam_id":76561199069029812,"connected_time":4368000000000,"state":"active","ping":66},{"user_id":353,"name":"Xx_PercyTheSmallEngineGamer6_xX","steam_id":76561198842297041,"connected_time":1931000000000,"state":"active","ping":105},{"user_id":377,"name":"Kataoka","steam_id":76561198162169852,"connected_time":96000000000,"state":"active","ping":60},{"user_id":378,"name":"CEO of Autism","steam_id":76561198073687587,"connected_time":19000000000,"state":"spawning","ping":239},{"user_id":379,"name":"Wallit","steam_id":76561198174355486,"connected_time":15000000000,"state":"spawning","ping":2228}]},{"server_id":18,"name":"Uncletopia | San Francisco | 2 | All Maps","name_short":"sfo-2","host":"sfo-1.us.uncletopia.com","port":27025,"enabled":true,"region":"us-west","cc":"us","latitude":37.77397,"longitude":-122.4313,"reserved":0,"last_update":"0001-01-01T00:00:00Z","name_a2s":"Uncletopia | San Francisco | 2 | All Maps","protocol":17,"map":"pl_thundermountain","folder":"tf","game":"Team Fortress","app_id":440,"player_count":21,"max_players":24,"Bots":0,"server_type":"Dedicated","server_os":"Linux","password":true,"vac":true,"version":"7961495","steam_id":85568392924470000,"keywords":["nocrits","nodmgspread","payload","uncletopia"],"game_id":440,"stv_port":27026,"stv_name":"Uncletopia | San Francisco | 2 | All Maps | STV","players":[{"user_id":266,"name":"Human Resources Manager","steam_id":76561198066386411,"connected_time":2838000000000,"state":"active","ping":51},{"user_id":264,"name":"unnamed","steam_id":76561197994638650,"connected_time":2925000000000,"state":"active","ping":49},{"user_id":277,"name":"105 °C kaede","steam_id":76561198345528370,"connected_time":2139000000000,"state":"active","ping":44},{"user_id":268,"name":"rumes","steam_id":76561198349219467,"connected_time":2804000000000,"state":"active","ping":85},{"user_id":296,"name":"Excalibrine","steam_id":76561198129312118,"connected_time":0,"state":"spawning","ping":14},{"user_id":229,"name":"千尺ㄖҜ","steam_id":76561198118910141,"connected_time":5021000000000,"state":"active","ping":63},{"user_id":282,"name":"Dukino","steam_id":76561198008455368,"connected_time":1415000000000,"state":"active","ping":105},{"user_id":295,"name":"fitotutus","steam_id":76561197974993253,"connected_time":50000000000,"state":"active","ping":144},{"user_id":263,"name":"pipebombrater","steam_id":76561199029030831,"connected_time":2990000000000,"state":"active","ping":116},{"user_id":284,"name":"Renzlo","steam_id":76561198044348567,"connected_time":1124000000000,"state":"active","ping":56},{"user_id":285,"name":"KhongGF","steam_id":76561198268788132,"connected_time":1086000000000,"state":"active","ping":57},{"user_id":286,"name":"Giorgi","steam_id":76561198310171222,"connected_time":1051000000000,"state":"active","ping":71},{"user_id":287,"name":"yuumi...! ♡","steam_id":76561198084708100,"connected_time":1010000000000,"state":"active","ping":57},{"user_id":248,"name":"Stripes","steam_id":76561198156305842,"connected_time":4323000000000,"state":"active","ping":78},{"user_id":235,"name":"ForAPessimistImPrettyOptimistic","steam_id":76561198170128009,"connected_time":4912000000000,"state":"active","ping":59},{"user_id":293,"name":"TheBigMWE","steam_id":76561198133867694,"connected_time":639000000000,"state":"active","ping":49},{"user_id":294,"name":"supcupman","steam_id":76561198051513866,"connected_time":209000000000,"state":"active","ping":59},{"user_id":291,"name":"hi ping","steam_id":76561198383636396,"connected_time":730000000000,"state":"active","ping":77},{"user_id":250,"name":"netoc6","steam_id":76561199065312168,"connected_time":4008000000000,"state":"active","ping":103},{"user_id":289,"name":"Chicago Shoplifter","steam_id":76561197986530028,"connected_time":834000000000,"state":"active","ping":60},{"user_id":278,"name":"Hongy","steam_id":76561198012448846,"connected_time":1977000000000,"state":"active","ping":64}]},{"server_id":19,"name":"Uncletopia | San Francisco | 3 | Stopwatch","name_short":"sfo-3","host":"sfo-1.us.uncletopia.com","port":27035,"enabled":true,"region":"us-west","cc":"us","latitude":37.77397,"longitude":-122.4313,"reserved":0,"last_update":"0001-01-01T00:00:00Z","name_a2s":"Uncletopia | San Francisco | 3 | Stopwatch","protocol":17,"map":"workshop/koth_product_final.ugc454272353","folder":"tf","game":"Team Fortress","app_id":440,"player_count":0,"max_players":24,"Bots":0,"server_type":"Dedicated","server_os":"Linux","password":true,"vac":true,"version":"7961495","steam_id":85568392924742824,"keywords":["cp","nocrits","nodmgspread","uncletopia"],"game_id":440,"stv_port":27036,"stv_name":"Uncletopia | San Francisco | 3 | Stopwatch | STV","players":null},{"server_id":20,"name":"Uncletopia | San Francisco | 4 | Community","name_short":"sfo-4","host":"sfo-1.us.uncletopia.com","port":27045,"enabled":true,"region":"us-west","cc":"us","latitude":37.77397,"longitude":-122.4313,"reserved":0,"last_update":"0001-01-01T00:00:00Z","name_a2s":"Uncletopia | San Francisco | 4 | Community","protocol":17,"map":"workshop/pl_cashworks_final1.ugc2904065412","folder":"tf","game":"Team Fortress","app_id":440,"player_count":0,"max_players":24,"Bots":0,"server_type":"Dedicated","server_os":"Linux","password":true,"vac":true,"version":"7961495","steam_id":85568392924742826,"keywords":["nocrits","nodmgspread","payload","uncletopia"],"game_id":440,"stv_port":27046,"stv_name":"Uncletopia | San Francisco | 4 | Community | STV","players":null},{"server_id":141,"name":"Uncletopia | Sydney | 1 | All Maps","name_short":"syd-1","host":"syd-1.au.uncletopia.com","port":27015,"enabled":true,"region":"au","cc":"au","latitude":-33.865143,"longitude":151.2099,"reserved":0,"last_update":"0001-01-01T00:00:00Z","name_a2s":"Uncletopia | Sydney | 1 | All Maps","protocol":17,"map":"koth_nucleus","folder":"tf","game":"Team Fortress","app_id":440,"player_count":0,"max_players":24,"Bots":0,"server_type":"Dedicated","server_os":"Linux","password":true,"vac":true,"version":"7961495","steam_id":85568392924470001,"keywords":["cp","nocrits","nodmgspread","uncletopia"],"game_id":440,"stv_port":27016,"stv_name":"Uncletopia | Sydney | 1 | All Maps | STV","players":null},{"server_id":123,"name":"Uncletopia | Sydney | 2 | All Maps","name_short":"syd-2","host":"syd-1.au.uncletopia.com","port":27025,"enabled":true,"region":"au","cc":"au","latitude":-33.865143,"longitude":151.2099,"reserved":0,"last_update":"0001-01-01T00:00:00Z","name_a2s":"Uncletopia | Sydney | 2 | All Maps","protocol":17,"map":"cp_gorge","folder":"tf","game":"Team Fortress","app_id":440,"player_count":0,"max_players":24,"Bots":0,"server_type":"Dedicated","server_os":"Linux","password":true,"vac":true,"version":"7961495","steam_id":85568392924470002,"keywords":["cp","nocrits","nodmgspread","uncletopia"],"game_id":440,"stv_port":27026,"stv_name":"Uncletopia | Sydney | 2 | All Maps | STV","players":null},{"server_id":395,"name":"Uncletopia | Sydney | 3 | All Maps","name_short":"syd-3","host":"syd-1.au.uncletopia.com","port":27035,"enabled":true,"region":"au","cc":"au","latitude":-33.865143,"longitude":151.2099,"reserved":0,"last_update":"0001-01-01T00:00:00Z","name_a2s":"Uncletopia | Sydney | 3 | All Maps","protocol":17,"map":"cp_metalworks","folder":"tf","game":"Team Fortress","app_id":440,"player_count":0,"max_players":24,"Bots":0,"server_type":"Dedicated","server_os":"Linux","password":true,"vac":true,"version":"7961495","steam_id":85568392925194467,"keywords":["cp","nocrits","nodmgspread","uncletopia"],"game_id":440,"stv_port":27036,"stv_name":"Uncletopia | Sydney | 3 | All Maps | STV","players":null},{"server_id":396,"name":"Uncletopia | Sydney | 4 | All Maps","name_short":"syd-4","host":"syd-1.au.uncletopia.com","port":27045,"enabled":true,"region":"au","cc":"au","latitude":-33.865143,"longitude":151.2099,"reserved":0,"last_update":"0001-01-01T00:00:00Z","name_a2s":"Uncletopia | Sydney | 4 | All Maps","protocol":17,"map":"koth_cascade","folder":"tf","game":"Team Fortress","app_id":440,"player_count":0,"max_players":24,"Bots":0,"server_type":"Dedicated","server_os":"Linux","password":true,"vac":true,"version":"7961495","steam_id":85568392925397958,"keywords":["cp","nocrits","nodmgspread","uncletopia"],"game_id":440,"stv_port":27046,"stv_name":"Uncletopia | Sydney | 4 | All Maps | STV","players":null},{"server_id":58,"name":"Uncletopia | Sydney | 5 | Stopwatch","name_short":"syd-5","host":"syd-1.au.uncletopia.com","port":27055,"enabled":true,"region":"au","cc":"au","latitude":-33.865143,"longitude":151.2099,"reserved":0,"last_update":"0001-01-01T00:00:00Z","name_a2s":"Uncletopia | Sydney | 5 | Stopwatch","protocol":17,"map":"pl_swiftwater_final1","folder":"tf","game":"Team Fortress","app_id":440,"player_count":0,"max_players":24,"Bots":0,"server_type":"Dedicated","server_os":"Linux","password":true,"vac":true,"version":"7961495","steam_id":85568392925397959,"keywords":["nocrits","nodmgspread","payload","uncletopia"],"game_id":440,"stv_port":27056,"stv_name":"Uncletopia | Sydney | 5 | Stopwatch | STV","players":null},{"server_id":59,"name":"Uncletopia | Sydney | 6 | Community","name_short":"syd-6","host":"syd-1.au.uncletopia.com","port":27065,"enabled":true,"region":"au","cc":"au","latitude":-33.865143,"longitude":151.2099,"reserved":0,"last_update":"0001-01-01T00:00:00Z","name_a2s":"Uncletopia | Sydney | 6 | Community","protocol":17,"map":"workshop/koth_trenchfoot_ab1.ugc731436616","folder":"tf","game":"Team Fortress","app_id":440,"player_count":0,"max_players":24,"Bots":0,"server_type":"Dedicated","server_os":"Linux","password":true,"vac":true,"version":"7961495","steam_id":85568392925397960,"keywords":["cp","nocrits","nodmgspread","uncletopia"],"game_id":440,"stv_port":27066,"stv_name":"Uncletopia | Sydney | 6 | Community | STV","players":null},{"server_id":49,"name":"Uncletopia | Warsaw | 1 | One Thousand Uncles","name_short":"waw-1","host":"waw-1.pl.uncletopia.com","port":27015,"enabled":true,"region":"eu","cc":"pl","latitude":52.2297,"longitude":21.017532,"reserved":0,"last_update":"0001-01-01T00:00:00Z","name_a2s":"Uncletopia | Warsaw | 1 | One Thousand Uncles","protocol":17,"map":"cp_mercenarypark","folder":"tf","game":"Team Fortress","app_id":440,"player_count":0,"max_players":32,"Bots":0,"server_type":"Dedicated","server_os":"Linux","password":true,"vac":true,"version":"7961495","steam_id":85568392925397850,"keywords":["alltalk","cp","danepve","increased_maxplayers","norespawntime","uncletopia"],"game_id":440,"stv_port":0,"stv_name":"","players":null},{"server_id":50,"name":"Uncletopia | Warsaw | 2 | One Thousand Uncles","name_short":"waw-2","host":"waw-1.pl.uncletopia.com","port":27025,"enabled":true,"region":"eu","cc":"pl","latitude":52.2297,"longitude":21.017532,"reserved":0,"last_update":"0001-01-01T00:00:00Z","name_a2s":"Uncletopia | Warsaw | 2 | One Thousand Uncles","protocol":17,"map":"cp_egypt_final","folder":"tf","game":"Team Fortress","app_id":440,"player_count":0,"max_players":32,"Bots":0,"server_type":"Dedicated","server_os":"Linux","password":true,"vac":true,"version":"7961495","steam_id":85568392925397851,"keywords":["alltalk","cp","danepve","increased_maxplayers","norespawntime","uncletopia"],"game_id":440,"stv_port":0,"stv_name":"","players":null},{"server_id":51,"name":"Uncletopia | Warsaw | 3 | All Maps","name_short":"waw-3","host":"waw-1.pl.uncletopia.com","port":27035,"enabled":true,"region":"eu","cc":"pl","latitude":52.2297,"longitude":21.017532,"reserved":0,"last_update":"0001-01-01T00:00:00Z","name_a2s":"Uncletopia | Warsaw | 3 | All Maps","protocol":17,"map":"pl_snowycoast","folder":"tf","game":"Team Fortress","app_id":440,"player_count":0,"max_players":24,"Bots":0,"server_type":"Dedicated","server_os":"Linux","password":true,"vac":true,"version":"7961495","steam_id":85568392925397852,"keywords":["nocrits","nodmgspread","payload","uncletopia"],"game_id":440,"stv_port":27036,"stv_name":"Uncletopia | Warsaw | 3 | All Maps | STV","players":null},{"server_id":52,"name":"Uncletopia | Warsaw | 4 | All Maps","name_short":"waw-4","host":"waw-1.pl.uncletopia.com","port":27045,"enabled":true,"region":"eu","cc":"pl","latitude":52.2297,"longitude":21.017532,"reserved":0,"last_update":"0001-01-01T00:00:00Z","name_a2s":"Uncletopia | Warsaw | 4 | All Maps","protocol":17,"map":"cp_fastlane","folder":"tf","game":"Team Fortress","app_id":440,"player_count":0,"max_players":24,"Bots":0,"server_type":"Dedicated","server_os":"Linux","password":true,"vac":true,"version":"7961495","steam_id":85568392925397853,"keywords":["cp","nocrits","nodmgspread","uncletopia"],"game_id":440,"stv_port":27046,"stv_name":"Uncletopia | Warsaw | 4 | All Maps | STV","players":null},{"server_id":53,"name":"Uncletopia | Warsaw | 5 | Stopwatch","name_short":"waw-5","host":"waw-1.pl.uncletopia.com","port":27055,"enabled":true,"region":"eu","cc":"pl","latitude":52.2297,"longitude":21.017532,"reserved":0,"last_update":"0001-01-01T00:00:00Z","name_a2s":"Uncletopia | Warsaw | 5 | Stopwatch","protocol":17,"map":"cp_gullywash_final1","folder":"tf","game":"Team Fortress","app_id":440,"player_count":0,"max_players":24,"Bots":0,"server_type":"Dedicated","server_os":"Linux","password":true,"vac":true,"version":"7961495","steam_id":85568392925397854,"keywords":["cp","nocrits","nodmgspread","uncletopia"],"game_id":440,"stv_port":27056,"stv_name":"Uncletopia | Warsaw | 5 | Stopwatch | STV","players":null},{"server_id":54,"name":"Uncletopia | Warsaw | 6 | Community","name_short":"waw-6","host":"waw-1.pl.uncletopia.com","port":27065,"enabled":true,"region":"eu","cc":"pl","latitude":52.2297,"longitude":21.017532,"reserved":0,"last_update":"0001-01-01T00:00:00Z","name_a2s":"Uncletopia | Warsaw | 6 | Community","protocol":17,"map":"workshop/cp_fulgur_rc2a.ugc2068252300","folder":"tf","game":"Team Fortress","app_id":440,"player_count":0,"max_players":24,"Bots":0,"server_type":"Dedicated","server_os":"Linux","password":true,"vac":true,"version":"7961495","steam_id":85568392925397856,"keywords":["cp","nocrits","nodmgspread","uncletopia"],"game_id":440,"stv_port":27066,"stv_name":"Uncletopia | Warsaw | 6 | Community | STV","players":null}]}