{"status":true,"message":"","result":[{"server_id":9,"name":"Uncletopia | Atlanta | 1 | All Maps","name_short":"atl-1","host":"atl-1.us.uncletopia.com","port":27015,"enabled":true,"region":"us-east","cc":"us","latitude":33.753746,"longitude":-84.38633,"reserved":0,"last_update":"0001-01-01T00:00:00Z","name_a2s":"Uncletopia | Atlanta | 1 | All Maps","protocol":17,"map":"pl_pier","folder":"tf","game":"Team Fortress","app_id":440,"player_count":16,"max_players":24,"Bots":0,"server_type":"Dedicated","server_os":"Linux","password":true,"vac":true,"version":"7757534","steam_id":85568392924469982,"keywords":["nocrits","nodmgspread","payload","uncletopia"],"game_id":440,"stv_port":27016,"stv_name":"Uncletopia | Atlanta | 1 | All Maps | STV","players":[{"user_id":17,"name":"luigifan","steam_id":76561199428693962,"connected_time":3541000000000,"state":"active","ping":49},{"user_id":47,"name":"Scorch","steam_id":76561198167024005,"connected_time":945000000000,"state":"active","ping":57},{"user_id":38,"name":"DuckKey","steam_id":76561198904477889,"connected_time":1718000000000,"state":"active","ping":59},{"user_id":56,"name":"A Rhino with Coronavirus","steam_id":76561197999451366,"connected_time":279000000000,"state":"active","ping":89},{"user_id":44,"name":"Crunchy","steam_id":76561199065412274,"connected_time":1434000000000,"state":"active","ping":57},{"user_id":52,"name":"Uung","steam_id":76561198183956731,"connected_time":642000000000,"state":"active","ping":45},{"user_id":57,"name":"trollos (real)","steam_id":76561199195097493,"connected_time":271000000000,"state":"active","ping":73},{"user_id":60,"name":"Super","steam_id":76561199179611350,"connected_time":193000000000,"state":"active","ping":79},{"user_id":64,"name":"Monster","steam_id":76561198189429665,"connected_time":94000000000,"state":"active","ping":51},{"user_id":58,"name":"FarLogicDreamer","steam_id":76561198251736808,"connected_time":240000000000,"state":"active","ping":129},{"user_id":54,"name":"BasicPeaches","steam_id":76561198190890150,"connected_time":536000000000,"state":"active","ping":87},{"user_id":55,"name":"rocknroll_comicbooks_\u0026bubblegum","steam_id":76561197998893843,"connected_time":476000000000,"state":"active","ping":78},{"user_id":61,"name":"techturkey","steam_id":76561199154637989,"connected_time":163000000000,"state":"active","ping":89},{"user_id":62,"name":"lilrendragn1","steam_id":76561198388533870,"connected_time":140000000000,"state":"active","ping":99},{"user_id":63,"name":"Milwit","steam_id":76561199084423080,"connected_time":122000000000,"state":"active","ping":102},{"user_id":65,"name":"im BLASTING phonk","steam_id":76561198277163301,"connected_time":14000000000,"state":"active","ping":84}]},{"server_id":104,"name":"Uncletopia | Atlanta | 2 | All Maps","name_short":"atl-2","host":"atl-1.us.uncletopia.com","port":27025,"enabled":true,"region":"us-east","cc":"us","latitude":33.753746,"longitude":-84.38633,"reserved":0,"last_update":"0001-01-01T00:00:00Z","name_a2s":"Uncletopia | Atlanta | 2 | All Maps","protocol":17,"map":"koth_viaduct","folder":"tf","game":"Team Fortress","app_id":440,"player_count":0,"max_players":24,"Bots":0,"server_type":"Dedicated","server_os":"Linux","password":true,"vac":true,"version":"7757534","steam_id":85568392924469983,"keywords":["cp","nocrits","nodmgspread","uncletopia"],"game_id":440,"stv_port":27026,"stv_name":"Uncletopia | Atlanta | 2 | All Maps | STV","players":null},{"server_id":400,"name":"Uncletopia | Atlanta | 3 | Community","name_short":"atl-3","host":"atl-1.us.uncletopia.com","port":27035,"enabled":true,"region":"us-east","cc":"us","latitude":33.753746,"longitude":-84.38633,"reserved":0,"last_update":"0001-01-01T00:00:00Z","name_a2s":"Uncletopia | Atlanta | 3 | Community","protocol":17,"map":"cp_snakewater_final1","folder":"tf","game":"Team Fortress","app_id":440,"player_count":0,"max_players":24,"Bots":0,"server_type":"Dedicated","server_os":"Linux","password":true,"vac":true,"version":"7757534","steam_id":85568392924515187,"keywords":["cp","nocrits","nodmgspread","uncletopia"],"game_id":440,"stv_port":27036,"stv_name":"Uncletopia | Atlanta | 3 | Community | STV","players":null},{"server_id":401,"name":"Uncletopia | Atlanta | 4 | No Payload","name_short":"atl-4","host":"atl-1.us.uncletopia.com","port":27045,"enabled":true,"region":"us-east","cc":"us","latitude":33.753746,"longitude":-84.38633,"reserved":0,"last_update":"0001-01-01T00:00:00Z","name_a2s":"","protocol":0,"map":"","folder":"","game":"","app_id":0,"player_count":0,"max_players":0,"Bots":0,"server_type":"","server_os":"","password":false,"vac":false,"version":"","steam_id":0,"keywords":null,"game_id":0,"stv_port":0,"stv_name":"","players":null},{"server_id":2,"name":"Uncletopia | Chicago | 1 | All Maps","name_short":"chi-1","host":"chi-1.us.uncletopia.com","port":27015,"enabled":true,"region":"us-central","cc":"us","latitude":41.881832,"longitude":-87.62318,"reserved":0,"last_update":"0001-01-01T00:00:00Z","name_a2s":"Uncletopia | Chicago | 1 | All Maps","protocol":17,"map":"pl_pier","folder":"tf","game":"Team Fortress","app_id":440,"player_count":24,"max_players":24,"Bots":0,"server_type":"Dedicated","server_os":"Linux","password":true,"vac":true,"version":"7757534","steam_id":85568392924469984,"keywords":["nocrits","nodmgspread","payload","uncletopia"],"game_id":440,"stv_port":27016,"stv_name":"Uncletopia | Chicago | 1 | All Maps | STV","players":[{"user_id":292,"name":"inside a miku body pillow","steam_id":76561198136169355,"connected_time":364000000000,"state":"active","ping":54},{"user_id":184,"name":"marguerite","steam_id":76561198170873495,"connected_time":8074000000000,"state":"active","ping":58},{"user_id":249,"name":"Rein","steam_id":76561198300340427,"connected_time":2469000000000,"state":"active","ping":62},{"user_id":287,"name":"Bungalow Bill","steam_id":76561198033536404,"connected_time":616000000000,"state":"active","ping":83},{"user_id":284,"name":"LunarrD","steam_id":76561198811220107,"connected_time":659000000000,"state":"active","ping":81},{"user_id":279,"name":"town.midi","steam_id":76561198059041027,"connected_time":914000000000,"state":"active","ping":105},{"user_id":263,"name":"richard clock","steam_id":76561198048455671,"connected_time":1670000000000,"state":"active","ping":56},{"user_id":296,"name":"grimp gromp","steam_id":76561199267535506,"connected_time":140000000000,"state":"active","ping":63},{"user_id":294,"name":"HOTA","steam_id":76561199002778841,"connected_time":262000000000,"state":"active","ping":74},{"user_id":290,"name":"Not Markscavious","steam_id":76561199012205536,"connected_time":609000000000,"state":"active","ping":85},{"user_id":298,"name":"Hollow gamer","steam_id":76561198426798913,"connected_time":105000000000,"state":"active","ping":97},{"user_id":266,"name":"caberknight tf2","steam_id":76561199273882768,"connected_time":1562000000000,"state":"active","ping":73},{"user_id":276,"name":"PKBEAST_7","steam_id":76561198177136537,"connected_time":1075000000000,"state":"active","ping":102},{"user_id":293,"name":"AHHHH,airplane","steam_id":76561199227196462,"connected_time":338000000000,"state":"active","ping":70},{"user_id":285,"name":"A Sun","steam_id":76561198142545364,"connected_time":649000000000,"state":"active","ping":69},{"user_id":251,"name":"man of the hour","steam_id":76561198264601809,"connected_time":2382000000000,"state":"active","ping":77},{"user_id":265,"name":"vv","steam_id":76561198134813102,"connected_time":1584000000000,"state":"active","ping":59},{"user_id":255,"name":"Your neighborhood Himbo","steam_id":76561198431446386,"connected_time":2224000000000,"state":"active","ping":70},{"user_id":278,"name":"Glory","steam_id":76561198013975080,"connected_time":1034000000000,"state":"active","ping":70},{"user_id":268,"name":"Krinkus","steam_id":76561198861579279,"connected_time":1532000000000,"state":"active","ping":63},{"user_id":269,"name":"Evolution","steam_id":76561198144767370,"connected_time":1519000000000,"state":"active","ping":46},{"user_id":270,"name":"Mixomin","steam_id":76561198295061570,"connected_time":1393000000000,"state":"active","ping":59},{"user_id":291,"name":"f","steam_id":76561198215559840,"connected_time":606000000000,"state":"active","ping":68},{"user_id":238,"name":"Capt. Grins","steam_id":76561198032663494,"connected_time":3759000000000,"state":"active","ping":67}]},{"server_id":106,"name":"Uncletopia | Chicago | 2 | All Maps","name_short":"chi-2","host":"chi-1.us.uncletopia.com","port":27025,"enabled":true,"region":"us-central","cc":"us","latitude":41.881832,"longitude":-87.62318,"reserved":0,"last_update":"0001-01-01T00:00:00Z","name_a2s":"Uncletopia | Chicago | 2 | All Maps","protocol":17,"map":"cp_altitude","folder":"tf","game":"Team Fortress","app_id":440,"player_count":13,"max_players":24,"Bots":0,"server_type":"Dedicated","server_os":"Linux","password":true,"vac":true,"version":"7757534","steam_id":85568392924469985,"keywords":["cp","nocrits","nodmgspread","uncletopia"],"game_id":440,"stv_port":27026,"stv_name":"Uncletopia | Chicago | 2 | All Maps | STV","players":[{"user_id":24,"name":"ZplitZ","steam_id":76561198093629868,"connected_time":1215000000000,"state":"active","ping":64},{"user_id":23,"name":"ThatFrog","steam_id":76561198437198904,"connected_time":1458000000000,"state":"active","ping":106},{"user_id":13,"name":"Mr.Bady","steam_id":76561199094651706,"connected_time":2727000000000,"state":"active","ping":74},{"user_id":26,"name":"StyxTheQueer","steam_id":76561199472006568,"connected_time":792000000000,"state":"active","ping":73},{"user_id":27,"name":"zackcraft102","steam_id":76561199238048549,"connected_time":384000000000,"state":"active","ping":214},{"user_id":38,"name":"Cancant","steam_id":76561199156695295,"connected_time":133000000000,"state":"active","ping":81},{"user_id":29,"name":"PzVIIIMaus","steam_id":76561198346559365,"connected_time":322000000000,"state":"active","ping":44},{"user_id":33,"name":"Mr. Cheesey","steam_id":76561198153462183,"connected_time":212000000000,"state":"active","ping":52},{"user_id":35,"name":"Huntpk","steam_id":76561198340591674,"connected_time":177000000000,"state":"active","ping":39},{"user_id":36,"name":"Recursive Gamer","steam_id":76561198042102952,"connected_time":176000000000,"state":"active","ping":78},{"user_id":37,"name":"Drewey","steam_id":76561199258609863,"connected_time":176000000000,"state":"active","ping":53},{"user_id":39,"name":"Hitlinemoss","steam_id":76561198155435669,"connected_time":40000000000,"state":"active","ping":63},{"user_id":40,"name":"Jeff The Guest","steam_id":76561198010036317,"connected_time":30000000000,"state":"active","ping":161}]},{"server_id":402,"name":"Uncletopia | Chicago | 3 | All Maps","name_short":"chi-3","host":"chi-1.us.uncletopia.com","port":27035,"enabled":true,"region":"us-central","cc":"us","latitude":41.881832,"longitude":-87.62318,"reserved":0,"last_update":"0001-01-01T00:00:00Z","name_a2s":"Uncletopia | Chicago | 3 | All Maps","protocol":17,"map":"koth_cascade","folder":"tf","game":"Team Fortress","app_id":440,"player_count":0,"max_players":24,"Bots":0,"server_type":"Dedicated","server_os":"Linux","password":true,"vac":true,"version":"7757534","steam_id":85568392924515191,"keywords":["cp","nocrits","nodmgspread","uncletopia"],"game_id":440,"stv_port":27036,"stv_name":"Uncletopia | Chicago | 3 | All Maps | STV","players":null},{"server_id":403,"name":"Uncletopia | Chicago | 4 | All Maps","name_short":"chi-4","host":"chi-1.us.uncletopia.com","port":27045,"enabled":true,"region":"us-central","cc":"us","latitude":41.881832,"longitude":-87.62318,"reserved":0,"last_update":"0001-01-01T00:00:00Z","name_a2s":"Uncletopia | Chicago | 4 | All Maps","protocol":17,"map":"pl_upward","folder":"tf","game":"Team Fortress","app_id":440,"player_count":23,"max_players":24,"Bots":0,"server_type":"Dedicated","server_os":"Linux","password":true,"vac":true,"version":"7757534","steam_id":85568392924515193,"keywords":["nocrits","nodmgspread","payload","uncletopia"],"game_id":440,"stv_port":27046,"stv_name":"Uncletopia | Chicago | 4 | All Maps | STV","players":[{"user_id":214,"name":"Joshua31704","steam_id":76561198125898714,"connected_time":2787000000000,"state":"active","ping":91},{"user_id":198,"name":"dog","steam_id":76561198263873491,"connected_time":3051000000000,"state":"active","ping":33},{"user_id":305,"name":"girlboss","steam_id":76561197989019617,"connected_time":1559000000000,"state":"active","ping":46},{"user_id":378,"name":"laszlo","steam_id":76561198141198352,"connected_time":640000000000,"state":"active","ping":46},{"user_id":235,"name":"lemon cupcake crystal xbox","steam_id":76561198018761740,"connected_time":2447000000000,"state":"active","ping":78},{"user_id":118,"name":"WatchWill","steam_id":76561198157237945,"connected_time":4272000000000,"state":"active","ping":71},{"user_id":138,"name":"pepdgpr mang","steam_id":76561198241438086,"connected_time":3865000000000,"state":"active","ping":63},{"user_id":17,"name":"tacofever","steam_id":76561198010966507,"connected_time":7143000000000,"state":"active","ping":98},{"user_id":361,"name":"Mightymikekindapro","steam_id":76561199371685870,"connected_time":918000000000,"state":"active","ping":66},{"user_id":302,"name":"threethree","steam_id":76561198177354155,"connected_time":1572000000000,"state":"active","ping":45},{"user_id":48,"name":"Punished Kong","steam_id":76561198973620882,"connected_time":5974000000000,"state":"active","ping":72},{"user_id":70,"name":"C0RV3L","steam_id":76561199205094837,"connected_time":5373000000000,"state":"active","ping":79},{"user_id":383,"name":"Letters","steam_id":76561198035508148,"connected_time":525000000000,"state":"active","ping":94},{"user_id":227,"name":"ThatGamingKiwi","steam_id":76561199170522237,"connected_time":2599000000000,"state":"active","ping":81},{"user_id":313,"name":"Henk_de_Patatman","steam_id":76561198070103191,"connected_time":1446000000000,"state":"active","ping":130},{"user_id":356,"name":"Ifrit","steam_id":76561198044730782,"connected_time":968000000000,"state":"active","ping":88},{"user_id":32,"name":"Xan Hathaway","steam_id":76561198069816677,"connected_time":6372000000000,"state":"active","ping":84},{"user_id":405,"name":"Big Jack Horner","steam_id":76561198847690613,"connected_time":129000000000,"state":"active","ping":73},{"user_id":304,"name":"Bogos Binted","steam_id":76561198231522240,"connected_time":1561000000000,"state":"active","ping":54},{"user_id":240,"name":"hideyochest","steam_id":76561198090366059,"connected_time":2410000000000,"state":"active","ping":64},{"user_id":122,"name":"AkimboAoki","steam_id":76561198158323058,"connected_time":4218000000000,"state":"active","ping":93},{"user_id":284,"name":"team fortress","steam_id":76561198115443354,"connected_time":1923000000000,"state":"active","ping":48},{"user_id":222,"name":"EL Matador","steam_id":76561197971206879,"connected_time":2660000000000,"state":"active","ping":71}]},{"server_id":36,"name":"Uncletopia | Chicago | 5 | All Maps","name_short":"chi-5","host":"chi-2.us.uncletopia.com","port":27015,"enabled":true,"region":"us-central","cc":"us","latitude":41.881832,"longitude":-87.62318,"reserved":0,"last_update":"0001-01-01T00:00:00Z","name_a2s":"Uncletopia | Chicago | 5 | All Maps","protocol":17,"map":"koth_cascade","folder":"tf","game":"Team Fortress","app_id":440,"player_count":0,"max_players":24,"Bots":0,"server_type":"Dedicated","server_os":"Linux","password":true,"vac":true,"version":"7757534","steam_id":85568392924866362,"keywords":["cp","nocrits","nodmgspread","uncletopia"],"game_id":440,"stv_port":27016,"stv_name":"Uncletopia | Chicago | 5 | All Maps | STV","players":null},{"server_id":37,"name":"Uncletopia | Chicago | 6 | All Maps","name_short":"chi-6","host":"chi-2.us.uncletopia.com","port":27025,"enabled":true,"region":"us-central","cc":"us","latitude":41.881832,"longitude":-87.62318,"reserved":0,"last_update":"0001-01-01T00:00:00Z","name_a2s":"Uncletopia | Chicago | 6 | All Maps","protocol":17,"map":"pl_frontier_final","folder":"tf","game":"Team Fortress","app_id":440,"player_count":0,"max_players":24,"Bots":0,"server_type":"Dedicated","server_os":"Linux","password":true,"vac":true,"version":"7757534","steam_id":85568392924866363,"keywords":["nocrits","nodmgspread","payload","uncletopia"],"game_id":440,"stv_port":27026,"stv_name":"Uncletopia | Chicago | 6 | All Maps | STV","players":null},{"server_id":38,"name":"Uncletopia | Chicago | 7 | Stopwatch Beta","name_short":"chi-7","host":"chi-2.us.uncletopia.com","port":27035,"enabled":true,"region":"us-central","cc":"us","latitude":41.881832,"longitude":-87.62318,"reserved":0,"last_update":"0001-01-01T00:00:00Z","name_a2s":"Uncletopia | Chicago | 7 | Stopwatch Beta","protocol":17,"map":"pl_barnblitz","folder":"tf","game":"Team Fortress","app_id":440,"player_count":0,"max_players":24,"Bots":0,"server_type":"Dedicated","server_os":"Linux","password":true,"vac":true,"version":"7757534","steam_id":85568392924866364,"keywords":["nocrits","nodmgspread","payload","uncletopia"],"game_id":440,"stv_port":27036,"stv_name":"Uncletopia | Chicago | 7 | Stopwatch Beta | STV","players":null},{"server_id":39,"name":"Uncletopia | Chicago | 8 | Community","name_short":"chi-8","host":"chi-2.us.uncletopia.com","port":27045,"enabled":true,"region":"us-central","cc":"us","latitude":41.881832,"longitude":-87.62318,"reserved":0,"last_update":"0001-01-01T00:00:00Z","name_a2s":"Uncletopia | Chicago | 8 | Community","protocol":17,"map":"koth_cascade","folder":"tf","game":"Team Fortress","app_id":440,"player_count":0,"max_players":24,"Bots":0,"server_type":"Dedicated","server_os":"Linux","password":true,"vac":true,"version":"7757534","steam_id":85568392924866365,"keywords":["cp","nocrits","nodmgspread","uncletopia"],"game_id":440,"stv_port":27046,"stv_name":"Uncletopia | Chicago | 8 | Community | STV","players":null},{"server_id":8,"name":"Uncletopia | Dallas | 1 | All Maps","name_short":"dal-1","host":"dal-1.us.uncletopia.com","port":27015,"enabled":true,"region":"us-central","cc":"us","latitude":32.779167,"longitude":-96.80889,"reserved":0,"last_update":"0001-01-01T00:00:00Z","name_a2s":"Uncletopia | Dallas | 1 | All Maps","protocol":17,"map":"pl_snowycoast","folder":"tf","game":"Team Fortress","app_id":440,"player_count":20,"max_players":24,"Bots":0,"server_type":"Dedicated","server_os":"Linux","password":true,"vac":true,"version":"7757534","steam_id":85568392924469986,"keywords":["nocrits","nodmgspread","payload","uncletopia"],"game_id":440,"stv_port":27016,"stv_name":"Uncletopia | Dallas | 1 | All Maps | STV","players":[{"user_id":75,"name":"bagel_man","steam_id":76561198164640460,"connected_time":1008000000000,"state":"active","ping":105},{"user_id":65,"name":"xtal","steam_id":76561198354473513,"connected_time":1990000000000,"state":"active","ping":74},{"user_id":14,"name":"The Ultimate Coomer","steam_id":76561199128833757,"connected_time":4242000000000,"state":"active","ping":49},{"user_id":89,"name":"coodge","steam_id":76561198139080439,"connected_time":159000000000,"state":"active","ping":79},{"user_id":22,"name":"Mellou","steam_id":76561198212048740,"connected_time":3869000000000,"state":"active","ping":49},{"user_id":60,"name":"Broadsword","steam_id":76561198011160411,"connected_time":2094000000000,"state":"active","ping":88},{"user_id":90,"name":"DJFunnyBone","steam_id":76561198892528359,"connected_time":122000000000,"state":"active","ping":59},{"user_id":73,"name":"meo ♥","steam_id":76561197992719272,"connected_time":1138000000000,"state":"active","ping":68},{"user_id":81,"name":"brianwentnorth","steam_id":76561198234812380,"connected_time":637000000000,"state":"active","ping":92},{"user_id":91,"name":"@reallyBigBoss","steam_id":76561198137903950,"connected_time":40000000000,"state":"active","ping":109},{"user_id":59,"name":"Critical","steam_id":76561198123744966,"connected_time":2153000000000,"state":"active","ping":86},{"user_id":58,"name":"Cofi","steam_id":76561199026721822,"connected_time":2331000000000,"state":"active","ping":85},{"user_id":94,"name":"paper","steam_id":76561199075241499,"connected_time":4000000000,"state":"spawning","ping":45},{"user_id":78,"name":"El Chapo","steam_id":76561198018182763,"connected_time":861000000000,"state":"active","ping":114},{"user_id":88,"name":"evan_is_sauce","steam_id":76561199086802383,"connected_time":172000000000,"state":"active","ping":69},{"user_id":79,"name":"lazarust","steam_id":76561198355322731,"connected_time":808000000000,"state":"active","ping":76},{"user_id":55,"name":"Doppelpunkt","steam_id":76561198102137730,"connected_time":2607000000000,"state":"active","ping":71},{"user_id":93,"name":"mnmtortise","steam_id":76561198310540900,"connected_time":30000000000,"state":"spawning","ping":85},{"user_id":71,"name":"heimdall","steam_id":76561198069380992,"connected_time":1587000000000,"state":"active","ping":61},{"user_id":41,"name":"Winter the Witchie","steam_id":76561198151971178,"connected_time":3090000000000,"state":"active","ping":89}]},{"server_id":108,"name":"Uncletopia | Dallas | 2 | All Maps","name_short":"dal-2","host":"dal-1.us.uncletopia.com","port":27025,"enabled":true,"region":"us-central","cc":"us","latitude":32.779167,"longitude":-96.80889,"reserved":0,"last_update":"0001-01-01T00:00:00Z","name_a2s":"Uncletopia | Dallas | 2 | All Maps","protocol":17,"map":"pl_frontier_final","folder":"tf","game":"Team Fortress","app_id":440,"player_count":24,"max_players":24,"Bots":0,"server_type":"Dedicated","server_os":"Linux","password":true,"vac":true,"version":"7757534","steam_id":85568392924469988,"keywords":["nocrits","nodmgspread","payload","uncletopia"],"game_id":440,"stv_port":27026,"stv_name":"Uncletopia | Dallas | 2 | All Maps | STV","players":[{"user_id":6,"name":"Bestest bread","steam_id":76561199084344138,"connected_time":2304000000000,"state":"active","ping":54},{"user_id":20,"name":"soup","steam_id":76561198099977572,"connected_time":801000000000,"state":"active","ping":54},{"user_id":8,"name":"cynical_person","steam_id":76561198992742722,"connected_time":1882000000000,"state":"active","ping":79},{"user_id":39,"name":"CylonPlays","steam_id":76561198014978060,"connected_time":183000000000,"state":"active","ping":74},{"user_id":10,"name":"Smart Fella","steam_id":76561198397662124,"connected_time":1576000000000,"state":"active","ping":68},{"user_id":11,"name":"JootJoot","steam_id":76561198970778533,"connected_time":1532000000000,"state":"active","ping":66},{"user_id":12,"name":"Frog","steam_id":76561198093257083,"connected_time":1355000000000,"state":"active","ping":88},{"user_id":13,"name":"Toad :)","steam_id":76561198163008022,"connected_time":1341000000000,"state":"active","ping":99},{"user_id":14,"name":"Alyosha","steam_id":76561198446750497,"connected_time":1264000000000,"state":"active","ping":183},{"user_id":15,"name":"Patchy","steam_id":76561199120845371,"connected_time":1129000000000,"state":"active","ping":86},{"user_id":16,"name":"TheGhostThatWas","steam_id":76561198055836483,"connected_time":1006000000000,"state":"active","ping":76},{"user_id":17,"name":"the grunch","steam_id":76561199013160273,"connected_time":1003000000000,"state":"active","ping":69},{"user_id":27,"name":"Jimbo R. Daniel","steam_id":76561199024686023,"connected_time":449000000000,"state":"active","ping":66},{"user_id":19,"name":"marshmallowdragon999","steam_id":76561199129773712,"connected_time":944000000000,"state":"active","ping":77},{"user_id":42,"name":"jad.corinthian","steam_id":76561199475818481,"connected_time":28000000000,"state":"active","ping":69},{"user_id":37,"name":"ight gaming","steam_id":76561199196558677,"connected_time":283000000000,"state":"active","ping":69},{"user_id":24,"name":"Chief Diggery K.","steam_id":76561198066629137,"connected_time":534000000000,"state":"active","ping":82},{"user_id":29,"name":"DarkFalconDX","steam_id":76561199213908323,"connected_time":412000000000,"state":"active","ping":66},{"user_id":30,"name":"LG_Fridge_User","steam_id":76561198977815014,"connected_time":382000000000,"state":"active","ping":71},{"user_id":31,"name":"The Don","steam_id":76561198016807790,"connected_time":365000000000,"state":"active","ping":91},{"user_id":32,"name":"chicken on quack","steam_id":76561199235538552,"connected_time":364000000000,"state":"active","ping":95},{"user_id":40,"name":"Quakedad","steam_id":76561198055811307,"connected_time":176000000000,"state":"active","ping":139},{"user_id":36,"name":"apricity_a","steam_id":76561198202273263,"connected_time":286000000000,"state":"active","ping":60},{"user_id":41,"name":"SuperFresh","steam_id":76561198200723198,"connected_time":162000000000,"state":"active","ping":61}]},{"server_id":5,"name":"Uncletopia | Frankfurt | 1 | All Maps","name_short":"frk-1","host":"frk-1.de.uncletopia.com","port":27015,"enabled":true,"region":"eu","cc":"de","latitude":50.110924,"longitude":8.682127,"reserved":0,"last_update":"0001-01-01T00:00:00Z","name_a2s":"Uncletopia | Frankfurt | 1 | All Maps","protocol":17,"map":"cp_sunshine","folder":"tf","game":"Team Fortress","app_id":440,"player_count":0,"max_players":24,"Bots":0,"server_type":"Dedicated","server_os":"Linux","password":true,"vac":true,"version":"7757534","steam_id":85568392924469989,"keywords":["cp","nocrits","nodmgspread","uncletopia"],"game_id":440,"stv_port":27016,"stv_name":"Uncletopia | Frankfurt | 1 | All Maps | STV","players":null},{"server_id":110,"name":"Uncletopia | Frankfurt | 2 | All Maps","name_short":"frk-2","host":"frk-1.de.uncletopia.com","port":27025,"enabled":true,"region":"eu","cc":"de","latitude":50.110924,"longitude":8.682127,"reserved":0,"last_update":"0001-01-01T00:00:00Z","name_a2s":"Uncletopia | Frankfurt | 2 | All Maps","protocol":17,"map":"pl_badwater","folder":"tf","game":"Team Fortress","app_id":440,"player_count":24,"max_players":24,"Bots":0,"server_type":"Dedicated","server_os":"Linux","password":true,"vac":true,"version":"7757534","steam_id":85568392924469990,"keywords":["nocrits","nodmgspread","payload","uncletopia"],"game_id":440,"stv_port":27026,"stv_name":"Uncletopia | Frankfurt | 2 | All Maps | STV","players":[{"user_id":225,"name":"ParussMan","steam_id":76561198446245146,"connected_time":5610000000000,"state":"active","ping":108},{"user_id":277,"name":"onion knight","steam_id":76561198328543549,"connected_time":15000000000,"state":"spawning","ping":88},{"user_id":250,"name":"James","steam_id":76561198138558005,"connected_time":2320000000000,"state":"active","ping":74},{"user_id":265,"name":"☁ Lou1smeister ☁","steam_id":76561198004032968,"connected_time":1029000000000,"state":"active","ping":74},{"user_id":239,"name":"Welder","steam_id":76561198355300561,"connected_time":3704000000000,"state":"active","ping":63},{"user_id":189,"name":"Fish 'n' Chips","steam_id":76561198033476886,"connected_time":8347000000000,"state":"active","ping":44},{"user_id":270,"name":"snsmac","steam_id":76561198082821185,"connected_time":609000000000,"state":"active","ping":49},{"user_id":275,"name":"so called \"lactators\"","steam_id":76561198798803845,"connected_time":74000000000,"state":"active","ping":52},{"user_id":269,"name":"The 4th Doctor","steam_id":76561198191516706,"connected_time":753000000000,"state":"active","ping":68},{"user_id":274,"name":"chrząszcz","steam_id":76561198358887237,"connected_time":535000000000,"state":"active","ping":68},{"user_id":249,"name":"Yassine","steam_id":76561198140565712,"connected_time":2331000000000,"state":"active","ping":60},{"user_id":263,"name":"Utkunator","steam_id":76561198967463151,"connected_time":1122000000000,"state":"active","ping":96},{"user_id":264,"name":"Mantarochen","steam_id":76561198043476324,"connected_time":1115000000000,"state":"active","ping":68},{"user_id":273,"name":"Wattseyy","steam_id":76561198248567360,"connected_time":556000000000,"state":"active","ping":53},{"user_id":266,"name":"SNAKE_*******","steam_id":76561199250236487,"connected_time":1022000000000,"state":"active","ping":77},{"user_id":247,"name":"Dr.090","steam_id":76561198201215334,"connected_time":2855000000000,"state":"active","ping":80},{"user_id":240,"name":"mark","steam_id":76561198309246388,"connected_time":3628000000000,"state":"active","ping":51},{"user_id":261,"name":"I am piss man","steam_id":76561198039209685,"connected_time":1157000000000,"state":"active","ping":56},{"user_id":267,"name":"Udinese Dion","steam_id":76561198067931573,"connected_time":890000000000,"state":"active","ping":47},{"user_id":258,"name":"Pepegi","steam_id":76561198001230113,"connected_time":1831000000000,"state":"active","ping":68},{"user_id":198,"name":"COOL CAT","steam_id":76561198196259989,"connected_time":7506000000000,"state":"active","ping":62},{"user_id":271,"name":"Solymr ibn Wali Barad","steam_id":76561198044008976,"connected_time":608000000000,"state":"active","ping":74},{"user_id":231,"name":"poy","steam_id":76561198114063534,"connected_time":5232000000000,"state":"active","ping":45},{"user_id":254,"name":"Ixsus\u003c3","steam_id":76561198094756869,"connected_time":2266000000000,"state":"active","ping":60}]},{"server_id":308,"name":"Uncletopia | Frankfurt | 3 | All Maps","name_short":"frk-3","host":"frk-1.de.uncletopia.com","port":27035,"enabled":true,"region":"eu","cc":"de","latitude":50.110924,"longitude":8.682127,"reserved":0,"last_update":"0001-01-01T00:00:00Z","name_a2s":"Uncletopia | Frankfurt | 3 | All Maps","protocol":17,"map":"pl_barnblitz","folder":"tf","game":"Team Fortress","app_id":440,"player_count":24,"max_players":24,"Bots":0,"server_type":"Dedicated","server_os":"Linux","password":true,"vac":true,"version":"7757534","steam_id":85568392924504274,"keywords":["nocrits","nodmgspread","payload","uncletopia"],"game_id":440,"stv_port":27036,"stv_name":"Uncletopia | Frankfurt | 3 | All Maps | STV","players":[{"user_id":362,"name":"GardenFungus","steam_id":76561198054894337,"connected_time":781000000000,"state":"active","ping":59},{"user_id":285,"name":"XPullaHiiri","steam_id":76561198031652375,"connected_time":5998000000000,"state":"active","ping":87},{"user_id":357,"name":"LemonLeCitron","steam_id":76561198215545267,"connected_time":964000000000,"state":"active","ping":72},{"user_id":348,"name":"Spoodie","steam_id":76561198981267180,"connected_time":2128000000000,"state":"active","ping":82},{"user_id":350,"name":"lilly","steam_id":76561199441196540,"connected_time":1619000000000,"state":"active","ping":61},{"user_id":354,"name":"Célério","steam_id":76561198088253576,"connected_time":1291000000000,"state":"active","ping":83},{"user_id":331,"name":"EYE_BASH1(B.F.B.L)","steam_id":76561198201437311,"connected_time":2698000000000,"state":"active","ping":49},{"user_id":349,"name":"Spook","steam_id":76561198174716897,"connected_time":2052000000000,"state":"active","ping":65},{"user_id":346,"name":"Over here saw bones","steam_id":76561198320506848,"connected_time":2141000000000,"state":"active","ping":44},{"user_id":308,"name":"ItsJustReno","steam_id":76561198431390404,"connected_time":4444000000000,"state":"active","ping":65},{"user_id":363,"name":"Krauserik7","steam_id":76561198263204577,"connected_time":728000000000,"state":"active","ping":86},{"user_id":341,"name":"noot","steam_id":76561198387229607,"connected_time":2414000000000,"state":"active","ping":56},{"user_id":358,"name":"Breizbuc","steam_id":76561198118220633,"connected_time":944000000000,"state":"active","ping":65},{"user_id":368,"name":"Prox","steam_id":76561198351490981,"connected_time":212000000000,"state":"active","ping":50},{"user_id":366,"name":"Rain_hero","steam_id":76561198425145581,"connected_time":452000000000,"state":"active","ping":94},{"user_id":364,"name":"Spieller","steam_id":76561198057197847,"connected_time":728000000000,"state":"active","ping":77},{"user_id":324,"name":"EEEEEH","steam_id":76561198126717413,"connected_time":3189000000000,"state":"active","ping":83},{"user_id":365,"name":"Hyper","steam_id":76561198278194944,"connected_time":621000000000,"state":"active","ping":59},{"user_id":322,"name":"walluu","steam_id":76561198121830870,"connected_time":3419000000000,"state":"active","ping":75},{"user_id":360,"name":"karma chameleon","steam_id":76561198031573426,"connected_time":911000000000,"state":"active","ping":63},{"user_id":333,"name":"howabe","steam_id":76561197996486818,"connected_time":2678000000000,"state":"active","ping":53},{"user_id":367,"name":"socksareok","steam_id":76561198287902748,"connected_time":397000000000,"state":"active","ping":74},{"user_id":352,"name":"twitch.tv/vision515","steam_id":76561198065293729,"connected_time":1594000000000,"state":"active","ping":171},{"user_id":361,"name":"Gnaisse","steam_id":76561198010560642,"connected_time":900000000000,"state":"active","ping":88}]},{"server_id":309,"name":"Uncletopia | Frankfurt | 4 | All Maps","name_short":"frk-4","host":"frk-1.de.uncletopia.com","port":27045,"enabled":true,"region":"eu","cc":"de","latitude":50.110924,"longitude":8.682127,"reserved":0,"last_update":"0001-01-01T00:00:00Z","name_a2s":"Uncletopia | Frankfurt | 4 | All Maps","protocol":17,"map":"pl_badwater","folder":"tf","game":"Team Fortress","app_id":440,"player_count":24,"max_players":24,"Bots":0,"server_type":"Dedicated","server_os":"Linux","password":true,"vac":true,"version":"7757534","steam_id":85568392924504275,"keywords":["nocrits","nodmgspread","payload","uncletopia"],"game_id":440,"stv_port":27046,"stv_name":"Uncletopia | Frankfurt | 4 | All Maps | STV","players":[{"user_id":236,"name":"TheBeardedM1G","steam_id":76561198040208946,"connected_time":3007000000000,"state":"active","ping":59},{"user_id":284,"name":"Pingu","steam_id":76561198207966532,"connected_time":89000000000,"state":"active","ping":62},{"user_id":255,"name":"Purplenoogie","steam_id":76561198081872160,"connected_time":2173000000000,"state":"active","ping":56},{"user_id":278,"name":"4","steam_id":76561197964945192,"connected_time":766000000000,"state":"active","ping":48},{"user_id":267,"name":"Station of Clouds","steam_id":76561199382538536,"connected_time":1150000000000,"state":"active","ping":115},{"user_id":269,"name":"Spy Gaming","steam_id":76561198257225296,"connected_time":1139000000000,"state":"active","ping":66},{"user_id":285,"name":"Creamy","steam_id":76561198063907478,"connected_time":86000000000,"state":"active","ping":70},{"user_id":239,"name":"Sus Fring","steam_id":76561198821542489,"connected_time":2908000000000,"state":"active","ping":103},{"user_id":251,"name":"Canis[Magnus]Pectus","steam_id":76561198363775072,"connected_time":2197000000000,"state":"active","ping":127},{"user_id":283,"name":"Testicular torsion","steam_id":76561198119547399,"connected_time":226000000000,"state":"active","ping":59},{"user_id":286,"name":"Ar|es","steam_id":76561198819160313,"connected_time":79000000000,"state":"active","ping":83},{"user_id":252,"name":"the femboy gamer","steam_id":76561198445810164,"connected_time":2195000000000,"state":"active","ping":76},{"user_id":272,"name":"Leiv","steam_id":76561198087165610,"connected_time":1063000000000,"state":"active","ping":95},{"user_id":219,"name":"I was good before.","steam_id":76561198187045217,"connected_time":4756000000000,"state":"active","ping":77},{"user_id":276,"name":"biden blast","steam_id":76561198059699043,"connected_time":913000000000,"state":"active","ping":70},{"user_id":291,"name":"Josh","steam_id":76561198274546904,"connected_time":7000000000,"state":"spawning","ping":162},{"user_id":288,"name":"Mogwai","steam_id":76561198078832314,"connected_time":72000000000,"state":"active","ping":75},{"user_id":289,"name":"Nibbenji2077","steam_id":76561199219663655,"connected_time":33000000000,"state":"spawning","ping":156},{"user_id":290,"name":"StabbyKnife","steam_id":76561198094010004,"connected_time":28000000000,"state":"active","ping":89},{"user_id":248,"name":"⨂","steam_id":76561198087800030,"connected_time":2496000000000,"state":"active","ping":74},{"user_id":246,"name":"nidob","steam_id":76561198349648942,"connected_time":2617000000000,"state":"active","ping":84},{"user_id":265,"name":"Jörmungandr","steam_id":76561199121981748,"connected_time":1311000000000,"state":"active","ping":60},{"user_id":263,"name":"Maske","steam_id":76561198078100812,"connected_time":1493000000000,"state":"active","ping":51},{"user_id":215,"name":"Engi-Nearing","steam_id":76561199221172552,"connected_time":5127000000000,"state":"active","ping":72}]},{"server_id":310,"name":"Uncletopia | Frankfurt | 5 | All Maps","name_short":"frk-5","host":"frk-1.de.uncletopia.com","port":27055,"enabled":true,"region":"eu","cc":"de","latitude":50.110924,"longitude":8.682127,"reserved":0,"last_update":"0001-01-01T00:00:00Z","name_a2s":"Uncletopia | Frankfurt | 5 | All Maps","protocol":17,"map":"pl_swiftwater_final1","folder":"tf","game":"Team Fortress","app_id":440,"player_count":22,"max_players":24,"Bots":0,"server_type":"Dedicated","server_os":"Linux","password":true,"vac":true,"version":"7757534","steam_id":85568392924504277,"keywords":["nocrits","nodmgspread","payload","uncletopia"],"game_id":440,"stv_port":27056,"stv_name":"Uncletopia | Frankfurt | 5 | All Maps | STV","players":[{"user_id":288,"name":"LOBZIK","steam_id":76561198114830120,"connected_time":261000000000,"state":"active","ping":76},{"user_id":289,"name":"DarkWarfer700","steam_id":76561198449456497,"connected_time":257000000000,"state":"active","ping":42},{"user_id":176,"name":"TarekInnit","steam_id":76561198298618127,"connected_time":8379000000000,"state":"active","ping":48},{"user_id":290,"name":"recoil","steam_id":76561199168419398,"connected_time":237000000000,"state":"active","ping":77},{"user_id":217,"name":"Ziemniaczki z koperkiem","steam_id":76561198829123464,"connected_time":6479000000000,"state":"active","ping":109},{"user_id":220,"name":"Kotlet schabowy","steam_id":76561198048983509,"connected_time":6320000000000,"state":"active","ping":80},{"user_id":291,"name":"Ampiong99","steam_id":76561199245197481,"connected_time":167000000000,"state":"active","ping":59},{"user_id":230,"name":"cl_skinnyboi 1","steam_id":76561198042864708,"connected_time":5252000000000,"state":"active","ping":59},{"user_id":181,"name":"Oyu","steam_id":76561198113997772,"connected_time":8278000000000,"state":"active","ping":60},{"user_id":282,"name":"Ape","steam_id":76561198322703872,"connected_time":895000000000,"state":"active","ping":61},{"user_id":293,"name":"Kodutah","steam_id":76561198203405574,"connected_time":129000000000,"state":"active","ping":79},{"user_id":280,"name":"ArikMor","steam_id":76561199124472513,"connected_time":1180000000000,"state":"active","ping":107},{"user_id":265,"name":"Pyexorp","steam_id":76561199109194825,"connected_time":1653000000000,"state":"active","ping":76},{"user_id":278,"name":"Moth Man","steam_id":76561199229472366,"connected_time":1265000000000,"state":"active","ping":162},{"user_id":292,"name":"LoLo","steam_id":76561199403387863,"connected_time":152000000000,"state":"active","ping":54},{"user_id":268,"name":"painting4","steam_id":76561198067554256,"connected_time":1599000000000,"state":"active","ping":64},{"user_id":295,"name":"poshtoo @_@","steam_id":76561198106182078,"connected_time":56000000000,"state":"active","ping":103},{"user_id":269,"name":"cislastar","steam_id":76561198027202375,"connected_time":1589000000000,"state":"active","ping":67},{"user_id":294,"name":"Slim3rs","steam_id":76561199088010585,"connected_time":121000000000,"state":"active","ping":189},{"user_id":270,"name":"JakKob","steam_id":76561198935910043,"connected_time":1572000000000,"state":"active","ping":138},{"user_id":273,"name":"B4R10N","steam_id":76561198047167954,"connected_time":1486000000000,"state":"active","ping":60},{"user_id":286,"name":"JoueurFrançais","steam_id":76561198108081068,"connected_time":605000000000,"state":"active","ping":59}]},{"server_id":311,"name":"Uncletopia | Frankfurt | 6 | All Maps","name_short":"frk-6","host":"frk-1.de.uncletopia.com","port":27065,"enabled":true,"region":"eu","cc":"de","latitude":50.110924,"longitude":8.682127,"reserved":0,"last_update":"0001-01-01T00:00:00Z","name_a2s":"Uncletopia | Frankfurt | 6 | All Maps","protocol":17,"map":"pl_badwater","folder":"tf","game":"Team Fortress","app_id":440,"player_count":23,"max_players":24,"Bots":0,"server_type":"Dedicated","server_os":"Linux","password":true,"vac":true,"version":"7757534","steam_id":85568392924504278,"keywords":["nocrits","nodmgspread","payload","uncletopia"],"game_id":440,"stv_port":27066,"stv_name":"Uncletopia | Frankfurt | 6 | All Maps | STV","players":[{"user_id":22,"name":"Erkijokko","steam_id":76561198215204517,"connected_time":7712000000000,"state":"active","ping":74},{"user_id":23,"name":"Dor_atar","steam_id":76561198973980542,"connected_time":7610000000000,"state":"active","ping":70},{"user_id":117,"name":"WAPtrick star","steam_id":76561198133532980,"connected_time":102000000000,"state":"active","ping":59},{"user_id":90,"name":"j","steam_id":76561198299474630,"connected_time":2136000000000,"state":"active","ping":44},{"user_id":108,"name":"clems17","steam_id":76561199420685482,"connected_time":1180000000000,"state":"active","ping":61},{"user_id":57,"name":"tét.","steam_id":76561198146309367,"connected_time":4193000000000,"state":"active","ping":91},{"user_id":41,"name":"Nyhde","steam_id":76561198012771416,"connected_time":5011000000000,"state":"active","ping":89},{"user_id":101,"name":"jerf(god i want estrogen)","steam_id":76561199213901239,"connected_time":1812000000000,"state":"active","ping":53},{"user_id":91,"name":"_D4VID","steam_id":76561198163317060,"connected_time":2117000000000,"state":"active","ping":44},{"user_id":92,"name":"Okacha","steam_id":76561198341166854,"connected_time":2084000000000,"state":"active","ping":97},{"user_id":89,"name":"Ennard777","steam_id":76561198965409493,"connected_time":2168000000000,"state":"active","ping":101},{"user_id":58,"name":"Meg Thomas","steam_id":76561198308266951,"connected_time":4185000000000,"state":"active","ping":63},{"user_id":62,"name":"shadow39344","steam_id":76561198090639618,"connected_time":3974000000000,"state":"active","ping":56},{"user_id":111,"name":"my pee is red","steam_id":76561199142022395,"connected_time":474000000000,"state":"active","ping":67},{"user_id":112,"name":"Well, off to hang myself","steam_id":76561198053374944,"connected_time":403000000000,"state":"active","ping":72},{"user_id":105,"name":"RawGorilla","steam_id":76561198063654194,"connected_time":1743000000000,"state":"active","ping":70},{"user_id":76,"name":"Cossack","steam_id":76561198076661772,"connected_time":3091000000000,"state":"active","ping":89},{"user_id":97,"name":"n174","steam_id":76561199465285458,"connected_time":1878000000000,"state":"active","ping":59},{"user_id":80,"name":"Dr. Feelgood","steam_id":76561199173885103,"connected_time":2659000000000,"state":"active","ping":146},{"user_id":98,"name":"sunshine","steam_id":76561198084597975,"connected_time":1863000000000,"state":"active","ping":71},{"user_id":99,"name":"MeBandae","steam_id":76561198910770432,"connected_time":1837000000000,"state":"active","ping":110},{"user_id":116,"name":"MatesThePlayer","steam_id":76561198066156449,"connected_time":121000000000,"state":"active","ping":56},{"user_id":110,"name":"Yuzu","steam_id":76561198121694613,"connected_time":504000000000,"state":"active","ping":55}]},{"server_id":23,"name":"Uncletopia | Frankfurt | 7 | Stopwatch Beta","name_short":"frk-7","host":"frk-1.de.uncletopia.com","port":27075,"enabled":true,"region":"eu","cc":"de","latitude":50.110924,"longitude":8.682127,"reserved":0,"last_update":"0001-01-01T00:00:00Z","name_a2s":"Uncletopia | Frankfurt | 7 | Stopwatch Beta","protocol":17,"map":"workshop/koth_clearcut_b15.ugc2107050255","folder":"tf","game":"Team Fortress","app_id":440,"player_count":0,"max_players":24,"Bots":0,"server_type":"Dedicated","server_os":"Linux","password":true,"vac":true,"version":"7757534","steam_id":85568392924742827,"keywords":["cp","nocrits","nodmgspread","uncletopia"],"game_id":440,"stv_port":27076,"stv_name":"Uncletopia | Frankfurt | 7 | Stopwatch Beta | STV","players":null},{"server_id":24,"name":"Uncletopia | Frankfurt | 8 | Community","name_short":"frk-8","host":"frk-1.de.uncletopia.com","port":27085,"enabled":true,"region":"eu","cc":"de","latitude":50.110924,"longitude":8.682127,"reserved":0,"last_update":"0001-01-01T00:00:00Z","name_a2s":"Uncletopia | Frankfurt | 8 | Community","protocol":17,"map":"workshop/koth_kemptown_rc1.ugc767410655","folder":"tf","game":"Team Fortress","app_id":440,"player_count":18,"max_players":24,"Bots":0,"server_type":"Dedicated","server_os":"Linux","password":true,"vac":true,"version":"7757534","steam_id":85568392924742828,"keywords":["cp","nocrits","nodmgspread","uncletopia"],"game_id":440,"stv_port":27086,"stv_name":"Uncletopia | Frankfurt | 8 | Community | STV","players":[{"user_id":241,"name":"beurgeur","steam_id":76561198872426314,"connected_time":330000000000,"state":"active","ping":45},{"user_id":246,"name":"CZ3SIU","steam_id":76561198276522030,"connected_time":176000000000,"state":"active","ping":69},{"user_id":243,"name":"DraGOs512","steam_id":76561198438519964,"connected_time":284000000000,"state":"active","ping":78},{"user_id":202,"name":"Trolli","steam_id":76561199069726280,"connected_time":2872000000000,"state":"active","ping":41},{"user_id":229,"name":"Bock","steam_id":76561198020195322,"connected_time":1459000000000,"state":"active","ping":88},{"user_id":189,"name":"silicon based life form","steam_id":76561199127121346,"connected_time":3994000000000,"state":"active","ping":70},{"user_id":244,"name":"Tagoz ⛧","steam_id":76561198324472576,"connected_time":264000000000,"state":"active","ping":88},{"user_id":245,"name":"Lucyfer.exe","steam_id":76561198416897212,"connected_time":233000000000,"state":"active","ping":73},{"user_id":220,"name":"Owlet","steam_id":76561198065613974,"connected_time":2150000000000,"state":"active","ping":70},{"user_id":194,"name":"Spetse","steam_id":76561197990649972,"connected_time":3796000000000,"state":"active","ping":93},{"user_id":133,"name":"godmodule","steam_id":76561198165995444,"connected_time":9158000000000,"state":"active","ping":68},{"user_id":221,"name":"Tiraer","steam_id":76561198085712001,"connected_time":2127000000000,"state":"active","ping":51},{"user_id":231,"name":"DatBlodGud","steam_id":76561198867897841,"connected_time":1364000000000,"state":"active","ping":175},{"user_id":214,"name":"Staffy #CommunityServers♡♡","steam_id":76561198859722036,"connected_time":2336000000000,"state":"active","ping":106},{"user_id":248,"name":"Roquet","steam_id":76561198134486806,"connected_time":164000000000,"state":"active","ping":78},{"user_id":250,"name":"bliss","steam_id":76561198067459427,"connected_time":129000000000,"state":"active","ping":59},{"user_id":235,"name":"jawA","steam_id":76561198070341774,"connected_time":1178000000000,"state":"active","ping":78},{"user_id":239,"name":"Lössö","steam_id":76561197994254413,"connected_time":580000000000,"state":"active","ping":71}]},{"server_id":202,"name":"Uncletopia | Hong Kong | 1 | All Maps","name_short":"hgk-1","host":"hgk-1.hk.uncletopia.com","port":27015,"enabled":true,"region":"asia","cc":"hk","latitude":22.302711,"longitude":114.177216,"reserved":0,"last_update":"0001-01-01T00:00:00Z","name_a2s":"Uncletopia | Hong Kong | 1 | All Maps","protocol":17,"map":"cp_altitude","folder":"tf","game":"Team Fortress","app_id":440,"player_count":0,"max_players":24,"Bots":0,"server_type":"Dedicated","server_os":"Linux","password":true,"vac":true,"version":"7757534","steam_id":85568392924494504,"keywords":["cp","nocrits","nodmgspread","uncletopia"],"game_id":440,"stv_port":27016,"stv_name":"Uncletopia | Hong Kong | 1 | All Maps | STV","players":null},{"server_id":1,"name":"Uncletopia | Los Angeles | 1 | All Maps","name_short":"lax-1","host":"lax-1.us.uncletopia.com","port":27015,"enabled":true,"region":"us-west","cc":"us","latitude":33.94279,"longitude":-118.41004,"reserved":0,"last_update":"0001-01-01T00:00:00Z","name_a2s":"Uncletopia | Los Angeles | 1 | All Maps","protocol":17,"map":"koth_lakeside_final","folder":"tf","game":"Team Fortress","app_id":440,"player_count":0,"max_players":24,"Bots":0,"server_type":"Dedicated","server_os":"Linux","password":true,"vac":true,"version":"7757534","steam_id":85568392924469991,"keywords":["cp","nocrits","nodmgspread","uncletopia"],"game_id":440,"stv_port":27016,"stv_name":"Uncletopia | Los Angeles | 1 | All Maps | STV","players":null},{"server_id":112,"name":"Uncletopia | Los Angeles | 2 | All Maps","name_short":"lax-2","host":"lax-1.us.uncletopia.com","port":27025,"enabled":true,"region":"us-west","cc":"us","latitude":33.94279,"longitude":-118.41004,"reserved":0,"last_update":"0001-01-01T00:00:00Z","name_a2s":"Uncletopia | Los Angeles | 2 | All Maps","protocol":17,"map":"pl_badwater","folder":"tf","game":"Team Fortress","app_id":440,"player_count":2,"max_players":24,"Bots":0,"server_type":"Dedicated","server_os":"Linux","password":true,"vac":true,"version":"7757534","steam_id":85568392924469992,"keywords":["nocrits","nodmgspread","payload","uncletopia"],"game_id":440,"stv_port":27026,"stv_name":"Uncletopia | Los Angeles | 2 | All Maps | STV","players":[{"user_id":3,"name":"Is_notag","steam_id":76561199048269791,"connected_time":1566000000000,"state":"active","ping":134},{"user_id":4,"name":"Lauri","steam_id":76561198375473660,"connected_time":875000000000,"state":"active","ping":228}]},{"server_id":324,"name":"Uncletopia | Los Angeles | 3 | All Maps","name_short":"lax-3","host":"lax-1.us.uncletopia.com","port":27035,"enabled":true,"region":"us-west","cc":"us","latitude":33.94279,"longitude":-118.41004,"reserved":0,"last_update":"0001-01-01T00:00:00Z","name_a2s":"Uncletopia | Los Angeles | 3 | All Maps","protocol":17,"map":"pl_barnblitz","folder":"tf","game":"Team Fortress","app_id":440,"player_count":0,"max_players":24,"Bots":0,"server_type":"Dedicated","server_os":"Linux","password":true,"vac":true,"version":"7757534","steam_id":85568392924510198,"keywords":["nocrits","nodmgspread","payload","uncletopia"],"game_id":440,"stv_port":27036,"stv_name":"Uncletopia | Los Angeles | 3 | All Maps | STV","players":null},{"server_id":25,"name":"Uncletopia | Los Angeles | 4 | Stopwatch Beta","name_short":"lax-4","host":"lax-1.us.uncletopia.com","port":27045,"enabled":true,"region":"us-west","cc":"us","latitude":33.94279,"longitude":-118.41004,"reserved":0,"last_update":"0001-01-01T00:00:00Z","name_a2s":"Uncletopia | Los Angeles | 4 | Stopwatch Beta","protocol":17,"map":"pl_swiftwater_final1","folder":"tf","game":"Team Fortress","app_id":440,"player_count":0,"max_players":24,"Bots":0,"server_type":"Dedicated","server_os":"Linux","password":true,"vac":true,"version":"7757534","steam_id":85568392924510199,"keywords":["nocrits","nodmgspread","payload","uncletopia"],"game_id":440,"stv_port":27046,"stv_name":"Uncletopia | Los Angeles | 4 | Stopwatch Beta | STV","players":null},{"server_id":11,"name":"Uncletopia | London | 1 | All Maps","name_short":"lon-1","host":"lon-1.uk.uncletopia.com","port":27015,"enabled":true,"region":"eu","cc":"gb","latitude":51.509865,"longitude":-0.118092,"reserved":0,"last_update":"0001-01-01T00:00:00Z","name_a2s":"Uncletopia | London | 1 | All Maps","protocol":17,"map":"cp_dustbowl","folder":"tf","game":"Team Fortress","app_id":440,"player_count":25,"max_players":24,"Bots":0,"server_type":"Dedicated","server_os":"Linux","password":true,"vac":true,"version":"7757534","steam_id":85568392924367362,"keywords":["cp","nocrits","nodmgspread","uncletopia"],"game_id":440,"stv_port":27016,"stv_name":"Uncletopia | London | 1 | All Maps | STV","players":[{"user_id":534,"name":"Sippie","steam_id":76561198130393388,"connected_time":1432000000000,"state":"active","ping":60},{"user_id":527,"name":"RiX","steam_id":76561197969053733,"connected_time":1687000000000,"state":"active","ping":61},{"user_id":525,"name":":)","steam_id":76561198039964082,"connected_time":2055000000000,"state":"active","ping":61},{"user_id":497,"name":"Saken","steam_id":76561198049075295,"connected_time":3723000000000,"state":"active","ping":67},{"user_id":544,"name":"lark","steam_id":76561198091724522,"connected_time":794000000000,"state":"active","ping":59},{"user_id":523,"name":"ciliorkun18","steam_id":76561198228942500,"connected_time":2123000000000,"state":"active","ping":92},{"user_id":540,"name":"Benny the Ball","steam_id":76561198043104532,"connected_time":967000000000,"state":"active","ping":45},{"user_id":526,"name":"0xDEADBEEF","steam_id":76561199075416111,"connected_time":1772000000000,"state":"active","ping":62},{"user_id":570,"name":"poopie penis","steam_id":76561199360189459,"connected_time":128000000000,"state":"active","ping":70},{"user_id":541,"name":"TOMANDPC","steam_id":76561198065304748,"connected_time":926000000000,"state":"active","ping":57},{"user_id":543,"name":"Jack","steam_id":76561198079575891,"connected_time":828000000000,"state":"active","ping":44},{"user_id":545,"name":"limbicsystem","steam_id":76561198025612680,"connected_time":773000000000,"state":"active","ping":80},{"user_id":546,"name":"ohmiclaser","steam_id":76561198356393376,"connected_time":737000000000,"state":"active","ping":45},{"user_id":530,"name":"Lyell","steam_id":76561198350329389,"connected_time":1476000000000,"state":"active","ping":69},{"user_id":571,"name":"Son Goku","steam_id":76561199383437138,"connected_time":123000000000,"state":"active","ping":131},{"user_id":464,"name":"NLSAM","steam_id":76561199111154916,"connected_time":6092000000000,"state":"active","ping":64},{"user_id":575,"name":"Death","steam_id":76561198176896415,"connected_time":59000000000,"state":"spawning","ping":84},{"user_id":547,"name":"transgender e-girl","steam_id":76561198168589809,"connected_time":662000000000,"state":"active","ping":49},{"user_id":532,"name":"ChUngUster","steam_id":76561199191964937,"connected_time":1463000000000,"state":"active","ping":151},{"user_id":517,"name":"cropping","steam_id":76561198026586456,"connected_time":2348000000000,"state":"active","ping":55},{"user_id":528,"name":"Dr. Funkenstein","steam_id":76561197977816210,"connected_time":1668000000000,"state":"active","ping":49},{"user_id":491,"name":"Wilddagz","steam_id":76561199112468265,"connected_time":4128000000000,"state":"active","ping":70},{"user_id":514,"name":"hmscole09","steam_id":76561198811362788,"connected_time":2753000000000,"state":"active","ping":60},{"user_id":507,"name":"G/3","steam_id":76561198234844188,"connected_time":3199000000000,"state":"active","ping":59},{"user_id":551,"name":"foursixsixseven","steam_id":76561199123727043,"connected_time":580000000000,"state":"active","ping":54}]},{"server_id":114,"name":"Uncletopia | London | 2 | All Maps","name_short":"lon-2","host":"lon-1.uk.uncletopia.com","port":27025,"enabled":true,"region":"eu","cc":"gb","latitude":51.509865,"longitude":-0.118092,"reserved":0,"last_update":"0001-01-01T00:00:00Z","name_a2s":"Uncletopia | London | 2 | All Maps","protocol":17,"map":"pl_thundermountain","folder":"tf","game":"Team Fortress","app_id":440,"player_count":23,"max_players":24,"Bots":0,"server_type":"Dedicated","server_os":"Linux","password":true,"vac":true,"version":"7757534","steam_id":85568392924470941,"keywords":["nocrits","nodmgspread","payload","uncletopia"],"game_id":440,"stv_port":27026,"stv_name":"Uncletopia | London | 2 | All Maps | STV","players":[{"user_id":215,"name":"rwota","steam_id":76561198385769722,"connected_time":2947000000000,"state":"active","ping":113},{"user_id":233,"name":"Whiter Wlat","steam_id":76561198408012164,"connected_time":1593000000000,"state":"active","ping":71},{"user_id":234,"name":"Guru","steam_id":76561198093853069,"connected_time":1550000000000,"state":"active","ping":60},{"user_id":247,"name":"Fruzo","steam_id":76561197988382114,"connected_time":940000000000,"state":"active","ping":64},{"user_id":228,"name":"H1SM43L","steam_id":76561198133168564,"connected_time":1736000000000,"state":"active","ping":60},{"user_id":212,"name":"hipster_doofus","steam_id":76561197970902697,"connected_time":3076000000000,"state":"active","ping":64},{"user_id":213,"name":"Cotton Eye Joe","steam_id":76561198080594207,"connected_time":3026000000000,"state":"active","ping":60},{"user_id":222,"name":"Lord","steam_id":76561198241305816,"connected_time":2303000000000,"state":"active","ping":131},{"user_id":218,"name":"Burpman","steam_id":76561198022897937,"connected_time":2671000000000,"state":"active","ping":46},{"user_id":189,"name":"Een schaap zonder slaap","steam_id":76561198084808410,"connected_time":5027000000000,"state":"active","ping":60},{"user_id":190,"name":"Nomad994","steam_id":76561198051908201,"connected_time":4991000000000,"state":"active","ping":88},{"user_id":201,"name":"Husk","steam_id":76561198271808519,"connected_time":3910000000000,"state":"active","ping":67},{"user_id":248,"name":"SCRAMMMBLED","steam_id":76561197998307746,"connected_time":881000000000,"state":"active","ping":74},{"user_id":250,"name":"Arcader","steam_id":76561198109860110,"connected_time":228000000000,"state":"active","ping":66},{"user_id":225,"name":"2ka","steam_id":76561198343747394,"connected_time":2189000000000,"state":"active","ping":67},{"user_id":202,"name":"Zerfesh","steam_id":76561198117534358,"connected_time":3907000000000,"state":"active","ping":99},{"user_id":249,"name":"Kurage","steam_id":76561198021221288,"connected_time":596000000000,"state":"active","ping":72},{"user_id":245,"name":"Lowy","steam_id":76561198031470048,"connected_time":998000000000,"state":"active","ping":49},{"user_id":251,"name":"The Empire Ant","steam_id":76561198082466790,"connected_time":114000000000,"state":"active","ping":70},{"user_id":246,"name":"Wat Means?","steam_id":76561197966629582,"connected_time":972000000000,"state":"active","ping":65},{"user_id":237,"name":"Bronze Age GRINDSET","steam_id":76561198859118263,"connected_time":1500000000000,"state":"active","ping":147},{"user_id":238,"name":"let me cook","steam_id":76561198010380786,"connected_time":1445000000000,"state":"active","ping":46},{"user_id":240,"name":"Pershing[GER]","steam_id":76561197970330818,"connected_time":1347000000000,"state":"active","ping":70}]},{"server_id":320,"name":"Uncletopia | London | 3 | All Maps","name_short":"lon-3","host":"lon-1.uk.uncletopia.com","port":27035,"enabled":true,"region":"eu","cc":"gb","latitude":51.509865,"longitude":-0.118092,"reserved":0,"last_update":"0001-01-01T00:00:00Z","name_a2s":"Uncletopia | London | 3 | All Maps","protocol":17,"map":"koth_harvest_final","folder":"tf","game":"Team Fortress","app_id":440,"player_count":24,"max_players":24,"Bots":0,"server_type":"Dedicated","server_os":"Linux","password":true,"vac":true,"version":"7757534","steam_id":85568392924510192,"keywords":["cp","nocrits","nodmgspread","uncletopia"],"game_id":440,"stv_port":27036,"stv_name":"Uncletopia | London | 3 | All Maps | STV","players":[{"user_id":393,"name":"Sch","steam_id":76561198071341689,"connected_time":916000000000,"state":"active","ping":64},{"user_id":400,"name":"goreston","steam_id":76561197964666781,"connected_time":637000000000,"state":"active","ping":44},{"user_id":411,"name":"cosmo kramer, lord of the manor","steam_id":76561198074979596,"connected_time":395000000000,"state":"active","ping":89},{"user_id":353,"name":"Scooterboy","steam_id":76561198071705499,"connected_time":4184000000000,"state":"active","ping":45},{"user_id":417,"name":"\u003e.\u003c","steam_id":76561199434718013,"connected_time":206000000000,"state":"active","ping":72},{"user_id":410,"name":"hide on bush","steam_id":76561198149967445,"connected_time":432000000000,"state":"active","ping":29},{"user_id":368,"name":"Jackleg Joel","steam_id":76561198271636476,"connected_time":3143000000000,"state":"active","ping":65},{"user_id":412,"name":"THICCBOI69","steam_id":76561198881216489,"connected_time":298000000000,"state":"active","ping":180},{"user_id":389,"name":"fume.","steam_id":76561197960476801,"connected_time":1462000000000,"state":"active","ping":53},{"user_id":419,"name":"il","steam_id":76561198122662610,"connected_time":3000000000,"state":"spawning","ping":80},{"user_id":418,"name":"Zurpressed","steam_id":76561198361318432,"connected_time":56000000000,"state":"active","ping":187},{"user_id":397,"name":"Lukey","steam_id":76561198074642724,"connected_time":857000000000,"state":"active","ping":63},{"user_id":253,"name":"GamliRaudur1","steam_id":76561199179181105,"connected_time":11665000000000,"state":"active","ping":84},{"user_id":348,"name":"Rockpig","steam_id":76561198066421407,"connected_time":4760000000000,"state":"active","ping":61},{"user_id":405,"name":"ashen lad","steam_id":76561199360319669,"connected_time":522000000000,"state":"active","ping":86},{"user_id":414,"name":"Michael","steam_id":76561198003146906,"connected_time":279000000000,"state":"active","ping":45},{"user_id":390,"name":"Bob Burger","steam_id":76561197996149548,"connected_time":1343000000000,"state":"active","ping":51},{"user_id":379,"name":"Andy","steam_id":76561198046918834,"connected_time":2247000000000,"state":"active","ping":57},{"user_id":275,"name":"Brainfart08","steam_id":76561198170156079,"connected_time":10363000000000,"state":"active","ping":87},{"user_id":391,"name":"daddy cheese","steam_id":76561199049128913,"connected_time":1313000000000,"state":"active","ping":70},{"user_id":406,"name":"Pink Cheese","steam_id":76561198972186436,"connected_time":521000000000,"state":"active","ping":56},{"user_id":415,"name":"Carrot","steam_id":76561198119340863,"connected_time":274000000000,"state":"active","ping":41},{"user_id":416,"name":"Yelowchy","steam_id":76561198199416121,"connected_time":273000000000,"state":"active","ping":68},{"user_id":408,"name":"TIMgazowniK \u003c3TF2","steam_id":76561199244413650,"connected_time":497000000000,"state":"active","ping":107}]},{"server_id":321,"name":"Uncletopia | London | 4 | All Maps","name_short":"lon-4","host":"lon-1.uk.uncletopia.com","port":27045,"enabled":true,"region":"eu","cc":"gb","latitude":51.509865,"longitude":-0.118092,"reserved":0,"last_update":"0001-01-01T00:00:00Z","name_a2s":"Uncletopia | London | 4 | All Maps","protocol":17,"map":"koth_harvest_final","folder":"tf","game":"Team Fortress","app_id":440,"player_count":23,"max_players":24,"Bots":0,"server_type":"Dedicated","server_os":"Linux","password":true,"vac":true,"version":"7757534","steam_id":85568392924510193,"keywords":["cp","nocrits","nodmgspread","uncletopia"],"game_id":440,"stv_port":27046,"stv_name":"Uncletopia | London | 4 | All Maps | STV","players":[{"user_id":139,"name":"Breadcrab","steam_id":76561198015924039,"connected_time":1338000000000,"state":"active","ping":57},{"user_id":172,"name":"Drunk russian with pyromania","steam_id":76561198195527328,"connected_time":165000000000,"state":"active","ping":45},{"user_id":83,"name":"lvl. 50 honkler","steam_id":76561198061688660,"connected_time":5421000000000,"state":"active","ping":109},{"user_id":173,"name":"A cat","steam_id":76561198073769916,"connected_time":159000000000,"state":"active","ping":50},{"user_id":138,"name":"LT.Steeamer","steam_id":76561198271938142,"connected_time":1355000000000,"state":"active","ping":95},{"user_id":140,"name":"Jaxonus, Lizard Supremacist","steam_id":76561198043845690,"connected_time":1327000000000,"state":"active","ping":81},{"user_id":113,"name":"DrExplosive","steam_id":76561198063678579,"connected_time":2963000000000,"state":"active","ping":52},{"user_id":82,"name":"dopamine enjoyer","steam_id":76561198140591983,"connected_time":5462000000000,"state":"active","ping":83},{"user_id":144,"name":"or win","steam_id":76561198056238137,"connected_time":1249000000000,"state":"active","ping":67},{"user_id":171,"name":"Hussite","steam_id":76561199293036742,"connected_time":215000000000,"state":"active","ping":60},{"user_id":164,"name":"Cabbch","steam_id":76561198045955679,"connected_time":406000000000,"state":"active","ping":45},{"user_id":174,"name":"Lyra","steam_id":76561198043601838,"connected_time":147000000000,"state":"active","ping":61},{"user_id":38,"name":"the","steam_id":76561198079277466,"connected_time":8479000000000,"state":"active","ping":69},{"user_id":96,"name":"Goblin cock","steam_id":76561198980102679,"connected_time":4731000000000,"state":"active","ping":93},{"user_id":168,"name":"E² FTH","steam_id":76561198066287815,"connected_time":356000000000,"state":"active","ping":119},{"user_id":153,"name":"Mayor Wank from Wanker Town","steam_id":76561197998253588,"connected_time":1060000000000,"state":"active","ping":57},{"user_id":101,"name":"killer of noob, winner of game","steam_id":76561198190583242,"connected_time":4126000000000,"state":"active","ping":76},{"user_id":43,"name":"Jeeworth","steam_id":76561198797972504,"connected_time":8384000000000,"state":"active","ping":85},{"user_id":91,"name":"Ultra_swimmer","steam_id":76561198049382217,"connected_time":5195000000000,"state":"active","ping":67},{"user_id":119,"name":"Wardruna96","steam_id":76561199057083828,"connected_time":2751000000000,"state":"active","ping":75},{"user_id":158,"name":"Marquis de Hoto","steam_id":76561198080687708,"connected_time":667000000000,"state":"active","ping":74},{"user_id":159,"name":"da number one gamer","steam_id":76561199049633351,"connected_time":635000000000,"state":"active","ping":71},{"user_id":166,"name":"AmazingMe","steam_id":76561198015917456,"connected_time":393000000000,"state":"active","ping":85}]},{"server_id":21,"name":"Uncletopia | London | 5 | All Maps","name_short":"lon-5","host":"lon-1.uk.uncletopia.com","port":27055,"enabled":true,"region":"eu","cc":"gb","latitude":51.509865,"longitude":-0.118092,"reserved":0,"last_update":"0001-01-01T00:00:00Z","name_a2s":"Uncletopia | London | 5 | All Maps","protocol":17,"map":"koth_lakeside_final","folder":"tf","game":"Team Fortress","app_id":440,"player_count":0,"max_players":24,"Bots":0,"server_type":"Dedicated","server_os":"Linux","password":true,"vac":true,"version":"7757534","steam_id":85568392924742829,"keywords":["cp","nocrits","nodmgspread","uncletopia"],"game_id":440,"stv_port":27056,"stv_name":"Uncletopia | London | 5 | All Maps | STV","players":null},{"server_id":22,"name":"Uncletopia | London | 6 | All Maps","name_short":"lon-6","host":"lon-1.uk.uncletopia.com","port":27065,"enabled":true,"region":"eu","cc":"gb","latitude":51.509865,"longitude":-0.118092,"reserved":0,"last_update":"0001-01-01T00:00:00Z","name_a2s":"Uncletopia | London | 6 | All Maps","protocol":17,"map":"koth_highpass","folder":"tf","game":"Team Fortress","app_id":440,"player_count":0,"max_players":24,"Bots":0,"server_type":"Dedicated","server_os":"Linux","password":true,"vac":true,"version":"7757534","steam_id":85568392924742830,"keywords":["cp","nocrits","nodmgspread","uncletopia"],"game_id":440,"stv_port":27066,"stv_name":"Uncletopia | London | 6 | All Maps | STV","players":null},{"server_id":40,"name":"Uncletopia | London | 7 | No Payload","name_short":"lon-7","host":"lon-1.uk.uncletopia.com","port":27075,"enabled":true,"region":"eu","cc":"gb","latitude":51.509865,"longitude":-0.118092,"reserved":0,"last_update":"0001-01-01T00:00:00Z","name_a2s":"Uncletopia | London | 7 | No Payload","protocol":17,"map":"koth_king","folder":"tf","game":"Team Fortress","app_id":440,"player_count":0,"max_players":24,"Bots":0,"server_type":"Dedicated","server_os":"Linux","password":true,"vac":true,"version":"7757534","steam_id":85568392924964314,"keywords":["cp","nocrits","nodmgspread","uncletopia"],"game_id":440,"stv_port":27076,"stv_name":"Uncletopia | London | 7 | No Payload | STV","players":null},{"server_id":41,"name":"Uncletopia | London | 8 | Community","name_short":"lon-8","host":"lon-1.uk.uncletopia.com","port":27085,"enabled":true,"region":"eu","cc":"gb","latitude":51.509865,"longitude":-0.118092,"reserved":0,"last_update":"0001-01-01T00:00:00Z","name_a2s":"Uncletopia | London | 8 | Community","protocol":17,"map":"workshop/koth_bagel_rc6.ugc2514036946","folder":"tf","game":"Team Fortress","app_id":440,"player_count":0,"max_players":24,"Bots":0,"server_type":"Dedicated","server_os":"Linux","password":true,"vac":true,"version":"7757534","steam_id":85568392924964315,"keywords":["cp","nocrits","nodmgspread","uncletopia"],"game_id":440,"stv_port":27086,"stv_name":"Uncletopia | London | 8 | Community | STV","players":null},{"server_id":300,"name":"Uncletopia | Montréal | 1 | All Maps","name_short":"mtl-1","host":"mtl-1.ca.uncletopia.com","port":27015,"enabled":true,"region":"us-east","cc":"ca","latitude":45.50889,"longitude":-73.56167,"reserved":0,"last_update":"0001-01-01T00:00:00Z","name_a2s":"Uncletopia | Montréal | 1 | All Maps","protocol":17,"map":"pl_upward","folder":"tf","game":"Team Fortress","app_id":440,"player_count":0,"max_players":24,"Bots":0,"server_type":"Dedicated","server_os":"Linux","password":true,"vac":true,"version":"7757534","steam_id":85568392924500087,"keywords":["nocrits","nodmgspread","payload","uncletopia"],"game_id":440,"stv_port":27016,"stv_name":"Uncletopia | Montréal | 1 | All Maps | STV","players":null},{"server_id":301,"name":"Uncletopia | Montréal | 2 | All Maps","name_short":"mtl-2","host":"mtl-1.ca.uncletopia.com","port":27025,"enabled":true,"region":"us-east","cc":"ca","latitude":45.50889,"longitude":-73.56167,"reserved":0,"last_update":"0001-01-01T00:00:00Z","name_a2s":"Uncletopia | Montréal | 2 | All Maps","protocol":17,"map":"pl_snowycoast","folder":"tf","game":"Team Fortress","app_id":440,"player_count":0,"max_players":24,"Bots":0,"server_type":"Dedicated","server_os":"Linux","password":true,"vac":true,"version":"7757534","steam_id":85568392924500088,"keywords":["nocrits","nodmgspread","payload","uncletopia"],"game_id":440,"stv_port":27026,"stv_name":"Uncletopia | Montréal | 2 | All Maps | STV","players":null},{"server_id":302,"name":"Uncletopia | Montréal | 3 | All Maps","name_short":"mtl-3","host":"mtl-1.ca.uncletopia.com","port":27035,"enabled":true,"region":"us-east","cc":"ca","latitude":45.50889,"longitude":-73.56167,"reserved":0,"last_update":"0001-01-01T00:00:00Z","name_a2s":"Uncletopia | Montréal | 3 | All Maps","protocol":17,"map":"pl_swiftwater_final1","folder":"tf","game":"Team Fortress","app_id":440,"player_count":0,"max_players":24,"Bots":0,"server_type":"Dedicated","server_os":"Linux","password":true,"vac":true,"version":"7757534","steam_id":85568392924500089,"keywords":["nocrits","nodmgspread","payload","uncletopia"],"game_id":440,"stv_port":27036,"stv_name":"Uncletopia | Montréal | 3 | All Maps | STV","players":null},{"server_id":303,"name":"Uncletopia | Montréal | 4 | No Payload","name_short":"mtl-4","host":"mtl-1.ca.uncletopia.com","port":27045,"enabled":true,"region":"us-east","cc":"ca","latitude":45.50889,"longitude":-73.56167,"reserved":0,"last_update":"0001-01-01T00:00:00Z","name_a2s":"Uncletopia | Montréal | 4 | No Payload","protocol":17,"map":"pl_pier","folder":"tf","game":"Team Fortress","app_id":440,"player_count":0,"max_players":24,"Bots":0,"server_type":"Dedicated","server_os":"Linux","password":true,"vac":true,"version":"7757534","steam_id":85568392924500090,"keywords":["nocrits","nodmgspread","payload","uncletopia"],"game_id":440,"stv_port":27046,"stv_name":"Uncletopia | Montréal | 4 | No Payload | STV","players":null},{"server_id":13,"name":"Uncletopia | New York City | 1 | All Maps","name_short":"nyc-1","host":"nyc-1.us.uncletopia.com","port":27015,"enabled":true,"region":"us-east","cc":"us","latitude":40.73061,"longitude":-73.93524,"reserved":0,"last_update":"0001-01-01T00:00:00Z","name_a2s":"Uncletopia | New York City | 1 | All Maps","protocol":17,"map":"pl_barnblitz","folder":"tf","game":"Team Fortress","app_id":440,"player_count":24,"max_players":24,"Bots":0,"server_type":"Dedicated","server_os":"Linux","password":true,"vac":true,"version":"7757534","steam_id":85568392924469993,"keywords":["nocrits","nodmgspread","payload","uncletopia"],"game_id":440,"stv_port":27016,"stv_name":"Uncletopia | New York City | 1 | All Maps | STV","players":[{"user_id":113,"name":"Vegerot","steam_id":76561197997843710,"connected_time":1093000000000,"state":"active","ping":46},{"user_id":117,"name":"Scita","steam_id":76561198066861559,"connected_time":972000000000,"state":"active","ping":61},{"user_id":72,"name":"Lin","steam_id":76561198143746480,"connected_time":3718000000000,"state":"active","ping":125},{"user_id":104,"name":"srac","steam_id":76561199046993811,"connected_time":1317000000000,"state":"active","ping":104},{"user_id":99,"name":"『 Ethereal 』","steam_id":76561199385170644,"connected_time":1694000000000,"state":"active","ping":73},{"user_id":71,"name":"GailusTerran","steam_id":76561198319509387,"connected_time":3821000000000,"state":"active","ping":58},{"user_id":86,"name":"quadapalozle","steam_id":76561198327686110,"connected_time":2687000000000,"state":"active","ping":64},{"user_id":87,"name":"the doo doo man","steam_id":76561198057076267,"connected_time":2653000000000,"state":"active","ping":66},{"user_id":120,"name":"cheesejuice","steam_id":76561198353455004,"connected_time":498000000000,"state":"active","ping":96},{"user_id":121,"name":"Demoman With One Joke","steam_id":76561197993467034,"connected_time":462000000000,"state":"active","ping":82},{"user_id":88,"name":"SC|Formuoli","steam_id":76561198254354595,"connected_time":2616000000000,"state":"active","ping":58},{"user_id":94,"name":"ЯawrFatcat","steam_id":76561198017698926,"connected_time":2428000000000,"state":"active","ping":96},{"user_id":109,"name":"DirectoryFiber1","steam_id":76561198058790256,"connected_time":1266000000000,"state":"active","ping":47},{"user_id":115,"name":"tasty","steam_id":76561198083839061,"connected_time":1043000000000,"state":"active","ping":65},{"user_id":122,"name":"carrion goat she/it","steam_id":76561198262064871,"connected_time":407000000000,"state":"active","ping":37},{"user_id":123,"name":"Ursus Ludius","steam_id":76561198025470722,"connected_time":406000000000,"state":"active","ping":68},{"user_id":124,"name":"The Drunk Clown","steam_id":76561197986850426,"connected_time":402000000000,"state":"active","ping":73},{"user_id":95,"name":"onions","steam_id":76561198201259645,"connected_time":2308000000000,"state":"active","ping":60},{"user_id":119,"name":"Carson","steam_id":76561198076771071,"connected_time":855000000000,"state":"active","ping":74},{"user_id":57,"name":"Wayne Noodleman","steam_id":76561198046347398,"connected_time":4698000000000,"state":"active","ping":72},{"user_id":116,"name":"SomeFlamingo","steam_id":76561198869299841,"connected_time":1033000000000,"state":"active","ping":53},{"user_id":59,"name":"Wahooka","steam_id":76561197962240925,"connected_time":4646000000000,"state":"active","ping":54},{"user_id":110,"name":"Proof by close enough","steam_id":76561198083345384,"connected_time":1252000000000,"state":"active","ping":98},{"user_id":101,"name":"Lemmers235","steam_id":76561199192668922,"connected_time":1465000000000,"state":"active","ping":103}]},{"server_id":14,"name":"Uncletopia | New York City | 2 | All Maps","name_short":"nyc-2","host":"nyc-1.us.uncletopia.com","port":27025,"enabled":true,"region":"us-east","cc":"us","latitude":40.73061,"longitude":-73.93524,"reserved":0,"last_update":"0001-01-01T00:00:00Z","name_a2s":"Uncletopia | New York City | 2 | All Maps","protocol":17,"map":"pl_badwater","folder":"tf","game":"Team Fortress","app_id":440,"player_count":24,"max_players":24,"Bots":0,"server_type":"Dedicated","server_os":"Linux","password":true,"vac":true,"version":"7757534","steam_id":85568392924469994,"keywords":["nocrits","nodmgspread","payload","uncletopia"],"game_id":440,"stv_port":27026,"stv_name":"Uncletopia | New York City | 2 | All Maps | STV","players":[{"user_id":179,"name":"Luck","steam_id":76561199122232082,"connected_time":1837000000000,"state":"active","ping":64},{"user_id":134,"name":"rad","steam_id":76561198413125750,"connected_time":4205000000000,"state":"active","ping":49},{"user_id":163,"name":"toastman","steam_id":76561198207073088,"connected_time":2169000000000,"state":"active","ping":89},{"user_id":164,"name":"SAULGOODMAN","steam_id":76561198432309150,"connected_time":2162000000000,"state":"active","ping":105},{"user_id":175,"name":"jm","steam_id":76561197996774870,"connected_time":1944000000000,"state":"active","ping":67},{"user_id":166,"name":"GOT DA STRAP ON ME #NOLESBO","steam_id":76561198144766439,"connected_time":2128000000000,"state":"active","ping":62},{"user_id":185,"name":"SHADOW WIZARD MONEY GANG","steam_id":76561198179324075,"connected_time":385000000000,"state":"active","ping":134},{"user_id":171,"name":"Fallbourn","steam_id":76561197994851732,"connected_time":2027000000000,"state":"active","ping":86},{"user_id":184,"name":"alex","steam_id":76561198095203229,"connected_time":566000000000,"state":"active","ping":71},{"user_id":82,"name":"Lost","steam_id":76561198093713427,"connected_time":8605000000000,"state":"active","ping":75},{"user_id":180,"name":"Shattered Glass","steam_id":76561198116835391,"connected_time":979000000000,"state":"active","ping":89},{"user_id":155,"name":"Bird","steam_id":76561198247484514,"connected_time":2574000000000,"state":"active","ping":60},{"user_id":181,"name":"mmrabet","steam_id":76561198073032124,"connected_time":956000000000,"state":"active","ping":69},{"user_id":186,"name":"Agent Hugh Jass","steam_id":76561199097744991,"connected_time":338000000000,"state":"active","ping":60},{"user_id":129,"name":"Kaboob","steam_id":76561199121870665,"connected_time":4682000000000,"state":"active","ping":68},{"user_id":156,"name":"Fat and Dumb Idiot","steam_id":76561198192455343,"connected_time":2548000000000,"state":"active","ping":48},{"user_id":182,"name":"DagyDin","steam_id":76561199212257554,"connected_time":909000000000,"state":"active","ping":76},{"user_id":152,"name":"roo the observer","steam_id":76561198120684348,"connected_time":2917000000000,"state":"active","ping":74},{"user_id":160,"name":"guyinatophat51","steam_id":76561198180230694,"connected_time":2262000000000,"state":"active","ping":63},{"user_id":183,"name":"Gabriel Gaming","steam_id":76561198033853324,"connected_time":863000000000,"state":"active","ping":88},{"user_id":172,"name":"Aurro","steam_id":76561198315692300,"connected_time":1997000000000,"state":"active","ping":51},{"user_id":178,"name":"shadow6","steam_id":76561197979807910,"connected_time":1873000000000,"state":"active","ping":102},{"user_id":176,"name":"FunnyCool","steam_id":76561198029843142,"connected_time":1936000000000,"state":"active","ping":133},{"user_id":177,"name":"kametro4","steam_id":76561198835430429,"connected_time":1904000000000,"state":"active","ping":67}]},{"server_id":15,"name":"Uncletopia | New York City | 3 | Stopwatch Beta","name_short":"nyc-3","host":"nyc-1.us.uncletopia.com","port":27035,"enabled":true,"region":"us-east","cc":"us","latitude":40.73061,"longitude":-73.93524,"reserved":0,"last_update":"0001-01-01T00:00:00Z","name_a2s":"Uncletopia | New York City | 3 | Stopwatch Beta","protocol":17,"map":"workshop/koth_bagel_rc6.ugc2514036946","folder":"tf","game":"Team Fortress","app_id":440,"player_count":0,"max_players":24,"Bots":0,"server_type":"Dedicated","server_os":"Linux","password":true,"vac":true,"version":"7757534","steam_id":85568392924742820,"keywords":["cp","nocrits","nodmgspread","uncletopia"],"game_id":440,"stv_port":27036,"stv_name":"Uncletopia | New York City | 3 | Stopwatch Beta | STV","players":null},{"server_id":16,"name":"Uncletopia | New York City | 4 | Community","name_short":"nyc-4","host":"nyc-1.us.uncletopia.com","port":27045,"enabled":true,"region":"us-east","cc":"us","latitude":40.73061,"longitude":-73.93524,"reserved":0,"last_update":"0001-01-01T00:00:00Z","name_a2s":"Uncletopia | New York City | 4 | Community","protocol":17,"map":"workshop/pl_cactuscanyon_redux_final1.ugc2579644293","folder":"tf","game":"Team Fortress","app_id":440,"player_count":4,"max_players":24,"Bots":0,"server_type":"Dedicated","server_os":"Linux","password":true,"vac":true,"version":"7757534","steam_id":85568392924742821,"keywords":["nocrits","nodmgspread","payload","uncletopia"],"game_id":440,"stv_port":27046,"stv_name":"Uncletopia | New York City | 4 | Community | STV","players":[{"user_id":7,"name":"THE LOATHSOME DUNG EATER","steam_id":76561198805375543,"connected_time":2663000000000,"state":"active","ping":128},{"user_id":11,"name":"bash -lc ./asshat.sh","steam_id":76561198004584315,"connected_time":1289000000000,"state":"active","ping":89},{"user_id":12,"name":"❤♡･ﾟBubbles･ﾟ♡❤","steam_id":76561198041057042,"connected_time":1173000000000,"state":"active","ping":89},{"user_id":14,"name":"MagicMuffinman","steam_id":76561198149255313,"connected_time":1043000000000,"state":"active","ping":80}]},{"server_id":142,"name":"Uncletopia | São Paulo | 1 | All Maps","name_short":"sao-1","host":"sao-1.br.uncletopia.com","port":27015,"enabled":true,"region":"sa","cc":"br","latitude":-23.533773,"longitude":-46.62529,"reserved":0,"last_update":"0001-01-01T00:00:00Z","name_a2s":"Uncletopia | São Paulo | 1 | All Maps","protocol":17,"map":"koth_lakeside_final","folder":"tf","game":"Team Fortress","app_id":440,"player_count":0,"max_players":24,"Bots":0,"server_type":"Dedicated","server_os":"Linux","password":true,"vac":true,"version":"7757534","steam_id":85568392924469996,"keywords":["cp","nocrits","nodmgspread","uncletopia"],"game_id":440,"stv_port":27016,"stv_name":"Uncletopia | São Paulo | 1 | All Maps | STV","players":null},{"server_id":143,"name":"Uncletopia | São Paulo | 2 | All Maps","name_short":"sao-2","host":"sao-2.br.uncletopia.com","port":27015,"enabled":true,"region":"sa","cc":"br","latitude":-23.533773,"longitude":-46.62529,"reserved":0,"last_update":"0001-01-01T00:00:00Z","name_a2s":"Uncletopia | São Paulo | 2 | All Maps","protocol":17,"map":"koth_harvest_final","folder":"tf","game":"Team Fortress","app_id":440,"player_count":9,"max_players":24,"Bots":0,"server_type":"Dedicated","server_os":"Linux","password":true,"vac":true,"version":"7757534","steam_id":85568392924485349,"keywords":["cp","nocrits","nodmgspread","uncletopia"],"game_id":440,"stv_port":27016,"stv_name":"Uncletopia | São Paulo | 2 | All Maps | STV","players":[{"user_id":17,"name":"¦{−−D@t ScÜ⋂⊤−−}\ufffd","steam_id":76561199218110014,"connected_time":1113000000000,"state":"active","ping":179},{"user_id":18,"name":"mel","steam_id":76561199304706896,"connected_time":1087000000000,"state":"active","ping":70},{"user_id":19,"name":"Kyouko8","steam_id":76561198297727914,"connected_time":907000000000,"state":"active","ping":42},{"user_id":12,"name":"flamingo","steam_id":76561198854099251,"connected_time":1603000000000,"state":"active","ping":70},{"user_id":13,"name":"cereal with water","steam_id":76561199072717996,"connected_time":1558000000000,"state":"active","ping":191},{"user_id":20,"name":"Rândrey","steam_id":76561198302119344,"connected_time":798000000000,"state":"active","ping":88},{"user_id":24,"name":"Kenoxn","steam_id":76561198045818080,"connected_time":90000000000,"state":"active","ping":75},{"user_id":22,"name":"Gogoyle50","steam_id":76561198148524228,"connected_time":718000000000,"state":"active","ping":55},{"user_id":23,"name":"raw","steam_id":76561199067810791,"connected_time":207000000000,"state":"active","ping":47}]},{"server_id":7,"name":"Uncletopia | Seattle | 1 | All Maps","name_short":"sea-1","host":"sea-1.us.uncletopia.com","port":27015,"enabled":true,"region":"us-west","cc":"us","latitude":47.608013,"longitude":-122.33517,"reserved":0,"last_update":"0001-01-01T00:00:00Z","name_a2s":"Uncletopia | Seattle | 1 | All Maps","protocol":17,"map":"pl_pier","folder":"tf","game":"Team Fortress","app_id":440,"player_count":22,"max_players":24,"Bots":0,"server_type":"Dedicated","server_os":"Linux","password":true,"vac":true,"version":"7757534","steam_id":85568392924469997,"keywords":["nocrits","nodmgspread","payload","uncletopia"],"game_id":440,"stv_port":27016,"stv_name":"Uncletopia | Seattle | 1 | All Maps | STV","players":[{"user_id":171,"name":"Korshal","steam_id":76561198819036121,"connected_time":272000000000,"state":"active","ping":125},{"user_id":153,"name":"Beans","steam_id":76561198418116040,"connected_time":1687000000000,"state":"active","ping":150},{"user_id":157,"name":"stillgeneric?","steam_id":76561198872727936,"connected_time":1221000000000,"state":"active","ping":85},{"user_id":151,"name":"mingo","steam_id":76561198308290211,"connected_time":1745000000000,"state":"active","ping":92},{"user_id":115,"name":"Dob Bole","steam_id":76561198056367220,"connected_time":2988000000000,"state":"active","ping":74},{"user_id":134,"name":"Bravo to Alpha","steam_id":76561198149821972,"connected_time":2399000000000,"state":"active","ping":133},{"user_id":117,"name":"Dr. Adolf Sponge","steam_id":76561198072573105,"connected_time":2949000000000,"state":"active","ping":120},{"user_id":161,"name":"schmopp","steam_id":76561198076490954,"connected_time":1097000000000,"state":"active","ping":75},{"user_id":172,"name":"whip bone grew shrooms","steam_id":76561198338482937,"connected_time":206000000000,"state":"active","ping":106},{"user_id":135,"name":"john","steam_id":76561198850447852,"connected_time":2391000000000,"state":"active","ping":78},{"user_id":159,"name":"Grify","steam_id":76561198012292317,"connected_time":1133000000000,"state":"active","ping":144},{"user_id":160,"name":"Exowo","steam_id":76561198137881414,"connected_time":1114000000000,"state":"active","ping":141},{"user_id":174,"name":"Temmie500","steam_id":76561199067942631,"connected_time":112000000000,"state":"active","ping":115},{"user_id":166,"name":"Vacc Onetrick","steam_id":76561198207987376,"connected_time":1054000000000,"state":"active","ping":115},{"user_id":175,"name":"potateking","steam_id":76561198066579830,"connected_time":111000000000,"state":"active","ping":234},{"user_id":145,"name":"Malevo","steam_id":76561198148606522,"connected_time":1891000000000,"state":"active","ping":105},{"user_id":163,"name":"Coffeemelon","steam_id":76561198285891257,"connected_time":1091000000000,"state":"active","ping":78},{"user_id":168,"name":"dust | she/it","steam_id":76561198045218909,"connected_time":965000000000,"state":"active","ping":44},{"user_id":127,"name":"BreadQuest","steam_id":76561198082425960,"connected_time":2698000000000,"state":"active","ping":46},{"user_id":146,"name":"Yoyo-Wo","steam_id":76561198880520205,"connected_time":1888000000000,"state":"active","ping":91},{"user_id":169,"name":"soup time","steam_id":76561197961488590,"connected_time":688000000000,"state":"active","ping":107},{"user_id":155,"name":"dP | I'm in a Wookie Suit","steam_id":76561198083307644,"connected_time":1313000000000,"state":"active","ping":56}]},{"server_id":119,"name":"Uncletopia | Seattle | 2 | All Maps","name_short":"sea-2","host":"sea-1.us.uncletopia.com","port":27025,"enabled":true,"region":"us-west","cc":"us","latitude":47.608013,"longitude":-122.33517,"reserved":0,"last_update":"0001-01-01T00:00:00Z","name_a2s":"Uncletopia | Seattle | 2 | All Maps","protocol":17,"map":"pl_borneo","folder":"tf","game":"Team Fortress","app_id":440,"player_count":23,"max_players":24,"Bots":0,"server_type":"Dedicated","server_os":"Linux","password":true,"vac":true,"version":"7757534","steam_id":85568392924469998,"keywords":["nocrits","nodmgspread","payload","uncletopia"],"game_id":440,"stv_port":27026,"stv_name":"Uncletopia | Seattle | 2 | All Maps | STV","players":[{"user_id":55,"name":"volta","steam_id":76561199214283884,"connected_time":544000000000,"state":"active","ping":154},{"user_id":35,"name":"Hoss Delgado","steam_id":76561197995328504,"connected_time":1388000000000,"state":"active","ping":129},{"user_id":10,"name":"Hopes","steam_id":76561198024188720,"connected_time":3214000000000,"state":"active","ping":39},{"user_id":53,"name":"i have to poop","steam_id":76561198059367203,"connected_time":670000000000,"state":"active","ping":56},{"user_id":27,"name":"Deiler","steam_id":76561198988955474,"connected_time":1811000000000,"state":"active","ping":129},{"user_id":31,"name":"Spxulate","steam_id":76561198315288276,"connected_time":1478000000000,"state":"active","ping":125},{"user_id":15,"name":"Mall","steam_id":76561198436085386,"connected_time":2685000000000,"state":"active","ping":112},{"user_id":32,"name":"Wacks","steam_id":76561198079476100,"connected_time":1471000000000,"state":"active","ping":76},{"user_id":49,"name":"cattzer","steam_id":76561199055713543,"connected_time":909000000000,"state":"active","ping":106},{"user_id":70,"name":"BallTickler42","steam_id":76561198802179432,"connected_time":14000000000,"state":"active","ping":113},{"user_id":61,"name":"sir jayden","steam_id":76561198077866090,"connected_time":289000000000,"state":"active","ping":75},{"user_id":60,"name":"Bony","steam_id":76561199001748822,"connected_time":351000000000,"state":"active","ping":54},{"user_id":62,"name":"Crystallixed","steam_id":76561198072263515,"connected_time":285000000000,"state":"active","ping":121},{"user_id":57,"name":"Think It Dream It Do It","steam_id":76561198110152703,"connected_time":417000000000,"state":"active","ping":148},{"user_id":39,"name":"diesel_carsuite","steam_id":76561198229903328,"connected_time":1292000000000,"state":"active","ping":134},{"user_id":40,"name":"River Rat","steam_id":76561198116383976,"connected_time":1284000000000,"state":"active","ping":69},{"user_id":41,"name":"YellerImp","steam_id":76561199221805167,"connected_time":1271000000000,"state":"active","ping":106},{"user_id":65,"name":"Ronnie McNutt","steam_id":76561198453543661,"connected_time":234000000000,"state":"active","ping":112},{"user_id":66,"name":"Mc_Sausen","steam_id":76561198065716881,"connected_time":175000000000,"state":"active","ping":174},{"user_id":64,"name":"reiidaya","steam_id":76561198325306660,"connected_time":268000000000,"state":"active","ping":153},{"user_id":67,"name":"Evil babies (with guns)","steam_id":76561198085815757,"connected_time":106000000000,"state":"active","ping":119},{"user_id":68,"name":"trashmann","steam_id":76561198880561426,"connected_time":70000000000,"state":"active","ping":52},{"user_id":69,"name":"Dips","steam_id":76561198251975850,"connected_time":60000000000,"state":"active","ping":131}]},{"server_id":406,"name":"Uncletopia | Seattle | 3 | Stopwatch Beta","name_short":"sea-3","host":"sea-1.us.uncletopia.com","port":27035,"enabled":true,"region":"us-west","cc":"us","latitude":47.608013,"longitude":-122.33517,"reserved":0,"last_update":"0001-01-01T00:00:00Z","name_a2s":"Uncletopia | Seattle | 3 | Stopwatch Beta","protocol":17,"map":"workshop/pl_vigil_rc9.ugc1266210012","folder":"tf","game":"Team Fortress","app_id":440,"player_count":0,"max_players":24,"Bots":0,"server_type":"Dedicated","server_os":"Linux","password":true,"vac":true,"version":"7757534","steam_id":85568392924515217,"keywords":["nocrits","nodmgspread","payload","uncletopia"],"game_id":440,"stv_port":27036,"stv_name":"Uncletopia | Seattle | 3 | Stopwatch Beta | STV","players":null},{"server_id":17,"name":"Uncletopia | San Francisco | 1 | All Maps","name_short":"sfo-1","host":"sfo-1.us.uncletopia.com","port":27015,"enabled":true,"region":"us-west","cc":"us","latitude":37.77397,"longitude":-122.4313,"reserved":0,"last_update":"0001-01-01T00:00:00Z","name_a2s":"Uncletopia | San Francisco | 1 | All Maps","protocol":17,"map":"pl_frontier_final","folder":"tf","game":"Team Fortress","app_id":440,"player_count":19,"max_players":24,"Bots":0,"server_type":"Dedicated","server_os":"Linux","password":true,"vac":true,"version":"7757534","steam_id":85568392924469999,"keywords":["nocrits","nodmgspread","payload","uncletopia"],"game_id":440,"stv_port":27016,"stv_name":"Uncletopia | San Francisco | 1 | All Maps | STV","players":[{"user_id":110,"name":"sheep on da linux","steam_id":76561198076781979,"connected_time":2099000000000,"state":"active","ping":67},{"user_id":138,"name":"Dimmerswitch","steam_id":76561198034782177,"connected_time":201000000000,"state":"active","ping":36},{"user_id":85,"name":"Natalie","steam_id":76561198048848289,"connected_time":3824000000000,"state":"active","ping":62},{"user_id":119,"name":"MEMOSonKEYS","steam_id":76561199087813741,"connected_time":1251000000000,"state":"active","ping":70},{"user_id":39,"name":".WAVMAFIA","steam_id":76561198401674269,"connected_time":7057000000000,"state":"active","ping":62},{"user_id":123,"name":"Dive(z)","steam_id":76561198140843225,"connected_time":821000000000,"state":"active","ping":88},{"user_id":121,"name":"birdi","steam_id":76561198395772300,"connected_time":1086000000000,"state":"active","ping":135},{"user_id":124,"name":"JS","steam_id":76561198149183514,"connected_time":804000000000,"state":"active","ping":63},{"user_id":30,"name":"andyiscolorless","steam_id":76561199239870921,"connected_time":7406000000000,"state":"active","ping":177},{"user_id":131,"name":"Salt Itself","steam_id":76561198873190258,"connected_time":526000000000,"state":"active","ping":67},{"user_id":86,"name":"byeahnana","steam_id":76561198402313572,"connected_time":3823000000000,"state":"active","ping":129},{"user_id":126,"name":"Ok then","steam_id":76561198891914787,"connected_time":748000000000,"state":"active","ping":130},{"user_id":113,"name":"ScarletDream","steam_id":76561198277797713,"connected_time":1920000000000,"state":"active","ping":60},{"user_id":127,"name":"TothBrush","steam_id":76561198028254471,"connected_time":745000000000,"state":"active","ping":61},{"user_id":128,"name":"Bargain Brand Cereal","steam_id":76561198440470058,"connected_time":706000000000,"state":"active","ping":141},{"user_id":97,"name":"Summer's Snowman","steam_id":76561198057140854,"connected_time":3166000000000,"state":"active","ping":58},{"user_id":129,"name":"simerzz_gamerzz","steam_id":76561199123438534,"connected_time":648000000000,"state":"active","ping":59},{"user_id":134,"name":"Titocheeto","steam_id":76561198994684924,"connected_time":309000000000,"state":"active","ping":94},{"user_id":57,"name":"boulder","steam_id":76561198347225801,"connected_time":6192000000000,"state":"active","ping":54}]},{"server_id":18,"name":"Uncletopia | San Francisco | 2 | All Maps","name_short":"sfo-2","host":"sfo-1.us.uncletopia.com","port":27025,"enabled":true,"region":"us-west","cc":"us","latitude":37.77397,"longitude":-122.4313,"reserved":0,"last_update":"0001-01-01T00:00:00Z","name_a2s":"Uncletopia | San Francisco | 2 | All Maps","protocol":17,"map":"koth_highpass","folder":"tf","game":"Team Fortress","app_id":440,"player_count":1,"max_players":24,"Bots":0,"server_type":"Dedicated","server_os":"Linux","password":true,"vac":true,"version":"7757534","steam_id":85568392924470000,"keywords":["cp","nocrits","nodmgspread","uncletopia"],"game_id":440,"stv_port":27026,"stv_name":"Uncletopia | San Francisco | 2 | All Maps | STV","players":[{"user_id":3,"name":"actually there's lobos›","steam_id":76561197992683921,"connected_time":53000000000,"state":"active","ping":102}]},{"server_id":19,"name":"Uncletopia | San Francisco | 3 | Stopwatch Beta","name_short":"sfo-3","host":"sfo-1.us.uncletopia.com","port":27035,"enabled":true,"region":"us-west","cc":"us","latitude":37.77397,"longitude":-122.4313,"reserved":0,"last_update":"0001-01-01T00:00:00Z","name_a2s":"Uncletopia | San Francisco | 3 | Stopwatch Beta","protocol":17,"map":"koth_lakeside_final","folder":"tf","game":"Team Fortress","app_id":440,"player_count":0,"max_players":24,"Bots":0,"server_type":"Dedicated","server_os":"Linux","password":true,"vac":true,"version":"7757534","steam_id":85568392924742824,"keywords":["cp","nocrits","nodmgspread","uncletopia"],"game_id":440,"stv_port":27036,"stv_name":"Uncletopia | San Francisco | 3 | Stopwatch Beta | STV","players":null},{"server_id":20,"name":"Uncletopia | San Francisco | 4 | Community","name_short":"sfo-4","host":"sfo-1.us.uncletopia.com","port":27045,"enabled":true,"region":"us-west","cc":"us","latitude":37.77397,"longitude":-122.4313,"reserved":0,"last_update":"0001-01-01T00:00:00Z","name_a2s":"Uncletopia | San Francisco | 4 | Community","protocol":17,"map":"cp_altitude","folder":"tf","game":"Team Fortress","app_id":440,"player_count":0,"max_players":24,"Bots":0,"server_type":"Dedicated","server_os":"Linux","password":true,"vac":true,"version":"7757534","steam_id":85568392924742826,"keywords":["cp","nocrits","nodmgspread","uncletopia"],"game_id":440,"stv_port":27046,"stv_name":"Uncletopia | San Francisco | 4 | Community | STV","players":null},{"server_id":141,"name":"Uncletopia | Sydney | 1 | All Maps","name_short":"syd-1","host":"syd-1.au.uncletopia.com","port":27015,"enabled":true,"region":"au","cc":"au","latitude":-33.865143,"longitude":151.2099,"reserved":0,"last_update":"0001-01-01T00:00:00Z","name_a2s":"Uncletopia | Sydney | 1 | All Maps","protocol":17,"map":"koth_highpass","folder":"tf","game":"Team Fortress","app_id":440,"player_count":0,"max_players":24,"Bots":0,"server_type":"Dedicated","server_os":"Linux","password":true,"vac":true,"version":"7757534","steam_id":85568392924470001,"keywords":["cp","nocrits","nodmgspread","uncletopia"],"game_id":440,"stv_port":27016,"stv_name":"Uncletopia | Sydney | 1 | All Maps | STV","players":null},{"server_id":123,"name":"Uncletopia | Sydney | 2 | All Maps","name_short":"syd-2","host":"syd-1.au.uncletopia.com","port":27025,"enabled":true,"region":"au","cc":"au","latitude":-33.865143,"longitude":151.2099,"reserved":0,"last_update":"0001-01-01T00:00:00Z","name_a2s":"Uncletopia | Sydney | 2 | All Maps","protocol":17,"map":"pl_barnblitz","folder":"tf","game":"Team Fortress","app_id":440,"player_count":0,"max_players":24,"Bots":0,"server_type":"Dedicated","server_os":"Linux","password":true,"vac":true,"version":"7757534","steam_id":85568392924470002,"keywords":["nocrits","nodmgspread","payload","uncletopia"],"game_id":440,"stv_port":27026,"stv_name":"Uncletopia | Sydney | 2 | All Maps | STV","players":null},{"server_id":395,"name":"Uncletopia | Sydney | 3 | All Maps","name_short":"syd-3","host":"syd-1.au.uncletopia.com","port":27035,"enabled":true,"region":"au","cc":"au","latitude":-33.865143,"longitude":151.2099,"reserved":0,"last_update":"0001-01-01T00:00:00Z","name_a2s":"Uncletopia | Sydney | 3 | All Maps","protocol":17,"map":"pl_borneo","folder":"tf","game":"Team Fortress","app_id":440,"player_count":0,"max_players":24,"Bots":0,"server_type":"Dedicated","server_os":"Linux","password":true,"vac":true,"version":"7757534","steam_id":85568392925194467,"keywords":["nocrits","nodmgspread","payload","uncletopia"],"game_id":440,"stv_port":27036,"stv_name":"Uncletopia | Sydney | 3 | All Maps | STV","players":null},{"server_id":396,"name":"Uncletopia | Sydney | 4 | All Maps","name_short":"syd-4","host":"syd-1.au.uncletopia.com","port":27045,"enabled":true,"region":"au","cc":"au","latitude":-33.865143,"longitude":151.2099,"reserved":0,"last_update":"0001-01-01T00:00:00Z","name_a2s":"Uncletopia | Sydney | 4 | All Maps","protocol":17,"map":"cp_snakewater_final1","folder":"tf","game":"Team Fortress","app_id":440,"player_count":0,"max_players":24,"Bots":0,"server_type":"Dedicated","server_os":"Linux","password":true,"vac":true,"version":"7757534","steam_id":85568392925397958,"keywords":["cp","nocrits","nodmgspread","uncletopia"],"game_id":440,"stv_port":27046,"stv_name":"Uncletopia | Sydney | 4 | All Maps | STV","players":null},{"server_id":58,"name":"Uncletopia | Sydney | 5 | Stopwatch Beta","name_short":"syd-5","host":"syd-1.au.uncletopia.com","port":27055,"enabled":true,"region":"au","cc":"au","latitude":-33.865143,"longitude":151.2099,"reserved":0,"last_update":"0001-01-01T00:00:00Z","name_a2s":"Uncletopia | Sydney | 5 | Stopwatch Beta","protocol":17,"map":"pl_upward","folder":"tf","game":"Team Fortress","app_id":440,"player_count":0,"max_players":24,"Bots":0,"server_type":"Dedicated","server_os":"Linux","password":true,"vac":true,"version":"7757534","steam_id":85568392925397959,"keywords":["nocrits","nodmgspread","payload","uncletopia"],"game_id":440,"stv_port":27056,"stv_name":"Uncletopia | Sydney | 5 | Stopwatch Beta | STV","players":null},{"server_id":59,"name":"Uncletopia | Sydney | 6 | Community","name_short":"syd-6","host":"syd-1.au.uncletopia.com","port":27065,"enabled":true,"region":"au","cc":"au","latitude":-33.865143,"longitude":151.2099,"reserved":0,"last_update":"0001-01-01T00:00:00Z","name_a2s":"Uncletopia | Sydney | 6 | Community","protocol":17,"map":"workshop/pl_badwater_pro_v12.ugc2142942074","folder":"tf","game":"Team Fortress","app_id":440,"player_count":0,"max_players":24,"Bots":0,"server_type":"Dedicated","server_os":"Linux","password":true,"vac":true,"version":"7757534","steam_id":85568392925397960,"keywords":["nocrits","nodmgspread","payload","uncletopia"],"game_id":440,"stv_port":27066,"stv_name":"Uncletopia | Sydney | 6 | Community | STV","players":null},{"server_id":49,"name":"Uncletopia | Warsaw | 1 | All Maps","name_short":"waw-1","host":"waw-1.pl.uncletopia.com","port":27015,"enabled":true,"region":"eu","cc":"pl","latitude":52.2297,"longitude":21.017532,"reserved":0,"last_update":"0001-01-01T00:00:00Z","name_a2s":"","protocol":0,"map":"","folder":"","game":"","app_id":0,"player_count":0,"max_players":0,"Bots":0,"server_type":"","server_os":"","password":false,"vac":false,"version":"","steam_id":0,"keywords":null,"game_id":0,"stv_port":0,"stv_name":"","players":null},{"server_id":50,"name":"Uncletopia | Warsaw | 2 | All Maps","name_short":"waw-2","host":"waw-1.pl.uncletopia.com","port":27025,"enabled":true,"region":"eu","cc":"pl","latitude":52.2297,"longitude":21.017532,"reserved":0,"last_update":"0001-01-01T00:00:00Z","name_a2s":"Uncletopia | Warsaw | 2 | All Maps","protocol":17,"map":"koth_viaduct","folder":"tf","game":"Team Fortress","app_id":440,"player_count":0,"max_players":24,"Bots":0,"server_type":"Dedicated","server_os":"Linux","password":true,"vac":true,"version":"7757534","steam_id":85568392925397851,"keywords":["cp","nocrits","nodmgspread","uncletopia"],"game_id":440,"stv_port":27026,"stv_name":"Uncletopia | Warsaw | 2 | All Maps | STV","players":null},{"server_id":51,"name":"Uncletopia | Warsaw | 3 | All Maps","name_short":"waw-3","host":"waw-1.pl.uncletopia.com","port":27035,"enabled":true,"region":"eu","cc":"pl","latitude":52.2297,"longitude":21.017532,"reserved":0,"last_update":"0001-01-01T00:00:00Z","name_a2s":"Uncletopia | Warsaw | 3 | All Maps","protocol":17,"map":"pl_snowycoast","folder":"tf","game":"Team Fortress","app_id":440,"player_count":0,"max_players":24,"Bots":0,"server_type":"Dedicated","server_os":"Linux","password":true,"vac":true,"version":"7757534","steam_id":85568392925397852,"keywords":["nocrits","nodmgspread","payload","uncletopia"],"game_id":440,"stv_port":27036,"stv_name":"Uncletopia | Warsaw | 3 | All Maps | STV","players":null},{"server_id":52,"name":"Uncletopia | Warsaw | 4 | All Maps","name_short":"waw-4","host":"waw-1.pl.uncletopia.com","port":27045,"enabled":true,"region":"eu","cc":"pl","latitude":52.2297,"longitude":21.017532,"reserved":0,"last_update":"0001-01-01T00:00:00Z","name_a2s":"Uncletopia | Warsaw | 4 | All Maps","protocol":17,"map":"koth_lakeside_final","folder":"tf","game":"Team Fortress","app_id":440,"player_count":0,"max_players":24,"Bots":0,"server_type":"Dedicated","server_os":"Linux","password":true,"vac":true,"version":"7757534","steam_id":85568392925397853,"keywords":["cp","nocrits","nodmgspread","uncletopia"],"game_id":440,"stv_port":27046,"stv_name":"Uncletopia | Warsaw | 4 | All Maps | STV","players":null},{"server_id":53,"name":"Uncletopia | Warsaw | 5 | Stopwatch Beta","name_short":"waw-5","host":"waw-1.pl.uncletopia.com","port":27055,"enabled":true,"region":"eu","cc":"pl","latitude":52.2297,"longitude":21.017532,"reserved":0,"last_update":"0001-01-01T00:00:00Z","name_a2s":"Uncletopia | Warsaw | 5 | Stopwatch Beta","protocol":17,"map":"pl_borneo","folder":"tf","game":"Team Fortress","app_id":440,"player_count":0,"max_players":24,"Bots":0,"server_type":"Dedicated","server_os":"Linux","password":true,"vac":true,"version":"7757534","steam_id":85568392925397854,"keywords":["nocrits","nodmgspread","payload","uncletopia"],"game_id":440,"stv_port":27056,"stv_name":"Uncletopia | Warsaw | 5 | Stopwatch Beta | STV","players":null},{"server_id":54,"name":"Uncletopia | Warsaw | 6 | Community","name_short":"waw-6","host":"waw-1.pl.uncletopia.com","port":27065,"enabled":true,"region":"eu","cc":"pl","latitude":52.2297,"longitude":21.017532,"reserved":0,"last_update":"0001-01-01T00:00:00Z","name_a2s":"Uncletopia | Warsaw | 6 | Community","protocol":17,"map":"workshop/koth_kemptown_rc1.ugc767410655","folder":"tf","game":"Team Fortress","app_id":440,"player_count":0,"max_players":24,"Bots":0,"server_type":"Dedicated","server_os":"Linux","password":true,"vac":true,"version":"7757534","steam_id":85568392925397856,"keywords":["cp","nocrits","nodmgspread","uncletopia"],"game_id":440,"stv_port":27066,"stv_name":"Uncletopia | Warsaw | 6 | Community | STV","players":null}]}