{"status":true,"message":"","result":[{"server_id":9,"name":"Uncletopia | Atlanta | 1 | All Maps","name_short":"atl-1","host":"atl-1.us.uncletopia.com","port":27015,"enabled":true,"region":"us-east","cc":"us","latitude":33.753746,"longitude":-84.38633,"reserved":0,"last_update":"0001-01-01T00:00:00Z","name_a2s":"Uncletopia | Atlanta | 1 | All Maps","protocol":17,"map":"cp_process_final","folder":"tf","game":"Team Fortress","app_id":440,"player_count":24,"max_players":24,"Bots":0,"server_type":"Dedicated","server_os":"Linux","password":true,"vac":true,"version":"7757534","steam_id":85568392924469982,"keywords":["cp","nocrits","nodmgspread","uncletopia"],"game_id":440,"stv_port":27016,"stv_name":"Uncletopia | Atlanta | 1 | All Maps | STV","players":[{"user_id":778,"name":"Scalie with Soup","steam_id":76561198126745958,"connected_time":3696000000000,"state":"active","ping":90},{"user_id":815,"name":"Mr_Main22","steam_id":76561198002916363,"connected_time":95000000000,"state":"active","ping":47},{"user_id":795,"name":"Amy Roxwell","steam_id":76561198303391830,"connected_time":1683000000000,"state":"active","ping":110},{"user_id":753,"name":"Genetic Komodo (he/him)","steam_id":76561198174806758,"connected_time":6099000000000,"state":"active","ping":77},{"user_id":772,"name":"vitamin","steam_id":76561198277799227,"connected_time":4862000000000,"state":"active","ping":69},{"user_id":801,"name":"DIYspaceship17","steam_id":76561199042640810,"connected_time":1114000000000,"state":"active","ping":90},{"user_id":757,"name":"BreadReceiver","steam_id":76561198862555841,"connected_time":5638000000000,"state":"active","ping":68},{"user_id":791,"name":"twitch.tv/Yoshi21 | TF2Pugs.com","steam_id":76561198002516729,"connected_time":1743000000000,"state":"active","ping":56},{"user_id":814,"name":"defcon","steam_id":76561198100656328,"connected_time":126000000000,"state":"active","ping":68},{"user_id":736,"name":"Brain Rot Zee","steam_id":76561198094070642,"connected_time":6709000000000,"state":"active","ping":104},{"user_id":816,"name":"Meringue","steam_id":76561198067899943,"connected_time":86000000000,"state":"active","ping":71},{"user_id":787,"name":"Yoshi62","steam_id":76561199103748704,"connected_time":2528000000000,"state":"active","ping":102},{"user_id":794,"name":"lker","steam_id":76561197976975075,"connected_time":1727000000000,"state":"active","ping":45},{"user_id":786,"name":"JuJuVox","steam_id":76561198052371247,"connected_time":2902000000000,"state":"active","ping":53},{"user_id":706,"name":"bojack from the show bojack hor","steam_id":76561198053006712,"connected_time":8862000000000,"state":"active","ping":64},{"user_id":811,"name":"cyborgor","steam_id":76561198040782513,"connected_time":367000000000,"state":"active","ping":102},{"user_id":788,"name":"Bad Joke","steam_id":76561198047716749,"connected_time":2526000000000,"state":"active","ping":71},{"user_id":810,"name":"ATL1 | on my hunting trip","steam_id":76561198315341646,"connected_time":455000000000,"state":"active","ping":71},{"user_id":809,"name":"Caoticaos","steam_id":76561198114800227,"connected_time":800000000000,"state":"active","ping":116},{"user_id":758,"name":"Oddball","steam_id":76561198040440984,"connected_time":5636000000000,"state":"active","ping":90},{"user_id":817,"name":"ToddStool","steam_id":76561198338144919,"connected_time":56000000000,"state":"active","ping":140},{"user_id":813,"name":"CFG Ponder","steam_id":76561198127039453,"connected_time":253000000000,"state":"active","ping":102},{"user_id":798,"name":"Internal Screaming","steam_id":76561198272327629,"connected_time":1669000000000,"state":"active","ping":108},{"user_id":807,"name":"floofy","steam_id":76561198389769098,"connected_time":827000000000,"state":"active","ping":82}]},{"server_id":400,"name":"Uncletopia | Atlanta | 3 | Community","name_short":"atl-3","host":"atl-1.us.uncletopia.com","port":27035,"enabled":true,"region":"us-east","cc":"us","latitude":33.753746,"longitude":-84.38633,"reserved":0,"last_update":"0001-01-01T00:00:00Z","name_a2s":"Uncletopia | Atlanta | 3 | Community","protocol":17,"map":"workshop/cp_indulge.ugc528106646","folder":"tf","game":"Team Fortress","app_id":440,"player_count":22,"max_players":24,"Bots":0,"server_type":"Dedicated","server_os":"Linux","password":true,"vac":true,"version":"7757534","steam_id":85568392924515187,"keywords":["cp","nocrits","nodmgspread","uncletopia"],"game_id":440,"stv_port":27036,"stv_name":"Uncletopia | Atlanta | 3 | Community | STV","players":[{"user_id":98,"name":"GiraffeMan","steam_id":76561198042104084,"connected_time":3196000000000,"state":"active","ping":73},{"user_id":148,"name":"Vex","steam_id":76561198182477649,"connected_time":34000000000,"state":"active","ping":89},{"user_id":146,"name":"Phyzisist","steam_id":76561197983915993,"connected_time":182000000000,"state":"active","ping":57},{"user_id":142,"name":"Wan Shi Tong","steam_id":76561198076441225,"connected_time":731000000000,"state":"active","ping":60},{"user_id":137,"name":"stoner catgirl","steam_id":76561198337705174,"connected_time":1391000000000,"state":"active","ping":90},{"user_id":134,"name":"LaffeyTaffy","steam_id":76561198079767814,"connected_time":1710000000000,"state":"active","ping":73},{"user_id":120,"name":"Snoozey","steam_id":76561198017120466,"connected_time":2489000000000,"state":"active","ping":66},{"user_id":147,"name":"mel0n","steam_id":76561198034817244,"connected_time":123000000000,"state":"active","ping":68},{"user_id":150,"name":"tylre","steam_id":76561198128198748,"connected_time":17000000000,"state":"active","ping":48},{"user_id":144,"name":"Professor Shaggy","steam_id":76561198276926724,"connected_time":475000000000,"state":"active","ping":30},{"user_id":136,"name":"aversa","steam_id":76561198840460101,"connected_time":1396000000000,"state":"active","ping":62},{"user_id":140,"name":"gretchling","steam_id":76561198046111695,"connected_time":911000000000,"state":"active","ping":60},{"user_id":145,"name":"DevSlashUser","steam_id":76561198805884205,"connected_time":468000000000,"state":"active","ping":67},{"user_id":116,"name":"jonsey fortnite","steam_id":76561198425503395,"connected_time":2728000000000,"state":"active","ping":60},{"user_id":131,"name":"Blordus","steam_id":76561198093906162,"connected_time":1898000000000,"state":"active","ping":87},{"user_id":129,"name":"LEMS505","steam_id":76561198103225678,"connected_time":1945000000000,"state":"active","ping":87},{"user_id":138,"name":"Microreo","steam_id":76561198006966554,"connected_time":1276000000000,"state":"active","ping":82},{"user_id":149,"name":"SexyBootsHaver","steam_id":76561198202018494,"connected_time":30000000000,"state":"active","ping":110},{"user_id":132,"name":"story of undertale","steam_id":76561198983069721,"connected_time":1842000000000,"state":"active","ping":86},{"user_id":151,"name":"Lucille II","steam_id":76561198138543746,"connected_time":16000000000,"state":"active","ping":95},{"user_id":114,"name":"Colin102004","steam_id":76561198202384334,"connected_time":2836000000000,"state":"active","ping":55},{"user_id":139,"name":"FAKESkeletor","steam_id":76561198440477374,"connected_time":1239000000000,"state":"active","ping":133}]},{"server_id":401,"name":"Uncletopia | Atlanta | 4 | No Payload","name_short":"atl-4","host":"atl-1.us.uncletopia.com","port":27045,"enabled":true,"region":"us-east","cc":"us","latitude":33.753746,"longitude":-84.38633,"reserved":0,"last_update":"0001-01-01T00:00:00Z","name_a2s":"","protocol":0,"map":"","folder":"","game":"","app_id":0,"player_count":0,"max_players":0,"Bots":0,"server_type":"","server_os":"","password":false,"vac":false,"version":"","steam_id":0,"keywords":null,"game_id":0,"stv_port":0,"stv_name":"","players":null},{"server_id":2,"name":"Uncletopia | Chicago | 1 | All Maps","name_short":"chi-1","host":"chi-1.us.uncletopia.com","port":27015,"enabled":true,"region":"us-central","cc":"us","latitude":41.881832,"longitude":-87.62318,"reserved":0,"last_update":"0001-01-01T00:00:00Z","name_a2s":"Uncletopia | Chicago | 1 | All Maps","protocol":17,"map":"pl_frontier_final","folder":"tf","game":"Team Fortress","app_id":440,"player_count":24,"max_players":24,"Bots":0,"server_type":"Dedicated","server_os":"Linux","password":true,"vac":true,"version":"7757534","steam_id":85568392924469984,"keywords":["nocrits","nodmgspread","payload","uncletopia"],"game_id":440,"stv_port":27016,"stv_name":"Uncletopia | Chicago | 1 | All Maps | STV","players":[{"user_id":585,"name":"LJ PRODUCTIONS","steam_id":76561198061697475,"connected_time":1355000000000,"state":"active","ping":74},{"user_id":600,"name":"-_-","steam_id":76561198057717934,"connected_time":1009000000000,"state":"active","ping":45},{"user_id":576,"name":"M@verick","steam_id":76561198006363519,"connected_time":2520000000000,"state":"active","ping":76},{"user_id":607,"name":"The Land Admiral","steam_id":76561198159356609,"connected_time":635000000000,"state":"active","ping":75},{"user_id":595,"name":"bringanotebook","steam_id":76561198838822605,"connected_time":1238000000000,"state":"active","ping":166},{"user_id":592,"name":"McNamJam","steam_id":76561198028128686,"connected_time":1273000000000,"state":"active","ping":99},{"user_id":546,"name":"Frаnk","steam_id":76561198150754556,"connected_time":5116000000000,"state":"active","ping":40},{"user_id":608,"name":"Monsterjessy","steam_id":76561198035630985,"connected_time":596000000000,"state":"active","ping":60},{"user_id":602,"name":"Moonadoo","steam_id":76561198133377546,"connected_time":803000000000,"state":"active","ping":67},{"user_id":610,"name":"Lusa","steam_id":76561199435564731,"connected_time":155000000000,"state":"active","ping":191},{"user_id":591,"name":"BigOrca54","steam_id":76561198181360271,"connected_time":1280000000000,"state":"active","ping":58},{"user_id":575,"name":"pigeoncup","steam_id":76561198964926838,"connected_time":2587000000000,"state":"active","ping":62},{"user_id":603,"name":"Gibus Man","steam_id":76561198257241062,"connected_time":803000000000,"state":"active","ping":103},{"user_id":598,"name":"FitzyBear","steam_id":76561198409189585,"connected_time":1084000000000,"state":"active","ping":81},{"user_id":604,"name":"pat fusty","steam_id":76561198117181511,"connected_time":775000000000,"state":"active","ping":57},{"user_id":609,"name":"Phyre112","steam_id":76561198064367510,"connected_time":484000000000,"state":"active","ping":104},{"user_id":581,"name":"engineer lazing","steam_id":76561198797603297,"connected_time":1596000000000,"state":"active","ping":65},{"user_id":611,"name":"An Erect Penis :)","steam_id":76561198086477485,"connected_time":138000000000,"state":"active","ping":40},{"user_id":596,"name":"Bluebird","steam_id":76561199143106401,"connected_time":1220000000000,"state":"active","ping":73},{"user_id":589,"name":"Triple Lizard","steam_id":76561198188459654,"connected_time":1317000000000,"state":"active","ping":82},{"user_id":612,"name":"Sonicega","steam_id":76561198044362988,"connected_time":90000000000,"state":"active","ping":60},{"user_id":566,"name":"Dr_Spek","steam_id":76561198128667701,"connected_time":3414000000000,"state":"active","ping":61},{"user_id":599,"name":"AnonymousCritter","steam_id":76561198864475187,"connected_time":1068000000000,"state":"active","ping":50},{"user_id":606,"name":"HighJingo","steam_id":76561198846814390,"connected_time":745000000000,"state":"active","ping":74}]},{"server_id":106,"name":"Uncletopia | Chicago | 2 | All Maps","name_short":"chi-2","host":"chi-1.us.uncletopia.com","port":27025,"enabled":true,"region":"us-central","cc":"us","latitude":41.881832,"longitude":-87.62318,"reserved":0,"last_update":"0001-01-01T00:00:00Z","name_a2s":"Uncletopia | Chicago | 2 | All Maps","protocol":17,"map":"plr_hightower","folder":"tf","game":"Team Fortress","app_id":440,"player_count":20,"max_players":24,"Bots":0,"server_type":"Dedicated","server_os":"Linux","password":true,"vac":true,"version":"7757534","steam_id":85568392924469985,"keywords":["nocrits","nodmgspread","payload","uncletopia"],"game_id":440,"stv_port":27026,"stv_name":"Uncletopia | Chicago | 2 | All Maps | STV","players":[{"user_id":584,"name":"bur","steam_id":76561198004231658,"connected_time":691000000000,"state":"active","ping":50},{"user_id":576,"name":"Sage","steam_id":76561198143101697,"connected_time":1133000000000,"state":"active","ping":95},{"user_id":583,"name":"Pyromania","steam_id":76561198317028173,"connected_time":697000000000,"state":"active","ping":70},{"user_id":585,"name":"Chechens Spotted","steam_id":76561199028910893,"connected_time":615000000000,"state":"active","ping":83},{"user_id":599,"name":"Secure_Socket_Shell","steam_id":76561199091323498,"connected_time":43000000000,"state":"active","ping":57},{"user_id":571,"name":"Uncle Summoner","steam_id":76561198011134631,"connected_time":1384000000000,"state":"active","ping":81},{"user_id":600,"name":"Astra","steam_id":76561198867011632,"connected_time":24000000000,"state":"spawning","ping":49},{"user_id":580,"name":"cyclops","steam_id":76561197970370198,"connected_time":720000000000,"state":"active","ping":57},{"user_id":565,"name":"hehehe ha","steam_id":76561198159823948,"connected_time":2350000000000,"state":"active","ping":53},{"user_id":557,"name":"Mr.Mrausky","steam_id":76561199120622265,"connected_time":2587000000000,"state":"active","ping":75},{"user_id":560,"name":"silly little feller","steam_id":76561198041975003,"connected_time":2553000000000,"state":"active","ping":75},{"user_id":595,"name":"Sexy Julian","steam_id":76561198024596083,"connected_time":228000000000,"state":"active","ping":91},{"user_id":596,"name":"CSharp","steam_id":76561199185191710,"connected_time":207000000000,"state":"active","ping":161},{"user_id":516,"name":"Sprucelass","steam_id":76561197998391724,"connected_time":5380000000000,"state":"active","ping":45},{"user_id":582,"name":"Squiliam","steam_id":76561198025278006,"connected_time":710000000000,"state":"active","ping":76},{"user_id":586,"name":"kermit","steam_id":76561198099928281,"connected_time":615000000000,"state":"active","ping":74},{"user_id":581,"name":"Duncan Idaho","steam_id":76561197988963861,"connected_time":719000000000,"state":"active","ping":89},{"user_id":587,"name":"Samrizo el Chorizo","steam_id":76561198009838162,"connected_time":613000000000,"state":"active","ping":68},{"user_id":579,"name":"yodieland","steam_id":76561198143727547,"connected_time":947000000000,"state":"active","ping":100},{"user_id":597,"name":"pro-PAIN","steam_id":76561198104544593,"connected_time":160000000000,"state":"active","ping":108}]},{"server_id":402,"name":"Uncletopia | Chicago | 3 | All Maps","name_short":"chi-3","host":"chi-1.us.uncletopia.com","port":27035,"enabled":true,"region":"us-central","cc":"us","latitude":41.881832,"longitude":-87.62318,"reserved":0,"last_update":"0001-01-01T00:00:00Z","name_a2s":"Uncletopia | Chicago | 3 | All Maps","protocol":17,"map":"koth_viaduct","folder":"tf","game":"Team Fortress","app_id":440,"player_count":24,"max_players":24,"Bots":0,"server_type":"Dedicated","server_os":"Linux","password":true,"vac":true,"version":"7757534","steam_id":85568392924515191,"keywords":["cp","nocrits","nodmgspread","uncletopia"],"game_id":440,"stv_port":27036,"stv_name":"Uncletopia | Chicago | 3 | All Maps | STV","players":[{"user_id":388,"name":"KiraYoshikageshandfetish","steam_id":76561199014111160,"connected_time":1393000000000,"state":"active","ping":121},{"user_id":386,"name":"organic kale","steam_id":76561198101506575,"connected_time":1407000000000,"state":"active","ping":69},{"user_id":384,"name":"Weeb","steam_id":76561198935795395,"connected_time":1430000000000,"state":"active","ping":96},{"user_id":344,"name":"leeeeeeeeeeeeeeeeeeeeeeeeeee","steam_id":76561199083322731,"connected_time":4645000000000,"state":"active","ping":86},{"user_id":381,"name":"VioletSpecs","steam_id":76561198089366466,"connected_time":1446000000000,"state":"active","ping":83},{"user_id":360,"name":"https://en.wikipedia.org/","steam_id":76561198261326806,"connected_time":3262000000000,"state":"active","ping":100},{"user_id":341,"name":"Deathninja952","steam_id":76561199066489355,"connected_time":4732000000000,"state":"active","ping":96},{"user_id":353,"name":"schizophrenicGhost","steam_id":76561198126341923,"connected_time":4477000000000,"state":"active","ping":77},{"user_id":401,"name":"George of the Bungle","steam_id":76561198010708247,"connected_time":552000000000,"state":"active","ping":68},{"user_id":380,"name":"邪恶的巫师","steam_id":76561198165212575,"connected_time":1453000000000,"state":"active","ping":74},{"user_id":385,"name":"Kael","steam_id":76561198041277031,"connected_time":1415000000000,"state":"active","ping":78},{"user_id":399,"name":"creepycrawler","steam_id":76561198352016831,"connected_time":997000000000,"state":"active","ping":61},{"user_id":350,"name":"fruitymario","steam_id":76561198047190430,"connected_time":4566000000000,"state":"active","ping":78},{"user_id":379,"name":"Just Chuck","steam_id":76561198121697504,"connected_time":1458000000000,"state":"active","ping":75},{"user_id":300,"name":"The strongest ⑨ ball","steam_id":76561198126760743,"connected_time":9312000000000,"state":"active","ping":75},{"user_id":404,"name":"LikeASir","steam_id":76561198042209721,"connected_time":145000000000,"state":"active","ping":45},{"user_id":406,"name":"come here cupcake","steam_id":76561198877042360,"connected_time":71000000000,"state":"active","ping":108},{"user_id":263,"name":"Marisad","steam_id":76561198843890616,"connected_time":11205000000000,"state":"active","ping":95},{"user_id":407,"name":"walk into kfc","steam_id":76561198108795835,"connected_time":44000000000,"state":"active","ping":59},{"user_id":390,"name":"IDNTT","steam_id":76561198080859587,"connected_time":1381000000000,"state":"active","ping":115},{"user_id":393,"name":"glass","steam_id":76561198845795659,"connected_time":1295000000000,"state":"active","ping":70},{"user_id":398,"name":"mac_cheese","steam_id":76561198071334162,"connected_time":1025000000000,"state":"active","ping":91},{"user_id":397,"name":"Raniel Dicciardo","steam_id":76561198053859538,"connected_time":1097000000000,"state":"active","ping":69},{"user_id":395,"name":"The Notorious RBG","steam_id":76561198014275148,"connected_time":1221000000000,"state":"active","ping":76}]},{"server_id":403,"name":"Uncletopia | Chicago | 4 | All Maps","name_short":"chi-4","host":"chi-1.us.uncletopia.com","port":27045,"enabled":true,"region":"us-central","cc":"us","latitude":41.881832,"longitude":-87.62318,"reserved":0,"last_update":"0001-01-01T00:00:00Z","name_a2s":"Uncletopia | Chicago | 4 | All Maps","protocol":17,"map":"pl_pier","folder":"tf","game":"Team Fortress","app_id":440,"player_count":24,"max_players":24,"Bots":0,"server_type":"Dedicated","server_os":"Linux","password":true,"vac":true,"version":"7757534","steam_id":85568392924515193,"keywords":["nocrits","nodmgspread","payload","uncletopia"],"game_id":440,"stv_port":27046,"stv_name":"Uncletopia | Chicago | 4 | All Maps | STV","players":[{"user_id":271,"name":"Karma's Camera","steam_id":76561198059385185,"connected_time":461000000000,"state":"active","ping":60},{"user_id":268,"name":"mcjuice","steam_id":76561198087730829,"connected_time":908000000000,"state":"active","ping":68},{"user_id":275,"name":"TheConchinator","steam_id":76561199388149092,"connected_time":317000000000,"state":"active","ping":56},{"user_id":247,"name":"ansoonii","steam_id":76561198092494136,"connected_time":2282000000000,"state":"active","ping":61},{"user_id":272,"name":"Wild_Rumpus","steam_id":76561198066393719,"connected_time":446000000000,"state":"active","ping":73},{"user_id":248,"name":"the real babytron","steam_id":76561197989627918,"connected_time":2245000000000,"state":"active","ping":87},{"user_id":249,"name":"Deku Scrublord","steam_id":76561198036602402,"connected_time":2243000000000,"state":"active","ping":50},{"user_id":250,"name":"Dragonofponies","steam_id":76561199016800803,"connected_time":2225000000000,"state":"active","ping":83},{"user_id":264,"name":"mao zaddy","steam_id":76561198283687382,"connected_time":1776000000000,"state":"active","ping":76},{"user_id":229,"name":"Horrizan","steam_id":76561197965028480,"connected_time":4207000000000,"state":"active","ping":75},{"user_id":273,"name":"b","steam_id":76561198196769297,"connected_time":404000000000,"state":"active","ping":60},{"user_id":259,"name":"i WILL hit the griddy","steam_id":76561198277163301,"connected_time":2133000000000,"state":"active","ping":70},{"user_id":204,"name":"AUselessLesbian","steam_id":76561199075273861,"connected_time":5973000000000,"state":"active","ping":81},{"user_id":138,"name":"Strange Festive Femboy","steam_id":76561198050385093,"connected_time":11408000000000,"state":"active","ping":81},{"user_id":274,"name":"Lore","steam_id":76561198098407538,"connected_time":375000000000,"state":"active","ping":45},{"user_id":144,"name":"asinine escapades","steam_id":76561198025681784,"connected_time":11119000000000,"state":"active","ping":66},{"user_id":267,"name":"TheTruthOfTheCessationOfDukkha","steam_id":76561198214370515,"connected_time":1228000000000,"state":"active","ping":62},{"user_id":276,"name":"ARegularJohnDoe","steam_id":76561198015020139,"connected_time":259000000000,"state":"active","ping":59},{"user_id":277,"name":"c","steam_id":76561198118319408,"connected_time":246000000000,"state":"active","ping":74},{"user_id":278,"name":"Ch4rl33","steam_id":76561198037008621,"connected_time":241000000000,"state":"active","ping":52},{"user_id":261,"name":"Loxic","steam_id":76561198043617388,"connected_time":2069000000000,"state":"active","ping":73},{"user_id":279,"name":"Thedude","steam_id":76561199020223748,"connected_time":239000000000,"state":"active","ping":84},{"user_id":241,"name":"a crystal lizard","steam_id":76561197997661928,"connected_time":3098000000000,"state":"active","ping":69},{"user_id":256,"name":"Dad 2","steam_id":76561198138546187,"connected_time":2182000000000,"state":"active","ping":72}]},{"server_id":36,"name":"Uncletopia | Chicago | 5 | All Maps","name_short":"chi-5","host":"chi-2.us.uncletopia.com","port":27015,"enabled":true,"region":"us-central","cc":"us","latitude":41.881832,"longitude":-87.62318,"reserved":0,"last_update":"0001-01-01T00:00:00Z","name_a2s":"Uncletopia | Chicago | 5 | All Maps","protocol":17,"map":"pl_barnblitz","folder":"tf","game":"Team Fortress","app_id":440,"player_count":18,"max_players":24,"Bots":0,"server_type":"Dedicated","server_os":"Linux","password":true,"vac":true,"version":"7757534","steam_id":85568392924866362,"keywords":["nocrits","nodmgspread","payload","uncletopia"],"game_id":440,"stv_port":27016,"stv_name":"Uncletopia | Chicago | 5 | All Maps | STV","players":[{"user_id":275,"name":"PHEEBIS","steam_id":76561198379919122,"connected_time":609000000000,"state":"active","ping":68},{"user_id":274,"name":"MancalaMadMan","steam_id":76561198347324053,"connected_time":877000000000,"state":"active","ping":114},{"user_id":250,"name":"The Professor","steam_id":76561198113760863,"connected_time":2839000000000,"state":"active","ping":61},{"user_id":289,"name":"CoPilot","steam_id":76561198798217843,"connected_time":20000000000,"state":"active","ping":69},{"user_id":276,"name":"T0r1ee","steam_id":76561198109311468,"connected_time":599000000000,"state":"active","ping":79},{"user_id":286,"name":"❤♡･ﾟBubbles･ﾟ♡❤","steam_id":76561198041057042,"connected_time":80000000000,"state":"active","ping":60},{"user_id":277,"name":"Nobletheedragon","steam_id":76561198964716688,"connected_time":587000000000,"state":"active","ping":77},{"user_id":278,"name":"fd9s8h3sf_-9","steam_id":76561198124133482,"connected_time":566000000000,"state":"active","ping":72},{"user_id":279,"name":"gαnкz","steam_id":76561198172087307,"connected_time":326000000000,"state":"active","ping":85},{"user_id":280,"name":"Gangusman","steam_id":76561198061223493,"connected_time":320000000000,"state":"active","ping":131},{"user_id":281,"name":"Lzuli","steam_id":76561198799610915,"connected_time":292000000000,"state":"active","ping":90},{"user_id":282,"name":"souper","steam_id":76561199211718320,"connected_time":251000000000,"state":"active","ping":266},{"user_id":283,"name":"Felix","steam_id":76561198881462586,"connected_time":155000000000,"state":"active","ping":69},{"user_id":284,"name":"Thequirka","steam_id":76561198968058652,"connected_time":134000000000,"state":"active","ping":95},{"user_id":285,"name":"OneTrueCorvid","steam_id":76561199012953221,"connected_time":118000000000,"state":"active","ping":82},{"user_id":287,"name":"bash -lc ./asshat.sh","steam_id":76561198004584315,"connected_time":79000000000,"state":"active","ping":60},{"user_id":288,"name":"Titan Tezwa","steam_id":76561198030320618,"connected_time":30000000000,"state":"active","ping":68},{"user_id":290,"name":"kratomSnorter.1quarter","steam_id":76561198946987511,"connected_time":0,"state":"spawning","ping":18}]},{"server_id":37,"name":"Uncletopia | Chicago | 6 | All Maps","name_short":"chi-6","host":"chi-2.us.uncletopia.com","port":27025,"enabled":true,"region":"us-central","cc":"us","latitude":41.881832,"longitude":-87.62318,"reserved":0,"last_update":"0001-01-01T00:00:00Z","name_a2s":"Uncletopia | Chicago | 6 | All Maps","protocol":17,"map":"pl_upward","folder":"tf","game":"Team Fortress","app_id":440,"player_count":24,"max_players":24,"Bots":0,"server_type":"Dedicated","server_os":"Linux","password":true,"vac":true,"version":"7757534","steam_id":85568392924866363,"keywords":["nocrits","nodmgspread","payload","uncletopia"],"game_id":440,"stv_port":27026,"stv_name":"Uncletopia | Chicago | 6 | All Maps | STV","players":[{"user_id":419,"name":"real rx like pap said","steam_id":76561198026393621,"connected_time":2564000000000,"state":"active","ping":86},{"user_id":448,"name":"Iron","steam_id":76561198247918478,"connected_time":921000000000,"state":"active","ping":65},{"user_id":402,"name":"Master of Mischief","steam_id":76561198003960937,"connected_time":4072000000000,"state":"active","ping":52},{"user_id":445,"name":"DAS SCHNITZELSTIEN","steam_id":76561198051137159,"connected_time":1004000000000,"state":"active","ping":98},{"user_id":447,"name":"Funee","steam_id":76561198041048289,"connected_time":931000000000,"state":"active","ping":62},{"user_id":435,"name":"floral green","steam_id":76561198332519926,"connected_time":2254000000000,"state":"active","ping":83},{"user_id":452,"name":"Vitzenhauzer","steam_id":76561198116449787,"connected_time":886000000000,"state":"active","ping":68},{"user_id":450,"name":"ninety9dragonfly","steam_id":76561198363406983,"connected_time":897000000000,"state":"active","ping":117},{"user_id":451,"name":"FrodobagginsTNT","steam_id":76561198224940688,"connected_time":894000000000,"state":"active","ping":86},{"user_id":412,"name":"Acorn","steam_id":76561198353480153,"connected_time":3341000000000,"state":"active","ping":60},{"user_id":453,"name":"OpenDown","steam_id":76561198064132688,"connected_time":840000000000,"state":"active","ping":62},{"user_id":454,"name":"Grey the 66th","steam_id":76561198014554527,"connected_time":828000000000,"state":"active","ping":62},{"user_id":458,"name":"tree","steam_id":76561198116885731,"connected_time":710000000000,"state":"active","ping":55},{"user_id":456,"name":"-W3E- grim10465","steam_id":76561198045698581,"connected_time":794000000000,"state":"active","ping":60},{"user_id":457,"name":"Alpha Goose","steam_id":76561198038927852,"connected_time":777000000000,"state":"active","ping":72},{"user_id":459,"name":"PeekaBoo","steam_id":76561198134816486,"connected_time":695000000000,"state":"active","ping":81},{"user_id":460,"name":"TF3 aflyingmouse","steam_id":76561198058134934,"connected_time":685000000000,"state":"active","ping":117},{"user_id":440,"name":"Kohbold","steam_id":76561198996480140,"connected_time":1165000000000,"state":"active","ping":91},{"user_id":444,"name":"scamper","steam_id":76561199093768105,"connected_time":1022000000000,"state":"active","ping":136},{"user_id":461,"name":"Jojō","steam_id":76561198864691307,"connected_time":674000000000,"state":"active","ping":75},{"user_id":462,"name":"The Arthroscopic Arthropod","steam_id":76561198142011456,"connected_time":661000000000,"state":"active","ping":83},{"user_id":463,"name":"The Horselords and Animal Gods","steam_id":76561197975094050,"connected_time":524000000000,"state":"active","ping":116},{"user_id":433,"name":"Error 4 Oh Four","steam_id":76561198121637567,"connected_time":2315000000000,"state":"active","ping":64},{"user_id":437,"name":"Hose water","steam_id":76561198843651958,"connected_time":1360000000000,"state":"active","ping":137}]},{"server_id":38,"name":"Uncletopia | Chicago | 7 | Stopwatch Beta","name_short":"chi-7","host":"chi-2.us.uncletopia.com","port":27035,"enabled":true,"region":"us-central","cc":"us","latitude":41.881832,"longitude":-87.62318,"reserved":0,"last_update":"0001-01-01T00:00:00Z","name_a2s":"Uncletopia | Chicago | 7 | Stopwatch Beta","protocol":17,"map":"pl_upward","folder":"tf","game":"Team Fortress","app_id":440,"player_count":0,"max_players":24,"Bots":0,"server_type":"Dedicated","server_os":"Linux","password":true,"vac":true,"version":"7757534","steam_id":85568392924866364,"keywords":["nocrits","nodmgspread","payload","uncletopia"],"game_id":440,"stv_port":27036,"stv_name":"Uncletopia | Chicago | 7 | Stopwatch Beta | STV","players":null},{"server_id":39,"name":"Uncletopia | Chicago | 8 | Community","name_short":"chi-8","host":"chi-2.us.uncletopia.com","port":27045,"enabled":true,"region":"us-central","cc":"us","latitude":41.881832,"longitude":-87.62318,"reserved":0,"last_update":"0001-01-01T00:00:00Z","name_a2s":"Uncletopia | Chicago | 8 | Community","protocol":17,"map":"workshop/rd_asteroid_redux_b1.ugc2154902912","folder":"tf","game":"Team Fortress","app_id":440,"player_count":0,"max_players":24,"Bots":0,"server_type":"Dedicated","server_os":"Linux","password":true,"vac":true,"version":"7757534","steam_id":85568392924866365,"keywords":["beta","nocrits","nodmgspread","rd","uncletopia"],"game_id":440,"stv_port":27046,"stv_name":"Uncletopia | Chicago | 8 | Community | STV","players":null},{"server_id":8,"name":"Uncletopia | Dallas | 1 | All Maps","name_short":"dal-1","host":"dal-1.us.uncletopia.com","port":27015,"enabled":true,"region":"us-central","cc":"us","latitude":32.779167,"longitude":-96.80889,"reserved":0,"last_update":"0001-01-01T00:00:00Z","name_a2s":"Uncletopia | Dallas | 1 | All Maps","protocol":17,"map":"pl_frontier_final","folder":"tf","game":"Team Fortress","app_id":440,"player_count":24,"max_players":24,"Bots":0,"server_type":"Dedicated","server_os":"Linux","password":true,"vac":true,"version":"7757534","steam_id":85568392924469986,"keywords":["nocrits","nodmgspread","payload","uncletopia"],"game_id":440,"stv_port":27016,"stv_name":"Uncletopia | Dallas | 1 | All Maps | STV","players":[{"user_id":691,"name":"Inkspot","steam_id":76561199003790541,"connected_time":624000000000,"state":"active","ping":56},{"user_id":690,"name":"Bogey","steam_id":76561198096227944,"connected_time":633000000000,"state":"active","ping":43},{"user_id":678,"name":"Yoshimelon","steam_id":76561198253054325,"connected_time":1955000000000,"state":"active","ping":45},{"user_id":677,"name":"survivalist bubbiesaurus","steam_id":76561198860460013,"connected_time":1988000000000,"state":"active","ping":75},{"user_id":698,"name":"chanoc","steam_id":76561198026734746,"connected_time":39000000000,"state":"active","ping":92},{"user_id":692,"name":"An00bis","steam_id":76561198044084508,"connected_time":611000000000,"state":"active","ping":67},{"user_id":686,"name":"Baby Llama","steam_id":76561198407155682,"connected_time":1048000000000,"state":"active","ping":82},{"user_id":666,"name":"Mom","steam_id":76561198207936000,"connected_time":2935000000000,"state":"active","ping":73},{"user_id":643,"name":"RedBot Noob","steam_id":76561198260764846,"connected_time":5332000000000,"state":"active","ping":82},{"user_id":695,"name":"koth_sue_gon_d3z","steam_id":76561198083698007,"connected_time":123000000000,"state":"active","ping":90},{"user_id":696,"name":"GRIM GAMING","steam_id":76561198107491637,"connected_time":92000000000,"state":"active","ping":70},{"user_id":651,"name":"hoovy","steam_id":76561199228653314,"connected_time":4713000000000,"state":"active","ping":128},{"user_id":681,"name":"Curio","steam_id":76561198125530466,"connected_time":1801000000000,"state":"active","ping":127},{"user_id":662,"name":"Jared In Target","steam_id":76561198372449718,"connected_time":2958000000000,"state":"active","ping":47},{"user_id":697,"name":"\u003cKnittedKC\u003e","steam_id":76561198125558863,"connected_time":55000000000,"state":"active","ping":90},{"user_id":631,"name":"deadpixel","steam_id":76561198150249843,"connected_time":6769000000000,"state":"active","ping":75},{"user_id":665,"name":"OldManArzo","steam_id":76561198414873074,"connected_time":2945000000000,"state":"active","ping":108},{"user_id":688,"name":"SPREAD SPRING GROWTH AND WARMTH","steam_id":76561198800386026,"connected_time":651000000000,"state":"active","ping":93},{"user_id":667,"name":"Nekogaming1500","steam_id":76561198979123816,"connected_time":2875000000000,"state":"active","ping":97},{"user_id":639,"name":"Phil Collins","steam_id":76561198068868644,"connected_time":5674000000000,"state":"active","ping":89},{"user_id":642,"name":"plink","steam_id":76561198057829889,"connected_time":5596000000000,"state":"active","ping":111},{"user_id":680,"name":"StrangeMachine","steam_id":76561198046628064,"connected_time":1837000000000,"state":"active","ping":104},{"user_id":683,"name":"munch","steam_id":76561198314221897,"connected_time":1743000000000,"state":"active","ping":105},{"user_id":687,"name":"survivalist keeda","steam_id":76561198277979851,"connected_time":1043000000000,"state":"active","ping":88}]},{"server_id":108,"name":"Uncletopia | Dallas | 2 | All Maps","name_short":"dal-2","host":"dal-1.us.uncletopia.com","port":27025,"enabled":true,"region":"us-central","cc":"us","latitude":32.779167,"longitude":-96.80889,"reserved":0,"last_update":"0001-01-01T00:00:00Z","name_a2s":"Uncletopia | Dallas | 2 | All Maps","protocol":17,"map":"pl_borneo","folder":"tf","game":"Team Fortress","app_id":440,"player_count":24,"max_players":24,"Bots":0,"server_type":"Dedicated","server_os":"Linux","password":true,"vac":true,"version":"7757534","steam_id":85568392924469988,"keywords":["nocrits","nodmgspread","payload","uncletopia"],"game_id":440,"stv_port":27026,"stv_name":"Uncletopia | Dallas | 2 | All Maps | STV","players":[{"user_id":240,"name":"Green Icicle","steam_id":76561198069624529,"connected_time":3404000000000,"state":"active","ping":95},{"user_id":241,"name":"Birdhorse Of Course","steam_id":76561198038997485,"connected_time":3354000000000,"state":"active","ping":88},{"user_id":219,"name":"Irate Gamer Official","steam_id":76561198162688146,"connected_time":5174000000000,"state":"active","ping":87},{"user_id":258,"name":"TheNixedOne","steam_id":76561198119167278,"connected_time":1645000000000,"state":"active","ping":90},{"user_id":274,"name":"momb","steam_id":76561198142234038,"connected_time":139000000000,"state":"active","ping":86},{"user_id":184,"name":"DiabetesMan","steam_id":76561198075668940,"connected_time":8394000000000,"state":"active","ping":95},{"user_id":259,"name":"Number_forty1","steam_id":76561198103653795,"connected_time":1635000000000,"state":"active","ping":90},{"user_id":273,"name":"authenticwizard","steam_id":76561198366637634,"connected_time":592000000000,"state":"active","ping":87},{"user_id":270,"name":"Not A Rapper","steam_id":76561198077523537,"connected_time":998000000000,"state":"active","ping":93},{"user_id":257,"name":"Ghost","steam_id":76561198110914180,"connected_time":1679000000000,"state":"active","ping":195},{"user_id":245,"name":"rollypollyolie","steam_id":76561198039539380,"connected_time":3196000000000,"state":"active","ping":120},{"user_id":268,"name":"Ghaeril","steam_id":76561198047880019,"connected_time":1214000000000,"state":"active","ping":64},{"user_id":185,"name":"Dat Dere Kirby","steam_id":76561198084054568,"connected_time":8394000000000,"state":"active","ping":97},{"user_id":267,"name":"mischievous imp","steam_id":76561199074875663,"connected_time":1220000000000,"state":"active","ping":87},{"user_id":254,"name":"Forest_Dragon93","steam_id":76561199064900666,"connected_time":2398000000000,"state":"active","ping":100},{"user_id":256,"name":"Howoriginal","steam_id":76561197993701184,"connected_time":2018000000000,"state":"active","ping":77},{"user_id":180,"name":"momiji fumo","steam_id":76561198066698922,"connected_time":8791000000000,"state":"active","ping":82},{"user_id":271,"name":"Sup m8","steam_id":76561198081659121,"connected_time":889000000000,"state":"active","ping":46},{"user_id":272,"name":"Dojoloachfr","steam_id":76561198826298849,"connected_time":887000000000,"state":"active","ping":113},{"user_id":226,"name":"leopardo123atl","steam_id":76561198872648238,"connected_time":4495000000000,"state":"active","ping":70},{"user_id":249,"name":"Black Chan","steam_id":76561198053355299,"connected_time":3140000000000,"state":"active","ping":136},{"user_id":253,"name":"SithDestroyer","steam_id":76561198183901886,"connected_time":2599000000000,"state":"active","ping":73},{"user_id":269,"name":"Huge eevee fan","steam_id":76561198128057732,"connected_time":1213000000000,"state":"active","ping":84},{"user_id":207,"name":"Nugakku","steam_id":76561198082346219,"connected_time":5871000000000,"state":"active","ping":80}]},{"server_id":5,"name":"Uncletopia | Frankfurt | 1 | All Maps","name_short":"frk-1","host":"frk-1.de.uncletopia.com","port":27015,"enabled":true,"region":"eu","cc":"de","latitude":50.110924,"longitude":8.682127,"reserved":0,"last_update":"0001-01-01T00:00:00Z","name_a2s":"Uncletopia | Frankfurt | 1 | All Maps","protocol":17,"map":"pl_badwater","folder":"tf","game":"Team Fortress","app_id":440,"player_count":0,"max_players":24,"Bots":0,"server_type":"Dedicated","server_os":"Linux","password":true,"vac":true,"version":"7757534","steam_id":85568392924469989,"keywords":["nocrits","nodmgspread","payload","uncletopia"],"game_id":440,"stv_port":27016,"stv_name":"Uncletopia | Frankfurt | 1 | All Maps | STV","players":null},{"server_id":110,"name":"Uncletopia | Frankfurt | 2 | All Maps","name_short":"frk-2","host":"frk-1.de.uncletopia.com","port":27025,"enabled":true,"region":"eu","cc":"de","latitude":50.110924,"longitude":8.682127,"reserved":0,"last_update":"0001-01-01T00:00:00Z","name_a2s":"Uncletopia | Frankfurt | 2 | All Maps","protocol":17,"map":"cp_altitude","folder":"tf","game":"Team Fortress","app_id":440,"player_count":0,"max_players":24,"Bots":0,"server_type":"Dedicated","server_os":"Linux","password":true,"vac":true,"version":"7757534","steam_id":85568392924469990,"keywords":["cp","nocrits","nodmgspread","uncletopia"],"game_id":440,"stv_port":27026,"stv_name":"Uncletopia | Frankfurt | 2 | All Maps | STV","players":null},{"server_id":308,"name":"Uncletopia | Frankfurt | 3 | All Maps","name_short":"frk-3","host":"frk-1.de.uncletopia.com","port":27035,"enabled":true,"region":"eu","cc":"de","latitude":50.110924,"longitude":8.682127,"reserved":0,"last_update":"0001-01-01T00:00:00Z","name_a2s":"Uncletopia | Frankfurt | 3 | All Maps","protocol":17,"map":"pl_borneo","folder":"tf","game":"Team Fortress","app_id":440,"player_count":0,"max_players":24,"Bots":0,"server_type":"Dedicated","server_os":"Linux","password":true,"vac":true,"version":"7757534","steam_id":85568392924504274,"keywords":["nocrits","nodmgspread","payload","uncletopia"],"game_id":440,"stv_port":27036,"stv_name":"Uncletopia | Frankfurt | 3 | All Maps | STV","players":null},{"server_id":309,"name":"Uncletopia | Frankfurt | 4 | All Maps","name_short":"frk-4","host":"frk-1.de.uncletopia.com","port":27045,"enabled":true,"region":"eu","cc":"de","latitude":50.110924,"longitude":8.682127,"reserved":0,"last_update":"0001-01-01T00:00:00Z","name_a2s":"Uncletopia | Frankfurt | 4 | All Maps","protocol":17,"map":"pl_pier","folder":"tf","game":"Team Fortress","app_id":440,"player_count":0,"max_players":24,"Bots":0,"server_type":"Dedicated","server_os":"Linux","password":true,"vac":true,"version":"7757534","steam_id":85568392924504275,"keywords":["nocrits","nodmgspread","payload","uncletopia"],"game_id":440,"stv_port":27046,"stv_name":"Uncletopia | Frankfurt | 4 | All Maps | STV","players":null},{"server_id":310,"name":"Uncletopia | Frankfurt | 5 | All Maps","name_short":"frk-5","host":"frk-1.de.uncletopia.com","port":27055,"enabled":true,"region":"eu","cc":"de","latitude":50.110924,"longitude":8.682127,"reserved":0,"last_update":"0001-01-01T00:00:00Z","name_a2s":"Uncletopia | Frankfurt | 5 | All Maps","protocol":17,"map":"cp_altitude","folder":"tf","game":"Team Fortress","app_id":440,"player_count":0,"max_players":24,"Bots":0,"server_type":"Dedicated","server_os":"Linux","password":true,"vac":true,"version":"7757534","steam_id":85568392924504277,"keywords":["cp","nocrits","nodmgspread","uncletopia"],"game_id":440,"stv_port":27056,"stv_name":"Uncletopia | Frankfurt | 5 | All Maps | STV","players":null},{"server_id":311,"name":"Uncletopia | Frankfurt | 6 | All Maps","name_short":"frk-6","host":"frk-1.de.uncletopia.com","port":27065,"enabled":true,"region":"eu","cc":"de","latitude":50.110924,"longitude":8.682127,"reserved":0,"last_update":"0001-01-01T00:00:00Z","name_a2s":"Uncletopia | Frankfurt | 6 | All Maps","protocol":17,"map":"pl_barnblitz","folder":"tf","game":"Team Fortress","app_id":440,"player_count":0,"max_players":24,"Bots":0,"server_type":"Dedicated","server_os":"Linux","password":true,"vac":true,"version":"7757534","steam_id":85568392924504278,"keywords":["nocrits","nodmgspread","payload","uncletopia"],"game_id":440,"stv_port":27066,"stv_name":"Uncletopia | Frankfurt | 6 | All Maps | STV","players":null},{"server_id":23,"name":"Uncletopia | Frankfurt | 7 | Stopwatch Beta","name_short":"frk-7","host":"frk-1.de.uncletopia.com","port":27075,"enabled":true,"region":"eu","cc":"de","latitude":50.110924,"longitude":8.682127,"reserved":0,"last_update":"0001-01-01T00:00:00Z","name_a2s":"Uncletopia | Frankfurt | 7 | Stopwatch Beta","protocol":17,"map":"pl_borneo","folder":"tf","game":"Team Fortress","app_id":440,"player_count":0,"max_players":24,"Bots":0,"server_type":"Dedicated","server_os":"Linux","password":true,"vac":true,"version":"7757534","steam_id":85568392924742827,"keywords":["nocrits","nodmgspread","payload","uncletopia"],"game_id":440,"stv_port":27076,"stv_name":"Uncletopia | Frankfurt | 7 | Stopwatch Beta | STV","players":null},{"server_id":24,"name":"Uncletopia | Frankfurt | 8 | Community","name_short":"frk-8","host":"frk-1.de.uncletopia.com","port":27085,"enabled":true,"region":"eu","cc":"de","latitude":50.110924,"longitude":8.682127,"reserved":0,"last_update":"0001-01-01T00:00:00Z","name_a2s":"Uncletopia | Frankfurt | 8 | Community","protocol":17,"map":"koth_viaduct","folder":"tf","game":"Team Fortress","app_id":440,"player_count":0,"max_players":24,"Bots":0,"server_type":"Dedicated","server_os":"Linux","password":true,"vac":true,"version":"7757534","steam_id":85568392924742828,"keywords":["cp","nocrits","nodmgspread","uncletopia"],"game_id":440,"stv_port":27086,"stv_name":"Uncletopia | Frankfurt | 8 | Community | STV","players":null},{"server_id":202,"name":"Uncletopia | Hong Kong | 1 | All Maps","name_short":"hgk-1","host":"hgk-1.hk.uncletopia.com","port":27015,"enabled":true,"region":"asia","cc":"hk","latitude":22.302711,"longitude":114.177216,"reserved":0,"last_update":"0001-01-01T00:00:00Z","name_a2s":"Uncletopia | Hong Kong | 1 | All Maps","protocol":17,"map":"koth_lakeside_final","folder":"tf","game":"Team Fortress","app_id":440,"player_count":0,"max_players":24,"Bots":0,"server_type":"Dedicated","server_os":"Linux","password":true,"vac":true,"version":"7757534","steam_id":85568392924494504,"keywords":["cp","nocrits","nodmgspread","uncletopia"],"game_id":440,"stv_port":27016,"stv_name":"Uncletopia | Hong Kong | 1 | All Maps | STV","players":null},{"server_id":1,"name":"Uncletopia | Los Angeles | 1 | All Maps","name_short":"lax-1","host":"lax-1.us.uncletopia.com","port":27015,"enabled":true,"region":"us-west","cc":"us","latitude":33.94279,"longitude":-118.41004,"reserved":0,"last_update":"0001-01-01T00:00:00Z","name_a2s":"Uncletopia | Los Angeles | 1 | All Maps","protocol":17,"map":"pl_pier","folder":"tf","game":"Team Fortress","app_id":440,"player_count":0,"max_players":24,"Bots":0,"server_type":"Dedicated","server_os":"Linux","password":true,"vac":true,"version":"7757534","steam_id":85568392924469991,"keywords":["nocrits","nodmgspread","payload","uncletopia"],"game_id":440,"stv_port":27016,"stv_name":"Uncletopia | Los Angeles | 1 | All Maps | STV","players":null},{"server_id":112,"name":"Uncletopia | Los Angeles | 2 | All Maps","name_short":"lax-2","host":"lax-1.us.uncletopia.com","port":27025,"enabled":true,"region":"us-west","cc":"us","latitude":33.94279,"longitude":-118.41004,"reserved":0,"last_update":"0001-01-01T00:00:00Z","name_a2s":"Uncletopia | Los Angeles | 2 | All Maps","protocol":17,"map":"koth_viaduct","folder":"tf","game":"Team Fortress","app_id":440,"player_count":0,"max_players":24,"Bots":0,"server_type":"Dedicated","server_os":"Linux","password":true,"vac":true,"version":"7757534","steam_id":85568392924469992,"keywords":["cp","nocrits","nodmgspread","uncletopia"],"game_id":440,"stv_port":27026,"stv_name":"Uncletopia | Los Angeles | 2 | All Maps | STV","players":null},{"server_id":324,"name":"Uncletopia | Los Angeles | 3 | All Maps","name_short":"lax-3","host":"lax-1.us.uncletopia.com","port":27035,"enabled":true,"region":"us-west","cc":"us","latitude":33.94279,"longitude":-118.41004,"reserved":0,"last_update":"0001-01-01T00:00:00Z","name_a2s":"Uncletopia | Los Angeles | 3 | All Maps","protocol":17,"map":"pl_snowycoast","folder":"tf","game":"Team Fortress","app_id":440,"player_count":24,"max_players":24,"Bots":0,"server_type":"Dedicated","server_os":"Linux","password":true,"vac":true,"version":"7757534","steam_id":85568392924510198,"keywords":["nocrits","nodmgspread","payload","uncletopia"],"game_id":440,"stv_port":27036,"stv_name":"Uncletopia | Los Angeles | 3 | All Maps | STV","players":[{"user_id":262,"name":"put my balls on a chair","steam_id":76561198206922028,"connected_time":1368000000000,"state":"active","ping":48},{"user_id":275,"name":"blue_tristan03","steam_id":76561199468377688,"connected_time":840000000000,"state":"active","ping":63},{"user_id":267,"name":"wubber","steam_id":76561198286627157,"connected_time":1000000000000,"state":"active","ping":48},{"user_id":226,"name":"nattvardsgästerna","steam_id":76561198212421513,"connected_time":4032000000000,"state":"active","ping":47},{"user_id":277,"name":"American freedom bird","steam_id":76561198366142388,"connected_time":807000000000,"state":"active","ping":60},{"user_id":253,"name":"hidinq","steam_id":76561198321277216,"connected_time":2594000000000,"state":"active","ping":66},{"user_id":231,"name":"tum","steam_id":76561198084712019,"connected_time":3350000000000,"state":"active","ping":52},{"user_id":232,"name":"Pile of Spinach","steam_id":76561198043068841,"connected_time":3346000000000,"state":"active","ping":72},{"user_id":276,"name":"Green_GarBear","steam_id":76561199468912415,"connected_time":829000000000,"state":"active","ping":61},{"user_id":269,"name":"heimdall","steam_id":76561198069380992,"connected_time":917000000000,"state":"active","ping":84},{"user_id":272,"name":"Seller of Waffles","steam_id":76561198296018138,"connected_time":896000000000,"state":"active","ping":99},{"user_id":281,"name":"The Arm","steam_id":76561197983066285,"connected_time":691000000000,"state":"active","ping":67},{"user_id":284,"name":"rose","steam_id":76561197995200743,"connected_time":381000000000,"state":"active","ping":31},{"user_id":263,"name":"M3tr0idPrim3","steam_id":76561198138329107,"connected_time":1354000000000,"state":"active","ping":54},{"user_id":278,"name":"John Wick's puppy","steam_id":76561198064662875,"connected_time":798000000000,"state":"active","ping":61},{"user_id":261,"name":"DeathSushi","steam_id":76561199156131540,"connected_time":1924000000000,"state":"active","ping":96},{"user_id":242,"name":"sameways","steam_id":76561198120982884,"connected_time":3058000000000,"state":"active","ping":69},{"user_id":270,"name":"FriskyDemon","steam_id":76561198043684646,"connected_time":908000000000,"state":"active","ping":75},{"user_id":285,"name":"Gr8butnotreally","steam_id":76561198133924450,"connected_time":77000000000,"state":"active","ping":64},{"user_id":256,"name":"Crafty","steam_id":76561199217624073,"connected_time":2384000000000,"state":"active","ping":50},{"user_id":280,"name":"TrashMan","steam_id":76561198064860110,"connected_time":722000000000,"state":"active","ping":113},{"user_id":259,"name":"GooberFloober","steam_id":76561198361537116,"connected_time":2039000000000,"state":"active","ping":77},{"user_id":279,"name":"Five","steam_id":76561198026640473,"connected_time":797000000000,"state":"active","ping":64},{"user_id":271,"name":"Melon","steam_id":76561199202306398,"connected_time":903000000000,"state":"active","ping":55}]},{"server_id":25,"name":"Uncletopia | Los Angeles | 4 | Stopwatch Beta","name_short":"lax-4","host":"lax-1.us.uncletopia.com","port":27045,"enabled":true,"region":"us-west","cc":"us","latitude":33.94279,"longitude":-118.41004,"reserved":0,"last_update":"0001-01-01T00:00:00Z","name_a2s":"Uncletopia | Los Angeles | 4 | Stopwatch Beta","protocol":17,"map":"cp_dustbowl","folder":"tf","game":"Team Fortress","app_id":440,"player_count":0,"max_players":24,"Bots":0,"server_type":"Dedicated","server_os":"Linux","password":true,"vac":true,"version":"7757534","steam_id":85568392924510199,"keywords":["cp","nocrits","nodmgspread","uncletopia"],"game_id":440,"stv_port":27046,"stv_name":"Uncletopia | Los Angeles | 4 | Stopwatch Beta | STV","players":null},{"server_id":11,"name":"Uncletopia | London | 1 | All Maps","name_short":"lon-1","host":"lon-1.uk.uncletopia.com","port":27015,"enabled":true,"region":"eu","cc":"gb","latitude":51.509865,"longitude":-0.118092,"reserved":0,"last_update":"0001-01-01T00:00:00Z","name_a2s":"Uncletopia | London | 1 | All Maps","protocol":17,"map":"koth_cascade","folder":"tf","game":"Team Fortress","app_id":440,"player_count":0,"max_players":24,"Bots":0,"server_type":"Dedicated","server_os":"Linux","password":true,"vac":true,"version":"7757534","steam_id":85568392924367362,"keywords":["cp","nocrits","nodmgspread","uncletopia"],"game_id":440,"stv_port":27016,"stv_name":"Uncletopia | London | 1 | All Maps | STV","players":null},{"server_id":114,"name":"Uncletopia | London | 2 | All Maps","name_short":"lon-2","host":"lon-1.uk.uncletopia.com","port":27025,"enabled":true,"region":"eu","cc":"gb","latitude":51.509865,"longitude":-0.118092,"reserved":0,"last_update":"0001-01-01T00:00:00Z","name_a2s":"Uncletopia | London | 2 | All Maps","protocol":17,"map":"koth_lakeside_final","folder":"tf","game":"Team Fortress","app_id":440,"player_count":0,"max_players":24,"Bots":0,"server_type":"Dedicated","server_os":"Linux","password":true,"vac":true,"version":"7757534","steam_id":85568392924470941,"keywords":["cp","nocrits","nodmgspread","uncletopia"],"game_id":440,"stv_port":27026,"stv_name":"Uncletopia | London | 2 | All Maps | STV","players":null},{"server_id":320,"name":"Uncletopia | London | 3 | All Maps","name_short":"lon-3","host":"lon-1.uk.uncletopia.com","port":27035,"enabled":true,"region":"eu","cc":"gb","latitude":51.509865,"longitude":-0.118092,"reserved":0,"last_update":"0001-01-01T00:00:00Z","name_a2s":"Uncletopia | London | 3 | All Maps","protocol":17,"map":"cp_dustbowl","folder":"tf","game":"Team Fortress","app_id":440,"player_count":22,"max_players":24,"Bots":0,"server_type":"Dedicated","server_os":"Linux","password":true,"vac":true,"version":"7757534","steam_id":85568392924510192,"keywords":["cp","nocrits","nodmgspread","uncletopia"],"game_id":440,"stv_port":27036,"stv_name":"Uncletopia | London | 3 | All Maps | STV","players":[{"user_id":714,"name":"Unfortunate","steam_id":76561198125500777,"connected_time":246000000000,"state":"active","ping":94},{"user_id":646,"name":"Hong Kong Larry","steam_id":76561198071829617,"connected_time":6127000000000,"state":"active","ping":43},{"user_id":716,"name":"Not Fun","steam_id":76561198210563757,"connected_time":154000000000,"state":"active","ping":113},{"user_id":705,"name":"canine defecation","steam_id":76561198115656778,"connected_time":1045000000000,"state":"active","ping":118},{"user_id":717,"name":"Noodle","steam_id":76561198306486695,"connected_time":55000000000,"state":"active","ping":66},{"user_id":675,"name":"New","steam_id":76561198402195911,"connected_time":2880000000000,"state":"active","ping":115},{"user_id":694,"name":"hideki","steam_id":76561198030728517,"connected_time":1655000000000,"state":"active","ping":53},{"user_id":715,"name":"Saul Goodman","steam_id":76561198276443605,"connected_time":184000000000,"state":"active","ping":118},{"user_id":647,"name":"CHEEKI BREEKI","steam_id":76561198023120431,"connected_time":6122000000000,"state":"active","ping":70},{"user_id":686,"name":"roamn","steam_id":76561199224586044,"connected_time":2384000000000,"state":"active","ping":72},{"user_id":708,"name":"m","steam_id":76561198883590923,"connected_time":681000000000,"state":"active","ping":97},{"user_id":662,"name":"John Ross","steam_id":76561198034560808,"connected_time":4132000000000,"state":"active","ping":57},{"user_id":674,"name":"reju veni","steam_id":76561198343654266,"connected_time":2951000000000,"state":"active","ping":133},{"user_id":687,"name":"Kiwimpediment","steam_id":76561198322781400,"connected_time":2346000000000,"state":"active","ping":145},{"user_id":677,"name":"Taste","steam_id":76561197994506978,"connected_time":2794000000000,"state":"active","ping":58},{"user_id":696,"name":"Augustus","steam_id":76561198138526984,"connected_time":1615000000000,"state":"active","ping":75},{"user_id":718,"name":"phäm","steam_id":76561198087631965,"connected_time":32000000000,"state":"active","ping":90},{"user_id":720,"name":"I want to mars","steam_id":76561198872387519,"connected_time":7000000000,"state":"spawning","ping":69},{"user_id":711,"name":"Tyranophallus Rex","steam_id":76561198026541997,"connected_time":508000000000,"state":"active","ping":163},{"user_id":719,"name":"Yoekantaevious Khalistitavicuus","steam_id":76561199402909046,"connected_time":19000000000,"state":"spawning","ping":304},{"user_id":661,"name":"Kendo-6","steam_id":76561198318748304,"connected_time":4261000000000,"state":"active","ping":128},{"user_id":619,"name":"beheading video from 2009","steam_id":76561198834897089,"connected_time":9296000000000,"state":"active","ping":80}]},{"server_id":321,"name":"Uncletopia | London | 4 | All Maps","name_short":"lon-4","host":"lon-1.uk.uncletopia.com","port":27045,"enabled":true,"region":"eu","cc":"gb","latitude":51.509865,"longitude":-0.118092,"reserved":0,"last_update":"0001-01-01T00:00:00Z","name_a2s":"Uncletopia | London | 4 | All Maps","protocol":17,"map":"cp_dustbowl","folder":"tf","game":"Team Fortress","app_id":440,"player_count":0,"max_players":24,"Bots":0,"server_type":"Dedicated","server_os":"Linux","password":true,"vac":true,"version":"7757534","steam_id":85568392924510193,"keywords":["cp","nocrits","nodmgspread","uncletopia"],"game_id":440,"stv_port":27046,"stv_name":"Uncletopia | London | 4 | All Maps | STV","players":null},{"server_id":21,"name":"Uncletopia | London | 5 | All Maps","name_short":"lon-5","host":"lon-1.uk.uncletopia.com","port":27055,"enabled":true,"region":"eu","cc":"gb","latitude":51.509865,"longitude":-0.118092,"reserved":0,"last_update":"0001-01-01T00:00:00Z","name_a2s":"Uncletopia | London | 5 | All Maps","protocol":17,"map":"koth_highpass","folder":"tf","game":"Team Fortress","app_id":440,"player_count":0,"max_players":24,"Bots":0,"server_type":"Dedicated","server_os":"Linux","password":true,"vac":true,"version":"7757534","steam_id":85568392924742829,"keywords":["cp","nocrits","nodmgspread","uncletopia"],"game_id":440,"stv_port":27056,"stv_name":"Uncletopia | London | 5 | All Maps | STV","players":null},{"server_id":22,"name":"Uncletopia | London | 6 | All Maps","name_short":"lon-6","host":"lon-1.uk.uncletopia.com","port":27065,"enabled":true,"region":"eu","cc":"gb","latitude":51.509865,"longitude":-0.118092,"reserved":0,"last_update":"0001-01-01T00:00:00Z","name_a2s":"Uncletopia | London | 6 | All Maps","protocol":17,"map":"pl_frontier_final","folder":"tf","game":"Team Fortress","app_id":440,"player_count":0,"max_players":24,"Bots":0,"server_type":"Dedicated","server_os":"Linux","password":true,"vac":true,"version":"7757534","steam_id":85568392924742830,"keywords":["nocrits","nodmgspread","payload","uncletopia"],"game_id":440,"stv_port":27066,"stv_name":"Uncletopia | London | 6 | All Maps | STV","players":null},{"server_id":40,"name":"Uncletopia | London | 7 | No Payload","name_short":"lon-7","host":"lon-1.uk.uncletopia.com","port":27075,"enabled":true,"region":"eu","cc":"gb","latitude":51.509865,"longitude":-0.118092,"reserved":0,"last_update":"0001-01-01T00:00:00Z","name_a2s":"Uncletopia | London | 7 | No Payload","protocol":17,"map":"koth_highpass","folder":"tf","game":"Team Fortress","app_id":440,"player_count":0,"max_players":24,"Bots":0,"server_type":"Dedicated","server_os":"Linux","password":true,"vac":true,"version":"7757534","steam_id":85568392924964314,"keywords":["cp","nocrits","nodmgspread","uncletopia"],"game_id":440,"stv_port":27076,"stv_name":"Uncletopia | London | 7 | No Payload | STV","players":null},{"server_id":41,"name":"Uncletopia | London | 8 | Community","name_short":"lon-8","host":"lon-1.uk.uncletopia.com","port":27085,"enabled":true,"region":"eu","cc":"gb","latitude":51.509865,"longitude":-0.118092,"reserved":0,"last_update":"0001-01-01T00:00:00Z","name_a2s":"Uncletopia | London | 8 | Community","protocol":17,"map":"workshop/koth_product_final.ugc454272353","folder":"tf","game":"Team Fortress","app_id":440,"player_count":0,"max_players":24,"Bots":0,"server_type":"Dedicated","server_os":"Linux","password":true,"vac":true,"version":"7757534","steam_id":85568392924964315,"keywords":["cp","nocrits","nodmgspread","uncletopia"],"game_id":440,"stv_port":27086,"stv_name":"Uncletopia | London | 8 | Community | STV","players":null},{"server_id":300,"name":"Uncletopia | Montréal | 1 | All Maps","name_short":"mtl-1","host":"mtl-1.ca.uncletopia.com","port":27015,"enabled":true,"region":"us-east","cc":"ca","latitude":45.50889,"longitude":-73.56167,"reserved":0,"last_update":"0001-01-01T00:00:00Z","name_a2s":"Uncletopia | Montréal | 1 | All Maps","protocol":17,"map":"cp_mountainlab","folder":"tf","game":"Team Fortress","app_id":440,"player_count":0,"max_players":24,"Bots":0,"server_type":"Dedicated","server_os":"Linux","password":true,"vac":true,"version":"7757534","steam_id":85568392924500087,"keywords":["cp","nocrits","nodmgspread","uncletopia"],"game_id":440,"stv_port":27016,"stv_name":"Uncletopia | Montréal | 1 | All Maps | STV","players":null},{"server_id":301,"name":"Uncletopia | Montréal | 2 | All Maps","name_short":"mtl-2","host":"mtl-1.ca.uncletopia.com","port":27025,"enabled":true,"region":"us-east","cc":"ca","latitude":45.50889,"longitude":-73.56167,"reserved":0,"last_update":"0001-01-01T00:00:00Z","name_a2s":"Uncletopia | Montréal | 2 | All Maps","protocol":17,"map":"cp_snakewater_final1","folder":"tf","game":"Team Fortress","app_id":440,"player_count":0,"max_players":24,"Bots":0,"server_type":"Dedicated","server_os":"Linux","password":true,"vac":true,"version":"7757534","steam_id":85568392924500088,"keywords":["cp","nocrits","nodmgspread","uncletopia"],"game_id":440,"stv_port":27026,"stv_name":"Uncletopia | Montréal | 2 | All Maps | STV","players":null},{"server_id":302,"name":"Uncletopia | Montréal | 3 | All Maps","name_short":"mtl-3","host":"mtl-1.ca.uncletopia.com","port":27035,"enabled":true,"region":"us-east","cc":"ca","latitude":45.50889,"longitude":-73.56167,"reserved":0,"last_update":"0001-01-01T00:00:00Z","name_a2s":"Uncletopia | Montréal | 3 | All Maps","protocol":17,"map":"pl_frontier_final","folder":"tf","game":"Team Fortress","app_id":440,"player_count":0,"max_players":24,"Bots":0,"server_type":"Dedicated","server_os":"Linux","password":true,"vac":true,"version":"7757534","steam_id":85568392924500089,"keywords":["nocrits","nodmgspread","payload","uncletopia"],"game_id":440,"stv_port":27036,"stv_name":"Uncletopia | Montréal | 3 | All Maps | STV","players":null},{"server_id":303,"name":"Uncletopia | Montréal | 4 | No Payload","name_short":"mtl-4","host":"mtl-1.ca.uncletopia.com","port":27045,"enabled":true,"region":"us-east","cc":"ca","latitude":45.50889,"longitude":-73.56167,"reserved":0,"last_update":"0001-01-01T00:00:00Z","name_a2s":"Uncletopia | Montréal | 4 | No Payload","protocol":17,"map":"cp_coldfront","folder":"tf","game":"Team Fortress","app_id":440,"player_count":0,"max_players":24,"Bots":0,"server_type":"Dedicated","server_os":"Linux","password":true,"vac":true,"version":"7757534","steam_id":85568392924500090,"keywords":["cp","nocrits","nodmgspread","uncletopia"],"game_id":440,"stv_port":27046,"stv_name":"Uncletopia | Montréal | 4 | No Payload | STV","players":null},{"server_id":13,"name":"Uncletopia | New York City | 1 | All Maps","name_short":"nyc-1","host":"nyc-1.us.uncletopia.com","port":27015,"enabled":true,"region":"us-east","cc":"us","latitude":40.73061,"longitude":-73.93524,"reserved":0,"last_update":"0001-01-01T00:00:00Z","name_a2s":"Uncletopia | New York City | 1 | All Maps","protocol":17,"map":"cp_snakewater_final1","folder":"tf","game":"Team Fortress","app_id":440,"player_count":24,"max_players":24,"Bots":0,"server_type":"Dedicated","server_os":"Linux","password":true,"vac":true,"version":"7757534","steam_id":85568392924469993,"keywords":["cp","nocrits","nodmgspread","uncletopia"],"game_id":440,"stv_port":27016,"stv_name":"Uncletopia | New York City | 1 | All Maps | STV","players":[{"user_id":685,"name":"Brunch","steam_id":76561198045933938,"connected_time":2095000000000,"state":"active","ping":44},{"user_id":712,"name":"[DEEP] Roz257","steam_id":76561198842844532,"connected_time":18000000000,"state":"active","ping":103},{"user_id":681,"name":"noelle","steam_id":76561198842577534,"connected_time":2269000000000,"state":"active","ping":116},{"user_id":704,"name":"Comfy!","steam_id":76561198008818346,"connected_time":455000000000,"state":"active","ping":39},{"user_id":705,"name":"Sheep","steam_id":76561198122705864,"connected_time":226000000000,"state":"active","ping":98},{"user_id":671,"name":"Caffeine Queen","steam_id":76561199042221198,"connected_time":3431000000000,"state":"active","ping":57},{"user_id":706,"name":"Florist","steam_id":76561198009121060,"connected_time":217000000000,"state":"active","ping":114},{"user_id":707,"name":"MrLeftTurn","steam_id":76561198856743969,"connected_time":212000000000,"state":"active","ping":152},{"user_id":649,"name":"mike","steam_id":76561198003593070,"connected_time":4821000000000,"state":"active","ping":58},{"user_id":644,"name":"dairy","steam_id":76561198117033273,"connected_time":5221000000000,"state":"active","ping":121},{"user_id":666,"name":"laddie","steam_id":76561198063029230,"connected_time":3674000000000,"state":"active","ping":52},{"user_id":680,"name":"Jankyo","steam_id":76561198083339492,"connected_time":2356000000000,"state":"active","ping":85},{"user_id":689,"name":"great1photo","steam_id":76561198085481933,"connected_time":2050000000000,"state":"active","ping":86},{"user_id":708,"name":"Savage","steam_id":76561198260358041,"connected_time":195000000000,"state":"active","ping":91},{"user_id":699,"name":"Ivy","steam_id":76561198047758442,"connected_time":793000000000,"state":"active","ping":112},{"user_id":667,"name":"Speedy","steam_id":76561198080761661,"connected_time":3668000000000,"state":"active","ping":62},{"user_id":709,"name":"Beef Wellington","steam_id":76561199120854992,"connected_time":159000000000,"state":"active","ping":89},{"user_id":702,"name":"koth_SHE/HERvest","steam_id":76561198029274581,"connected_time":695000000000,"state":"active","ping":75},{"user_id":696,"name":"meinsword","steam_id":76561198272653535,"connected_time":1691000000000,"state":"active","ping":64},{"user_id":711,"name":"Yuzu","steam_id":76561198417913035,"connected_time":61000000000,"state":"active","ping":63},{"user_id":683,"name":"Austin The Kat","steam_id":76561198841149665,"connected_time":2207000000000,"state":"active","ping":153},{"user_id":695,"name":"Saint","steam_id":76561199122494395,"connected_time":1852000000000,"state":"active","ping":66},{"user_id":542,"name":"Average Engineer Main","steam_id":76561197999657118,"connected_time":13116000000000,"state":"active","ping":62},{"user_id":669,"name":"Colonel_Tighlon","steam_id":76561198005660399,"connected_time":3653000000000,"state":"active","ping":37}]},{"server_id":14,"name":"Uncletopia | New York City | 2 | All Maps","name_short":"nyc-2","host":"nyc-1.us.uncletopia.com","port":27025,"enabled":true,"region":"us-east","cc":"us","latitude":40.73061,"longitude":-73.93524,"reserved":0,"last_update":"0001-01-01T00:00:00Z","name_a2s":"Uncletopia | New York City | 2 | All Maps","protocol":17,"map":"cp_sunshine","folder":"tf","game":"Team Fortress","app_id":440,"player_count":0,"max_players":24,"Bots":0,"server_type":"Dedicated","server_os":"Linux","password":true,"vac":true,"version":"7757534","steam_id":85568392924469994,"keywords":["cp","nocrits","nodmgspread","uncletopia"],"game_id":440,"stv_port":27026,"stv_name":"Uncletopia | New York City | 2 | All Maps | STV","players":null},{"server_id":15,"name":"Uncletopia | New York City | 3 | Stopwatch Beta","name_short":"nyc-3","host":"nyc-1.us.uncletopia.com","port":27035,"enabled":true,"region":"us-east","cc":"us","latitude":40.73061,"longitude":-73.93524,"reserved":0,"last_update":"0001-01-01T00:00:00Z","name_a2s":"Uncletopia | New York City | 3 | Stopwatch Beta","protocol":17,"map":"workshop/koth_ramjam_rc1.ugc459778887","folder":"tf","game":"Team Fortress","app_id":440,"player_count":0,"max_players":24,"Bots":0,"server_type":"Dedicated","server_os":"Linux","password":true,"vac":true,"version":"7757534","steam_id":85568392924742820,"keywords":["cp","nocrits","nodmgspread","uncletopia"],"game_id":440,"stv_port":27036,"stv_name":"Uncletopia | New York City | 3 | Stopwatch Beta | STV","players":null},{"server_id":16,"name":"Uncletopia | New York City | 4 | Community","name_short":"nyc-4","host":"nyc-1.us.uncletopia.com","port":27045,"enabled":true,"region":"us-east","cc":"us","latitude":40.73061,"longitude":-73.93524,"reserved":0,"last_update":"0001-01-01T00:00:00Z","name_a2s":"Uncletopia | New York City | 4 | Community","protocol":17,"map":"workshop/cp_bruhstbowl_b5.ugc2878604990","folder":"tf","game":"Team Fortress","app_id":440,"player_count":0,"max_players":24,"Bots":0,"server_type":"Dedicated","server_os":"Linux","password":true,"vac":true,"version":"7757534","steam_id":85568392924742821,"keywords":["cp","nocrits","nodmgspread","uncletopia"],"game_id":440,"stv_port":27046,"stv_name":"Uncletopia | New York City | 4 | Community | STV","players":null},{"server_id":142,"name":"Uncletopia | São Paulo | 1 | All Maps","name_short":"sao-1","host":"sao-1.br.uncletopia.com","port":27015,"enabled":true,"region":"sa","cc":"br","latitude":-23.533773,"longitude":-46.62529,"reserved":0,"last_update":"0001-01-01T00:00:00Z","name_a2s":"Uncletopia | São Paulo | 1 | All Maps","protocol":17,"map":"cp_sunshine","folder":"tf","game":"Team Fortress","app_id":440,"player_count":0,"max_players":24,"Bots":0,"server_type":"Dedicated","server_os":"Linux","password":true,"vac":true,"version":"7757534","steam_id":85568392924469996,"keywords":["cp","nocrits","nodmgspread","uncletopia"],"game_id":440,"stv_port":27016,"stv_name":"Uncletopia | São Paulo | 1 | All Maps | STV","players":null},{"server_id":143,"name":"Uncletopia | São Paulo | 2 | All Maps","name_short":"sao-2","host":"sao-2.br.uncletopia.com","port":27015,"enabled":true,"region":"sa","cc":"br","latitude":-23.533773,"longitude":-46.62529,"reserved":0,"last_update":"0001-01-01T00:00:00Z","name_a2s":"Uncletopia | São Paulo | 2 | All Maps","protocol":17,"map":"koth_cascade","folder":"tf","game":"Team Fortress","app_id":440,"player_count":0,"max_players":24,"Bots":0,"server_type":"Dedicated","server_os":"Linux","password":true,"vac":true,"version":"7757534","steam_id":85568392924485349,"keywords":["cp","nocrits","nodmgspread","uncletopia"],"game_id":440,"stv_port":27016,"stv_name":"Uncletopia | São Paulo | 2 | All Maps | STV","players":null},{"server_id":7,"name":"Uncletopia | Seattle | 1 | All Maps","name_short":"sea-1","host":"sea-1.us.uncletopia.com","port":27015,"enabled":true,"region":"us-west","cc":"us","latitude":47.608013,"longitude":-122.33517,"reserved":0,"last_update":"0001-01-01T00:00:00Z","name_a2s":"Uncletopia | Seattle | 1 | All Maps","protocol":17,"map":"pl_pier","folder":"tf","game":"Team Fortress","app_id":440,"player_count":24,"max_players":24,"Bots":0,"server_type":"Dedicated","server_os":"Linux","password":true,"vac":true,"version":"7757534","steam_id":85568392924469997,"keywords":["nocrits","nodmgspread","payload","uncletopia"],"game_id":440,"stv_port":27016,"stv_name":"Uncletopia | Seattle | 1 | All Maps | STV","players":[{"user_id":792,"name":"Super Vegeta BolognaWithOlives","steam_id":76561198101262668,"connected_time":412000000000,"state":"active","ping":81},{"user_id":750,"name":"Bobby Ray","steam_id":76561198044131188,"connected_time":2586000000000,"state":"active","ping":88},{"user_id":777,"name":"Tyzombiecrusher","steam_id":76561198175855278,"connected_time":1420000000000,"state":"active","ping":98},{"user_id":758,"name":"Soap","steam_id":76561197994893383,"connected_time":2399000000000,"state":"active","ping":80},{"user_id":783,"name":"Strikerbolt","steam_id":76561199095622897,"connected_time":982000000000,"state":"active","ping":103},{"user_id":771,"name":"bbbbb","steam_id":76561198095480838,"connected_time":1922000000000,"state":"active","ping":47},{"user_id":782,"name":"Korey","steam_id":76561198210734407,"connected_time":986000000000,"state":"active","ping":106},{"user_id":736,"name":"blinkerton city","steam_id":76561198054270410,"connected_time":3882000000000,"state":"active","ping":56},{"user_id":752,"name":"gorlab","steam_id":76561198025089694,"connected_time":2466000000000,"state":"active","ping":67},{"user_id":762,"name":"WACKY JIM","steam_id":76561198961641122,"connected_time":2340000000000,"state":"active","ping":60},{"user_id":784,"name":"Cheezbeargur","steam_id":76561198164702899,"connected_time":971000000000,"state":"active","ping":69},{"user_id":768,"name":"Faustphi","steam_id":76561198150996373,"connected_time":2060000000000,"state":"active","ping":93},{"user_id":780,"name":"mooney","steam_id":76561199110622484,"connected_time":1156000000000,"state":"active","ping":67},{"user_id":789,"name":"Big Floppa ssjgod x100000","steam_id":76561199152552589,"connected_time":721000000000,"state":"active","ping":60},{"user_id":707,"name":"Clean your room","steam_id":76561198011617388,"connected_time":5933000000000,"state":"active","ping":62},{"user_id":748,"name":"mhmyeah_yeahmhm","steam_id":76561198341190679,"connected_time":2832000000000,"state":"active","ping":63},{"user_id":788,"name":"Elias","steam_id":76561198031295139,"connected_time":920000000000,"state":"active","ping":50},{"user_id":785,"name":"kodynotcody","steam_id":76561198340685758,"connected_time":970000000000,"state":"active","ping":63},{"user_id":786,"name":"Shiadyne Ultra Instinct Kaioken","steam_id":76561198271939793,"connected_time":950000000000,"state":"active","ping":56},{"user_id":760,"name":"Res Ipsa","steam_id":76561198041349210,"connected_time":2388000000000,"state":"active","ping":81},{"user_id":787,"name":"5392vin","steam_id":76561198880493511,"connected_time":948000000000,"state":"active","ping":68},{"user_id":794,"name":"soup","steam_id":76561198043209046,"connected_time":102000000000,"state":"active","ping":86},{"user_id":774,"name":"Vile","steam_id":76561198085615710,"connected_time":1766000000000,"state":"active","ping":97},{"user_id":775,"name":"JustVinn","steam_id":76561198076181564,"connected_time":1766000000000,"state":"active","ping":85}]},{"server_id":119,"name":"Uncletopia | Seattle | 2 | All Maps","name_short":"sea-2","host":"sea-1.us.uncletopia.com","port":27025,"enabled":true,"region":"us-west","cc":"us","latitude":47.608013,"longitude":-122.33517,"reserved":0,"last_update":"0001-01-01T00:00:00Z","name_a2s":"Uncletopia | Seattle | 2 | All Maps","protocol":17,"map":"pl_barnblitz","folder":"tf","game":"Team Fortress","app_id":440,"player_count":25,"max_players":24,"Bots":0,"server_type":"Dedicated","server_os":"Linux","password":true,"vac":true,"version":"7757534","steam_id":85568392924469998,"keywords":["nocrits","nodmgspread","payload","uncletopia"],"game_id":440,"stv_port":27026,"stv_name":"Uncletopia | Seattle | 2 | All Maps | STV","players":[{"user_id":833,"name":"Facepalm","steam_id":76561198001935226,"connected_time":750000000000,"state":"active","ping":79},{"user_id":826,"name":"MyMonkeyBaby","steam_id":76561198046896670,"connected_time":940000000000,"state":"active","ping":58},{"user_id":828,"name":"Kit Carson","steam_id":76561198115691546,"connected_time":926000000000,"state":"active","ping":88},{"user_id":825,"name":"Frosted Lighted Ornament","steam_id":76561197971250619,"connected_time":1060000000000,"state":"active","ping":67},{"user_id":792,"name":"the glizzard","steam_id":76561198121633820,"connected_time":2930000000000,"state":"active","ping":77},{"user_id":808,"name":"Unofficial","steam_id":76561198370071152,"connected_time":2190000000000,"state":"active","ping":162},{"user_id":803,"name":"shy guy","steam_id":76561198151246059,"connected_time":2435000000000,"state":"active","ping":68},{"user_id":809,"name":"WaffleWithNoToppings","steam_id":76561199088280111,"connected_time":2190000000000,"state":"active","ping":54},{"user_id":805,"name":"Marv_L","steam_id":76561198035709541,"connected_time":2418000000000,"state":"active","ping":70},{"user_id":829,"name":"GrislyFrisbee","steam_id":76561198255313020,"connected_time":903000000000,"state":"active","ping":99},{"user_id":793,"name":"MCman","steam_id":76561198412110305,"connected_time":2708000000000,"state":"active","ping":79},{"user_id":812,"name":"Arrythmia","steam_id":76561198093748123,"connected_time":2162000000000,"state":"active","ping":58},{"user_id":832,"name":"mike","steam_id":76561198163265338,"connected_time":765000000000,"state":"active","ping":60},{"user_id":802,"name":"ASCE","steam_id":76561198169768539,"connected_time":2528000000000,"state":"active","ping":97},{"user_id":765,"name":"BreadQuest","steam_id":76561198082425960,"connected_time":5474000000000,"state":"active","ping":43},{"user_id":830,"name":"Childhood Obesity","steam_id":76561198061190813,"connected_time":901000000000,"state":"active","ping":59},{"user_id":835,"name":"exephur","steam_id":76561198135763234,"connected_time":225000000000,"state":"active","ping":78},{"user_id":824,"name":"Whapper","steam_id":76561198044029606,"connected_time":1142000000000,"state":"active","ping":71},{"user_id":744,"name":"XMAN","steam_id":76561199229355018,"connected_time":6790000000000,"state":"active","ping":42},{"user_id":782,"name":"Eric Cartman","steam_id":76561198850898505,"connected_time":3900000000000,"state":"active","ping":49},{"user_id":766,"name":"SvicidalBug","steam_id":76561198221390504,"connected_time":5271000000000,"state":"active","ping":70},{"user_id":818,"name":"BEAST. FUCKING. SHIT.","steam_id":76561198029396836,"connected_time":1730000000000,"state":"active","ping":39},{"user_id":836,"name":"Bige Rone","steam_id":76561198066718191,"connected_time":6000000000,"state":"spawning","ping":57},{"user_id":823,"name":"Adobe Photoshop","steam_id":76561198840524987,"connected_time":1235000000000,"state":"active","ping":113},{"user_id":837,"name":"Cr0w!","steam_id":76561198178437265,"connected_time":5000000000,"state":"spawning","ping":45}]},{"server_id":406,"name":"Uncletopia | Seattle | 3 | Stopwatch Beta","name_short":"sea-3","host":"sea-1.us.uncletopia.com","port":27035,"enabled":true,"region":"us-west","cc":"us","latitude":47.608013,"longitude":-122.33517,"reserved":0,"last_update":"0001-01-01T00:00:00Z","name_a2s":"Uncletopia | Seattle | 3 | Stopwatch Beta","protocol":17,"map":"workshop/pl_barnblitz_pro7.ugc582280235","folder":"tf","game":"Team Fortress","app_id":440,"player_count":0,"max_players":24,"Bots":0,"server_type":"Dedicated","server_os":"Linux","password":true,"vac":true,"version":"7757534","steam_id":85568392924515217,"keywords":["nocrits","nodmgspread","payload","uncletopia"],"game_id":440,"stv_port":27036,"stv_name":"Uncletopia | Seattle | 3 | Stopwatch Beta | STV","players":null},{"server_id":17,"name":"Uncletopia | San Francisco | 1 | All Maps","name_short":"sfo-1","host":"sfo-1.us.uncletopia.com","port":27015,"enabled":true,"region":"us-west","cc":"us","latitude":37.77397,"longitude":-122.4313,"reserved":0,"last_update":"0001-01-01T00:00:00Z","name_a2s":"Uncletopia | San Francisco | 1 | All Maps","protocol":17,"map":"cp_altitude","folder":"tf","game":"Team Fortress","app_id":440,"player_count":0,"max_players":24,"Bots":0,"server_type":"Dedicated","server_os":"Linux","password":true,"vac":true,"version":"7757534","steam_id":85568392924469999,"keywords":["cp","nocrits","nodmgspread","uncletopia"],"game_id":440,"stv_port":27016,"stv_name":"Uncletopia | San Francisco | 1 | All Maps | STV","players":null},{"server_id":18,"name":"Uncletopia | San Francisco | 2 | All Maps","name_short":"sfo-2","host":"sfo-1.us.uncletopia.com","port":27025,"enabled":true,"region":"us-west","cc":"us","latitude":37.77397,"longitude":-122.4313,"reserved":0,"last_update":"0001-01-01T00:00:00Z","name_a2s":"Uncletopia | San Francisco | 2 | All Maps","protocol":17,"map":"pl_frontier_final","folder":"tf","game":"Team Fortress","app_id":440,"player_count":23,"max_players":24,"Bots":0,"server_type":"Dedicated","server_os":"Linux","password":true,"vac":true,"version":"7757534","steam_id":85568392924470000,"keywords":["nocrits","nodmgspread","payload","uncletopia"],"game_id":440,"stv_port":27026,"stv_name":"Uncletopia | San Francisco | 2 | All Maps | STV","players":[{"user_id":427,"name":"donutdagger","steam_id":76561199203048300,"connected_time":3645000000000,"state":"active","ping":70},{"user_id":399,"name":"selling rice","steam_id":76561198063357023,"connected_time":5406000000000,"state":"active","ping":40},{"user_id":477,"name":"Octo","steam_id":76561198024056355,"connected_time":495000000000,"state":"active","ping":60},{"user_id":478,"name":"AgentSly","steam_id":76561198071731311,"connected_time":484000000000,"state":"active","ping":136},{"user_id":481,"name":"Decepticon","steam_id":76561198047168548,"connected_time":431000000000,"state":"active","ping":50},{"user_id":488,"name":"honk","steam_id":76561198050398028,"connected_time":11000000000,"state":"spawning","ping":139},{"user_id":440,"name":"biofio","steam_id":76561198019094571,"connected_time":3386000000000,"state":"active","ping":57},{"user_id":458,"name":"Cinical","steam_id":76561198353955322,"connected_time":1531000000000,"state":"active","ping":60},{"user_id":483,"name":"Sinn","steam_id":76561199013434543,"connected_time":422000000000,"state":"active","ping":56},{"user_id":473,"name":"PerKnuckleChuckle","steam_id":76561198023221596,"connected_time":987000000000,"state":"active","ping":56},{"user_id":426,"name":"Fractured_Mango","steam_id":76561199013113268,"connected_time":3670000000000,"state":"active","ping":83},{"user_id":476,"name":"Isopentyl Ethanoate","steam_id":76561198116389072,"connected_time":717000000000,"state":"active","ping":78},{"user_id":406,"name":"dednaught","steam_id":76561198128780622,"connected_time":5249000000000,"state":"active","ping":75},{"user_id":489,"name":"cuppo","steam_id":76561198022008901,"connected_time":9000000000,"state":"spawning","ping":188},{"user_id":474,"name":"Saulce","steam_id":76561198066142119,"connected_time":946000000000,"state":"active","ping":85},{"user_id":475,"name":"Haylex","steam_id":76561198031532011,"connected_time":793000000000,"state":"active","ping":69},{"user_id":454,"name":"Zizen","steam_id":76561199011832069,"connected_time":1756000000000,"state":"active","ping":55},{"user_id":431,"name":"Pez","steam_id":76561199197778137,"connected_time":3582000000000,"state":"active","ping":79},{"user_id":469,"name":"Your eggs are reasonably firm","steam_id":76561198112211345,"connected_time":1273000000000,"state":"active","ping":45},{"user_id":485,"name":"iivy","steam_id":76561198068464819,"connected_time":404000000000,"state":"active","ping":67},{"user_id":460,"name":"Luna_Blossom","steam_id":76561198816384987,"connected_time":1491000000000,"state":"active","ping":65},{"user_id":468,"name":"WillieMakit","steam_id":76561197985391684,"connected_time":1368000000000,"state":"active","ping":72},{"user_id":449,"name":"Antzen","steam_id":76561198041343470,"connected_time":2237000000000,"state":"active","ping":52}]},{"server_id":19,"name":"Uncletopia | San Francisco | 3 | Stopwatch Beta","name_short":"sfo-3","host":"sfo-1.us.uncletopia.com","port":27035,"enabled":true,"region":"us-west","cc":"us","latitude":37.77397,"longitude":-122.4313,"reserved":0,"last_update":"0001-01-01T00:00:00Z","name_a2s":"Uncletopia | San Francisco | 3 | Stopwatch Beta","protocol":17,"map":"cp_snakewater_final1","folder":"tf","game":"Team Fortress","app_id":440,"player_count":0,"max_players":24,"Bots":0,"server_type":"Dedicated","server_os":"Linux","password":true,"vac":true,"version":"7757534","steam_id":85568392924742824,"keywords":["cp","nocrits","nodmgspread","uncletopia"],"game_id":440,"stv_port":27036,"stv_name":"Uncletopia | San Francisco | 3 | Stopwatch Beta | STV","players":null},{"server_id":20,"name":"Uncletopia | San Francisco | 4 | Community","name_short":"sfo-4","host":"sfo-1.us.uncletopia.com","port":27045,"enabled":true,"region":"us-west","cc":"us","latitude":37.77397,"longitude":-122.4313,"reserved":0,"last_update":"0001-01-01T00:00:00Z","name_a2s":"Uncletopia | San Francisco | 4 | Community","protocol":17,"map":"workshop/pl_cashworks_final1.ugc2904065412","folder":"tf","game":"Team Fortress","app_id":440,"player_count":24,"max_players":24,"Bots":0,"server_type":"Dedicated","server_os":"Linux","password":true,"vac":true,"version":"7757534","steam_id":85568392924742826,"keywords":["nocrits","nodmgspread","payload","uncletopia"],"game_id":440,"stv_port":27046,"stv_name":"Uncletopia | San Francisco | 4 | Community | STV","players":[{"user_id":203,"name":"jermas nightmare blunt rotation","steam_id":76561198070136627,"connected_time":5151000000000,"state":"active","ping":59},{"user_id":102,"name":"Wacks","steam_id":76561198079476100,"connected_time":11391000000000,"state":"active","ping":46},{"user_id":257,"name":"AAGooseman","steam_id":76561198378941369,"connected_time":1176000000000,"state":"active","ping":58},{"user_id":201,"name":"grugposter","steam_id":76561198035805348,"connected_time":5425000000000,"state":"active","ping":54},{"user_id":253,"name":"PeterPumpkinEater69","steam_id":76561199240739163,"connected_time":1378000000000,"state":"active","ping":93},{"user_id":254,"name":"Grand Piano Tuna","steam_id":76561198135137213,"connected_time":1345000000000,"state":"active","ping":88},{"user_id":157,"name":"Ozzyrockin","steam_id":76561198094899868,"connected_time":8419000000000,"state":"active","ping":89},{"user_id":241,"name":"Prof. Eggnog","steam_id":76561198193389166,"connected_time":2519000000000,"state":"active","ping":170},{"user_id":256,"name":"Hotsaucebauce","steam_id":76561199070938363,"connected_time":1224000000000,"state":"active","ping":71},{"user_id":248,"name":"Bad Namesman","steam_id":76561198027205470,"connected_time":1769000000000,"state":"active","ping":72},{"user_id":258,"name":"WannaSeeA","steam_id":76561198097701042,"connected_time":1105000000000,"state":"active","ping":86},{"user_id":263,"name":"Stagred","steam_id":76561198055973266,"connected_time":816000000000,"state":"active","ping":146},{"user_id":255,"name":"Mr. Mane T.S.H.A.","steam_id":76561198056728986,"connected_time":1340000000000,"state":"active","ping":102},{"user_id":259,"name":"Professor Peppermint","steam_id":76561198184017082,"connected_time":1102000000000,"state":"active","ping":78},{"user_id":268,"name":"intek","steam_id":76561198052705291,"connected_time":267000000000,"state":"active","ping":91},{"user_id":199,"name":"voidpuppy","steam_id":76561198799922000,"connected_time":5455000000000,"state":"active","ping":76},{"user_id":239,"name":"Witchings","steam_id":76561198247431254,"connected_time":2617000000000,"state":"active","ping":115},{"user_id":249,"name":"Jeb D. Bush","steam_id":76561198095134205,"connected_time":1763000000000,"state":"active","ping":78},{"user_id":265,"name":"hapi bananuh","steam_id":76561198091547092,"connected_time":356000000000,"state":"active","ping":105},{"user_id":219,"name":"Firedust19","steam_id":76561198153238631,"connected_time":4099000000000,"state":"active","ping":81},{"user_id":267,"name":"Ethan","steam_id":76561198371216468,"connected_time":310000000000,"state":"active","ping":70},{"user_id":183,"name":"Timmy Thick","steam_id":76561198031018737,"connected_time":6767000000000,"state":"active","ping":57},{"user_id":236,"name":"Brutus","steam_id":76561198213163211,"connected_time":2680000000000,"state":"active","ping":135}]},{"server_id":141,"name":"Uncletopia | Sydney | 1 | All Maps","name_short":"syd-1","host":"syd-1.au.uncletopia.com","port":27015,"enabled":true,"region":"au","cc":"au","latitude":-33.865143,"longitude":151.2099,"reserved":0,"last_update":"0001-01-01T00:00:00Z","name_a2s":"Uncletopia | Sydney | 1 | All Maps","protocol":17,"map":"koth_viaduct","folder":"tf","game":"Team Fortress","app_id":440,"player_count":3,"max_players":24,"Bots":0,"server_type":"Dedicated","server_os":"Linux","password":true,"vac":true,"version":"7757534","steam_id":85568392924470001,"keywords":["cp","nocrits","nodmgspread","uncletopia"],"game_id":440,"stv_port":27016,"stv_name":"Uncletopia | Sydney | 1 | All Maps | STV","players":[{"user_id":24,"name":"AfterNerfs","steam_id":76561199226488914,"connected_time":883000000000,"state":"active","ping":75},{"user_id":26,"name":"Rat Pope","steam_id":76561199059450243,"connected_time":670000000000,"state":"active","ping":51},{"user_id":27,"name":"Blazey 伊達 政宗","steam_id":76561197971082275,"connected_time":524000000000,"state":"active","ping":142}]},{"server_id":123,"name":"Uncletopia | Sydney | 2 | All Maps","name_short":"syd-2","host":"syd-1.au.uncletopia.com","port":27025,"enabled":true,"region":"au","cc":"au","latitude":-33.865143,"longitude":151.2099,"reserved":0,"last_update":"0001-01-01T00:00:00Z","name_a2s":"Uncletopia | Sydney | 2 | All Maps","protocol":17,"map":"pl_barnblitz","folder":"tf","game":"Team Fortress","app_id":440,"player_count":0,"max_players":24,"Bots":0,"server_type":"Dedicated","server_os":"Linux","password":true,"vac":true,"version":"7757534","steam_id":85568392924470002,"keywords":["nocrits","nodmgspread","payload","uncletopia"],"game_id":440,"stv_port":27026,"stv_name":"Uncletopia | Sydney | 2 | All Maps | STV","players":null},{"server_id":395,"name":"Uncletopia | Sydney | 3 | All Maps","name_short":"syd-3","host":"syd-1.au.uncletopia.com","port":27035,"enabled":true,"region":"au","cc":"au","latitude":-33.865143,"longitude":151.2099,"reserved":0,"last_update":"0001-01-01T00:00:00Z","name_a2s":"Uncletopia | Sydney | 3 | All Maps","protocol":17,"map":"pl_badwater","folder":"tf","game":"Team Fortress","app_id":440,"player_count":0,"max_players":24,"Bots":0,"server_type":"Dedicated","server_os":"Linux","password":true,"vac":true,"version":"7757534","steam_id":85568392925194467,"keywords":["nocrits","nodmgspread","payload","uncletopia"],"game_id":440,"stv_port":27036,"stv_name":"Uncletopia | Sydney | 3 | All Maps | STV","players":null},{"server_id":396,"name":"Uncletopia | Sydney | 4 | All Maps","name_short":"syd-4","host":"syd-1.au.uncletopia.com","port":27045,"enabled":true,"region":"au","cc":"au","latitude":-33.865143,"longitude":151.2099,"reserved":0,"last_update":"0001-01-01T00:00:00Z","name_a2s":"Uncletopia | Sydney | 4 | All Maps","protocol":17,"map":"cp_dustbowl","folder":"tf","game":"Team Fortress","app_id":440,"player_count":0,"max_players":24,"Bots":0,"server_type":"Dedicated","server_os":"Linux","password":true,"vac":true,"version":"7757534","steam_id":85568392925397958,"keywords":["cp","nocrits","nodmgspread","uncletopia"],"game_id":440,"stv_port":27046,"stv_name":"Uncletopia | Sydney | 4 | All Maps | STV","players":null},{"server_id":58,"name":"Uncletopia | Sydney | 5 | Stopwatch Beta","name_short":"syd-5","host":"syd-1.au.uncletopia.com","port":27055,"enabled":true,"region":"au","cc":"au","latitude":-33.865143,"longitude":151.2099,"reserved":0,"last_update":"0001-01-01T00:00:00Z","name_a2s":"Uncletopia | Sydney | 5 | Stopwatch Beta","protocol":17,"map":"workshop/koth_clearcut_b15.ugc2107050255","folder":"tf","game":"Team Fortress","app_id":440,"player_count":0,"max_players":24,"Bots":0,"server_type":"Dedicated","server_os":"Linux","password":true,"vac":true,"version":"7757534","steam_id":85568392925397959,"keywords":["cp","nocrits","nodmgspread","uncletopia"],"game_id":440,"stv_port":27056,"stv_name":"Uncletopia | Sydney | 5 | Stopwatch Beta | STV","players":null},{"server_id":59,"name":"Uncletopia | Sydney | 6 | Community","name_short":"syd-6","host":"syd-1.au.uncletopia.com","port":27065,"enabled":true,"region":"au","cc":"au","latitude":-33.865143,"longitude":151.2099,"reserved":0,"last_update":"0001-01-01T00:00:00Z","name_a2s":"Uncletopia | Sydney | 6 | Community","protocol":17,"map":"workshop/koth_product_final.ugc454272353","folder":"tf","game":"Team Fortress","app_id":440,"player_count":0,"max_players":24,"Bots":0,"server_type":"Dedicated","server_os":"Linux","password":true,"vac":true,"version":"7757534","steam_id":85568392925397960,"keywords":["cp","nocrits","nodmgspread","uncletopia"],"game_id":440,"stv_port":27066,"stv_name":"Uncletopia | Sydney | 6 | Community | STV","players":null},{"server_id":49,"name":"Uncletopia | Warsaw | 1 | All Maps","name_short":"waw-1","host":"waw-1.pl.uncletopia.com","port":27015,"enabled":true,"region":"eu","cc":"pl","latitude":52.2297,"longitude":21.017532,"reserved":0,"last_update":"0001-01-01T00:00:00Z","name_a2s":"","protocol":0,"map":"","folder":"","game":"","app_id":0,"player_count":0,"max_players":0,"Bots":0,"server_type":"","server_os":"","password":false,"vac":false,"version":"","steam_id":0,"keywords":null,"game_id":0,"stv_port":0,"stv_name":"","players":null},{"server_id":50,"name":"Uncletopia | Warsaw | 2 | All Maps","name_short":"waw-2","host":"waw-1.pl.uncletopia.com","port":27025,"enabled":true,"region":"eu","cc":"pl","latitude":52.2297,"longitude":21.017532,"reserved":0,"last_update":"0001-01-01T00:00:00Z","name_a2s":"Uncletopia | Warsaw | 2 | All Maps","protocol":17,"map":"pl_upward","folder":"tf","game":"Team Fortress","app_id":440,"player_count":0,"max_players":24,"Bots":0,"server_type":"Dedicated","server_os":"Linux","password":true,"vac":true,"version":"7757534","steam_id":85568392925397851,"keywords":["nocrits","nodmgspread","payload","uncletopia"],"game_id":440,"stv_port":27026,"stv_name":"Uncletopia | Warsaw | 2 | All Maps | STV","players":null},{"server_id":51,"name":"Uncletopia | Warsaw | 3 | All Maps","name_short":"waw-3","host":"waw-1.pl.uncletopia.com","port":27035,"enabled":true,"region":"eu","cc":"pl","latitude":52.2297,"longitude":21.017532,"reserved":0,"last_update":"0001-01-01T00:00:00Z","name_a2s":"Uncletopia | Warsaw | 3 | All Maps","protocol":17,"map":"pl_barnblitz","folder":"tf","game":"Team Fortress","app_id":440,"player_count":0,"max_players":24,"Bots":0,"server_type":"Dedicated","server_os":"Linux","password":true,"vac":true,"version":"7757534","steam_id":85568392925397852,"keywords":["nocrits","nodmgspread","payload","uncletopia"],"game_id":440,"stv_port":27036,"stv_name":"Uncletopia | Warsaw | 3 | All Maps | STV","players":null},{"server_id":52,"name":"Uncletopia | Warsaw | 4 | All Maps","name_short":"waw-4","host":"waw-1.pl.uncletopia.com","port":27045,"enabled":true,"region":"eu","cc":"pl","latitude":52.2297,"longitude":21.017532,"reserved":0,"last_update":"0001-01-01T00:00:00Z","name_a2s":"Uncletopia | Warsaw | 4 | All Maps","protocol":17,"map":"cp_altitude","folder":"tf","game":"Team Fortress","app_id":440,"player_count":0,"max_players":24,"Bots":0,"server_type":"Dedicated","server_os":"Linux","password":true,"vac":true,"version":"7757534","steam_id":85568392925397853,"keywords":["cp","nocrits","nodmgspread","uncletopia"],"game_id":440,"stv_port":27046,"stv_name":"Uncletopia | Warsaw | 4 | All Maps | STV","players":null},{"server_id":53,"name":"Uncletopia | Warsaw | 5 | Stopwatch Beta","name_short":"waw-5","host":"waw-1.pl.uncletopia.com","port":27055,"enabled":true,"region":"eu","cc":"pl","latitude":52.2297,"longitude":21.017532,"reserved":0,"last_update":"0001-01-01T00:00:00Z","name_a2s":"Uncletopia | Warsaw | 5 | Stopwatch Beta","protocol":17,"map":"pl_pier","folder":"tf","game":"Team Fortress","app_id":440,"player_count":0,"max_players":24,"Bots":0,"server_type":"Dedicated","server_os":"Linux","password":true,"vac":true,"version":"7757534","steam_id":85568392925397854,"keywords":["nocrits","nodmgspread","payload","uncletopia"],"game_id":440,"stv_port":27056,"stv_name":"Uncletopia | Warsaw | 5 | Stopwatch Beta | STV","players":null},{"server_id":54,"name":"Uncletopia | Warsaw | 6 | Community","name_short":"waw-6","host":"waw-1.pl.uncletopia.com","port":27065,"enabled":true,"region":"eu","cc":"pl","latitude":52.2297,"longitude":21.017532,"reserved":0,"last_update":"0001-01-01T00:00:00Z","name_a2s":"Uncletopia | Warsaw | 6 | Community","protocol":17,"map":"koth_highpass","folder":"tf","game":"Team Fortress","app_id":440,"player_count":0,"max_players":24,"Bots":0,"server_type":"Dedicated","server_os":"Linux","password":true,"vac":true,"version":"7757534","steam_id":85568392925397856,"keywords":["cp","nocrits","nodmgspread","uncletopia"],"game_id":440,"stv_port":27066,"stv_name":"Uncletopia | Warsaw | 6 | Community | STV","players":null}]}