{"status":true,"message":"","result":[{"server_id":9,"name":"Uncletopia | Atlanta | 1 | All Maps","name_short":"atl-1","host":"atl-1.us.uncletopia.com","port":27015,"enabled":true,"region":"us-east","cc":"us","latitude":33.753746,"longitude":-84.38633,"reserved":0,"last_update":"0001-01-01T00:00:00Z","name_a2s":"Uncletopia | Atlanta | 1 | All Maps","protocol":17,"map":"koth_lakeside_final","folder":"tf","game":"Team Fortress","app_id":440,"player_count":0,"max_players":24,"Bots":0,"server_type":"Dedicated","server_os":"Linux","password":true,"vac":true,"version":"7961495","steam_id":85568392924469982,"keywords":["cp","nocrits","nodmgspread","uncletopia"],"game_id":440,"stv_port":27016,"stv_name":"Uncletopia | Atlanta | 1 | All Maps | STV","players":null},{"server_id":104,"name":"Uncletopia | Atlanta | 2 | All Maps","name_short":"atl-2","host":"atl-1.us.uncletopia.com","port":27025,"enabled":true,"region":"us-east","cc":"us","latitude":33.753746,"longitude":-84.38633,"reserved":0,"last_update":"0001-01-01T00:00:00Z","name_a2s":"Uncletopia | Atlanta | 2 | All Maps","protocol":17,"map":"koth_lakeside_final","folder":"tf","game":"Team Fortress","app_id":440,"player_count":0,"max_players":24,"Bots":0,"server_type":"Dedicated","server_os":"Linux","password":true,"vac":true,"version":"7961495","steam_id":85568392924469983,"keywords":["cp","nocrits","nodmgspread","uncletopia"],"game_id":440,"stv_port":27026,"stv_name":"Uncletopia | Atlanta | 2 | All Maps | STV","players":null},{"server_id":400,"name":"Uncletopia | Atlanta | 3 | Stopwatch","name_short":"atl-3","host":"atl-1.us.uncletopia.com","port":27035,"enabled":true,"region":"us-east","cc":"us","latitude":33.753746,"longitude":-84.38633,"reserved":0,"last_update":"0001-01-01T00:00:00Z","name_a2s":"Uncletopia | Atlanta | 3 | Stopwatch","protocol":17,"map":"pl_borneo","folder":"tf","game":"Team Fortress","app_id":440,"player_count":0,"max_players":24,"Bots":0,"server_type":"Dedicated","server_os":"Linux","password":true,"vac":true,"version":"7961495","steam_id":85568392924515187,"keywords":["nocrits","nodmgspread","payload","uncletopia"],"game_id":440,"stv_port":27036,"stv_name":"Uncletopia | Atlanta | 3 | Stopwatch | STV","players":null},{"server_id":401,"name":"Uncletopia | Atlanta | 4 | Community","name_short":"atl-4","host":"atl-1.us.uncletopia.com","port":27045,"enabled":true,"region":"us-east","cc":"us","latitude":33.753746,"longitude":-84.38633,"reserved":0,"last_update":"0001-01-01T00:00:00Z","name_a2s":"Uncletopia | Atlanta | 4 | Community","protocol":17,"map":"workshop/pl_badwater_pro_v12.ugc2142942074","folder":"tf","game":"Team Fortress","app_id":440,"player_count":0,"max_players":24,"Bots":0,"server_type":"Dedicated","server_os":"Linux","password":true,"vac":true,"version":"7961495","steam_id":85568392924515188,"keywords":["nocrits","nodmgspread","payload","uncletopia"],"game_id":440,"stv_port":27046,"stv_name":"Uncletopia | Atlanta | 4 | Community | STV","players":null},{"server_id":2,"name":"Uncletopia | Chicago | 1 | All Maps","name_short":"chi-1","host":"chi-1.us.uncletopia.com","port":27015,"enabled":true,"region":"us-central","cc":"us","latitude":41.881832,"longitude":-87.62318,"reserved":0,"last_update":"0001-01-01T00:00:00Z","name_a2s":"Uncletopia | Chicago | 1 | All Maps","protocol":17,"map":"pl_borneo","folder":"tf","game":"Team Fortress","app_id":440,"player_count":24,"max_players":24,"Bots":0,"server_type":"Dedicated","server_os":"Linux","password":true,"vac":true,"version":"7961495","steam_id":85568392924469984,"keywords":["nocrits","nodmgspread","payload","uncletopia"],"game_id":440,"stv_port":27016,"stv_name":"Uncletopia | Chicago | 1 | All Maps | STV","players":[{"user_id":151,"name":"Ghosty","steam_id":76561198052906308,"connected_time":602000000000,"state":"active","ping":59},{"user_id":134,"name":"Tommy Pickles (Very ____)","steam_id":76561198391261463,"connected_time":1692000000000,"state":"active","ping":71},{"user_id":133,"name":"‚ú™Floofy‚ú™","steam_id":76561198056298204,"connected_time":1793000000000,"state":"active","ping":71},{"user_id":143,"name":"ChimpChampion","steam_id":76561198046520712,"connected_time":1042000000000,"state":"active","ping":53},{"user_id":157,"name":"fishtank.live","steam_id":76561198280085840,"connected_time":170000000000,"state":"active","ping":89},{"user_id":125,"name":"joyeuxnoelle","steam_id":76561198062423120,"connected_time":2478000000000,"state":"active","ping":67},{"user_id":128,"name":"Leeous","steam_id":76561198081083248,"connected_time":2126000000000,"state":"active","ping":96},{"user_id":100,"name":"pea ttv/peabeanz","steam_id":76561198119551968,"connected_time":5274000000000,"state":"active","ping":68},{"user_id":152,"name":"HeHedron","steam_id":76561199199667164,"connected_time":533000000000,"state":"active","ping":97},{"user_id":158,"name":"MikeLovesRabbit","steam_id":76561197997742625,"connected_time":139000000000,"state":"active","ping":45},{"user_id":153,"name":"Feather","steam_id":76561199182209891,"connected_time":508000000000,"state":"active","ping":68},{"user_id":126,"name":"Sappho of Lesbos","steam_id":76561198115931381,"connected_time":2259000000000,"state":"active","ping":75},{"user_id":145,"name":"jg125","steam_id":76561198824953530,"connected_time":955000000000,"state":"active","ping":135},{"user_id":154,"name":"innocent spider (caleb)","steam_id":76561199013762986,"connected_time":501000000000,"state":"active","ping":113},{"user_id":124,"name":"hearthian","steam_id":76561198113235260,"connected_time":2510000000000,"state":"active","ping":90},{"user_id":99,"name":"costco peanutbutter pretzels","steam_id":76561198081075865,"connected_time":5277000000000,"state":"active","ping":60},{"user_id":138,"name":"TehOneZoot","steam_id":76561198121944243,"connected_time":1520000000000,"state":"active","ping":57},{"user_id":118,"name":"Karaage","steam_id":76561198042834191,"connected_time":3448000000000,"state":"active","ping":104},{"user_id":136,"name":"BeefClapper420","steam_id":76561198080892634,"connected_time":1621000000000,"state":"active","ping":69},{"user_id":106,"name":"moebius","steam_id":76561198013079739,"connected_time":4233000000000,"state":"active","ping":70},{"user_id":123,"name":"blue duck the 2nd","steam_id":76561198263142765,"connected_time":2712000000000,"state":"active","ping":114},{"user_id":155,"name":"pew pew","steam_id":76561198110661425,"connected_time":500000000000,"state":"active","ping":93},{"user_id":156,"name":"OneTrueCorvid","steam_id":76561199012953221,"connected_time":496000000000,"state":"active","ping":84},{"user_id":148,"name":"Monkey Friend","steam_id":76561198144403074,"connected_time":936000000000,"state":"active","ping":136}]},{"server_id":106,"name":"Uncletopia | Chicago | 2 | All Maps","name_short":"chi-2","host":"chi-1.us.uncletopia.com","port":27025,"enabled":true,"region":"us-central","cc":"us","latitude":41.881832,"longitude":-87.62318,"reserved":0,"last_update":"0001-01-01T00:00:00Z","name_a2s":"Uncletopia | Chicago | 2 | All Maps","protocol":17,"map":"pl_upward","folder":"tf","game":"Team Fortress","app_id":440,"player_count":24,"max_players":24,"Bots":0,"server_type":"Dedicated","server_os":"Linux","password":true,"vac":true,"version":"7961495","steam_id":85568392924469985,"keywords":["nocrits","nodmgspread","payload","uncletopia"],"game_id":440,"stv_port":27026,"stv_name":"Uncletopia | Chicago | 2 | All Maps | STV","players":[{"user_id":225,"name":"beep","steam_id":76561199096448766,"connected_time":285000000000,"state":"active","ping":56},{"user_id":202,"name":"BurgerPizza","steam_id":76561198151256410,"connected_time":2102000000000,"state":"active","ping":136},{"user_id":151,"name":"TheDeemguy64","steam_id":76561198852876387,"connected_time":6572000000000,"state":"active","ping":62},{"user_id":214,"name":"Plinko","steam_id":76561198884912425,"connected_time":1549000000000,"state":"active","ping":48},{"user_id":220,"name":"rock raiders enjoyer","steam_id":76561198139718219,"connected_time":621000000000,"state":"active","ping":60},{"user_id":227,"name":"Antivirus","steam_id":76561198100951649,"connected_time":137000000000,"state":"active","ping":73},{"user_id":177,"name":"King","steam_id":76561198039763676,"connected_time":3953000000000,"state":"active","ping":61},{"user_id":221,"name":"Me when","steam_id":76561198826005248,"connected_time":619000000000,"state":"active","ping":171},{"user_id":222,"name":"Level 3 Half-Orc Serial Killer","steam_id":76561198000514025,"connected_time":609000000000,"state":"active","ping":89},{"user_id":190,"name":"Do Online Now Guys","steam_id":76561198120551862,"connected_time":2866000000000,"state":"active","ping":60},{"user_id":120,"name":"Lennu","steam_id":76561198060730154,"connected_time":8360000000000,"state":"active","ping":68},{"user_id":199,"name":"oopsboom24","steam_id":76561199105248648,"connected_time":2227000000000,"state":"active","ping":90},{"user_id":201,"name":"Raizen","steam_id":76561199092445367,"connected_time":2145000000000,"state":"active","ping":45},{"user_id":208,"name":"Mr. Noodle","steam_id":76561198037803087,"connected_time":2001000000000,"state":"active","ping":70},{"user_id":228,"name":"Blue Sea","steam_id":76561198156077339,"connected_time":70000000000,"state":"active","ping":100},{"user_id":203,"name":"SleepiestCrow","steam_id":76561198042018679,"connected_time":2101000000000,"state":"active","ping":55},{"user_id":224,"name":"chikin.sauce","steam_id":76561198042464635,"connected_time":434000000000,"state":"active","ping":86},{"user_id":182,"name":"24.99$ IKEA Cabinet","steam_id":76561199345458914,"connected_time":3832000000000,"state":"active","ping":73},{"user_id":204,"name":"Chromatic Bliss","steam_id":76561198252604816,"connected_time":2093000000000,"state":"active","ping":59},{"user_id":218,"name":"Underscorn","steam_id":76561198374209415,"connected_time":733000000000,"state":"active","ping":63},{"user_id":188,"name":"penus fly trap","steam_id":76561198150366384,"connected_time":3598000000000,"state":"active","ping":89},{"user_id":215,"name":"Mr. Cheesey","steam_id":76561198153462183,"connected_time":1398000000000,"state":"active","ping":47},{"user_id":212,"name":"Jack","steam_id":76561198079575891,"connected_time":1836000000000,"state":"active","ping":150},{"user_id":192,"name":"Brayniac","steam_id":76561198228096668,"connected_time":2617000000000,"state":"active","ping":71}]},{"server_id":402,"name":"Uncletopia | Chicago | 3 | All Maps","name_short":"chi-3","host":"chi-1.us.uncletopia.com","port":27035,"enabled":true,"region":"us-central","cc":"us","latitude":41.881832,"longitude":-87.62318,"reserved":0,"last_update":"0001-01-01T00:00:00Z","name_a2s":"Uncletopia | Chicago | 3 | All Maps","protocol":17,"map":"plr_pipeline","folder":"tf","game":"Team Fortress","app_id":440,"player_count":0,"max_players":24,"Bots":0,"server_type":"Dedicated","server_os":"Linux","password":true,"vac":true,"version":"7961495","steam_id":85568392924515191,"keywords":["nocrits","nodmgspread","payload","uncletopia"],"game_id":440,"stv_port":27036,"stv_name":"Uncletopia | Chicago | 3 | All Maps | STV","players":null},{"server_id":403,"name":"Uncletopia | Chicago | 4 | All Maps","name_short":"chi-4","host":"chi-1.us.uncletopia.com","port":27045,"enabled":true,"region":"us-central","cc":"us","latitude":41.881832,"longitude":-87.62318,"reserved":0,"last_update":"0001-01-01T00:00:00Z","name_a2s":"Uncletopia | Chicago | 4 | All Maps","protocol":17,"map":"pl_badwater","folder":"tf","game":"Team Fortress","app_id":440,"player_count":24,"max_players":24,"Bots":0,"server_type":"Dedicated","server_os":"Linux","password":true,"vac":true,"version":"7961495","steam_id":85568392924515193,"keywords":["nocrits","nodmgspread","payload","uncletopia"],"game_id":440,"stv_port":27046,"stv_name":"Uncletopia | Chicago | 4 | All Maps | STV","players":[{"user_id":58,"name":"glitch","steam_id":76561197979495589,"connected_time":3010000000000,"state":"active","ping":68},{"user_id":44,"name":"Slim Mimosa","steam_id":76561198134313911,"connected_time":4423000000000,"state":"active","ping":81},{"user_id":81,"name":"Fancyassasin","steam_id":76561198331864258,"connected_time":1880000000000,"state":"active","ping":40},{"user_id":49,"name":"Propaniac Gaming ‚òë","steam_id":76561198133963270,"connected_time":3751000000000,"state":"active","ping":62},{"user_id":51,"name":"JNGthree","steam_id":76561198166002579,"connected_time":3603000000000,"state":"active","ping":98},{"user_id":80,"name":"Cosmic_Screech","steam_id":76561198092551523,"connected_time":1980000000000,"state":"active","ping":89},{"user_id":96,"name":"Natsuki the Scunt","steam_id":76561199175922684,"connected_time":933000000000,"state":"active","ping":116},{"user_id":46,"name":"{FITH}‚Ñ¢ Tnega Libram","steam_id":76561197997973526,"connected_time":4076000000000,"state":"active","ping":68},{"user_id":97,"name":"Megatron G","steam_id":76561198168864083,"connected_time":919000000000,"state":"active","ping":95},{"user_id":95,"name":"cyb3r","steam_id":76561198086851446,"connected_time":970000000000,"state":"active","ping":51},{"user_id":54,"name":"KiloeJet","steam_id":76561199084636926,"connected_time":3171000000000,"state":"active","ping":97},{"user_id":62,"name":"ComedyGoat","steam_id":76561199006805659,"connected_time":2836000000000,"state":"active","ping":93},{"user_id":98,"name":"d-_-b","steam_id":76561198120725877,"connected_time":913000000000,"state":"active","ping":46},{"user_id":72,"name":"Hardcore","steam_id":76561197978322439,"connected_time":2298000000000,"state":"active","ping":146},{"user_id":83,"name":"Miss Steelheart","steam_id":76561198132562365,"connected_time":1819000000000,"state":"active","ping":135},{"user_id":91,"name":"wincel hampton","steam_id":76561198083095146,"connected_time":1201000000000,"state":"active","ping":82},{"user_id":104,"name":"Pirus and Crips","steam_id":76561198395577807,"connected_time":807000000000,"state":"active","ping":73},{"user_id":106,"name":"floppy muppet","steam_id":76561198003076261,"connected_time":444000000000,"state":"active","ping":64},{"user_id":84,"name":"slafflow","steam_id":76561199381012350,"connected_time":1802000000000,"state":"active","ping":78},{"user_id":93,"name":"Samsung smart fridge","steam_id":76561198181743090,"connected_time":1162000000000,"state":"active","ping":72},{"user_id":105,"name":"gf breakup recording","steam_id":76561199127423378,"connected_time":616000000000,"state":"active","ping":120},{"user_id":101,"name":"Season Leaf","steam_id":76561198133121805,"connected_time":857000000000,"state":"active","ping":60},{"user_id":77,"name":"Beltalowda","steam_id":76561198106396044,"connected_time":2163000000000,"state":"active","ping":52},{"user_id":90,"name":"Xx_gam3rberg_xX","steam_id":76561199035781025,"connected_time":1296000000000,"state":"active","ping":92}]},{"server_id":36,"name":"Uncletopia | Chicago | 5 | All Maps","name_short":"chi-5","host":"chi-2.us.uncletopia.com","port":27015,"enabled":true,"region":"us-central","cc":"us","latitude":41.881832,"longitude":-87.62318,"reserved":0,"last_update":"0001-01-01T00:00:00Z","name_a2s":"Uncletopia | Chicago | 5 | All Maps","protocol":17,"map":"pl_borneo","folder":"tf","game":"Team Fortress","app_id":440,"player_count":0,"max_players":24,"Bots":0,"server_type":"Dedicated","server_os":"Linux","password":true,"vac":true,"version":"7961495","steam_id":85568392924866362,"keywords":["nocrits","nodmgspread","payload","uncletopia"],"game_id":440,"stv_port":27016,"stv_name":"Uncletopia | Chicago | 5 | All Maps | STV","players":null},{"server_id":37,"name":"Uncletopia | Chicago | 6 | All Maps","name_short":"chi-6","host":"chi-2.us.uncletopia.com","port":27025,"enabled":true,"region":"us-central","cc":"us","latitude":41.881832,"longitude":-87.62318,"reserved":0,"last_update":"0001-01-01T00:00:00Z","name_a2s":"Uncletopia | Chicago | 6 | All Maps","protocol":17,"map":"pl_frontier_final","folder":"tf","game":"Team Fortress","app_id":440,"player_count":0,"max_players":24,"Bots":0,"server_type":"Dedicated","server_os":"Linux","password":true,"vac":true,"version":"7961495","steam_id":85568392924866363,"keywords":["nocrits","nodmgspread","payload","uncletopia"],"game_id":440,"stv_port":27026,"stv_name":"Uncletopia | Chicago | 6 | All Maps | STV","players":null},{"server_id":38,"name":"Uncletopia | Chicago | 7 | Stopwatch","name_short":"chi-7","host":"chi-2.us.uncletopia.com","port":27035,"enabled":true,"region":"us-central","cc":"us","latitude":41.881832,"longitude":-87.62318,"reserved":0,"last_update":"0001-01-01T00:00:00Z","name_a2s":"Uncletopia | Chicago | 7 | Stopwatch","protocol":17,"map":"cp_snakewater_final1","folder":"tf","game":"Team Fortress","app_id":440,"player_count":0,"max_players":24,"Bots":0,"server_type":"Dedicated","server_os":"Linux","password":true,"vac":true,"version":"7961495","steam_id":85568392924866364,"keywords":["cp","nocrits","nodmgspread","uncletopia"],"game_id":440,"stv_port":27036,"stv_name":"Uncletopia | Chicago | 7 | Stopwatch | STV","players":null},{"server_id":39,"name":"Uncletopia | Chicago | 8 | Community","name_short":"chi-8","host":"chi-2.us.uncletopia.com","port":27045,"enabled":true,"region":"us-central","cc":"us","latitude":41.881832,"longitude":-87.62318,"reserved":0,"last_update":"0001-01-01T00:00:00Z","name_a2s":"Uncletopia | Chicago | 8 | Community","protocol":17,"map":"workshop/koth_slaughter_rc1.ugc1712845210","folder":"tf","game":"Team Fortress","app_id":440,"player_count":0,"max_players":24,"Bots":0,"server_type":"Dedicated","server_os":"Linux","password":true,"vac":true,"version":"7961495","steam_id":85568392924866365,"keywords":["cp","nocrits","nodmgspread","uncletopia"],"game_id":440,"stv_port":27046,"stv_name":"Uncletopia | Chicago | 8 | Community | STV","players":null},{"server_id":8,"name":"Uncletopia | Dallas | 1 | All Maps","name_short":"dal-1","host":"dal-1.us.uncletopia.com","port":27015,"enabled":true,"region":"us-central","cc":"us","latitude":32.779167,"longitude":-96.80889,"reserved":0,"last_update":"0001-01-01T00:00:00Z","name_a2s":"Uncletopia | Dallas | 1 | All Maps","protocol":17,"map":"pl_snowycoast","folder":"tf","game":"Team Fortress","app_id":440,"player_count":23,"max_players":24,"Bots":0,"server_type":"Dedicated","server_os":"Linux","password":true,"vac":true,"version":"7961495","steam_id":85568392924469986,"keywords":["nocrits","nodmgspread","payload","uncletopia"],"game_id":440,"stv_port":27016,"stv_name":"Uncletopia | Dallas | 1 | All Maps | STV","players":[{"user_id":172,"name":"slime ( ,'' w'' )","steam_id":76561198198984282,"connected_time":1694000000000,"state":"active","ping":87},{"user_id":188,"name":"Young Sheldon Tik-Tok Clip","steam_id":76561198253927199,"connected_time":92000000000,"state":"active","ping":153},{"user_id":182,"name":"Duncan Idaho","steam_id":76561197988963861,"connected_time":420000000000,"state":"active","ping":96},{"user_id":169,"name":"Sylvain","steam_id":76561198113385271,"connected_time":2133000000000,"state":"active","ping":83},{"user_id":189,"name":"StudioMania (#SAVETF2)","steam_id":76561198211315795,"connected_time":28000000000,"state":"active","ping":82},{"user_id":167,"name":"Petrivus","steam_id":76561198202152453,"connected_time":2462000000000,"state":"active","ping":100},{"user_id":162,"name":"‚ö°Mr.Muff ·Éö‡πä","steam_id":76561198217103553,"connected_time":2911000000000,"state":"active","ping":76},{"user_id":190,"name":"That One Guy","steam_id":76561198945646560,"connected_time":18000000000,"state":"spawning","ping":93},{"user_id":146,"name":"Swag Emu","steam_id":76561198336272791,"connected_time":4366000000000,"state":"active","ping":97},{"user_id":183,"name":"Noble Six","steam_id":76561198005806915,"connected_time":383000000000,"state":"active","ping":75},{"user_id":139,"name":"indi","steam_id":76561198045917538,"connected_time":4897000000000,"state":"active","ping":77},{"user_id":147,"name":"spot","steam_id":76561198151135298,"connected_time":4326000000000,"state":"active","ping":60},{"user_id":184,"name":"sussy bussy","steam_id":76561198070385350,"connected_time":373000000000,"state":"active","ping":90},{"user_id":191,"name":"money getting 1 percenter","steam_id":76561198012796388,"connected_time":13000000000,"state":"spawning","ping":62},{"user_id":170,"name":"Dispenser (RedMustrd)","steam_id":76561199246218857,"connected_time":2121000000000,"state":"active","ping":120},{"user_id":185,"name":"BurdBrain","steam_id":76561197962097737,"connected_time":355000000000,"state":"active","ping":66},{"user_id":176,"name":"ZestyTrev","steam_id":76561198253391039,"connected_time":1500000000000,"state":"active","ping":45},{"user_id":177,"name":"Shame","steam_id":76561198100490994,"connected_time":1485000000000,"state":"active","ping":90},{"user_id":186,"name":"joe mama","steam_id":76561198178221106,"connected_time":349000000000,"state":"active","ping":99},{"user_id":187,"name":"yomommasabitch","steam_id":76561198323217150,"connected_time":335000000000,"state":"active","ping":32},{"user_id":160,"name":"Lovedaddy","steam_id":76561198006569710,"connected_time":2984000000000,"state":"active","ping":92},{"user_id":165,"name":"Mazdamundi!","steam_id":76561198044691081,"connected_time":2538000000000,"state":"active","ping":61},{"user_id":155,"name":"Boring","steam_id":76561198827219701,"connected_time":3899000000000,"state":"active","ping":183}]},{"server_id":108,"name":"Uncletopia | Dallas | 2 | All Maps","name_short":"dal-2","host":"dal-1.us.uncletopia.com","port":27025,"enabled":true,"region":"us-central","cc":"us","latitude":32.779167,"longitude":-96.80889,"reserved":0,"last_update":"0001-01-01T00:00:00Z","name_a2s":"Uncletopia | Dallas | 2 | All Maps","protocol":17,"map":"pl_snowycoast","folder":"tf","game":"Team Fortress","app_id":440,"player_count":1,"max_players":24,"Bots":0,"server_type":"Dedicated","server_os":"Linux","password":true,"vac":true,"version":"7961495","steam_id":85568392924469988,"keywords":["nocrits","nodmgspread","payload","uncletopia"],"game_id":440,"stv_port":27026,"stv_name":"Uncletopia | Dallas | 2 | All Maps | STV","players":[{"user_id":3,"name":"weeee!","steam_id":76561198105374054,"connected_time":166000000000,"state":"active","ping":86}]},{"server_id":404,"name":"Uncletopia | Dallas | 3 | All Maps","name_short":"dal-3","host":"dal-1.us.uncletopia.com","port":27035,"enabled":true,"region":"us-central","cc":"us","latitude":32.779167,"longitude":-96.80889,"reserved":0,"last_update":"0001-01-01T00:00:00Z","name_a2s":"Uncletopia | Dallas | 3 | All Maps","protocol":17,"map":"cp_coldfront","folder":"tf","game":"Team Fortress","app_id":440,"player_count":0,"max_players":24,"Bots":0,"server_type":"Dedicated","server_os":"Linux","password":true,"vac":true,"version":"7961495","steam_id":85568392924515219,"keywords":["cp","nocrits","nodmgspread","uncletopia"],"game_id":440,"stv_port":27036,"stv_name":"Uncletopia | Dallas | 3 | All Maps | STV","players":null},{"server_id":405,"name":"Uncletopia | Dallas | 4 | Community","name_short":"dal-4","host":"dal-1.us.uncletopia.com","port":27045,"enabled":true,"region":"us-central","cc":"us","latitude":32.779167,"longitude":-96.80889,"reserved":0,"last_update":"0001-01-01T00:00:00Z","name_a2s":"Uncletopia | Dallas | 4 | Community","protocol":17,"map":"workshop/koth_synthetic_rc6a.ugc1549817316","folder":"tf","game":"Team Fortress","app_id":440,"player_count":0,"max_players":24,"Bots":0,"server_type":"Dedicated","server_os":"Linux","password":true,"vac":true,"version":"7961495","steam_id":85568392924515220,"keywords":["cp","nocrits","nodmgspread","uncletopia"],"game_id":440,"stv_port":27046,"stv_name":"Uncletopia | Dallas | 4 | Community | STV","players":null},{"server_id":5,"name":"Uncletopia | Frankfurt | 1 | All Maps","name_short":"frk-1","host":"frk-1.de.uncletopia.com","port":27015,"enabled":true,"region":"eu","cc":"de","latitude":50.110924,"longitude":8.682127,"reserved":0,"last_update":"0001-01-01T00:00:00Z","name_a2s":"Uncletopia | Frankfurt | 1 | All Maps","protocol":17,"map":"pl_hoodoo_final","folder":"tf","game":"Team Fortress","app_id":440,"player_count":24,"max_players":24,"Bots":0,"server_type":"Dedicated","server_os":"Linux","password":true,"vac":true,"version":"7961495","steam_id":85568392924469989,"keywords":["nocrits","nodmgspread","payload","uncletopia"],"game_id":440,"stv_port":27016,"stv_name":"Uncletopia | Frankfurt | 1 | All Maps | STV","players":[{"user_id":234,"name":"Marukuso","steam_id":76561198154229845,"connected_time":9460000000000,"state":"active","ping":56},{"user_id":236,"name":"Sham!","steam_id":76561198050434275,"connected_time":9361000000000,"state":"active","ping":53},{"user_id":361,"name":"Borlor","steam_id":76561198206059604,"connected_time":1066000000000,"state":"active","ping":42},{"user_id":374,"name":"Veir≈´ Viseris","steam_id":76561197989857176,"connected_time":594000000000,"state":"active","ping":64},{"user_id":360,"name":"Adam Sandler (from grown ups)","steam_id":76561199251933053,"connected_time":1076000000000,"state":"active","ping":166},{"user_id":327,"name":"Uganda Warrior","steam_id":76561198120502313,"connected_time":3232000000000,"state":"active","ping":51},{"user_id":344,"name":"compact disc","steam_id":76561198154677956,"connected_time":1992000000000,"state":"active","ping":60},{"user_id":371,"name":"KendraTheHylian (linux user)","steam_id":76561198395784051,"connected_time":705000000000,"state":"active","ping":166},{"user_id":356,"name":"SeaKane","steam_id":76561198165453318,"connected_time":1106000000000,"state":"active","ping":60},{"user_id":350,"name":"Crazy Bell","steam_id":76561198031226933,"connected_time":1775000000000,"state":"active","ping":60},{"user_id":366,"name":"bigeon","steam_id":76561198078601337,"connected_time":862000000000,"state":"active","ping":76},{"user_id":346,"name":"Nightstar","steam_id":76561199508202457,"connected_time":1797000000000,"state":"active","ping":75},{"user_id":158,"name":"y0stErCix","steam_id":76561198219698192,"connected_time":14785000000000,"state":"active","ping":64},{"user_id":376,"name":"Paci√πg remover","steam_id":76561198035928111,"connected_time":457000000000,"state":"active","ping":63},{"user_id":373,"name":"Nutz On Yo Chin","steam_id":76561197962978554,"connected_time":648000000000,"state":"active","ping":132},{"user_id":320,"name":"El_Kommadante","steam_id":76561198079551685,"connected_time":3560000000000,"state":"active","ping":57},{"user_id":368,"name":"AleXandriX","steam_id":76561198035203950,"connected_time":831000000000,"state":"active","ping":60},{"user_id":364,"name":"silicon based life form","steam_id":76561199127121346,"connected_time":1006000000000,"state":"active","ping":60},{"user_id":340,"name":"simeswipe","steam_id":76561198188471097,"connected_time":2314000000000,"state":"active","ping":63},{"user_id":365,"name":"S ü…™·¥òE…¥O Ä","steam_id":76561197967931911,"connected_time":980000000000,"state":"active","ping":77},{"user_id":352,"name":"Vix The Vulpix","steam_id":76561198292181452,"connected_time":1755000000000,"state":"active","ping":167},{"user_id":377,"name":"Smoukup","steam_id":76561198156372330,"connected_time":437000000000,"state":"active","ping":55},{"user_id":314,"name":"Gordon Birdman","steam_id":76561198013382324,"connected_time":3725000000000,"state":"active","ping":75},{"user_id":379,"name":"Jnet","steam_id":76561198001282720,"connected_time":410000000000,"state":"active","ping":100}]},{"server_id":110,"name":"Uncletopia | Frankfurt | 2 | All Maps","name_short":"frk-2","host":"frk-1.de.uncletopia.com","port":27025,"enabled":true,"region":"eu","cc":"de","latitude":50.110924,"longitude":8.682127,"reserved":0,"last_update":"0001-01-01T00:00:00Z","name_a2s":"Uncletopia | Frankfurt | 2 | All Maps","protocol":17,"map":"pl_borneo","folder":"tf","game":"Team Fortress","app_id":440,"player_count":24,"max_players":24,"Bots":0,"server_type":"Dedicated","server_os":"Linux","password":true,"vac":true,"version":"7961495","steam_id":85568392924469990,"keywords":["nocrits","nodmgspread","payload","uncletopia"],"game_id":440,"stv_port":27026,"stv_name":"Uncletopia | Frankfurt | 2 | All Maps | STV","players":[{"user_id":391,"name":"Proto-arc","steam_id":76561198012776747,"connected_time":507000000000,"state":"active","ping":60},{"user_id":390,"name":"cazador","steam_id":76561198123096922,"connected_time":577000000000,"state":"active","ping":90},{"user_id":342,"name":"Jeffrey Harpen","steam_id":76561199073314677,"connected_time":4085000000000,"state":"active","ping":53},{"user_id":395,"name":"‚òÖ","steam_id":76561198405980575,"connected_time":395000000000,"state":"active","ping":52},{"user_id":366,"name":"cecko","steam_id":76561198798721254,"connected_time":1717000000000,"state":"active","ping":70},{"user_id":357,"name":"Drillboy Jenkins","steam_id":76561198160497421,"connected_time":2189000000000,"state":"active","ping":74},{"user_id":358,"name":"Lazor","steam_id":76561198310376869,"connected_time":2167000000000,"state":"active","ping":100},{"user_id":359,"name":"Pybro-san","steam_id":76561199217893562,"connected_time":2019000000000,"state":"active","ping":46},{"user_id":360,"name":"Arthur rail","steam_id":76561199187229518,"connected_time":1851000000000,"state":"active","ping":76},{"user_id":392,"name":"Piellino","steam_id":76561198156873276,"connected_time":498000000000,"state":"active","ping":90},{"user_id":367,"name":"bad_egg","steam_id":76561198870666753,"connected_time":1706000000000,"state":"active","ping":81},{"user_id":388,"name":"Frying Pan gaming","steam_id":76561199230315253,"connected_time":779000000000,"state":"active","ping":61},{"user_id":370,"name":"waffle toaster","steam_id":76561198799089628,"connected_time":1674000000000,"state":"active","ping":57},{"user_id":371,"name":"EricToGo","steam_id":76561198068019642,"connected_time":1608000000000,"state":"active","ping":53},{"user_id":373,"name":"hwleo","steam_id":76561198090848620,"connected_time":1572000000000,"state":"active","ping":81},{"user_id":383,"name":"--","steam_id":76561198365098582,"connected_time":1276000000000,"state":"active","ping":130},{"user_id":393,"name":"silak","steam_id":76561198150001174,"connected_time":497000000000,"state":"active","ping":52},{"user_id":397,"name":"zelkkunomia","steam_id":76561198144048672,"connected_time":13000000000,"state":"spawning","ping":90},{"user_id":376,"name":"jmp","steam_id":76561198168283286,"connected_time":1428000000000,"state":"active","ping":76},{"user_id":379,"name":"The SPy","steam_id":76561198392505656,"connected_time":1375000000000,"state":"active","ping":64},{"user_id":394,"name":"GIRLBITER alice","steam_id":76561198180361759,"connected_time":484000000000,"state":"active","ping":60},{"user_id":385,"name":"021984","steam_id":76561198417999443,"connected_time":1123000000000,"state":"active","ping":97},{"user_id":396,"name":"Cypher","steam_id":76561197996967254,"connected_time":234000000000,"state":"active","ping":61},{"user_id":384,"name":"Alexandr","steam_id":76561198415594381,"connected_time":1257000000000,"state":"active","ping":45}]},{"server_id":308,"name":"Uncletopia | Frankfurt | 3 | All Maps","name_short":"frk-3","host":"frk-1.de.uncletopia.com","port":27035,"enabled":true,"region":"eu","cc":"de","latitude":50.110924,"longitude":8.682127,"reserved":0,"last_update":"0001-01-01T00:00:00Z","name_a2s":"Uncletopia | Frankfurt | 3 | All Maps","protocol":17,"map":"koth_lakeside_final","folder":"tf","game":"Team Fortress","app_id":440,"player_count":0,"max_players":24,"Bots":0,"server_type":"Dedicated","server_os":"Linux","password":true,"vac":true,"version":"7961495","steam_id":85568392924504274,"keywords":["cp","nocrits","nodmgspread","uncletopia"],"game_id":440,"stv_port":27036,"stv_name":"Uncletopia | Frankfurt | 3 | All Maps | STV","players":null},{"server_id":309,"name":"Uncletopia | Frankfurt | 4 | All Maps","name_short":"frk-4","host":"frk-1.de.uncletopia.com","port":27045,"enabled":true,"region":"eu","cc":"de","latitude":50.110924,"longitude":8.682127,"reserved":0,"last_update":"0001-01-01T00:00:00Z","name_a2s":"Uncletopia | Frankfurt | 4 | All Maps","protocol":17,"map":"pl_pier","folder":"tf","game":"Team Fortress","app_id":440,"player_count":19,"max_players":24,"Bots":0,"server_type":"Dedicated","server_os":"Linux","password":true,"vac":true,"version":"7961495","steam_id":85568392924504275,"keywords":["nocrits","nodmgspread","payload","uncletopia"],"game_id":440,"stv_port":27046,"stv_name":"Uncletopia | Frankfurt | 4 | All Maps | STV","players":[{"user_id":199,"name":"Miloleopard","steam_id":76561199196616680,"connected_time":27000000000,"state":"spawning","ping":84},{"user_id":167,"name":"Henry","steam_id":76561198108018305,"connected_time":2924000000000,"state":"spawning","ping":74},{"user_id":180,"name":"spongebob heroin overdose","steam_id":76561198399996680,"connected_time":1399000000000,"state":"spawning","ping":65},{"user_id":197,"name":"Vazanoir","steam_id":76561198026693990,"connected_time":246000000000,"state":"spawning","ping":53},{"user_id":198,"name":"NALA","steam_id":76561198039806469,"connected_time":52000000000,"state":"spawning","ping":92},{"user_id":178,"name":"lion.mesi4","steam_id":76561198890409949,"connected_time":1524000000000,"state":"spawning","ping":266},{"user_id":192,"name":"[Thrall891]","steam_id":76561198136402128,"connected_time":600000000000,"state":"spawning","ping":61},{"user_id":139,"name":"LivEssense","steam_id":76561198052476979,"connected_time":5762000000000,"state":"spawning","ping":77},{"user_id":172,"name":"victor_k","steam_id":76561198070900663,"connected_time":2026000000000,"state":"spawning","ping":95},{"user_id":164,"name":"Snowy","steam_id":76561198169992461,"connected_time":3388000000000,"state":"spawning","ping":33},{"user_id":189,"name":"mihaiandreiaura","steam_id":76561198930688023,"connected_time":834000000000,"state":"spawning","ping":68},{"user_id":186,"name":"luma","steam_id":76561198081649669,"connected_time":1078000000000,"state":"active","ping":138},{"user_id":182,"name":"E¬≤ FTH","steam_id":76561198066287815,"connected_time":1318000000000,"state":"active","ping":238},{"user_id":184,"name":"paradise","steam_id":76561198966057450,"connected_time":1245000000000,"state":"spawning","ping":62},{"user_id":193,"name":"4","steam_id":76561197964945192,"connected_time":570000000000,"state":"spawning","ping":66},{"user_id":117,"name":"√∂√∂√∂√∂‚ú™","steam_id":76561198181645822,"connected_time":7681000000000,"state":"spawning","ping":77},{"user_id":169,"name":"Owlet","steam_id":76561198065613974,"connected_time":2827000000000,"state":"spawning","ping":62},{"user_id":173,"name":"Hexagon","steam_id":76561198151205758,"connected_time":1970000000000,"state":"spawning","ping":160},{"user_id":155,"name":"kUHASZ","steam_id":76561198843896414,"connected_time":4172000000000,"state":"active","ping":170}]},{"server_id":310,"name":"Uncletopia | Frankfurt | 5 | All Maps","name_short":"frk-5","host":"frk-1.de.uncletopia.com","port":27055,"enabled":true,"region":"eu","cc":"de","latitude":50.110924,"longitude":8.682127,"reserved":0,"last_update":"0001-01-01T00:00:00Z","name_a2s":"Uncletopia | Frankfurt | 5 | All Maps","protocol":17,"map":"cp_sunshine","folder":"tf","game":"Team Fortress","app_id":440,"player_count":15,"max_players":24,"Bots":0,"server_type":"Dedicated","server_os":"Linux","password":true,"vac":true,"version":"7961495","steam_id":85568392924504277,"keywords":["cp","nocrits","nodmgspread","uncletopia"],"game_id":440,"stv_port":27056,"stv_name":"Uncletopia | Frankfurt | 5 | All Maps | STV","players":[{"user_id":192,"name":"cocaine fan","steam_id":76561198123592400,"connected_time":52000000000,"state":"active","ping":85},{"user_id":172,"name":"caramel‚ù§","steam_id":76561198819353867,"connected_time":1685000000000,"state":"active","ping":45},{"user_id":188,"name":"Sugardaddy_pep","steam_id":76561198807512589,"connected_time":545000000000,"state":"active","ping":60},{"user_id":190,"name":"Iris","steam_id":76561198430295815,"connected_time":160000000000,"state":"active","ping":65},{"user_id":160,"name":"FŒ±lB‚Ñ¢ \u003c3 ‚òÜ #ItalyWin #MKWC","steam_id":76561198885958059,"connected_time":2475000000000,"state":"active","ping":91},{"user_id":173,"name":"CRITICAL_HIT!","steam_id":76561198349330393,"connected_time":1652000000000,"state":"active","ping":62},{"user_id":174,"name":"Shoe Gayser","steam_id":76561198063127464,"connected_time":1571000000000,"state":"active","ping":75},{"user_id":166,"name":"Zamorocian","steam_id":76561198076604017,"connected_time":2246000000000,"state":"active","ping":55},{"user_id":180,"name":"Tututerok","steam_id":76561198150325060,"connected_time":1136000000000,"state":"active","ping":92},{"user_id":175,"name":"Sandvich","steam_id":76561199079493666,"connected_time":1554000000000,"state":"active","ping":75},{"user_id":184,"name":"Uncle Sam","steam_id":76561197968551107,"connected_time":799000000000,"state":"active","ping":82},{"user_id":189,"name":"Fantres","steam_id":76561198141741930,"connected_time":165000000000,"state":"active","ping":107},{"user_id":178,"name":"‚ô£–ì–µ–Ω—Å–µ–∫ –ü–æ–Ω–æ—Å–∞","steam_id":76561198796404149,"connected_time":1427000000000,"state":"active","ping":94},{"user_id":177,"name":"Farmercy","steam_id":76561198000038039,"connected_time":1531000000000,"state":"active","ping":60},{"user_id":187,"name":"brazil number 1 fan","steam_id":76561198799519725,"connected_time":645000000000,"state":"active","ping":97}]},{"server_id":311,"name":"Uncletopia | Frankfurt | 6 | All Maps","name_short":"frk-6","host":"frk-1.de.uncletopia.com","port":27065,"enabled":true,"region":"eu","cc":"de","latitude":50.110924,"longitude":8.682127,"reserved":0,"last_update":"0001-01-01T00:00:00Z","name_a2s":"Uncletopia | Frankfurt | 6 | All Maps","protocol":17,"map":"pl_upward","folder":"tf","game":"Team Fortress","app_id":440,"player_count":24,"max_players":24,"Bots":0,"server_type":"Dedicated","server_os":"Linux","password":true,"vac":true,"version":"7961495","steam_id":85568392924504278,"keywords":["nocrits","nodmgspread","payload","uncletopia"],"game_id":440,"stv_port":27066,"stv_name":"Uncletopia | Frankfurt | 6 | All Maps | STV","players":[{"user_id":273,"name":"pittypier","steam_id":76561199447222783,"connected_time":40000000000,"state":"active","ping":46},{"user_id":253,"name":"Spajro","steam_id":76561198257383813,"connected_time":1096000000000,"state":"active","ping":44},{"user_id":257,"name":"Wardruna96","steam_id":76561199057083828,"connected_time":680000000000,"state":"active","ping":83},{"user_id":264,"name":"AreSeven","steam_id":76561199025383486,"connected_time":183000000000,"state":"active","ping":55},{"user_id":219,"name":"TommySleepyEyes","steam_id":76561198261007349,"connected_time":2236000000000,"state":"active","ping":47},{"user_id":274,"name":"Larry Ca√±onga","steam_id":76561198081053203,"connected_time":39000000000,"state":"active","ping":179},{"user_id":275,"name":"TheJubo","steam_id":76561198050223306,"connected_time":9000000000,"state":"active","ping":93},{"user_id":259,"name":"Tizdum","steam_id":76561198121750726,"connected_time":619000000000,"state":"active","ping":59},{"user_id":194,"name":"ALARM","steam_id":76561198120686521,"connected_time":3245000000000,"state":"active","ping":56},{"user_id":272,"name":"Steve","steam_id":76561198016183834,"connected_time":72000000000,"state":"active","ping":62},{"user_id":220,"name":"mario64lover","steam_id":76561198149476240,"connected_time":2219000000000,"state":"active","ping":76},{"user_id":248,"name":"‚úö–ß—ã–∂‚úö","steam_id":76561198273074492,"connected_time":1377000000000,"state":"active","ping":90},{"user_id":226,"name":"ata","steam_id":76561199017885132,"connected_time":1907000000000,"state":"active","ping":68},{"user_id":262,"name":"Na'vi Misato (by popular demand","steam_id":76561198130860698,"connected_time":273000000000,"state":"active","ping":59},{"user_id":216,"name":"DarkVenom","steam_id":76561199263074469,"connected_time":2330000000000,"state":"active","ping":176},{"user_id":263,"name":"totis","steam_id":76561198968410569,"connected_time":231000000000,"state":"active","ping":92},{"user_id":265,"name":"faccboi","steam_id":76561198137816642,"connected_time":174000000000,"state":"active","ping":52},{"user_id":266,"name":"I I | #SaveTF2","steam_id":76561199101935057,"connected_time":166000000000,"state":"active","ping":80},{"user_id":229,"name":"telefon","steam_id":76561198857396812,"connected_time":1900000000000,"state":"active","ping":47},{"user_id":276,"name":"Doktor Drip","steam_id":76561198843329045,"connected_time":6000000000,"state":"spawning","ping":209},{"user_id":267,"name":"SirVitek","steam_id":76561198142961758,"connected_time":166000000000,"state":"active","ping":56},{"user_id":268,"name":"The Abominable Frenchman","steam_id":76561198023811302,"connected_time":165000000000,"state":"active","ping":155},{"user_id":269,"name":"Cabbage","steam_id":76561199125748004,"connected_time":149000000000,"state":"active","ping":148},{"user_id":271,"name":"Burgoo_King","steam_id":76561198133572225,"connected_time":77000000000,"state":"active","ping":57}]},{"server_id":23,"name":"Uncletopia | Frankfurt | 7 | Stopwatch","name_short":"frk-7","host":"frk-1.de.uncletopia.com","port":27075,"enabled":true,"region":"eu","cc":"de","latitude":50.110924,"longitude":8.682127,"reserved":0,"last_update":"0001-01-01T00:00:00Z","name_a2s":"Uncletopia | Frankfurt | 7 | Stopwatch","protocol":17,"map":"koth_lakeside_final","folder":"tf","game":"Team Fortress","app_id":440,"player_count":11,"max_players":24,"Bots":0,"server_type":"Dedicated","server_os":"Linux","password":true,"vac":true,"version":"7961495","steam_id":85568392924742827,"keywords":["cp","nocrits","nodmgspread","uncletopia"],"game_id":440,"stv_port":27076,"stv_name":"Uncletopia | Frankfurt | 7 | Stopwatch | STV","players":[{"user_id":35,"name":"Errordood","steam_id":76561198263263692,"connected_time":97000000000,"state":"active","ping":77},{"user_id":10,"name":"Graham","steam_id":76561198062668942,"connected_time":6385000000000,"state":"active","ping":45},{"user_id":26,"name":"PANAANI","steam_id":76561198322322739,"connected_time":1641000000000,"state":"active","ping":82},{"user_id":21,"name":"imooss","steam_id":76561199098965303,"connected_time":2536000000000,"state":"active","ping":97},{"user_id":28,"name":"Lowtidey","steam_id":76561198994887486,"connected_time":1194000000000,"state":"active","ping":117},{"user_id":24,"name":"Daquer","steam_id":76561199109170893,"connected_time":1809000000000,"state":"active","ping":72},{"user_id":31,"name":"xanderomeister","steam_id":76561198882550389,"connected_time":331000000000,"state":"active","ping":54},{"user_id":29,"name":"PoisionFox","steam_id":76561198864161505,"connected_time":1183000000000,"state":"active","ping":73},{"user_id":34,"name":"Violet","steam_id":76561198079388610,"connected_time":173000000000,"state":"active","ping":49},{"user_id":32,"name":"pcbarry","steam_id":76561198369317770,"connected_time":242000000000,"state":"active","ping":85},{"user_id":36,"name":"FanFish","steam_id":76561199389558024,"connected_time":63000000000,"state":"active","ping":51}]},{"server_id":24,"name":"Uncletopia | Frankfurt | 8 | Community","name_short":"frk-8","host":"frk-1.de.uncletopia.com","port":27085,"enabled":true,"region":"eu","cc":"de","latitude":50.110924,"longitude":8.682127,"reserved":0,"last_update":"0001-01-01T00:00:00Z","name_a2s":"Uncletopia | Frankfurt | 8 | Community","protocol":17,"map":"workshop/pl_boundary_final1.ugc456799153","folder":"tf","game":"Team Fortress","app_id":440,"player_count":0,"max_players":24,"Bots":0,"server_type":"Dedicated","server_os":"Linux","password":true,"vac":true,"version":"7961495","steam_id":85568392924742828,"keywords":["nocrits","nodmgspread","payload","uncletopia"],"game_id":440,"stv_port":27086,"stv_name":"Uncletopia | Frankfurt | 8 | Community | STV","players":null},{"server_id":202,"name":"Uncletopia | Hong Kong | 1 | All Maps","name_short":"hgk-1","host":"hgk-1.hk.uncletopia.com","port":27015,"enabled":true,"region":"asia","cc":"hk","latitude":22.302711,"longitude":114.177216,"reserved":0,"last_update":"0001-01-01T00:00:00Z","name_a2s":"Uncletopia | Hong Kong | 1 | All Maps","protocol":17,"map":"cp_gorge","folder":"tf","game":"Team Fortress","app_id":440,"player_count":24,"max_players":24,"Bots":0,"server_type":"Dedicated","server_os":"Linux","password":true,"vac":true,"version":"7961495","steam_id":85568392924494504,"keywords":["cp","nocrits","nodmgspread","uncletopia"],"game_id":440,"stv_port":27016,"stv_name":"Uncletopia | Hong Kong | 1 | All Maps | STV","players":[{"user_id":283,"name":"ryder","steam_id":76561198797699056,"connected_time":7720000000000,"state":"active","ping":94},{"user_id":307,"name":"elite anarchest","steam_id":76561198411982822,"connected_time":5064000000000,"state":"active","ping":72},{"user_id":318,"name":"Lelouch","steam_id":76561198828840546,"connected_time":3857000000000,"state":"active","ping":65},{"user_id":303,"name":"Dokutah, Husband of W","steam_id":76561199273390091,"connected_time":5497000000000,"state":"active","ping":65},{"user_id":334,"name":"Grifter","steam_id":76561198092369812,"connected_time":2159000000000,"state":"active","ping":84},{"user_id":286,"name":"Ïø†ÌÇ§","steam_id":76561197997220367,"connected_time":7238000000000,"state":"active","ping":39},{"user_id":314,"name":"Elhemage","steam_id":76561198105902121,"connected_time":4082000000000,"state":"active","ping":60},{"user_id":327,"name":"2746","steam_id":76561199390507975,"connected_time":3008000000000,"state":"active","ping":41},{"user_id":308,"name":"Skyler White yo","steam_id":76561198895193247,"connected_time":4844000000000,"state":"active","ping":66},{"user_id":346,"name":"‚ô´‚ô•ZodiaComs‚ô•‚ô´","steam_id":76561198189728745,"connected_time":75000000000,"state":"active","ping":78},{"user_id":340,"name":"beegy yoshi","steam_id":76561199221182683,"connected_time":438000000000,"state":"active","ping":127},{"user_id":323,"name":"Momoxhien","steam_id":76561198414997429,"connected_time":3042000000000,"state":"active","ping":60},{"user_id":332,"name":"Mystery cheese üßÄ","steam_id":76561198304002409,"connected_time":2353000000000,"state":"active","ping":68},{"user_id":328,"name":"Ivy","steam_id":76561198400698408,"connected_time":2899000000000,"state":"active","ping":96},{"user_id":337,"name":"Kumaz","steam_id":76561199062190085,"connected_time":805000000000,"state":"active","ping":76},{"user_id":348,"name":"strontyy","steam_id":76561198112370900,"connected_time":59000000000,"state":"active","ping":81},{"user_id":326,"name":"‡∂û","steam_id":76561198201338439,"connected_time":3018000000000,"state":"active","ping":45},{"user_id":349,"name":"Just a Silly Cat","steam_id":76561198996443333,"connected_time":10000000000,"state":"active","ping":151},{"user_id":339,"name":"Bill","steam_id":76561198044762968,"connected_time":670000000000,"state":"active","ping":111},{"user_id":341,"name":"jill920","steam_id":76561197997194879,"connected_time":422000000000,"state":"active","ping":67},{"user_id":320,"name":"Averblu","steam_id":76561199480939609,"connected_time":3842000000000,"state":"active","ping":81},{"user_id":336,"name":"Joebunga","steam_id":76561198833527091,"connected_time":1393000000000,"state":"active","ping":93},{"user_id":136,"name":"Impetus","steam_id":76561198213031155,"connected_time":20860000000000,"state":"active","ping":102},{"user_id":310,"name":"GAMA","steam_id":76561198049755630,"connected_time":4612000000000,"state":"active","ping":105}]},{"server_id":1,"name":"Uncletopia | Los Angeles | 1 | All Maps","name_short":"lax-1","host":"lax-1.us.uncletopia.com","port":27015,"enabled":true,"region":"us-west","cc":"us","latitude":33.94279,"longitude":-118.41004,"reserved":0,"last_update":"0001-01-01T00:00:00Z","name_a2s":"Uncletopia | Los Angeles | 1 | All Maps","protocol":17,"map":"cp_gorge","folder":"tf","game":"Team Fortress","app_id":440,"player_count":0,"max_players":24,"Bots":0,"server_type":"Dedicated","server_os":"Linux","password":true,"vac":true,"version":"7961495","steam_id":85568392924469991,"keywords":["cp","nocrits","nodmgspread","uncletopia"],"game_id":440,"stv_port":27016,"stv_name":"Uncletopia | Los Angeles | 1 | All Maps | STV","players":null},{"server_id":112,"name":"Uncletopia | Los Angeles | 2 | All Maps","name_short":"lax-2","host":"lax-1.us.uncletopia.com","port":27025,"enabled":true,"region":"us-west","cc":"us","latitude":33.94279,"longitude":-118.41004,"reserved":0,"last_update":"0001-01-01T00:00:00Z","name_a2s":"Uncletopia | Los Angeles | 2 | All Maps","protocol":17,"map":"koth_cascade","folder":"tf","game":"Team Fortress","app_id":440,"player_count":0,"max_players":24,"Bots":0,"server_type":"Dedicated","server_os":"Linux","password":true,"vac":true,"version":"7961495","steam_id":85568392924469992,"keywords":["cp","nocrits","nodmgspread","uncletopia"],"game_id":440,"stv_port":27026,"stv_name":"Uncletopia | Los Angeles | 2 | All Maps | STV","players":null},{"server_id":324,"name":"Uncletopia | Los Angeles | 3 | All Maps","name_short":"lax-3","host":"lax-1.us.uncletopia.com","port":27035,"enabled":true,"region":"us-west","cc":"us","latitude":33.94279,"longitude":-118.41004,"reserved":0,"last_update":"0001-01-01T00:00:00Z","name_a2s":"Uncletopia | Los Angeles | 3 | All Maps","protocol":17,"map":"pl_hoodoo_final","folder":"tf","game":"Team Fortress","app_id":440,"player_count":0,"max_players":24,"Bots":0,"server_type":"Dedicated","server_os":"Linux","password":true,"vac":true,"version":"7961495","steam_id":85568392924510198,"keywords":["nocrits","nodmgspread","payload","uncletopia"],"game_id":440,"stv_port":27036,"stv_name":"Uncletopia | Los Angeles | 3 | All Maps | STV","players":null},{"server_id":25,"name":"Uncletopia | Los Angeles | 4 | Stopwatch","name_short":"lax-4","host":"lax-1.us.uncletopia.com","port":27045,"enabled":true,"region":"us-west","cc":"us","latitude":33.94279,"longitude":-118.41004,"reserved":0,"last_update":"0001-01-01T00:00:00Z","name_a2s":"Uncletopia | Los Angeles | 4 | Stopwatch","protocol":17,"map":"pl_upward","folder":"tf","game":"Team Fortress","app_id":440,"player_count":0,"max_players":24,"Bots":0,"server_type":"Dedicated","server_os":"Linux","password":true,"vac":true,"version":"7961495","steam_id":85568392924510199,"keywords":["nocrits","nodmgspread","payload","uncletopia"],"game_id":440,"stv_port":27046,"stv_name":"Uncletopia | Los Angeles | 4 | Stopwatch | STV","players":null},{"server_id":11,"name":"Uncletopia | London | 1 | All Maps","name_short":"lon-1","host":"lon-1.uk.uncletopia.com","port":27015,"enabled":true,"region":"eu","cc":"gb","latitude":51.509865,"longitude":-0.118092,"reserved":0,"last_update":"0001-01-01T00:00:00Z","name_a2s":"Uncletopia | London | 1 | All Maps","protocol":17,"map":"pl_upward","folder":"tf","game":"Team Fortress","app_id":440,"player_count":23,"max_players":24,"Bots":0,"server_type":"Dedicated","server_os":"Linux","password":true,"vac":true,"version":"7961495","steam_id":85568392924367362,"keywords":["nocrits","nodmgspread","payload","uncletopia"],"game_id":440,"stv_port":27016,"stv_name":"Uncletopia | London | 1 | All Maps | STV","players":[{"user_id":136,"name":"GazerBazer","steam_id":76561198879107565,"connected_time":1602000000000,"state":"active","ping":75},{"user_id":123,"name":"Ephix","steam_id":76561197977164055,"connected_time":2732000000000,"state":"active","ping":49},{"user_id":156,"name":"Bacon","steam_id":76561198050165015,"connected_time":36000000000,"state":"active","ping":70},{"user_id":67,"name":"Ullr","steam_id":76561198140547483,"connected_time":6913000000000,"state":"active","ping":43},{"user_id":124,"name":"‚ù§ [HoneyBe_] ‚ù§","steam_id":76561198288930154,"connected_time":2732000000000,"state":"active","ping":58},{"user_id":137,"name":"..-.|..|.-..|..|.--.|","steam_id":76561198829879386,"connected_time":1492000000000,"state":"active","ping":58},{"user_id":150,"name":"LadyMissfit","steam_id":76561198042236349,"connected_time":384000000000,"state":"active","ping":63},{"user_id":153,"name":"Nalima","steam_id":76561197996555748,"connected_time":173000000000,"state":"active","ping":49},{"user_id":44,"name":"Gorgeous George","steam_id":76561198144256544,"connected_time":7828000000000,"state":"active","ping":45},{"user_id":146,"name":"I failed by DBS check","steam_id":76561198136239861,"connected_time":585000000000,"state":"active","ping":48},{"user_id":130,"name":"soney","steam_id":76561198121177512,"connected_time":2302000000000,"state":"active","ping":59},{"user_id":143,"name":"yipieeee :DDD","steam_id":76561198076219289,"connected_time":766000000000,"state":"active","ping":59},{"user_id":104,"name":"jaipwgjkmasentpedoapinwhipkaw","steam_id":76561198046873337,"connected_time":4148000000000,"state":"active","ping":47},{"user_id":144,"name":"TomNoSocks","steam_id":76561198114071046,"connected_time":663000000000,"state":"active","ping":53},{"user_id":109,"name":"NukePigg","steam_id":76561198131324143,"connected_time":3751000000000,"state":"active","ping":45},{"user_id":147,"name":"clunk","steam_id":76561198836460767,"connected_time":581000000000,"state":"active","ping":73},{"user_id":142,"name":"r","steam_id":76561198239927434,"connected_time":1145000000000,"state":"active","ping":75},{"user_id":157,"name":"William Afton Gaming","steam_id":76561198220227199,"connected_time":3000000000,"state":"spawning","ping":47},{"user_id":135,"name":"James","steam_id":76561198138558005,"connected_time":1735000000000,"state":"active","ping":47},{"user_id":158,"name":"AuwNina","steam_id":76561198128231464,"connected_time":2000000000,"state":"spawning","ping":49},{"user_id":155,"name":"Leprechaun Jack","steam_id":76561198088964771,"connected_time":116000000000,"state":"active","ping":36},{"user_id":140,"name":"ExotiiC ‚òØ","steam_id":76561198046149866,"connected_time":1228000000000,"state":"active","ping":61},{"user_id":105,"name":"Umami","steam_id":76561198058855656,"connected_time":4137000000000,"state":"active","ping":101}]},{"server_id":114,"name":"Uncletopia | London | 2 | All Maps","name_short":"lon-2","host":"lon-1.uk.uncletopia.com","port":27025,"enabled":true,"region":"eu","cc":"gb","latitude":51.509865,"longitude":-0.118092,"reserved":0,"last_update":"0001-01-01T00:00:00Z","name_a2s":"Uncletopia | London | 2 | All Maps","protocol":17,"map":"pl_frontier_final","folder":"tf","game":"Team Fortress","app_id":440,"player_count":23,"max_players":24,"Bots":0,"server_type":"Dedicated","server_os":"Linux","password":true,"vac":true,"version":"7961495","steam_id":85568392924470941,"keywords":["nocrits","nodmgspread","payload","uncletopia"],"game_id":440,"stv_port":27026,"stv_name":"Uncletopia | London | 2 | All Maps | STV","players":[{"user_id":232,"name":"is this the real life?","steam_id":76561198292177163,"connected_time":799000000000,"state":"active","ping":80},{"user_id":208,"name":"Fors√©n","steam_id":76561199131971501,"connected_time":2303000000000,"state":"active","ping":72},{"user_id":245,"name":"1 toke 4 mars bars","steam_id":76561198056460000,"connected_time":234000000000,"state":"active","ping":46},{"user_id":212,"name":"Tre3","steam_id":76561198054795379,"connected_time":2248000000000,"state":"active","ping":60},{"user_id":244,"name":"syms","steam_id":76561198066679812,"connected_time":263000000000,"state":"active","ping":80},{"user_id":180,"name":"john fortress","steam_id":76561198013237629,"connected_time":5057000000000,"state":"active","ping":92},{"user_id":214,"name":"Arizona Ranger","steam_id":76561198859118707,"connected_time":2153000000000,"state":"active","ping":66},{"user_id":226,"name":" MyonMyonMyonMyonMyonMyon! ","steam_id":76561198271850252,"connected_time":1423000000000,"state":"active","ping":31},{"user_id":227,"name":"Fearly","steam_id":76561198798684016,"connected_time":1421000000000,"state":"active","ping":52},{"user_id":218,"name":"Aku+","steam_id":76561198813782795,"connected_time":2034000000000,"state":"active","ping":65},{"user_id":221,"name":"Warrior555MainsGanon","steam_id":76561198388627786,"connected_time":1820000000000,"state":"active","ping":58},{"user_id":223,"name":"orphan slayer","steam_id":76561199476198856,"connected_time":1649000000000,"state":"active","ping":173},{"user_id":199,"name":"Prox","steam_id":76561198351490981,"connected_time":3127000000000,"state":"active","ping":38},{"user_id":155,"name":"Jeryx","steam_id":76561197995602803,"connected_time":6994000000000,"state":"active","ping":45},{"user_id":216,"name":"Killbasa","steam_id":76561198064868400,"connected_time":2107000000000,"state":"active","ping":110},{"user_id":228,"name":"Collapse","steam_id":76561198309876860,"connected_time":1418000000000,"state":"active","ping":108},{"user_id":220,"name":"xavier","steam_id":76561198076494034,"connected_time":1845000000000,"state":"active","ping":47},{"user_id":246,"name":"yourcollectivemothers","steam_id":76561198875958142,"connected_time":224000000000,"state":"active","ping":115},{"user_id":201,"name":"radek","steam_id":76561197998883721,"connected_time":2892000000000,"state":"active","ping":89},{"user_id":217,"name":"Swiss_Nostalgia","steam_id":76561199159896259,"connected_time":2098000000000,"state":"active","ping":56},{"user_id":229,"name":"Marie ‚òò","steam_id":76561198105207050,"connected_time":1417000000000,"state":"active","ping":56},{"user_id":153,"name":"ROX","steam_id":76561198272289320,"connected_time":7267000000000,"state":"active","ping":52},{"user_id":236,"name":"RIBS GROW BACK","steam_id":76561198123659806,"connected_time":513000000000,"state":"active","ping":84}]},{"server_id":320,"name":"Uncletopia | London | 3 | All Maps","name_short":"lon-3","host":"lon-1.uk.uncletopia.com","port":27035,"enabled":true,"region":"eu","cc":"gb","latitude":51.509865,"longitude":-0.118092,"reserved":0,"last_update":"0001-01-01T00:00:00Z","name_a2s":"Uncletopia | London | 3 | All Maps","protocol":17,"map":"pl_badwater","folder":"tf","game":"Team Fortress","app_id":440,"player_count":24,"max_players":24,"Bots":0,"server_type":"Dedicated","server_os":"Linux","password":true,"vac":true,"version":"7961495","steam_id":85568392924510192,"keywords":["nocrits","nodmgspread","payload","uncletopia"],"game_id":440,"stv_port":27036,"stv_name":"Uncletopia | London | 3 | All Maps | STV","players":[{"user_id":9,"name":"Speed C. Rapper","steam_id":76561198052088053,"connected_time":6287000000000,"state":"active","ping":44},{"user_id":90,"name":"gitlitwitit","steam_id":76561197980019054,"connected_time":722000000000,"state":"active","ping":61},{"user_id":55,"name":"BORGETENNISCLUB","steam_id":76561198049343723,"connected_time":3214000000000,"state":"active","ping":48},{"user_id":15,"name":"Docteur Galaxya","steam_id":76561198401231429,"connected_time":5662000000000,"state":"active","ping":93},{"user_id":91,"name":"Memphis","steam_id":76561198045039038,"connected_time":673000000000,"state":"active","ping":75},{"user_id":92,"name":"C√∂ffee","steam_id":76561198115131952,"connected_time":665000000000,"state":"active","ping":103},{"user_id":93,"name":"Lukas","steam_id":76561198009118452,"connected_time":653000000000,"state":"active","ping":58},{"user_id":94,"name":"ran is running","steam_id":76561199443185667,"connected_time":561000000000,"state":"active","ping":127},{"user_id":80,"name":"AlfonsoM","steam_id":76561198138832894,"connected_time":1426000000000,"state":"active","ping":82},{"user_id":107,"name":"joosssh","steam_id":76561198072130805,"connected_time":174000000000,"state":"active","ping":55},{"user_id":95,"name":"Triploon","steam_id":76561198173304074,"connected_time":545000000000,"state":"active","ping":46},{"user_id":96,"name":"Tsohuwaz","steam_id":76561198145988089,"connected_time":482000000000,"state":"active","ping":97},{"user_id":97,"name":"so cute it kils","steam_id":76561198256660599,"connected_time":475000000000,"state":"active","ping":49},{"user_id":68,"name":"quickfast","steam_id":76561199438900919,"connected_time":2501000000000,"state":"active","ping":45},{"user_id":88,"name":"Mr.MemeMaker","steam_id":76561198909088766,"connected_time":970000000000,"state":"active","ping":67},{"user_id":98,"name":"kk3","steam_id":76561198114893654,"connected_time":402000000000,"state":"active","ping":36},{"user_id":99,"name":"Monsy","steam_id":76561198025735006,"connected_time":402000000000,"state":"active","ping":45},{"user_id":106,"name":"sAmasam","steam_id":76561198114953928,"connected_time":198000000000,"state":"active","ping":71},{"user_id":110,"name":"steinar","steam_id":76561198441857153,"connected_time":98000000000,"state":"active","ping":76},{"user_id":111,"name":"Cencut","steam_id":76561198989449047,"connected_time":18000000000,"state":"active","ping":125},{"user_id":102,"name":"Postal","steam_id":76561198272562810,"connected_time":321000000000,"state":"active","ping":151},{"user_id":65,"name":"Baluga'd‚Åß‚Åß‚≠ï‚É§","steam_id":76561198059003918,"connected_time":2651000000000,"state":"active","ping":43},{"user_id":104,"name":"Dzieciol","steam_id":76561198160237556,"connected_time":275000000000,"state":"active","ping":70},{"user_id":108,"name":"Kenny","steam_id":76561198994898206,"connected_time":174000000000,"state":"active","ping":87}]},{"server_id":321,"name":"Uncletopia | London | 4 | All Maps","name_short":"lon-4","host":"lon-1.uk.uncletopia.com","port":27045,"enabled":true,"region":"eu","cc":"gb","latitude":51.509865,"longitude":-0.118092,"reserved":0,"last_update":"0001-01-01T00:00:00Z","name_a2s":"Uncletopia | London | 4 | All Maps","protocol":17,"map":"pl_swiftwater_final1","folder":"tf","game":"Team Fortress","app_id":440,"player_count":0,"max_players":24,"Bots":0,"server_type":"Dedicated","server_os":"Linux","password":true,"vac":true,"version":"7961495","steam_id":85568392924510193,"keywords":["nocrits","nodmgspread","payload","uncletopia"],"game_id":440,"stv_port":27046,"stv_name":"Uncletopia | London | 4 | All Maps | STV","players":null},{"server_id":21,"name":"Uncletopia | London | 5 | All Maps","name_short":"lon-5","host":"lon-1.uk.uncletopia.com","port":27055,"enabled":true,"region":"eu","cc":"gb","latitude":51.509865,"longitude":-0.118092,"reserved":0,"last_update":"0001-01-01T00:00:00Z","name_a2s":"Uncletopia | London | 5 | All Maps","protocol":17,"map":"koth_lakeside_final","folder":"tf","game":"Team Fortress","app_id":440,"player_count":0,"max_players":24,"Bots":0,"server_type":"Dedicated","server_os":"Linux","password":true,"vac":true,"version":"7961495","steam_id":85568392924742829,"keywords":["cp","nocrits","nodmgspread","uncletopia"],"game_id":440,"stv_port":27056,"stv_name":"Uncletopia | London | 5 | All Maps | STV","players":null},{"server_id":22,"name":"Uncletopia | London | 6 | All Maps","name_short":"lon-6","host":"lon-1.uk.uncletopia.com","port":27065,"enabled":true,"region":"eu","cc":"gb","latitude":51.509865,"longitude":-0.118092,"reserved":0,"last_update":"0001-01-01T00:00:00Z","name_a2s":"Uncletopia | London | 6 | All Maps","protocol":17,"map":"cp_snakewater_final1","folder":"tf","game":"Team Fortress","app_id":440,"player_count":0,"max_players":24,"Bots":0,"server_type":"Dedicated","server_os":"Linux","password":true,"vac":true,"version":"7961495","steam_id":85568392924742830,"keywords":["cp","nocrits","nodmgspread","uncletopia"],"game_id":440,"stv_port":27066,"stv_name":"Uncletopia | London | 6 | All Maps | STV","players":null},{"server_id":40,"name":"Uncletopia | London | 7 | Stopwatch","name_short":"lon-7","host":"lon-1.uk.uncletopia.com","port":27075,"enabled":true,"region":"eu","cc":"gb","latitude":51.509865,"longitude":-0.118092,"reserved":0,"last_update":"0001-01-01T00:00:00Z","name_a2s":"Uncletopia | London | 7 | Stopwatch","protocol":17,"map":"workshop/pl_badwater_pro_v12.ugc2142942074","folder":"tf","game":"Team Fortress","app_id":440,"player_count":0,"max_players":24,"Bots":0,"server_type":"Dedicated","server_os":"Linux","password":true,"vac":true,"version":"7961495","steam_id":85568392924964314,"keywords":["nocrits","nodmgspread","payload","uncletopia"],"game_id":440,"stv_port":27076,"stv_name":"Uncletopia | London | 7 | Stopwatch | STV","players":null},{"server_id":41,"name":"Uncletopia | London | 8 | Community","name_short":"lon-8","host":"lon-1.uk.uncletopia.com","port":27085,"enabled":true,"region":"eu","cc":"gb","latitude":51.509865,"longitude":-0.118092,"reserved":0,"last_update":"0001-01-01T00:00:00Z","name_a2s":"Uncletopia | London | 8 | Community","protocol":17,"map":"workshop/cp_glassworks_rc7a.ugc454118349","folder":"tf","game":"Team Fortress","app_id":440,"player_count":0,"max_players":24,"Bots":0,"server_type":"Dedicated","server_os":"Linux","password":true,"vac":true,"version":"7961495","steam_id":85568392924964315,"keywords":["cp","nocrits","nodmgspread","uncletopia"],"game_id":440,"stv_port":27086,"stv_name":"Uncletopia | London | 8 | Community | STV","players":null},{"server_id":300,"name":"Uncletopia | Montr√©al | 1 | One Thousand Uncles","name_short":"mtl-1","host":"mtl-1.ca.uncletopia.com","port":27015,"enabled":true,"region":"us-east","cc":"ca","latitude":45.50889,"longitude":-73.56167,"reserved":0,"last_update":"0001-01-01T00:00:00Z","name_a2s":"Uncletopia | Montr√©al | 1 | One Thousand Uncles","protocol":17,"map":"cp_mercenarypark","folder":"tf","game":"Team Fortress","app_id":440,"player_count":0,"max_players":32,"Bots":0,"server_type":"Dedicated","server_os":"Linux","password":true,"vac":true,"version":"7961495","steam_id":85568392924500087,"keywords":["alltalk","cp","danepve","increased_maxplayers","norespawntime","uncletopia"],"game_id":440,"stv_port":0,"stv_name":"","players":null},{"server_id":301,"name":"Uncletopia | Montr√©al | 2 | One Thousand Uncles","name_short":"mtl-2","host":"mtl-1.ca.uncletopia.com","port":27025,"enabled":true,"region":"us-east","cc":"ca","latitude":45.50889,"longitude":-73.56167,"reserved":0,"last_update":"0001-01-01T00:00:00Z","name_a2s":"Uncletopia | Montr√©al | 2 | One Thousand Uncles","protocol":17,"map":"pl_chilly","folder":"tf","game":"Team Fortress","app_id":440,"player_count":0,"max_players":32,"Bots":0,"server_type":"Dedicated","server_os":"Linux","password":true,"vac":true,"version":"7961495","steam_id":85568392924500088,"keywords":["alltalk","danepve","increased_maxplayers","norespawntime","payload","uncletopia"],"game_id":440,"stv_port":0,"stv_name":"","players":null},{"server_id":302,"name":"Uncletopia | Montr√©al | 3 | One Thousand Uncles","name_short":"mtl-3","host":"mtl-1.ca.uncletopia.com","port":27035,"enabled":true,"region":"us-east","cc":"ca","latitude":45.50889,"longitude":-73.56167,"reserved":0,"last_update":"0001-01-01T00:00:00Z","name_a2s":"Uncletopia | Montr√©al | 3 | One Thousand Uncles","protocol":17,"map":"pl_upward","folder":"tf","game":"Team Fortress","app_id":440,"player_count":0,"max_players":32,"Bots":0,"server_type":"Dedicated","server_os":"Linux","password":true,"vac":true,"version":"7961495","steam_id":85568392924500089,"keywords":["alltalk","danepve","increased_maxplayers","norespawntime","payload","uncletopia"],"game_id":440,"stv_port":0,"stv_name":"","players":null},{"server_id":13,"name":"Uncletopia | New York City | 1 | All Maps","name_short":"nyc-1","host":"nyc-1.us.uncletopia.com","port":27015,"enabled":true,"region":"us-east","cc":"us","latitude":40.73061,"longitude":-73.93524,"reserved":0,"last_update":"0001-01-01T00:00:00Z","name_a2s":"Uncletopia | New York City | 1 | All Maps","protocol":17,"map":"pl_badwater","folder":"tf","game":"Team Fortress","app_id":440,"player_count":0,"max_players":24,"Bots":0,"server_type":"Dedicated","server_os":"Linux","password":true,"vac":true,"version":"7961495","steam_id":85568392924469993,"keywords":["nocrits","nodmgspread","payload","uncletopia"],"game_id":440,"stv_port":27016,"stv_name":"Uncletopia | New York City | 1 | All Maps | STV","players":null},{"server_id":14,"name":"Uncletopia | New York City | 2 | All Maps","name_short":"nyc-2","host":"nyc-1.us.uncletopia.com","port":27025,"enabled":true,"region":"us-east","cc":"us","latitude":40.73061,"longitude":-73.93524,"reserved":0,"last_update":"0001-01-01T00:00:00Z","name_a2s":"Uncletopia | New York City | 2 | All Maps","protocol":17,"map":"koth_cascade","folder":"tf","game":"Team Fortress","app_id":440,"player_count":0,"max_players":24,"Bots":0,"server_type":"Dedicated","server_os":"Linux","password":true,"vac":true,"version":"7961495","steam_id":85568392924469994,"keywords":["cp","nocrits","nodmgspread","uncletopia"],"game_id":440,"stv_port":27026,"stv_name":"Uncletopia | New York City | 2 | All Maps | STV","players":null},{"server_id":15,"name":"Uncletopia | New York City | 3 | Stopwatch","name_short":"nyc-3","host":"nyc-1.us.uncletopia.com","port":27035,"enabled":true,"region":"us-east","cc":"us","latitude":40.73061,"longitude":-73.93524,"reserved":0,"last_update":"0001-01-01T00:00:00Z","name_a2s":"Uncletopia | New York City | 3 | Stopwatch","protocol":17,"map":"workshop/cp_reckoner_rc6.ugc674719999","folder":"tf","game":"Team Fortress","app_id":440,"player_count":0,"max_players":24,"Bots":0,"server_type":"Dedicated","server_os":"Linux","password":true,"vac":true,"version":"7961495","steam_id":85568392924742820,"keywords":["cp","nocrits","nodmgspread","uncletopia"],"game_id":440,"stv_port":27036,"stv_name":"Uncletopia | New York City | 3 | Stopwatch | STV","players":null},{"server_id":16,"name":"Uncletopia | New York City | 4 | Community","name_short":"nyc-4","host":"nyc-1.us.uncletopia.com","port":27045,"enabled":true,"region":"us-east","cc":"us","latitude":40.73061,"longitude":-73.93524,"reserved":0,"last_update":"0001-01-01T00:00:00Z","name_a2s":"Uncletopia | New York City | 4 | Community","protocol":17,"map":"workshop/cp_indulge.ugc528106646","folder":"tf","game":"Team Fortress","app_id":440,"player_count":0,"max_players":24,"Bots":0,"server_type":"Dedicated","server_os":"Linux","password":true,"vac":true,"version":"7961495","steam_id":85568392924742821,"keywords":["cp","nocrits","nodmgspread","uncletopia"],"game_id":440,"stv_port":27046,"stv_name":"Uncletopia | New York City | 4 | Community | STV","players":null},{"server_id":142,"name":"Uncletopia | S√£o Paulo | 1 | All Maps","name_short":"sao-1","host":"sao-1.br.uncletopia.com","port":27015,"enabled":true,"region":"sa","cc":"br","latitude":-23.533773,"longitude":-46.62529,"reserved":0,"last_update":"0001-01-01T00:00:00Z","name_a2s":"Uncletopia | S√£o Paulo | 1 | All Maps","protocol":17,"map":"cp_gorge","folder":"tf","game":"Team Fortress","app_id":440,"player_count":0,"max_players":24,"Bots":0,"server_type":"Dedicated","server_os":"Linux","password":true,"vac":true,"version":"7961495","steam_id":85568392924469996,"keywords":["cp","nocrits","nodmgspread","uncletopia"],"game_id":440,"stv_port":27016,"stv_name":"Uncletopia | S√£o Paulo | 1 | All Maps | STV","players":null},{"server_id":143,"name":"Uncletopia | S√£o Paulo | 2 | Community","name_short":"sao-2","host":"sao-2.br.uncletopia.com","port":27015,"enabled":true,"region":"sa","cc":"br","latitude":-23.533773,"longitude":-46.62529,"reserved":0,"last_update":"0001-01-01T00:00:00Z","name_a2s":"Uncletopia | S√£o Paulo | 2 | Community","protocol":17,"map":"workshop/cp_croissant_final.ugc458840209","folder":"tf","game":"Team Fortress","app_id":440,"player_count":0,"max_players":24,"Bots":0,"server_type":"Dedicated","server_os":"Linux","password":true,"vac":true,"version":"7961495","steam_id":85568392924485349,"keywords":["cp","nocrits","nodmgspread","uncletopia"],"game_id":440,"stv_port":27016,"stv_name":"Uncletopia | S√£o Paulo | 2 | Community | STV","players":null},{"server_id":7,"name":"Uncletopia | Seattle | 1 | All Maps","name_short":"sea-1","host":"sea-1.us.uncletopia.com","port":27015,"enabled":true,"region":"us-west","cc":"us","latitude":47.608013,"longitude":-122.33517,"reserved":0,"last_update":"0001-01-01T00:00:00Z","name_a2s":"Uncletopia | Seattle | 1 | All Maps","protocol":17,"map":"koth_suijin","folder":"tf","game":"Team Fortress","app_id":440,"player_count":0,"max_players":24,"Bots":0,"server_type":"Dedicated","server_os":"Linux","password":true,"vac":true,"version":"7961495","steam_id":85568392924469997,"keywords":["cp","nocrits","nodmgspread","uncletopia"],"game_id":440,"stv_port":27016,"stv_name":"Uncletopia | Seattle | 1 | All Maps | STV","players":null},{"server_id":119,"name":"Uncletopia | Seattle | 2 | All Maps","name_short":"sea-2","host":"sea-1.us.uncletopia.com","port":27025,"enabled":true,"region":"us-west","cc":"us","latitude":47.608013,"longitude":-122.33517,"reserved":0,"last_update":"0001-01-01T00:00:00Z","name_a2s":"Uncletopia | Seattle | 2 | All Maps","protocol":17,"map":"koth_lakeside_final","folder":"tf","game":"Team Fortress","app_id":440,"player_count":0,"max_players":24,"Bots":0,"server_type":"Dedicated","server_os":"Linux","password":true,"vac":true,"version":"7961495","steam_id":85568392924469998,"keywords":["cp","nocrits","nodmgspread","uncletopia"],"game_id":440,"stv_port":27026,"stv_name":"Uncletopia | Seattle | 2 | All Maps | STV","players":null},{"server_id":406,"name":"Uncletopia | Seattle | 3 | Stopwatch","name_short":"sea-3","host":"sea-1.us.uncletopia.com","port":27035,"enabled":true,"region":"us-west","cc":"us","latitude":47.608013,"longitude":-122.33517,"reserved":0,"last_update":"0001-01-01T00:00:00Z","name_a2s":"Uncletopia | Seattle | 3 | Stopwatch","protocol":17,"map":"cp_gullywash_final1","folder":"tf","game":"Team Fortress","app_id":440,"player_count":0,"max_players":24,"Bots":0,"server_type":"Dedicated","server_os":"Linux","password":true,"vac":true,"version":"7961495","steam_id":85568392924515217,"keywords":["cp","nocrits","nodmgspread","uncletopia"],"game_id":440,"stv_port":27036,"stv_name":"Uncletopia | Seattle | 3 | Stopwatch | STV","players":null},{"server_id":17,"name":"Uncletopia | San Francisco | 1 | All Maps","name_short":"sfo-1","host":"sfo-1.us.uncletopia.com","port":27015,"enabled":true,"region":"us-west","cc":"us","latitude":37.77397,"longitude":-122.4313,"reserved":0,"last_update":"0001-01-01T00:00:00Z","name_a2s":"Uncletopia | San Francisco | 1 | All Maps","protocol":17,"map":"cp_altitude","folder":"tf","game":"Team Fortress","app_id":440,"player_count":0,"max_players":24,"Bots":0,"server_type":"Dedicated","server_os":"Linux","password":true,"vac":true,"version":"7961495","steam_id":85568392924469999,"keywords":["cp","nocrits","nodmgspread","uncletopia"],"game_id":440,"stv_port":27016,"stv_name":"Uncletopia | San Francisco | 1 | All Maps | STV","players":null},{"server_id":18,"name":"Uncletopia | San Francisco | 2 | All Maps","name_short":"sfo-2","host":"sfo-1.us.uncletopia.com","port":27025,"enabled":true,"region":"us-west","cc":"us","latitude":37.77397,"longitude":-122.4313,"reserved":0,"last_update":"0001-01-01T00:00:00Z","name_a2s":"Uncletopia | San Francisco | 2 | All Maps","protocol":17,"map":"cp_freight_final1","folder":"tf","game":"Team Fortress","app_id":440,"player_count":0,"max_players":24,"Bots":0,"server_type":"Dedicated","server_os":"Linux","password":true,"vac":true,"version":"7961495","steam_id":85568392924470000,"keywords":["cp","nocrits","nodmgspread","uncletopia"],"game_id":440,"stv_port":27026,"stv_name":"Uncletopia | San Francisco | 2 | All Maps | STV","players":null},{"server_id":19,"name":"Uncletopia | San Francisco | 3 | Stopwatch","name_short":"sfo-3","host":"sfo-1.us.uncletopia.com","port":27035,"enabled":true,"region":"us-west","cc":"us","latitude":37.77397,"longitude":-122.4313,"reserved":0,"last_update":"0001-01-01T00:00:00Z","name_a2s":"Uncletopia | San Francisco | 3 | Stopwatch","protocol":17,"map":"workshop/koth_product_final.ugc454272353","folder":"tf","game":"Team Fortress","app_id":440,"player_count":0,"max_players":24,"Bots":0,"server_type":"Dedicated","server_os":"Linux","password":true,"vac":true,"version":"7961495","steam_id":85568392924742824,"keywords":["cp","nocrits","nodmgspread","uncletopia"],"game_id":440,"stv_port":27036,"stv_name":"Uncletopia | San Francisco | 3 | Stopwatch | STV","players":null},{"server_id":20,"name":"Uncletopia | San Francisco | 4 | Community","name_short":"sfo-4","host":"sfo-1.us.uncletopia.com","port":27045,"enabled":true,"region":"us-west","cc":"us","latitude":37.77397,"longitude":-122.4313,"reserved":0,"last_update":"0001-01-01T00:00:00Z","name_a2s":"Uncletopia | San Francisco | 4 | Community","protocol":17,"map":"workshop/koth_slaughter_rc1.ugc1712845210","folder":"tf","game":"Team Fortress","app_id":440,"player_count":4,"max_players":24,"Bots":0,"server_type":"Dedicated","server_os":"Linux","password":true,"vac":true,"version":"7961495","steam_id":85568392924742826,"keywords":["cp","nocrits","nodmgspread","uncletopia"],"game_id":440,"stv_port":27046,"stv_name":"Uncletopia | San Francisco | 4 | Community | STV","players":[{"user_id":6,"name":"Oktayey","steam_id":76561198143213426,"connected_time":4613000000000,"state":"active","ping":43},{"user_id":4,"name":"Moondrop","steam_id":76561199421181719,"connected_time":5970000000000,"state":"active","ping":196},{"user_id":8,"name":"jango phett","steam_id":76561198068219309,"connected_time":2359000000000,"state":"active","ping":46},{"user_id":10,"name":"Dreamzapp","steam_id":76561199084936632,"connected_time":160000000000,"state":"active","ping":55}]},{"server_id":141,"name":"Uncletopia | Sydney | 1 | All Maps","name_short":"syd-1","host":"syd-1.au.uncletopia.com","port":27015,"enabled":true,"region":"au","cc":"au","latitude":-33.865143,"longitude":151.2099,"reserved":0,"last_update":"0001-01-01T00:00:00Z","name_a2s":"Uncletopia | Sydney | 1 | All Maps","protocol":17,"map":"koth_lakeside_final","folder":"tf","game":"Team Fortress","app_id":440,"player_count":0,"max_players":24,"Bots":0,"server_type":"Dedicated","server_os":"Linux","password":true,"vac":true,"version":"7961495","steam_id":85568392924470001,"keywords":["cp","nocrits","nodmgspread","uncletopia"],"game_id":440,"stv_port":27016,"stv_name":"Uncletopia | Sydney | 1 | All Maps | STV","players":null},{"server_id":123,"name":"Uncletopia | Sydney | 2 | All Maps","name_short":"syd-2","host":"syd-1.au.uncletopia.com","port":27025,"enabled":true,"region":"au","cc":"au","latitude":-33.865143,"longitude":151.2099,"reserved":0,"last_update":"0001-01-01T00:00:00Z","name_a2s":"Uncletopia | Sydney | 2 | All Maps","protocol":17,"map":"pl_pier","folder":"tf","game":"Team Fortress","app_id":440,"player_count":0,"max_players":24,"Bots":0,"server_type":"Dedicated","server_os":"Linux","password":true,"vac":true,"version":"7961495","steam_id":85568392924470002,"keywords":["nocrits","nodmgspread","payload","uncletopia"],"game_id":440,"stv_port":27026,"stv_name":"Uncletopia | Sydney | 2 | All Maps | STV","players":null},{"server_id":395,"name":"Uncletopia | Sydney | 3 | All Maps","name_short":"syd-3","host":"syd-1.au.uncletopia.com","port":27035,"enabled":true,"region":"au","cc":"au","latitude":-33.865143,"longitude":151.2099,"reserved":0,"last_update":"0001-01-01T00:00:00Z","name_a2s":"Uncletopia | Sydney | 3 | All Maps","protocol":17,"map":"pl_frontier_final","folder":"tf","game":"Team Fortress","app_id":440,"player_count":0,"max_players":24,"Bots":0,"server_type":"Dedicated","server_os":"Linux","password":true,"vac":true,"version":"7961495","steam_id":85568392925194467,"keywords":["nocrits","nodmgspread","payload","uncletopia"],"game_id":440,"stv_port":27036,"stv_name":"Uncletopia | Sydney | 3 | All Maps | STV","players":null},{"server_id":396,"name":"Uncletopia | Sydney | 4 | All Maps","name_short":"syd-4","host":"syd-1.au.uncletopia.com","port":27045,"enabled":true,"region":"au","cc":"au","latitude":-33.865143,"longitude":151.2099,"reserved":0,"last_update":"0001-01-01T00:00:00Z","name_a2s":"Uncletopia | Sydney | 4 | All Maps","protocol":17,"map":"koth_cascade","folder":"tf","game":"Team Fortress","app_id":440,"player_count":2,"max_players":24,"Bots":0,"server_type":"Dedicated","server_os":"Linux","password":true,"vac":true,"version":"7961495","steam_id":85568392925397958,"keywords":["cp","nocrits","nodmgspread","uncletopia"],"game_id":440,"stv_port":27046,"stv_name":"Uncletopia | Sydney | 4 | All Maps | STV","players":[{"user_id":15,"name":"pavel_mkd","steam_id":76561199088118112,"connected_time":326000000000,"state":"active","ping":313},{"user_id":16,"name":"kenzoualexander8","steam_id":76561199501785433,"connected_time":285000000000,"state":"active","ping":282}]},{"server_id":58,"name":"Uncletopia | Sydney | 5 | Stopwatch","name_short":"syd-5","host":"syd-1.au.uncletopia.com","port":27055,"enabled":true,"region":"au","cc":"au","latitude":-33.865143,"longitude":151.2099,"reserved":0,"last_update":"0001-01-01T00:00:00Z","name_a2s":"Uncletopia | Sydney | 5 | Stopwatch","protocol":17,"map":"workshop/cp_reckoner_rc6.ugc674719999","folder":"tf","game":"Team Fortress","app_id":440,"player_count":0,"max_players":24,"Bots":0,"server_type":"Dedicated","server_os":"Linux","password":true,"vac":true,"version":"7961495","steam_id":85568392925397959,"keywords":["cp","nocrits","nodmgspread","uncletopia"],"game_id":440,"stv_port":27056,"stv_name":"Uncletopia | Sydney | 5 | Stopwatch | STV","players":null},{"server_id":59,"name":"Uncletopia | Sydney | 6 | Community","name_short":"syd-6","host":"syd-1.au.uncletopia.com","port":27065,"enabled":true,"region":"au","cc":"au","latitude":-33.865143,"longitude":151.2099,"reserved":0,"last_update":"0001-01-01T00:00:00Z","name_a2s":"Uncletopia | Sydney | 6 | Community","protocol":17,"map":"workshop/pl_shoreleave_rc2.ugc1238849347","folder":"tf","game":"Team Fortress","app_id":440,"player_count":0,"max_players":24,"Bots":0,"server_type":"Dedicated","server_os":"Linux","password":true,"vac":true,"version":"7961495","steam_id":85568392925397960,"keywords":["nocrits","nodmgspread","payload","uncletopia"],"game_id":440,"stv_port":27066,"stv_name":"Uncletopia | Sydney | 6 | Community | STV","players":null},{"server_id":49,"name":"Uncletopia | Warsaw | 1 | One Thousand Uncles","name_short":"waw-1","host":"waw-1.pl.uncletopia.com","port":27015,"enabled":true,"region":"eu","cc":"pl","latitude":52.2297,"longitude":21.017532,"reserved":0,"last_update":"0001-01-01T00:00:00Z","name_a2s":"Uncletopia | Warsaw | 1 | One Thousand Uncles","protocol":17,"map":"cp_dustbowl","folder":"tf","game":"Team Fortress","app_id":440,"player_count":31,"max_players":32,"Bots":16,"server_type":"Dedicated","server_os":"Linux","password":true,"vac":true,"version":"7961495","steam_id":85568392925397850,"keywords":["alltalk","bots","cp","danepve","increased_maxplayers","norespawntime","uncletopia"],"game_id":440,"stv_port":0,"stv_name":"","players":[{"user_id":404,"name":"MrHenry","steam_id":76561199249662743,"connected_time":1241000000000,"state":"active","ping":156},{"user_id":412,"name":"HappyToJa","steam_id":76561199034811011,"connected_time":543000000000,"state":"active","ping":39},{"user_id":397,"name":"korvo","steam_id":76561198443297889,"connected_time":2157000000000,"state":"active","ping":89},{"user_id":401,"name":"‚ú™‚ú™Maryky‚ú™‚ú™","steam_id":76561198184672426,"connected_time":1557000000000,"state":"active","ping":60},{"user_id":377,"name":"IAmANoob21371","steam_id":76561199237128026,"connected_time":4468000000000,"state":"active","ping":33},{"user_id":388,"name":"Mr.J","steam_id":76561199127439080,"connected_time":3200000000000,"state":"active","ping":85},{"user_id":419,"name":"lazas","steam_id":76561198843841251,"connected_time":46000000000,"state":"active","ping":66},{"user_id":376,"name":"IHateRandomCrits","steam_id":76561199081550701,"connected_time":4605000000000,"state":"active","ping":90},{"user_id":407,"name":"Patyczak112","steam_id":76561199207268429,"connected_time":928000000000,"state":"active","ping":68},{"user_id":408,"name":"CHEK","steam_id":76561199474613865,"connected_time":921000000000,"state":"active","ping":46},{"user_id":380,"name":"Norn30","steam_id":76561198136196465,"connected_time":4126000000000,"state":"active","ping":36},{"user_id":410,"name":"Kotlet schabowy","steam_id":76561198048983509,"connected_time":841000000000,"state":"active","ping":44},{"user_id":394,"name":"Uranus","steam_id":76561198183998715,"connected_time":2816000000000,"state":"active","ping":139},{"user_id":416,"name":"Fen1x","steam_id":76561199207037918,"connected_time":231000000000,"state":"active","ping":88},{"user_id":417,"name":"semio","steam_id":76561198980603240,"connected_time":226000000000,"state":"active","ping":104}]},{"server_id":50,"name":"Uncletopia | Warsaw | 2 | One Thousand Uncles","name_short":"waw-2","host":"waw-1.pl.uncletopia.com","port":27025,"enabled":true,"region":"eu","cc":"pl","latitude":52.2297,"longitude":21.017532,"reserved":0,"last_update":"0001-01-01T00:00:00Z","name_a2s":"Uncletopia | Warsaw | 2 | One Thousand Uncles","protocol":17,"map":"cp_egypt_final","folder":"tf","game":"Team Fortress","app_id":440,"player_count":0,"max_players":32,"Bots":0,"server_type":"Dedicated","server_os":"Linux","password":true,"vac":true,"version":"7961495","steam_id":85568392925397851,"keywords":["alltalk","cp","danepve","increased_maxplayers","norespawntime","uncletopia"],"game_id":440,"stv_port":0,"stv_name":"","players":null},{"server_id":51,"name":"Uncletopia | Warsaw | 3 | All Maps","name_short":"waw-3","host":"waw-1.pl.uncletopia.com","port":27035,"enabled":true,"region":"eu","cc":"pl","latitude":52.2297,"longitude":21.017532,"reserved":0,"last_update":"0001-01-01T00:00:00Z","name_a2s":"Uncletopia | Warsaw | 3 | All Maps","protocol":17,"map":"koth_viaduct","folder":"tf","game":"Team Fortress","app_id":440,"player_count":0,"max_players":24,"Bots":0,"server_type":"Dedicated","server_os":"Linux","password":true,"vac":true,"version":"7961495","steam_id":85568392925397852,"keywords":["cp","nocrits","nodmgspread","uncletopia"],"game_id":440,"stv_port":27036,"stv_name":"Uncletopia | Warsaw | 3 | All Maps | STV","players":null},{"server_id":52,"name":"Uncletopia | Warsaw | 4 | All Maps","name_short":"waw-4","host":"waw-1.pl.uncletopia.com","port":27045,"enabled":true,"region":"eu","cc":"pl","latitude":52.2297,"longitude":21.017532,"reserved":0,"last_update":"0001-01-01T00:00:00Z","name_a2s":"Uncletopia | Warsaw | 4 | All Maps","protocol":17,"map":"cp_altitude","folder":"tf","game":"Team Fortress","app_id":440,"player_count":0,"max_players":24,"Bots":0,"server_type":"Dedicated","server_os":"Linux","password":true,"vac":true,"version":"7961495","steam_id":85568392925397853,"keywords":["cp","nocrits","nodmgspread","uncletopia"],"game_id":440,"stv_port":27046,"stv_name":"Uncletopia | Warsaw | 4 | All Maps | STV","players":null},{"server_id":53,"name":"Uncletopia | Warsaw | 5 | Stopwatch","name_short":"waw-5","host":"waw-1.pl.uncletopia.com","port":27055,"enabled":true,"region":"eu","cc":"pl","latitude":52.2297,"longitude":21.017532,"reserved":0,"last_update":"0001-01-01T00:00:00Z","name_a2s":"Uncletopia | Warsaw | 5 | Stopwatch","protocol":17,"map":"workshop/pl_vigil_rc10.ugc1266210012","folder":"tf","game":"Team Fortress","app_id":440,"player_count":0,"max_players":24,"Bots":0,"server_type":"Dedicated","server_os":"Linux","password":true,"vac":true,"version":"7961495","steam_id":85568392925397854,"keywords":["nocrits","nodmgspread","payload","uncletopia"],"game_id":440,"stv_port":27056,"stv_name":"Uncletopia | Warsaw | 5 | Stopwatch | STV","players":null},{"server_id":54,"name":"Uncletopia | Warsaw | 6 | Community","name_short":"waw-6","host":"waw-1.pl.uncletopia.com","port":27065,"enabled":true,"region":"eu","cc":"pl","latitude":52.2297,"longitude":21.017532,"reserved":0,"last_update":"0001-01-01T00:00:00Z","name_a2s":"Uncletopia | Warsaw | 6 | Community","protocol":17,"map":"workshop/cp_fulgur_rc2a.ugc2068252300","folder":"tf","game":"Team Fortress","app_id":440,"player_count":0,"max_players":24,"Bots":0,"server_type":"Dedicated","server_os":"Linux","password":true,"vac":true,"version":"7961495","steam_id":85568392925397856,"keywords":["cp","nocrits","nodmgspread","uncletopia"],"game_id":440,"stv_port":27066,"stv_name":"Uncletopia | Warsaw | 6 | Community | STV","players":null}]}