{"status":true,"message":"","result":[{"server_id":9,"name":"Uncletopia | Atlanta | 1 | All Maps","name_short":"atl-1","host":"atl-1.us.uncletopia.com","port":27015,"enabled":true,"region":"us-east","cc":"us","latitude":33.753746,"longitude":-84.38633,"reserved":0,"last_update":"0001-01-01T00:00:00Z","name_a2s":"Uncletopia | Atlanta | 1 | All Maps","protocol":17,"map":"koth_viaduct","folder":"tf","game":"Team Fortress","app_id":440,"player_count":0,"max_players":24,"Bots":0,"server_type":"Dedicated","server_os":"Linux","password":true,"vac":true,"version":"7961495","steam_id":85568392924469982,"keywords":["cp","nocrits","nodmgspread","uncletopia"],"game_id":440,"stv_port":27016,"stv_name":"Uncletopia | Atlanta | 1 | All Maps | STV","players":null},{"server_id":104,"name":"Uncletopia | Atlanta | 2 | All Maps","name_short":"atl-2","host":"atl-1.us.uncletopia.com","port":27025,"enabled":true,"region":"us-east","cc":"us","latitude":33.753746,"longitude":-84.38633,"reserved":0,"last_update":"0001-01-01T00:00:00Z","name_a2s":"Uncletopia | Atlanta | 2 | All Maps","protocol":17,"map":"pl_pier","folder":"tf","game":"Team Fortress","app_id":440,"player_count":0,"max_players":24,"Bots":0,"server_type":"Dedicated","server_os":"Linux","password":true,"vac":true,"version":"7961495","steam_id":85568392924469983,"keywords":["nocrits","nodmgspread","payload","uncletopia"],"game_id":440,"stv_port":27026,"stv_name":"Uncletopia | Atlanta | 2 | All Maps | STV","players":null},{"server_id":400,"name":"Uncletopia | Atlanta | 3 | All Maps","name_short":"atl-3","host":"atl-1.us.uncletopia.com","port":27035,"enabled":true,"region":"us-east","cc":"us","latitude":33.753746,"longitude":-84.38633,"reserved":0,"last_update":"0001-01-01T00:00:00Z","name_a2s":"Uncletopia | Atlanta | 3 | All Maps","protocol":17,"map":"koth_lakeside_final","folder":"tf","game":"Team Fortress","app_id":440,"player_count":0,"max_players":24,"Bots":0,"server_type":"Dedicated","server_os":"Linux","password":true,"vac":true,"version":"7961495","steam_id":85568392924515187,"keywords":["cp","nocrits","nodmgspread","uncletopia"],"game_id":440,"stv_port":27036,"stv_name":"Uncletopia | Atlanta | 3 | All Maps | STV","players":null},{"server_id":401,"name":"Uncletopia | Atlanta | 4 | Community","name_short":"atl-4","host":"atl-1.us.uncletopia.com","port":27045,"enabled":true,"region":"us-east","cc":"us","latitude":33.753746,"longitude":-84.38633,"reserved":0,"last_update":"0001-01-01T00:00:00Z","name_a2s":"Uncletopia | Atlanta | 4 | Community","protocol":17,"map":"cp_dustbowl","folder":"tf","game":"Team Fortress","app_id":440,"player_count":0,"max_players":24,"Bots":0,"server_type":"Dedicated","server_os":"Linux","password":true,"vac":true,"version":"7961495","steam_id":85568392924515188,"keywords":["cp","nocrits","nodmgspread","uncletopia"],"game_id":440,"stv_port":27046,"stv_name":"Uncletopia | Atlanta | 4 | Community | STV","players":null},{"server_id":2,"name":"Uncletopia | Chicago | 1 | All Maps","name_short":"chi-1","host":"chi-1.us.uncletopia.com","port":27015,"enabled":true,"region":"us-central","cc":"us","latitude":41.881832,"longitude":-87.62318,"reserved":0,"last_update":"0001-01-01T00:00:00Z","name_a2s":"Uncletopia | Chicago | 1 | All Maps","protocol":17,"map":"pl_enclosure_final","folder":"tf","game":"Team Fortress","app_id":440,"player_count":24,"max_players":24,"Bots":0,"server_type":"Dedicated","server_os":"Linux","password":true,"vac":true,"version":"7961495","steam_id":85568392924469984,"keywords":["nocrits","nodmgspread","payload","uncletopia"],"game_id":440,"stv_port":27016,"stv_name":"Uncletopia | Chicago | 1 | All Maps | STV","players":[{"user_id":396,"name":"IZISOO","steam_id":76561198970380577,"connected_time":2047000000000,"state":"active","ping":64},{"user_id":356,"name":"candle randel","steam_id":76561198081545613,"connected_time":6031000000000,"state":"active","ping":52},{"user_id":403,"name":"BradB","steam_id":76561199163905036,"connected_time":867000000000,"state":"active","ping":93},{"user_id":407,"name":"clue","steam_id":76561198299379768,"connected_time":162000000000,"state":"active","ping":96},{"user_id":391,"name":"God","steam_id":76561198131089513,"connected_time":2487000000000,"state":"active","ping":45},{"user_id":340,"name":"Do it to em¬≤","steam_id":76561197993975210,"connected_time":6760000000000,"state":"active","ping":71},{"user_id":402,"name":"xyt0nix","steam_id":76561199437938235,"connected_time":969000000000,"state":"active","ping":52},{"user_id":380,"name":"meat","steam_id":76561198209153291,"connected_time":4171000000000,"state":"active","ping":90},{"user_id":354,"name":"Rachi","steam_id":76561198083826053,"connected_time":6183000000000,"state":"active","ping":59},{"user_id":377,"name":"Whyamidoingthisaaaa","steam_id":76561199168837342,"connected_time":4421000000000,"state":"active","ping":75},{"user_id":383,"name":"Bryguy","steam_id":76561198092096120,"connected_time":3702000000000,"state":"active","ping":41},{"user_id":392,"name":"NukaTheRabbit {Fur}","steam_id":76561198058692928,"connected_time":2471000000000,"state":"active","ping":54},{"user_id":342,"name":"*TyTerminator","steam_id":76561198056450091,"connected_time":6756000000000,"state":"active","ping":70},{"user_id":315,"name":"alN","steam_id":76561198329171346,"connected_time":9679000000000,"state":"active","ping":45},{"user_id":386,"name":"Whatsapp Spy","steam_id":76561198085410969,"connected_time":3451000000000,"state":"active","ping":51},{"user_id":371,"name":"Dundramino","steam_id":76561198196976154,"connected_time":5078000000000,"state":"active","ping":66},{"user_id":405,"name":"JamJohn","steam_id":76561198812294103,"connected_time":663000000000,"state":"active","ping":59},{"user_id":387,"name":"Jo","steam_id":76561198060447015,"connected_time":3185000000000,"state":"active","ping":77},{"user_id":362,"name":"RadioactiveRoyce","steam_id":76561198300806123,"connected_time":5454000000000,"state":"active","ping":113},{"user_id":399,"name":"Grenade_Addict","steam_id":76561199212037850,"connected_time":1613000000000,"state":"active","ping":89},{"user_id":406,"name":"super-oofio64","steam_id":76561198954052123,"connected_time":660000000000,"state":"active","ping":115},{"user_id":381,"name":"Transgender Spider Priestess","steam_id":76561198111286397,"connected_time":3907000000000,"state":"active","ping":111},{"user_id":389,"name":"Captain S. Forrest","steam_id":76561198062463029,"connected_time":2907000000000,"state":"active","ping":74}]},{"server_id":106,"name":"Uncletopia | Chicago | 2 | All Maps","name_short":"chi-2","host":"chi-1.us.uncletopia.com","port":27025,"enabled":true,"region":"us-central","cc":"us","latitude":41.881832,"longitude":-87.62318,"reserved":0,"last_update":"0001-01-01T00:00:00Z","name_a2s":"Uncletopia | Chicago | 2 | All Maps","protocol":17,"map":"cp_dustbowl","folder":"tf","game":"Team Fortress","app_id":440,"player_count":0,"max_players":24,"Bots":0,"server_type":"Dedicated","server_os":"Linux","password":true,"vac":true,"version":"7961495","steam_id":85568392924469985,"keywords":["cp","nocrits","nodmgspread","uncletopia"],"game_id":440,"stv_port":27026,"stv_name":"Uncletopia | Chicago | 2 | All Maps | STV","players":null},{"server_id":402,"name":"Uncletopia | Chicago | 3 | All Maps","name_short":"chi-3","host":"chi-1.us.uncletopia.com","port":27035,"enabled":true,"region":"us-central","cc":"us","latitude":41.881832,"longitude":-87.62318,"reserved":0,"last_update":"0001-01-01T00:00:00Z","name_a2s":"Uncletopia | Chicago | 3 | All Maps","protocol":17,"map":"koth_lakeside_final","folder":"tf","game":"Team Fortress","app_id":440,"player_count":0,"max_players":24,"Bots":0,"server_type":"Dedicated","server_os":"Linux","password":true,"vac":true,"version":"7961495","steam_id":85568392924515191,"keywords":["cp","nocrits","nodmgspread","uncletopia"],"game_id":440,"stv_port":27036,"stv_name":"Uncletopia | Chicago | 3 | All Maps | STV","players":null},{"server_id":403,"name":"Uncletopia | Chicago | 4 | All Maps","name_short":"chi-4","host":"chi-1.us.uncletopia.com","port":27045,"enabled":true,"region":"us-central","cc":"us","latitude":41.881832,"longitude":-87.62318,"reserved":0,"last_update":"0001-01-01T00:00:00Z","name_a2s":"Uncletopia | Chicago | 4 | All Maps","protocol":17,"map":"pl_snowycoast","folder":"tf","game":"Team Fortress","app_id":440,"player_count":3,"max_players":24,"Bots":0,"server_type":"Dedicated","server_os":"Linux","password":true,"vac":true,"version":"7961495","steam_id":85568392924515193,"keywords":["nocrits","nodmgspread","payload","uncletopia"],"game_id":440,"stv_port":27046,"stv_name":"Uncletopia | Chicago | 4 | All Maps | STV","players":[{"user_id":423,"name":"Shopkeeper","steam_id":76561198105888756,"connected_time":6176000000000,"state":"active","ping":96},{"user_id":460,"name":"carsonarson2","steam_id":76561199249416248,"connected_time":2737000000000,"state":"active","ping":156},{"user_id":419,"name":"Vimchi","steam_id":76561198151927029,"connected_time":6354000000000,"state":"active","ping":86}]},{"server_id":36,"name":"Uncletopia | Chicago | 5 | All Maps","name_short":"chi-5","host":"chi-2.us.uncletopia.com","port":27015,"enabled":true,"region":"us-central","cc":"us","latitude":41.881832,"longitude":-87.62318,"reserved":0,"last_update":"0001-01-01T00:00:00Z","name_a2s":"Uncletopia | Chicago | 5 | All Maps","protocol":17,"map":"pl_pier","folder":"tf","game":"Team Fortress","app_id":440,"player_count":0,"max_players":24,"Bots":0,"server_type":"Dedicated","server_os":"Linux","password":true,"vac":true,"version":"7961495","steam_id":85568392924866362,"keywords":["nocrits","nodmgspread","payload","uncletopia"],"game_id":440,"stv_port":27016,"stv_name":"Uncletopia | Chicago | 5 | All Maps | STV","players":null},{"server_id":37,"name":"Uncletopia | Chicago | 6 | All Maps","name_short":"chi-6","host":"chi-2.us.uncletopia.com","port":27025,"enabled":true,"region":"us-central","cc":"us","latitude":41.881832,"longitude":-87.62318,"reserved":0,"last_update":"0001-01-01T00:00:00Z","name_a2s":"Uncletopia | Chicago | 6 | All Maps","protocol":17,"map":"pl_upward","folder":"tf","game":"Team Fortress","app_id":440,"player_count":24,"max_players":24,"Bots":0,"server_type":"Dedicated","server_os":"Linux","password":true,"vac":true,"version":"7961495","steam_id":85568392924866363,"keywords":["nocrits","nodmgspread","payload","uncletopia"],"game_id":440,"stv_port":27026,"stv_name":"Uncletopia | Chicago | 6 | All Maps | STV","players":[{"user_id":453,"name":"BurritoCat","steam_id":76561198059822805,"connected_time":723000000000,"state":"active","ping":100},{"user_id":380,"name":"Matisguy","steam_id":76561199020903681,"connected_time":5289000000000,"state":"active","ping":84},{"user_id":412,"name":"Crunchy","steam_id":76561198240523882,"connected_time":3038000000000,"state":"active","ping":101},{"user_id":455,"name":"remanedur","steam_id":76561198059459507,"connected_time":579000000000,"state":"active","ping":86},{"user_id":435,"name":"eco","steam_id":76561198149608360,"connected_time":1146000000000,"state":"active","ping":101},{"user_id":459,"name":"sam urai","steam_id":76561198127621267,"connected_time":125000000000,"state":"active","ping":57},{"user_id":440,"name":"Periergos","steam_id":76561198062030412,"connected_time":1100000000000,"state":"active","ping":89},{"user_id":456,"name":"cheetaz","steam_id":76561198224614084,"connected_time":488000000000,"state":"active","ping":72},{"user_id":437,"name":"Matagatsu","steam_id":76561198281948574,"connected_time":1131000000000,"state":"active","ping":52},{"user_id":438,"name":"Arab","steam_id":76561198284164847,"connected_time":1127000000000,"state":"active","ping":72},{"user_id":429,"name":"Trumpetspyman59","steam_id":76561198048989561,"connected_time":1411000000000,"state":"active","ping":72},{"user_id":430,"name":"ecto cooler","steam_id":76561198068409067,"connected_time":1407000000000,"state":"active","ping":80},{"user_id":458,"name":"kalsamir","steam_id":76561198120634061,"connected_time":359000000000,"state":"active","ping":60},{"user_id":443,"name":"ratadjacent","steam_id":76561198074911595,"connected_time":1031000000000,"state":"active","ping":105},{"user_id":444,"name":"‚ô• Diorti ‚ô•","steam_id":76561198109576210,"connected_time":995000000000,"state":"active","ping":189},{"user_id":445,"name":"Driskulls","steam_id":76561198055213549,"connected_time":939000000000,"state":"active","ping":60},{"user_id":446,"name":"Artic_Ryuu","steam_id":76561198182194918,"connected_time":879000000000,"state":"active","ping":100},{"user_id":447,"name":"QuakAtack","steam_id":76561198870770157,"connected_time":857000000000,"state":"active","ping":75},{"user_id":448,"name":"Aitkrapoo #BUFFTHESTEAK","steam_id":76561198201875359,"connected_time":849000000000,"state":"active","ping":146},{"user_id":411,"name":"Aegis","steam_id":76561198272052750,"connected_time":3070000000000,"state":"active","ping":88},{"user_id":457,"name":"Teriyaki Dick","steam_id":76561198067917216,"connected_time":472000000000,"state":"active","ping":85},{"user_id":451,"name":"Digresser","steam_id":76561198016426367,"connected_time":748000000000,"state":"active","ping":62},{"user_id":452,"name":"K3ny","steam_id":76561198007754923,"connected_time":747000000000,"state":"active","ping":98},{"user_id":454,"name":"Frost Paraselene","steam_id":76561198007332517,"connected_time":653000000000,"state":"active","ping":94}]},{"server_id":38,"name":"Uncletopia | Chicago | 7 | Stopwatch Beta","name_short":"chi-7","host":"chi-2.us.uncletopia.com","port":27035,"enabled":true,"region":"us-central","cc":"us","latitude":41.881832,"longitude":-87.62318,"reserved":0,"last_update":"0001-01-01T00:00:00Z","name_a2s":"Uncletopia | Chicago | 7 | Stopwatch Beta","protocol":17,"map":"cp_process_final","folder":"tf","game":"Team Fortress","app_id":440,"player_count":0,"max_players":24,"Bots":0,"server_type":"Dedicated","server_os":"Linux","password":true,"vac":true,"version":"7961495","steam_id":85568392924866364,"keywords":["cp","nocrits","nodmgspread","uncletopia"],"game_id":440,"stv_port":27036,"stv_name":"Uncletopia | Chicago | 7 | Stopwatch Beta | STV","players":null},{"server_id":39,"name":"Uncletopia | Chicago | 8 | Community","name_short":"chi-8","host":"chi-2.us.uncletopia.com","port":27045,"enabled":true,"region":"us-central","cc":"us","latitude":41.881832,"longitude":-87.62318,"reserved":0,"last_update":"0001-01-01T00:00:00Z","name_a2s":"Uncletopia | Chicago | 8 | Community","protocol":17,"map":"workshop/koth_bagel_rc6.ugc2514036946","folder":"tf","game":"Team Fortress","app_id":440,"player_count":24,"max_players":24,"Bots":0,"server_type":"Dedicated","server_os":"Linux","password":true,"vac":true,"version":"7961495","steam_id":85568392924866365,"keywords":["cp","nocrits","nodmgspread","uncletopia"],"game_id":440,"stv_port":27046,"stv_name":"Uncletopia | Chicago | 8 | Community | STV","players":[{"user_id":413,"name":"Acheo","steam_id":76561198068228498,"connected_time":853000000000,"state":"active","ping":66},{"user_id":412,"name":"RIP Meatballs","steam_id":76561198014323473,"connected_time":947000000000,"state":"active","ping":87},{"user_id":417,"name":"HenryFromSkalitz!","steam_id":76561198062139190,"connected_time":731000000000,"state":"active","ping":70},{"user_id":383,"name":"realhedgehog2082","steam_id":76561198168931330,"connected_time":3495000000000,"state":"active","ping":69},{"user_id":403,"name":"gerg","steam_id":76561197997127387,"connected_time":1656000000000,"state":"active","ping":97},{"user_id":362,"name":"frank","steam_id":76561198137777483,"connected_time":4853000000000,"state":"active","ping":72},{"user_id":387,"name":"carl","steam_id":76561198055827003,"connected_time":3225000000000,"state":"active","ping":162},{"user_id":388,"name":"MR. BEEEEEEEEEEEEEAAAAAAAAAAST","steam_id":76561198205346760,"connected_time":3116000000000,"state":"active","ping":45},{"user_id":404,"name":"social distance warrior","steam_id":76561198128992994,"connected_time":1653000000000,"state":"active","ping":91},{"user_id":389,"name":"Purchase","steam_id":76561198821991700,"connected_time":3061000000000,"state":"active","ping":66},{"user_id":408,"name":"B R O W N","steam_id":76561198047340813,"connected_time":1477000000000,"state":"active","ping":51},{"user_id":390,"name":"mollusk_obliteration","steam_id":76561198085388962,"connected_time":3059000000000,"state":"active","ping":57},{"user_id":419,"name":"badasscoolboy57","steam_id":76561198795412055,"connected_time":464000000000,"state":"active","ping":82},{"user_id":423,"name":"Zymiren","steam_id":76561198054985471,"connected_time":383000000000,"state":"active","ping":102},{"user_id":394,"name":"Goog","steam_id":76561198160550637,"connected_time":2966000000000,"state":"active","ping":46},{"user_id":305,"name":"Danmar33","steam_id":76561198056453091,"connected_time":9054000000000,"state":"active","ping":90},{"user_id":372,"name":"dopadream","steam_id":76561198068383694,"connected_time":4099000000000,"state":"active","ping":79},{"user_id":422,"name":"JustaDude013","steam_id":76561199151914748,"connected_time":429000000000,"state":"active","ping":98},{"user_id":424,"name":"Zyjem","steam_id":76561198071588380,"connected_time":320000000000,"state":"active","ping":85},{"user_id":406,"name":"Lotusberry","steam_id":76561198058506867,"connected_time":1623000000000,"state":"active","ping":99},{"user_id":410,"name":"Spike Berd","steam_id":76561198004199556,"connected_time":1089000000000,"state":"active","ping":89},{"user_id":426,"name":"scrich scrich","steam_id":76561198123287268,"connected_time":285000000000,"state":"active","ping":52},{"user_id":399,"name":"ANGL00S","steam_id":76561198962050183,"connected_time":2756000000000,"state":"active","ping":77},{"user_id":400,"name":"Lil Muffin-kun","steam_id":76561199229047019,"connected_time":2751000000000,"state":"active","ping":92}]},{"server_id":8,"name":"Uncletopia | Dallas | 1 | All Maps","name_short":"dal-1","host":"dal-1.us.uncletopia.com","port":27015,"enabled":true,"region":"us-central","cc":"us","latitude":32.779167,"longitude":-96.80889,"reserved":0,"last_update":"0001-01-01T00:00:00Z","name_a2s":"Uncletopia | Dallas | 1 | All Maps","protocol":17,"map":"pl_snowycoast","folder":"tf","game":"Team Fortress","app_id":440,"player_count":23,"max_players":24,"Bots":0,"server_type":"Dedicated","server_os":"Linux","password":true,"vac":true,"version":"7961495","steam_id":85568392924469986,"keywords":["nocrits","nodmgspread","payload","uncletopia"],"game_id":440,"stv_port":27016,"stv_name":"Uncletopia | Dallas | 1 | All Maps | STV","players":[{"user_id":389,"name":"Knavish","steam_id":76561198073434372,"connected_time":4615000000000,"state":"active","ping":88},{"user_id":432,"name":"fitotutus","steam_id":76561197974993253,"connected_time":159000000000,"state":"active","ping":129},{"user_id":402,"name":"Matches_","steam_id":76561198048925904,"connected_time":3732000000000,"state":"active","ping":84},{"user_id":407,"name":"Ostriche","steam_id":76561198056293618,"connected_time":3338000000000,"state":"active","ping":94},{"user_id":408,"name":"EpicCoolGuy793","steam_id":76561198145769767,"connected_time":3302000000000,"state":"active","ping":104},{"user_id":328,"name":"merlin","steam_id":76561198334511480,"connected_time":8851000000000,"state":"active","ping":74},{"user_id":430,"name":"toucer","steam_id":76561198986534519,"connected_time":267000000000,"state":"active","ping":90},{"user_id":410,"name":"Koffy","steam_id":76561198184386039,"connected_time":3156000000000,"state":"active","ping":70},{"user_id":429,"name":"Klyskada","steam_id":76561198116915892,"connected_time":300000000000,"state":"active","ping":85},{"user_id":433,"name":"crookedspinalcord","steam_id":76561198833269144,"connected_time":130000000000,"state":"active","ping":87},{"user_id":399,"name":"skullface","steam_id":76561198353704776,"connected_time":3853000000000,"state":"active","ping":43},{"user_id":428,"name":"Pitch is a Stick","steam_id":76561198800287853,"connected_time":308000000000,"state":"active","ping":117},{"user_id":378,"name":"ComradeofSucc","steam_id":76561198076025718,"connected_time":5157000000000,"state":"active","ping":73},{"user_id":417,"name":"Evil little man","steam_id":76561198311053471,"connected_time":2775000000000,"state":"active","ping":50},{"user_id":426,"name":"millerbv14","steam_id":76561198453908595,"connected_time":994000000000,"state":"active","ping":86},{"user_id":381,"name":"the master of cats","steam_id":76561198819255576,"connected_time":4962000000000,"state":"active","ping":81},{"user_id":384,"name":"Literally loot lake from fortni","steam_id":76561198070214668,"connected_time":4826000000000,"state":"active","ping":69},{"user_id":401,"name":"sueZ","steam_id":76561198034642980,"connected_time":3803000000000,"state":"active","ping":62},{"user_id":421,"name":"Zero","steam_id":76561198033384990,"connected_time":1382000000000,"state":"active","ping":75},{"user_id":422,"name":"The Grim Heaper","steam_id":76561197987759101,"connected_time":1369000000000,"state":"active","ping":115},{"user_id":364,"name":"penzfan","steam_id":76561198230422640,"connected_time":6740000000000,"state":"active","ping":74},{"user_id":416,"name":"youhatemedontyou","steam_id":76561198277979851,"connected_time":2933000000000,"state":"active","ping":83},{"user_id":423,"name":"Rowdyshark101","steam_id":76561199019123695,"connected_time":1302000000000,"state":"active","ping":68}]},{"server_id":108,"name":"Uncletopia | Dallas | 2 | All Maps","name_short":"dal-2","host":"dal-1.us.uncletopia.com","port":27025,"enabled":true,"region":"us-central","cc":"us","latitude":32.779167,"longitude":-96.80889,"reserved":0,"last_update":"0001-01-01T00:00:00Z","name_a2s":"Uncletopia | Dallas | 2 | All Maps","protocol":17,"map":"cp_sunshine","folder":"tf","game":"Team Fortress","app_id":440,"player_count":24,"max_players":24,"Bots":0,"server_type":"Dedicated","server_os":"Linux","password":true,"vac":true,"version":"7961495","steam_id":85568392924469988,"keywords":["cp","nocrits","nodmgspread","uncletopia"],"game_id":440,"stv_port":27026,"stv_name":"Uncletopia | Dallas | 2 | All Maps | STV","players":[{"user_id":422,"name":"Duk","steam_id":76561198450692568,"connected_time":1004000000000,"state":"active","ping":81},{"user_id":423,"name":"toxic mental instability","steam_id":76561198161760556,"connected_time":1001000000000,"state":"active","ping":105},{"user_id":432,"name":"Wan Shi Tong","steam_id":76561198076441225,"connected_time":437000000000,"state":"active","ping":81},{"user_id":409,"name":"SilverLife25","steam_id":76561198392015722,"connected_time":1863000000000,"state":"active","ping":58},{"user_id":424,"name":"Ravi","steam_id":76561198219962700,"connected_time":1000000000000,"state":"active","ping":112},{"user_id":315,"name":"Stillkill","steam_id":76561198065069057,"connected_time":9682000000000,"state":"active","ping":34},{"user_id":415,"name":"S4MMY","steam_id":76561197961084910,"connected_time":1289000000000,"state":"active","ping":94},{"user_id":416,"name":"Chester","steam_id":76561198118655457,"connected_time":1270000000000,"state":"active","ping":93},{"user_id":425,"name":"Throughput","steam_id":76561198006257024,"connected_time":998000000000,"state":"active","ping":55},{"user_id":397,"name":"?pengin","steam_id":76561198254236408,"connected_time":3616000000000,"state":"active","ping":96},{"user_id":426,"name":"Scorcho","steam_id":76561198071413833,"connected_time":992000000000,"state":"active","ping":125},{"user_id":417,"name":"[HBM] Prehinto","steam_id":76561198020319096,"connected_time":1208000000000,"state":"active","ping":78},{"user_id":404,"name":"Cereal","steam_id":76561198128418112,"connected_time":2625000000000,"state":"active","ping":87},{"user_id":428,"name":"Renota","steam_id":76561198058224488,"connected_time":970000000000,"state":"active","ping":90},{"user_id":429,"name":"mik","steam_id":76561198268948176,"connected_time":887000000000,"state":"active","ping":97},{"user_id":395,"name":"AzuriousAlex","steam_id":76561198158026405,"connected_time":3851000000000,"state":"active","ping":72},{"user_id":377,"name":"EvilPigglet","steam_id":76561197987243470,"connected_time":5784000000000,"state":"active","ping":75},{"user_id":393,"name":"sora","steam_id":76561198094256973,"connected_time":4027000000000,"state":"active","ping":88},{"user_id":379,"name":"88","steam_id":76561198165212575,"connected_time":5741000000000,"state":"active","ping":81},{"user_id":419,"name":"Kamikazi","steam_id":76561198070240503,"connected_time":1200000000000,"state":"active","ping":84},{"user_id":386,"name":"A Parliament of Owls","steam_id":76561197996200417,"connected_time":4715000000000,"state":"active","ping":85},{"user_id":420,"name":"Maserin","steam_id":76561198115471815,"connected_time":1146000000000,"state":"active","ping":84},{"user_id":431,"name":"Kaiyote","steam_id":76561198153443910,"connected_time":560000000000,"state":"active","ping":96},{"user_id":382,"name":"Burny Sanders","steam_id":76561197961879048,"connected_time":5666000000000,"state":"active","ping":44}]},{"server_id":404,"name":"Uncletopia | Dallas | 3 | All Maps","name_short":"dal-3","host":"dal-1.us.uncletopia.com","port":27035,"enabled":true,"region":"us-central","cc":"us","latitude":32.779167,"longitude":-96.80889,"reserved":0,"last_update":"0001-01-01T00:00:00Z","name_a2s":"Uncletopia | Dallas | 3 | All Maps","protocol":17,"map":"koth_suijin","folder":"tf","game":"Team Fortress","app_id":440,"player_count":17,"max_players":24,"Bots":0,"server_type":"Dedicated","server_os":"Linux","password":true,"vac":true,"version":"7961495","steam_id":85568392924515219,"keywords":["cp","nocrits","nodmgspread","uncletopia"],"game_id":440,"stv_port":27036,"stv_name":"Uncletopia | Dallas | 3 | All Maps | STV","players":[{"user_id":342,"name":"Levi","steam_id":76561198089832776,"connected_time":2456000000000,"state":"active","ping":53},{"user_id":321,"name":"Liebestr√§ume","steam_id":76561198038862034,"connected_time":5177000000000,"state":"active","ping":69},{"user_id":366,"name":"LtK","steam_id":76561197993180943,"connected_time":627000000000,"state":"active","ping":35},{"user_id":340,"name":"BackToSchoolAds","steam_id":76561198870281128,"connected_time":3143000000000,"state":"active","ping":105},{"user_id":367,"name":"De MonkE","steam_id":76561198140626221,"connected_time":562000000000,"state":"active","ping":32},{"user_id":370,"name":"KingSteve42","steam_id":76561198409455888,"connected_time":423000000000,"state":"active","ping":107},{"user_id":372,"name":"Soulsilversx","steam_id":76561198097697926,"connected_time":392000000000,"state":"active","ping":110},{"user_id":336,"name":"‚ô†Silver‚ô†","steam_id":76561198206109224,"connected_time":3716000000000,"state":"active","ping":139},{"user_id":357,"name":"UÃÅntermensch","steam_id":76561198149634242,"connected_time":1562000000000,"state":"active","ping":85},{"user_id":368,"name":"Yustin","steam_id":76561198123246835,"connected_time":558000000000,"state":"active","ping":70},{"user_id":369,"name":"Greasy Whore","steam_id":76561198201199643,"connected_time":536000000000,"state":"active","ping":47},{"user_id":371,"name":"Antonpirulero10","steam_id":76561198253036781,"connected_time":411000000000,"state":"active","ping":102},{"user_id":373,"name":"Brendan_Lalo","steam_id":76561198804979242,"connected_time":369000000000,"state":"active","ping":98},{"user_id":374,"name":"Rob Deerdick","steam_id":76561198138006907,"connected_time":344000000000,"state":"active","ping":86},{"user_id":349,"name":"wcclark","steam_id":76561198001607116,"connected_time":2148000000000,"state":"active","ping":98},{"user_id":331,"name":"Phantom Thief","steam_id":76561198254482947,"connected_time":3843000000000,"state":"active","ping":100},{"user_id":347,"name":"ElectronX","steam_id":76561198116034988,"connected_time":2268000000000,"state":"active","ping":77}]},{"server_id":405,"name":"Uncletopia | Dallas | 4 | Community","name_short":"dal-4","host":"dal-1.us.uncletopia.com","port":27045,"enabled":true,"region":"us-central","cc":"us","latitude":32.779167,"longitude":-96.80889,"reserved":0,"last_update":"0001-01-01T00:00:00Z","name_a2s":"Uncletopia | Dallas | 4 | Community","protocol":17,"map":"workshop/pl_divulgence_b4b.ugc2884808746","folder":"tf","game":"Team Fortress","app_id":440,"player_count":0,"max_players":24,"Bots":0,"server_type":"Dedicated","server_os":"Linux","password":true,"vac":true,"version":"7961495","steam_id":85568392924515220,"keywords":["nocrits","nodmgspread","payload","uncletopia"],"game_id":440,"stv_port":27046,"stv_name":"Uncletopia | Dallas | 4 | Community | STV","players":null},{"server_id":5,"name":"Uncletopia | Frankfurt | 1 | All Maps","name_short":"frk-1","host":"frk-1.de.uncletopia.com","port":27015,"enabled":true,"region":"eu","cc":"de","latitude":50.110924,"longitude":8.682127,"reserved":0,"last_update":"0001-01-01T00:00:00Z","name_a2s":"Uncletopia | Frankfurt | 1 | All Maps","protocol":17,"map":"pl_upward","folder":"tf","game":"Team Fortress","app_id":440,"player_count":0,"max_players":24,"Bots":0,"server_type":"Dedicated","server_os":"Linux","password":true,"vac":true,"version":"7961495","steam_id":85568392924469989,"keywords":["nocrits","nodmgspread","payload","uncletopia"],"game_id":440,"stv_port":27016,"stv_name":"Uncletopia | Frankfurt | 1 | All Maps | STV","players":null},{"server_id":110,"name":"Uncletopia | Frankfurt | 2 | All Maps","name_short":"frk-2","host":"frk-1.de.uncletopia.com","port":27025,"enabled":true,"region":"eu","cc":"de","latitude":50.110924,"longitude":8.682127,"reserved":0,"last_update":"0001-01-01T00:00:00Z","name_a2s":"Uncletopia | Frankfurt | 2 | All Maps","protocol":17,"map":"pl_frontier_final","folder":"tf","game":"Team Fortress","app_id":440,"player_count":0,"max_players":24,"Bots":0,"server_type":"Dedicated","server_os":"Linux","password":true,"vac":true,"version":"7961495","steam_id":85568392924469990,"keywords":["nocrits","nodmgspread","payload","uncletopia"],"game_id":440,"stv_port":27026,"stv_name":"Uncletopia | Frankfurt | 2 | All Maps | STV","players":null},{"server_id":308,"name":"Uncletopia | Frankfurt | 3 | All Maps","name_short":"frk-3","host":"frk-1.de.uncletopia.com","port":27035,"enabled":true,"region":"eu","cc":"de","latitude":50.110924,"longitude":8.682127,"reserved":0,"last_update":"0001-01-01T00:00:00Z","name_a2s":"Uncletopia | Frankfurt | 3 | All Maps","protocol":17,"map":"koth_viaduct","folder":"tf","game":"Team Fortress","app_id":440,"player_count":0,"max_players":24,"Bots":0,"server_type":"Dedicated","server_os":"Linux","password":true,"vac":true,"version":"7961495","steam_id":85568392924504274,"keywords":["cp","nocrits","nodmgspread","uncletopia"],"game_id":440,"stv_port":27036,"stv_name":"Uncletopia | Frankfurt | 3 | All Maps | STV","players":null},{"server_id":309,"name":"Uncletopia | Frankfurt | 4 | All Maps","name_short":"frk-4","host":"frk-1.de.uncletopia.com","port":27045,"enabled":true,"region":"eu","cc":"de","latitude":50.110924,"longitude":8.682127,"reserved":0,"last_update":"0001-01-01T00:00:00Z","name_a2s":"Uncletopia | Frankfurt | 4 | All Maps","protocol":17,"map":"pl_frontier_final","folder":"tf","game":"Team Fortress","app_id":440,"player_count":0,"max_players":24,"Bots":0,"server_type":"Dedicated","server_os":"Linux","password":true,"vac":true,"version":"7961495","steam_id":85568392924504275,"keywords":["nocrits","nodmgspread","payload","uncletopia"],"game_id":440,"stv_port":27046,"stv_name":"Uncletopia | Frankfurt | 4 | All Maps | STV","players":null},{"server_id":310,"name":"Uncletopia | Frankfurt | 5 | All Maps","name_short":"frk-5","host":"frk-1.de.uncletopia.com","port":27055,"enabled":true,"region":"eu","cc":"de","latitude":50.110924,"longitude":8.682127,"reserved":0,"last_update":"0001-01-01T00:00:00Z","name_a2s":"Uncletopia | Frankfurt | 5 | All Maps","protocol":17,"map":"pl_swiftwater_final1","folder":"tf","game":"Team Fortress","app_id":440,"player_count":0,"max_players":24,"Bots":0,"server_type":"Dedicated","server_os":"Linux","password":true,"vac":true,"version":"7961495","steam_id":85568392924504277,"keywords":["nocrits","nodmgspread","payload","uncletopia"],"game_id":440,"stv_port":27056,"stv_name":"Uncletopia | Frankfurt | 5 | All Maps | STV","players":null},{"server_id":311,"name":"Uncletopia | Frankfurt | 6 | All Maps","name_short":"frk-6","host":"frk-1.de.uncletopia.com","port":27065,"enabled":true,"region":"eu","cc":"de","latitude":50.110924,"longitude":8.682127,"reserved":0,"last_update":"0001-01-01T00:00:00Z","name_a2s":"Uncletopia | Frankfurt | 6 | All Maps","protocol":17,"map":"pl_badwater","folder":"tf","game":"Team Fortress","app_id":440,"player_count":0,"max_players":24,"Bots":0,"server_type":"Dedicated","server_os":"Linux","password":true,"vac":true,"version":"7961495","steam_id":85568392924504278,"keywords":["nocrits","nodmgspread","payload","uncletopia"],"game_id":440,"stv_port":27066,"stv_name":"Uncletopia | Frankfurt | 6 | All Maps | STV","players":null},{"server_id":23,"name":"Uncletopia | Frankfurt | 7 | Stopwatch Beta","name_short":"frk-7","host":"frk-1.de.uncletopia.com","port":27075,"enabled":true,"region":"eu","cc":"de","latitude":50.110924,"longitude":8.682127,"reserved":0,"last_update":"0001-01-01T00:00:00Z","name_a2s":"Uncletopia | Frankfurt | 7 | Stopwatch Beta","protocol":17,"map":"pl_frontier_final","folder":"tf","game":"Team Fortress","app_id":440,"player_count":0,"max_players":24,"Bots":0,"server_type":"Dedicated","server_os":"Linux","password":true,"vac":true,"version":"7961495","steam_id":85568392924742827,"keywords":["nocrits","nodmgspread","payload","uncletopia"],"game_id":440,"stv_port":27076,"stv_name":"Uncletopia | Frankfurt | 7 | Stopwatch Beta | STV","players":null},{"server_id":24,"name":"Uncletopia | Frankfurt | 8 | Community","name_short":"frk-8","host":"frk-1.de.uncletopia.com","port":27085,"enabled":true,"region":"eu","cc":"de","latitude":50.110924,"longitude":8.682127,"reserved":0,"last_update":"0001-01-01T00:00:00Z","name_a2s":"Uncletopia | Frankfurt | 8 | Community","protocol":17,"map":"workshop/pl_corrode_rc2.ugc546577989","folder":"tf","game":"Team Fortress","app_id":440,"player_count":0,"max_players":24,"Bots":0,"server_type":"Dedicated","server_os":"Linux","password":true,"vac":true,"version":"7961495","steam_id":85568392924742828,"keywords":["nocrits","nodmgspread","payload","uncletopia"],"game_id":440,"stv_port":27086,"stv_name":"Uncletopia | Frankfurt | 8 | Community | STV","players":null},{"server_id":202,"name":"Uncletopia | Hong Kong | 1 | All Maps","name_short":"hgk-1","host":"hgk-1.hk.uncletopia.com","port":27015,"enabled":true,"region":"asia","cc":"hk","latitude":22.302711,"longitude":114.177216,"reserved":0,"last_update":"0001-01-01T00:00:00Z","name_a2s":"Uncletopia | Hong Kong | 1 | All Maps","protocol":17,"map":"cp_sunshine","folder":"tf","game":"Team Fortress","app_id":440,"player_count":24,"max_players":24,"Bots":0,"server_type":"Dedicated","server_os":"Linux","password":true,"vac":true,"version":"7961495","steam_id":85568392924494504,"keywords":["cp","nocrits","nodmgspread","uncletopia"],"game_id":440,"stv_port":27016,"stv_name":"Uncletopia | Hong Kong | 1 | All Maps | STV","players":[{"user_id":101,"name":"rear left puncture","steam_id":76561198811532659,"connected_time":2793000000000,"state":"active","ping":81},{"user_id":66,"name":"TriKurrDurr","steam_id":76561199211239487,"connected_time":6732000000000,"state":"active","ping":122},{"user_id":139,"name":"nyakky","steam_id":76561198927779787,"connected_time":806000000000,"state":"active","ping":91},{"user_id":146,"name":"CaptainBozo","steam_id":76561199151959977,"connected_time":327000000000,"state":"active","ping":58},{"user_id":123,"name":"ccubes","steam_id":76561198070956426,"connected_time":1900000000000,"state":"active","ping":67},{"user_id":67,"name":"im_0ff","steam_id":76561198339346695,"connected_time":6729000000000,"state":"active","ping":121},{"user_id":142,"name":"Green","steam_id":76561198391718463,"connected_time":548000000000,"state":"active","ping":58},{"user_id":113,"name":"my friend is watching pvz porn","steam_id":76561199146847474,"connected_time":2222000000000,"state":"active","ping":46},{"user_id":131,"name":"trcs","steam_id":76561198125946388,"connected_time":1224000000000,"state":"active","ping":90},{"user_id":94,"name":"Goloath","steam_id":76561198930004978,"connected_time":3044000000000,"state":"active","ping":43},{"user_id":102,"name":"PootMann","steam_id":76561198123376937,"connected_time":2767000000000,"state":"active","ping":85},{"user_id":143,"name":"Ëâæ‰ºØÁâπÁê¥","steam_id":76561198321885643,"connected_time":524000000000,"state":"active","ping":43},{"user_id":132,"name":"blobeye","steam_id":76561198420018387,"connected_time":1221000000000,"state":"active","ping":38},{"user_id":138,"name":"A Gap Hag","steam_id":76561198409766998,"connected_time":862000000000,"state":"active","ping":71},{"user_id":144,"name":"ÁÜ±CocoaÂ•∂","steam_id":76561198972098557,"connected_time":476000000000,"state":"active","ping":53},{"user_id":147,"name":"jole","steam_id":76561198037292232,"connected_time":107000000000,"state":"active","ping":101},{"user_id":125,"name":"Taylor, The Manufacturer","steam_id":76561198074339034,"connected_time":1827000000000,"state":"active","ping":79},{"user_id":130,"name":"Heavy Weapon Guy","steam_id":76561199034546642,"connected_time":1227000000000,"state":"active","ping":102},{"user_id":137,"name":"Act_Popcorn","steam_id":76561198391663438,"connected_time":898000000000,"state":"active","ping":56},{"user_id":116,"name":"549257292","steam_id":76561198349949683,"connected_time":2155000000000,"state":"active","ping":45},{"user_id":126,"name":"üíÄ","steam_id":76561198061628689,"connected_time":1780000000000,"state":"active","ping":58},{"user_id":134,"name":"protons","steam_id":76561198008307645,"connected_time":1212000000000,"state":"active","ping":135},{"user_id":120,"name":"Beef Wellington","steam_id":76561197995635241,"connected_time":2083000000000,"state":"active","ping":123},{"user_id":145,"name":"Massive my Rack, Aching my Back","steam_id":76561199137927625,"connected_time":435000000000,"state":"active","ping":128}]},{"server_id":1,"name":"Uncletopia | Los Angeles | 1 | All Maps","name_short":"lax-1","host":"lax-1.us.uncletopia.com","port":27015,"enabled":true,"region":"us-west","cc":"us","latitude":33.94279,"longitude":-118.41004,"reserved":0,"last_update":"0001-01-01T00:00:00Z","name_a2s":"Uncletopia | Los Angeles | 1 | All Maps","protocol":17,"map":"pl_barnblitz","folder":"tf","game":"Team Fortress","app_id":440,"player_count":23,"max_players":24,"Bots":0,"server_type":"Dedicated","server_os":"Linux","password":true,"vac":true,"version":"7961495","steam_id":85568392924469991,"keywords":["nocrits","nodmgspread","payload","uncletopia"],"game_id":440,"stv_port":27016,"stv_name":"Uncletopia | Los Angeles | 1 | All Maps | STV","players":[{"user_id":395,"name":"nella","steam_id":76561198079349621,"connected_time":1848000000000,"state":"active","ping":49},{"user_id":367,"name":"Meekz","steam_id":76561198012562373,"connected_time":3775000000000,"state":"active","ping":56},{"user_id":387,"name":"kasper","steam_id":76561198263271697,"connected_time":2079000000000,"state":"active","ping":89},{"user_id":377,"name":"hash","steam_id":76561198058516339,"connected_time":2538000000000,"state":"active","ping":51},{"user_id":406,"name":"Fractured_Mango","steam_id":76561199013113268,"connected_time":508000000000,"state":"active","ping":71},{"user_id":371,"name":"VELOURIA","steam_id":76561198116550170,"connected_time":2889000000000,"state":"active","ping":57},{"user_id":385,"name":"moe","steam_id":76561198929586245,"connected_time":2109000000000,"state":"active","ping":43},{"user_id":403,"name":"Seshreb","steam_id":76561198846614634,"connected_time":546000000000,"state":"active","ping":64},{"user_id":407,"name":"zanefoxgames","steam_id":76561198801872568,"connected_time":508000000000,"state":"active","ping":73},{"user_id":399,"name":"Yoyos","steam_id":76561198061035695,"connected_time":1713000000000,"state":"active","ping":45},{"user_id":368,"name":"Medic Mommy","steam_id":76561199487326947,"connected_time":3432000000000,"state":"active","ping":84},{"user_id":359,"name":"Misha","steam_id":76561198045937454,"connected_time":4418000000000,"state":"active","ping":85},{"user_id":405,"name":"BrockSpread","steam_id":76561198145924402,"connected_time":538000000000,"state":"active","ping":100},{"user_id":408,"name":"soup bowl","steam_id":76561198126134338,"connected_time":482000000000,"state":"active","ping":51},{"user_id":333,"name":"shitass (Reaping and Sowing)","steam_id":76561198210572481,"connected_time":5966000000000,"state":"active","ping":44},{"user_id":400,"name":"Benji","steam_id":76561198158187293,"connected_time":1538000000000,"state":"active","ping":178},{"user_id":379,"name":"werolat","steam_id":76561197960544784,"connected_time":2534000000000,"state":"active","ping":39},{"user_id":348,"name":"Whisper!","steam_id":76561198119609795,"connected_time":5350000000000,"state":"active","ping":51},{"user_id":389,"name":"Craftyjumper","steam_id":76561198126421562,"connected_time":2061000000000,"state":"active","ping":109},{"user_id":390,"name":"[√òWQJ√ò]chubacaalatake","steam_id":76561198136201697,"connected_time":2032000000000,"state":"active","ping":95},{"user_id":398,"name":"gugcat","steam_id":76561198129822860,"connected_time":1773000000000,"state":"active","ping":74},{"user_id":381,"name":"xbox record that","steam_id":76561198150117455,"connected_time":2467000000000,"state":"active","ping":59},{"user_id":409,"name":"Infentdegree211","steam_id":76561198385234127,"connected_time":440000000000,"state":"active","ping":55}]},{"server_id":112,"name":"Uncletopia | Los Angeles | 2 | All Maps","name_short":"lax-2","host":"lax-1.us.uncletopia.com","port":27025,"enabled":true,"region":"us-west","cc":"us","latitude":33.94279,"longitude":-118.41004,"reserved":0,"last_update":"0001-01-01T00:00:00Z","name_a2s":"Uncletopia | Los Angeles | 2 | All Maps","protocol":17,"map":"koth_highpass","folder":"tf","game":"Team Fortress","app_id":440,"player_count":0,"max_players":24,"Bots":0,"server_type":"Dedicated","server_os":"Linux","password":true,"vac":true,"version":"7961495","steam_id":85568392924469992,"keywords":["cp","nocrits","nodmgspread","uncletopia"],"game_id":440,"stv_port":27026,"stv_name":"Uncletopia | Los Angeles | 2 | All Maps | STV","players":null},{"server_id":324,"name":"Uncletopia | Los Angeles | 3 | All Maps","name_short":"lax-3","host":"lax-1.us.uncletopia.com","port":27035,"enabled":true,"region":"us-west","cc":"us","latitude":33.94279,"longitude":-118.41004,"reserved":0,"last_update":"0001-01-01T00:00:00Z","name_a2s":"Uncletopia | Los Angeles | 3 | All Maps","protocol":17,"map":"koth_viaduct","folder":"tf","game":"Team Fortress","app_id":440,"player_count":0,"max_players":24,"Bots":0,"server_type":"Dedicated","server_os":"Linux","password":true,"vac":true,"version":"7961495","steam_id":85568392924510198,"keywords":["cp","nocrits","nodmgspread","uncletopia"],"game_id":440,"stv_port":27036,"stv_name":"Uncletopia | Los Angeles | 3 | All Maps | STV","players":null},{"server_id":25,"name":"Uncletopia | Los Angeles | 4 | Stopwatch","name_short":"lax-4","host":"lax-1.us.uncletopia.com","port":27045,"enabled":true,"region":"us-west","cc":"us","latitude":33.94279,"longitude":-118.41004,"reserved":0,"last_update":"0001-01-01T00:00:00Z","name_a2s":"Uncletopia | Los Angeles | 4 | Stopwatch","protocol":17,"map":"workshop/pl_barnblitz_pro7.ugc582280235","folder":"tf","game":"Team Fortress","app_id":440,"player_count":0,"max_players":24,"Bots":0,"server_type":"Dedicated","server_os":"Linux","password":true,"vac":true,"version":"7961495","steam_id":85568392924510199,"keywords":["nocrits","nodmgspread","payload","uncletopia"],"game_id":440,"stv_port":27046,"stv_name":"Uncletopia | Los Angeles | 4 | Stopwatch | STV","players":null},{"server_id":11,"name":"Uncletopia | London | 1 | All Maps","name_short":"lon-1","host":"lon-1.uk.uncletopia.com","port":27015,"enabled":true,"region":"eu","cc":"gb","latitude":51.509865,"longitude":-0.118092,"reserved":0,"last_update":"0001-01-01T00:00:00Z","name_a2s":"Uncletopia | London | 1 | All Maps","protocol":17,"map":"pl_snowycoast","folder":"tf","game":"Team Fortress","app_id":440,"player_count":0,"max_players":24,"Bots":0,"server_type":"Dedicated","server_os":"Linux","password":true,"vac":true,"version":"7961495","steam_id":85568392924367362,"keywords":["nocrits","nodmgspread","payload","uncletopia"],"game_id":440,"stv_port":27016,"stv_name":"Uncletopia | London | 1 | All Maps | STV","players":null},{"server_id":114,"name":"Uncletopia | London | 2 | All Maps","name_short":"lon-2","host":"lon-1.uk.uncletopia.com","port":27025,"enabled":true,"region":"eu","cc":"gb","latitude":51.509865,"longitude":-0.118092,"reserved":0,"last_update":"0001-01-01T00:00:00Z","name_a2s":"Uncletopia | London | 2 | All Maps","protocol":17,"map":"pl_borneo","folder":"tf","game":"Team Fortress","app_id":440,"player_count":0,"max_players":24,"Bots":0,"server_type":"Dedicated","server_os":"Linux","password":true,"vac":true,"version":"7961495","steam_id":85568392924470941,"keywords":["nocrits","nodmgspread","payload","uncletopia"],"game_id":440,"stv_port":27026,"stv_name":"Uncletopia | London | 2 | All Maps | STV","players":null},{"server_id":320,"name":"Uncletopia | London | 3 | All Maps","name_short":"lon-3","host":"lon-1.uk.uncletopia.com","port":27035,"enabled":true,"region":"eu","cc":"gb","latitude":51.509865,"longitude":-0.118092,"reserved":0,"last_update":"0001-01-01T00:00:00Z","name_a2s":"Uncletopia | London | 3 | All Maps","protocol":17,"map":"cp_sunshine","folder":"tf","game":"Team Fortress","app_id":440,"player_count":0,"max_players":24,"Bots":0,"server_type":"Dedicated","server_os":"Linux","password":true,"vac":true,"version":"7961495","steam_id":85568392924510192,"keywords":["cp","nocrits","nodmgspread","uncletopia"],"game_id":440,"stv_port":27036,"stv_name":"Uncletopia | London | 3 | All Maps | STV","players":null},{"server_id":321,"name":"Uncletopia | London | 4 | All Maps","name_short":"lon-4","host":"lon-1.uk.uncletopia.com","port":27045,"enabled":true,"region":"eu","cc":"gb","latitude":51.509865,"longitude":-0.118092,"reserved":0,"last_update":"0001-01-01T00:00:00Z","name_a2s":"Uncletopia | London | 4 | All Maps","protocol":17,"map":"pl_borneo","folder":"tf","game":"Team Fortress","app_id":440,"player_count":24,"max_players":24,"Bots":0,"server_type":"Dedicated","server_os":"Linux","password":true,"vac":true,"version":"7961495","steam_id":85568392924510193,"keywords":["nocrits","nodmgspread","payload","uncletopia"],"game_id":440,"stv_port":27046,"stv_name":"Uncletopia | London | 4 | All Maps | STV","players":[{"user_id":72,"name":"Frog","steam_id":76561199002792714,"connected_time":3385000000000,"state":"active","ping":124},{"user_id":109,"name":"John0309","steam_id":76561198447428162,"connected_time":159000000000,"state":"active","ping":78},{"user_id":100,"name":"Qdarks","steam_id":76561198013391340,"connected_time":859000000000,"state":"active","ping":139},{"user_id":111,"name":"Osmo","steam_id":76561199286764992,"connected_time":85000000000,"state":"active","ping":85},{"user_id":110,"name":"DoomerDodie","steam_id":76561198177853490,"connected_time":103000000000,"state":"active","ping":64},{"user_id":105,"name":"Polyzonial","steam_id":76561198072679667,"connected_time":646000000000,"state":"active","ping":43},{"user_id":51,"name":"Uncle Terry","steam_id":76561198396415736,"connected_time":4646000000000,"state":"active","ping":53},{"user_id":52,"name":"Cosmetic brain","steam_id":76561198055936410,"connected_time":4624000000000,"state":"active","ping":82},{"user_id":58,"name":"how make sniping man kill guy","steam_id":76561198404802175,"connected_time":4067000000000,"state":"active","ping":164},{"user_id":101,"name":"Selmu (She/Her)","steam_id":76561198119496209,"connected_time":854000000000,"state":"active","ping":37},{"user_id":60,"name":"eepy kitty :3","steam_id":76561198106313563,"connected_time":4061000000000,"state":"active","ping":145},{"user_id":97,"name":"Etherhel","steam_id":76561198838449544,"connected_time":912000000000,"state":"active","ping":98},{"user_id":88,"name":"yuno appreciator","steam_id":76561198083286511,"connected_time":1340000000000,"state":"active","ping":40},{"user_id":108,"name":"nemelex","steam_id":76561198958005865,"connected_time":194000000000,"state":"active","ping":55},{"user_id":90,"name":"[V.G.T.41] Seva the Gnome","steam_id":76561198951268072,"connected_time":1243000000000,"state":"active","ping":105},{"user_id":103,"name":"a grilled cheese","steam_id":76561198277039351,"connected_time":771000000000,"state":"active","ping":44},{"user_id":107,"name":"Pvt Talbot","steam_id":76561198261001389,"connected_time":572000000000,"state":"active","ping":62},{"user_id":35,"name":"thog","steam_id":76561198219901556,"connected_time":5617000000000,"state":"active","ping":111},{"user_id":84,"name":"FNF","steam_id":76561199151422826,"connected_time":2357000000000,"state":"active","ping":119},{"user_id":86,"name":"Mekko","steam_id":76561198880989086,"connected_time":1976000000000,"state":"active","ping":103},{"user_id":85,"name":"Toaster1337","steam_id":76561198103706881,"connected_time":2080000000000,"state":"active","ping":72},{"user_id":89,"name":"Lunar","steam_id":76561198154068949,"connected_time":1337000000000,"state":"active","ping":73},{"user_id":67,"name":"heallixa","steam_id":76561198167986712,"connected_time":3789000000000,"state":"active","ping":114},{"user_id":91,"name":"reke","steam_id":76561199149307190,"connected_time":1234000000000,"state":"active","ping":88}]},{"server_id":21,"name":"Uncletopia | London | 5 | All Maps","name_short":"lon-5","host":"lon-1.uk.uncletopia.com","port":27055,"enabled":true,"region":"eu","cc":"gb","latitude":51.509865,"longitude":-0.118092,"reserved":0,"last_update":"0001-01-01T00:00:00Z","name_a2s":"Uncletopia | London | 5 | All Maps","protocol":17,"map":"pl_upward","folder":"tf","game":"Team Fortress","app_id":440,"player_count":0,"max_players":24,"Bots":0,"server_type":"Dedicated","server_os":"Linux","password":true,"vac":true,"version":"7961495","steam_id":85568392924742829,"keywords":["nocrits","nodmgspread","payload","uncletopia"],"game_id":440,"stv_port":27056,"stv_name":"Uncletopia | London | 5 | All Maps | STV","players":null},{"server_id":22,"name":"Uncletopia | London | 6 | All Maps","name_short":"lon-6","host":"lon-1.uk.uncletopia.com","port":27065,"enabled":true,"region":"eu","cc":"gb","latitude":51.509865,"longitude":-0.118092,"reserved":0,"last_update":"0001-01-01T00:00:00Z","name_a2s":"Uncletopia | London | 6 | All Maps","protocol":17,"map":"koth_lakeside_final","folder":"tf","game":"Team Fortress","app_id":440,"player_count":0,"max_players":24,"Bots":0,"server_type":"Dedicated","server_os":"Linux","password":true,"vac":true,"version":"7961495","steam_id":85568392924742830,"keywords":["cp","nocrits","nodmgspread","uncletopia"],"game_id":440,"stv_port":27066,"stv_name":"Uncletopia | London | 6 | All Maps | STV","players":null},{"server_id":40,"name":"Uncletopia | London | 7 | No Payload","name_short":"lon-7","host":"lon-1.uk.uncletopia.com","port":27075,"enabled":true,"region":"eu","cc":"gb","latitude":51.509865,"longitude":-0.118092,"reserved":0,"last_update":"0001-01-01T00:00:00Z","name_a2s":"Uncletopia | London | 7 | No Payload","protocol":17,"map":"cp_altitude","folder":"tf","game":"Team Fortress","app_id":440,"player_count":0,"max_players":24,"Bots":0,"server_type":"Dedicated","server_os":"Linux","password":true,"vac":true,"version":"7961495","steam_id":85568392924964314,"keywords":["cp","nocrits","nodmgspread","uncletopia"],"game_id":440,"stv_port":27076,"stv_name":"Uncletopia | London | 7 | No Payload | STV","players":null},{"server_id":41,"name":"Uncletopia | London | 8 | Community","name_short":"lon-8","host":"lon-1.uk.uncletopia.com","port":27085,"enabled":true,"region":"eu","cc":"gb","latitude":51.509865,"longitude":-0.118092,"reserved":0,"last_update":"0001-01-01T00:00:00Z","name_a2s":"Uncletopia | London | 8 | Community","protocol":17,"map":"pl_borneo","folder":"tf","game":"Team Fortress","app_id":440,"player_count":0,"max_players":24,"Bots":0,"server_type":"Dedicated","server_os":"Linux","password":true,"vac":true,"version":"7961495","steam_id":85568392924964315,"keywords":["nocrits","nodmgspread","payload","uncletopia"],"game_id":440,"stv_port":27086,"stv_name":"Uncletopia | London | 8 | Community | STV","players":null},{"server_id":300,"name":"Uncletopia | Montr√©al | 1 | All Maps","name_short":"mtl-1","host":"mtl-1.ca.uncletopia.com","port":27015,"enabled":true,"region":"us-east","cc":"ca","latitude":45.50889,"longitude":-73.56167,"reserved":0,"last_update":"0001-01-01T00:00:00Z","name_a2s":"","protocol":0,"map":"","folder":"","game":"","app_id":0,"player_count":0,"max_players":0,"Bots":0,"server_type":"","server_os":"","password":false,"vac":false,"version":"","steam_id":0,"keywords":null,"game_id":0,"stv_port":0,"stv_name":"","players":null},{"server_id":301,"name":"Uncletopia | Montr√©al | 2 | All Maps","name_short":"mtl-2","host":"mtl-1.ca.uncletopia.com","port":27025,"enabled":true,"region":"us-east","cc":"ca","latitude":45.50889,"longitude":-73.56167,"reserved":0,"last_update":"0001-01-01T00:00:00Z","name_a2s":"","protocol":0,"map":"","folder":"","game":"","app_id":0,"player_count":0,"max_players":0,"Bots":0,"server_type":"","server_os":"","password":false,"vac":false,"version":"","steam_id":0,"keywords":null,"game_id":0,"stv_port":0,"stv_name":"","players":null},{"server_id":302,"name":"Uncletopia | Montr√©al | 3 | All Maps","name_short":"mtl-3","host":"mtl-1.ca.uncletopia.com","port":27035,"enabled":true,"region":"us-east","cc":"ca","latitude":45.50889,"longitude":-73.56167,"reserved":0,"last_update":"0001-01-01T00:00:00Z","name_a2s":"","protocol":0,"map":"","folder":"","game":"","app_id":0,"player_count":0,"max_players":0,"Bots":0,"server_type":"","server_os":"","password":false,"vac":false,"version":"","steam_id":0,"keywords":null,"game_id":0,"stv_port":0,"stv_name":"","players":null},{"server_id":303,"name":"Uncletopia | Montr√©al | 4 | No Payload","name_short":"mtl-4","host":"mtl-1.ca.uncletopia.com","port":27045,"enabled":true,"region":"us-east","cc":"ca","latitude":45.50889,"longitude":-73.56167,"reserved":0,"last_update":"0001-01-01T00:00:00Z","name_a2s":"","protocol":0,"map":"","folder":"","game":"","app_id":0,"player_count":0,"max_players":0,"Bots":0,"server_type":"","server_os":"","password":false,"vac":false,"version":"","steam_id":0,"keywords":null,"game_id":0,"stv_port":0,"stv_name":"","players":null},{"server_id":13,"name":"Uncletopia | New York City | 1 | All Maps","name_short":"nyc-1","host":"nyc-1.us.uncletopia.com","port":27015,"enabled":true,"region":"us-east","cc":"us","latitude":40.73061,"longitude":-73.93524,"reserved":0,"last_update":"0001-01-01T00:00:00Z","name_a2s":"Uncletopia | New York City | 1 | All Maps","protocol":17,"map":"koth_cascade","folder":"tf","game":"Team Fortress","app_id":440,"player_count":0,"max_players":24,"Bots":0,"server_type":"Dedicated","server_os":"Linux","password":true,"vac":true,"version":"7961495","steam_id":85568392924469993,"keywords":["cp","nocrits","nodmgspread","uncletopia"],"game_id":440,"stv_port":27016,"stv_name":"Uncletopia | New York City | 1 | All Maps | STV","players":null},{"server_id":14,"name":"Uncletopia | New York City | 2 | All Maps","name_short":"nyc-2","host":"nyc-1.us.uncletopia.com","port":27025,"enabled":true,"region":"us-east","cc":"us","latitude":40.73061,"longitude":-73.93524,"reserved":0,"last_update":"0001-01-01T00:00:00Z","name_a2s":"Uncletopia | New York City | 2 | All Maps","protocol":17,"map":"pl_pier","folder":"tf","game":"Team Fortress","app_id":440,"player_count":22,"max_players":24,"Bots":0,"server_type":"Dedicated","server_os":"Linux","password":true,"vac":true,"version":"7961495","steam_id":85568392924469994,"keywords":["nocrits","nodmgspread","payload","uncletopia"],"game_id":440,"stv_port":27026,"stv_name":"Uncletopia | New York City | 2 | All Maps | STV","players":[{"user_id":432,"name":"reel eel feel","steam_id":76561198079951246,"connected_time":444000000000,"state":"active","ping":39},{"user_id":387,"name":"TheGingerOne","steam_id":76561198354203847,"connected_time":2474000000000,"state":"active","ping":87},{"user_id":415,"name":"YASAI JUICE","steam_id":76561198131971992,"connected_time":1085000000000,"state":"active","ping":52},{"user_id":434,"name":"alphatwo","steam_id":76561198012511255,"connected_time":249000000000,"state":"active","ping":71},{"user_id":411,"name":"Thunderous","steam_id":76561198192752793,"connected_time":1181000000000,"state":"active","ping":45},{"user_id":401,"name":"DaBaptist","steam_id":76561198316260548,"connected_time":1507000000000,"state":"active","ping":58},{"user_id":368,"name":"Feces","steam_id":76561198380219187,"connected_time":3921000000000,"state":"active","ping":66},{"user_id":423,"name":"ColdTooth","steam_id":76561197994963901,"connected_time":823000000000,"state":"active","ping":69},{"user_id":406,"name":"werecat","steam_id":76561198005091213,"connected_time":1320000000000,"state":"active","ping":37},{"user_id":395,"name":"Ludcmorais","steam_id":76561198359217809,"connected_time":1891000000000,"state":"active","ping":169},{"user_id":431,"name":"CheesyPoofs","steam_id":76561197998650617,"connected_time":477000000000,"state":"active","ping":121},{"user_id":378,"name":"HiddenEgg","steam_id":76561199045105518,"connected_time":3208000000000,"state":"active","ping":105},{"user_id":435,"name":"SoundKitKiller","steam_id":76561198053535873,"connected_time":164000000000,"state":"active","ping":65},{"user_id":416,"name":"Octovaitor","steam_id":76561198004658451,"connected_time":1060000000000,"state":"active","ping":47},{"user_id":398,"name":"Pumpblench","steam_id":76561199140754311,"connected_time":1671000000000,"state":"active","ping":173},{"user_id":422,"name":"xXx_Eg0_d3aTh_419_xXx (ironic)","steam_id":76561198077551754,"connected_time":870000000000,"state":"active","ping":68},{"user_id":418,"name":"Handsome Pete","steam_id":76561198003224229,"connected_time":975000000000,"state":"active","ping":126},{"user_id":437,"name":"AnnieM","steam_id":76561199435467297,"connected_time":97000000000,"state":"active","ping":86},{"user_id":438,"name":"DarkLink909","steam_id":76561198084139172,"connected_time":74000000000,"state":"active","ping":90},{"user_id":433,"name":"HalfDead","steam_id":76561198049700226,"connected_time":313000000000,"state":"active","ping":76},{"user_id":430,"name":"Mr. Goy","steam_id":76561198354088976,"connected_time":519000000000,"state":"active","ping":112},{"user_id":421,"name":"Sonicega the Respawner","steam_id":76561198044362988,"connected_time":902000000000,"state":"active","ping":64}]},{"server_id":15,"name":"Uncletopia | New York City | 3 | Stopwatch Beta","name_short":"nyc-3","host":"nyc-1.us.uncletopia.com","port":27035,"enabled":true,"region":"us-east","cc":"us","latitude":40.73061,"longitude":-73.93524,"reserved":0,"last_update":"0001-01-01T00:00:00Z","name_a2s":"Uncletopia | New York City | 3 | Stopwatch Beta","protocol":17,"map":"workshop/pl_summercoast_rc8e.ugc1761528829","folder":"tf","game":"Team Fortress","app_id":440,"player_count":0,"max_players":24,"Bots":0,"server_type":"Dedicated","server_os":"Linux","password":true,"vac":true,"version":"7961495","steam_id":85568392924742820,"keywords":["nocrits","nodmgspread","payload","uncletopia"],"game_id":440,"stv_port":27036,"stv_name":"Uncletopia | New York City | 3 | Stopwatch Beta | STV","players":null},{"server_id":16,"name":"Uncletopia | New York City | 4 | Community","name_short":"nyc-4","host":"nyc-1.us.uncletopia.com","port":27045,"enabled":true,"region":"us-east","cc":"us","latitude":40.73061,"longitude":-73.93524,"reserved":0,"last_update":"0001-01-01T00:00:00Z","name_a2s":"Uncletopia | New York City | 4 | Community","protocol":17,"map":"workshop/cp_fulgur_rc2a.ugc2068252300","folder":"tf","game":"Team Fortress","app_id":440,"player_count":0,"max_players":24,"Bots":0,"server_type":"Dedicated","server_os":"Linux","password":true,"vac":true,"version":"7961495","steam_id":85568392924742821,"keywords":["cp","nocrits","nodmgspread","uncletopia"],"game_id":440,"stv_port":27046,"stv_name":"Uncletopia | New York City | 4 | Community | STV","players":null},{"server_id":142,"name":"Uncletopia | S√£o Paulo | 1 | All Maps","name_short":"sao-1","host":"sao-1.br.uncletopia.com","port":27015,"enabled":true,"region":"sa","cc":"br","latitude":-23.533773,"longitude":-46.62529,"reserved":0,"last_update":"0001-01-01T00:00:00Z","name_a2s":"Uncletopia | S√£o Paulo | 1 | All Maps","protocol":17,"map":"koth_highpass","folder":"tf","game":"Team Fortress","app_id":440,"player_count":0,"max_players":24,"Bots":0,"server_type":"Dedicated","server_os":"Linux","password":true,"vac":true,"version":"7961495","steam_id":85568392924469996,"keywords":["cp","nocrits","nodmgspread","uncletopia"],"game_id":440,"stv_port":27016,"stv_name":"Uncletopia | S√£o Paulo | 1 | All Maps | STV","players":null},{"server_id":143,"name":"Uncletopia | S√£o Paulo | 2 | Community","name_short":"sao-2","host":"sao-2.br.uncletopia.com","port":27015,"enabled":true,"region":"sa","cc":"br","latitude":-23.533773,"longitude":-46.62529,"reserved":0,"last_update":"0001-01-01T00:00:00Z","name_a2s":"Uncletopia | S√£o Paulo | 2 | Community","protocol":17,"map":"workshop/cp_bruhstbowl_b6.ugc2878604990","folder":"tf","game":"Team Fortress","app_id":440,"player_count":0,"max_players":24,"Bots":0,"server_type":"Dedicated","server_os":"Linux","password":true,"vac":true,"version":"7961495","steam_id":85568392924485349,"keywords":["cp","nocrits","nodmgspread","uncletopia"],"game_id":440,"stv_port":27016,"stv_name":"Uncletopia | S√£o Paulo | 2 | Community | STV","players":null},{"server_id":7,"name":"Uncletopia | Seattle | 1 | All Maps","name_short":"sea-1","host":"sea-1.us.uncletopia.com","port":27015,"enabled":true,"region":"us-west","cc":"us","latitude":47.608013,"longitude":-122.33517,"reserved":0,"last_update":"0001-01-01T00:00:00Z","name_a2s":"Uncletopia | Seattle | 1 | All Maps","protocol":17,"map":"cp_powerhouse","folder":"tf","game":"Team Fortress","app_id":440,"player_count":24,"max_players":24,"Bots":0,"server_type":"Dedicated","server_os":"Linux","password":true,"vac":true,"version":"7961495","steam_id":85568392924469997,"keywords":["cp","nocrits","nodmgspread","uncletopia"],"game_id":440,"stv_port":27016,"stv_name":"Uncletopia | Seattle | 1 | All Maps | STV","players":[{"user_id":343,"name":"MxProf","steam_id":76561198044519572,"connected_time":134000000000,"state":"active","ping":164},{"user_id":335,"name":"mub","steam_id":76561197961943948,"connected_time":2462000000000,"state":"active","ping":44},{"user_id":329,"name":"delight","steam_id":76561197980280272,"connected_time":2708000000000,"state":"active","ping":45},{"user_id":331,"name":"toes","steam_id":76561198221151676,"connected_time":2681000000000,"state":"active","ping":59},{"user_id":298,"name":"black mold farmer","steam_id":76561198169755734,"connected_time":7390000000000,"state":"active","ping":66},{"user_id":332,"name":"rat gets the cheese","steam_id":76561198031234032,"connected_time":2681000000000,"state":"active","ping":91},{"user_id":280,"name":"Sniff","steam_id":76561198010270922,"connected_time":9010000000000,"state":"active","ping":56},{"user_id":305,"name":"Ayayayayayahuasca","steam_id":76561199002906056,"connected_time":5890000000000,"state":"active","ping":46},{"user_id":270,"name":"NEBULA","steam_id":76561198086878595,"connected_time":10861000000000,"state":"active","ping":65},{"user_id":338,"name":"Fallen","steam_id":76561198206490352,"connected_time":1471000000000,"state":"active","ping":85},{"user_id":322,"name":"jayeskae","steam_id":76561198144220801,"connected_time":3828000000000,"state":"active","ping":45},{"user_id":317,"name":"cheeto dorito","steam_id":76561198107941274,"connected_time":4641000000000,"state":"active","ping":78},{"user_id":318,"name":"Attrition","steam_id":76561197969881916,"connected_time":4592000000000,"state":"active","ping":57},{"user_id":319,"name":"squash","steam_id":76561198150281353,"connected_time":4592000000000,"state":"active","ping":58},{"user_id":321,"name":"smeasly","steam_id":76561198028718812,"connected_time":4023000000000,"state":"active","ping":45},{"user_id":333,"name":"thunderous prophet","steam_id":76561198131166135,"connected_time":2561000000000,"state":"active","ping":40},{"user_id":327,"name":"jadeite","steam_id":76561198022298676,"connected_time":3792000000000,"state":"active","ping":35},{"user_id":340,"name":"pepe warlord","steam_id":76561198080819197,"connected_time":1090000000000,"state":"active","ping":90},{"user_id":334,"name":"rorywashere /·ê† - Àï -„Éû ‚≥ä","steam_id":76561198065825165,"connected_time":2517000000000,"state":"active","ping":116},{"user_id":309,"name":"Doctor‚Ñ¢","steam_id":76561198134309750,"connected_time":5334000000000,"state":"active","ping":105},{"user_id":291,"name":"Arsonist Goose","steam_id":76561198147441830,"connected_time":7563000000000,"state":"active","ping":67},{"user_id":341,"name":"oil","steam_id":76561198099980149,"connected_time":803000000000,"state":"active","ping":78},{"user_id":347,"name":"fart thief","steam_id":76561198046073848,"connected_time":57000000000,"state":"active","ping":47},{"user_id":342,"name":"squirtin' on xbox live","steam_id":76561199041179985,"connected_time":735000000000,"state":"active","ping":57}]},{"server_id":119,"name":"Uncletopia | Seattle | 2 | All Maps","name_short":"sea-2","host":"sea-1.us.uncletopia.com","port":27025,"enabled":true,"region":"us-west","cc":"us","latitude":47.608013,"longitude":-122.33517,"reserved":0,"last_update":"0001-01-01T00:00:00Z","name_a2s":"Uncletopia | Seattle | 2 | All Maps","protocol":17,"map":"pl_barnblitz","folder":"tf","game":"Team Fortress","app_id":440,"player_count":24,"max_players":24,"Bots":0,"server_type":"Dedicated","server_os":"Linux","password":true,"vac":true,"version":"7961495","steam_id":85568392924469998,"keywords":["nocrits","nodmgspread","payload","uncletopia"],"game_id":440,"stv_port":27026,"stv_name":"Uncletopia | Seattle | 2 | All Maps | STV","players":[{"user_id":419,"name":"Tripll-L","steam_id":76561197998077437,"connected_time":57000000000,"state":"active","ping":59},{"user_id":375,"name":"Joh Bags","steam_id":76561198097004438,"connected_time":2310000000000,"state":"active","ping":84},{"user_id":377,"name":"Grapefruit Glizzy","steam_id":76561198065977764,"connected_time":2196000000000,"state":"active","ping":92},{"user_id":379,"name":"Donny Q","steam_id":76561198020901703,"connected_time":2018000000000,"state":"active","ping":54},{"user_id":384,"name":"Serene Salamander","steam_id":76561198001094770,"connected_time":1562000000000,"state":"active","ping":86},{"user_id":412,"name":"chocky","steam_id":76561198057491296,"connected_time":396000000000,"state":"active","ping":51},{"user_id":383,"name":"Mr. Fart","steam_id":76561198097290717,"connected_time":1665000000000,"state":"active","ping":72},{"user_id":396,"name":"Mr. Carfox","steam_id":76561198041664428,"connected_time":975000000000,"state":"active","ping":60},{"user_id":398,"name":"mmmBoyo","steam_id":76561198821360261,"connected_time":933000000000,"state":"active","ping":54},{"user_id":402,"name":"somef2p","steam_id":76561199379135210,"connected_time":770000000000,"state":"active","ping":145},{"user_id":403,"name":"intooblivion","steam_id":76561197964080250,"connected_time":748000000000,"state":"active","ping":98},{"user_id":414,"name":"SS. Skeptical","steam_id":76561198038261789,"connected_time":195000000000,"state":"active","ping":46},{"user_id":413,"name":"Finkly","steam_id":76561198049828110,"connected_time":340000000000,"state":"active","ping":45},{"user_id":407,"name":"JohnnyGitGud","steam_id":76561198401455467,"connected_time":607000000000,"state":"active","ping":83},{"user_id":389,"name":"HAT-WEARING‚Ñ¢ Maggot Gamer Cat","steam_id":76561197973992705,"connected_time":1297000000000,"state":"active","ping":80},{"user_id":368,"name":"Puskinti","steam_id":76561198032120688,"connected_time":2746000000000,"state":"active","ping":65},{"user_id":408,"name":"Windows Vista Home Premium","steam_id":76561198043764863,"connected_time":583000000000,"state":"active","ping":84},{"user_id":409,"name":"Megatron G","steam_id":76561198168864083,"connected_time":563000000000,"state":"active","ping":45},{"user_id":420,"name":"volta","steam_id":76561199214283884,"connected_time":56000000000,"state":"active","ping":157},{"user_id":411,"name":"hardfork","steam_id":76561197960958019,"connected_time":448000000000,"state":"active","ping":54},{"user_id":421,"name":"ABSOLUTE TERROR","steam_id":76561198018146136,"connected_time":0,"state":"spawning","ping":0},{"user_id":415,"name":"._.","steam_id":76561198300316801,"connected_time":174000000000,"state":"active","ping":105},{"user_id":417,"name":"Grandpa-pyro","steam_id":76561198101719848,"connected_time":92000000000,"state":"active","ping":49},{"user_id":418,"name":"Lily Thorn","steam_id":76561198305488625,"connected_time":80000000000,"state":"active","ping":59}]},{"server_id":406,"name":"Uncletopia | Seattle | 3 | Stopwatch","name_short":"sea-3","host":"sea-1.us.uncletopia.com","port":27035,"enabled":true,"region":"us-west","cc":"us","latitude":47.608013,"longitude":-122.33517,"reserved":0,"last_update":"0001-01-01T00:00:00Z","name_a2s":"Uncletopia | Seattle | 3 | Stopwatch","protocol":17,"map":"workshop/koth_product_final.ugc454272353","folder":"tf","game":"Team Fortress","app_id":440,"player_count":0,"max_players":24,"Bots":0,"server_type":"Dedicated","server_os":"Linux","password":true,"vac":true,"version":"7961495","steam_id":85568392924515217,"keywords":["cp","nocrits","nodmgspread","uncletopia"],"game_id":440,"stv_port":27036,"stv_name":"Uncletopia | Seattle | 3 | Stopwatch | STV","players":null},{"server_id":17,"name":"Uncletopia | San Francisco | 1 | All Maps","name_short":"sfo-1","host":"sfo-1.us.uncletopia.com","port":27015,"enabled":true,"region":"us-west","cc":"us","latitude":37.77397,"longitude":-122.4313,"reserved":0,"last_update":"0001-01-01T00:00:00Z","name_a2s":"Uncletopia | San Francisco | 1 | All Maps","protocol":17,"map":"cp_mountainlab","folder":"tf","game":"Team Fortress","app_id":440,"player_count":20,"max_players":24,"Bots":0,"server_type":"Dedicated","server_os":"Linux","password":true,"vac":true,"version":"7961495","steam_id":85568392924469999,"keywords":["cp","nocrits","nodmgspread","uncletopia"],"game_id":440,"stv_port":27016,"stv_name":"Uncletopia | San Francisco | 1 | All Maps | STV","players":[{"user_id":437,"name":"platypuspolice957","steam_id":76561198121106691,"connected_time":2086000000000,"state":"active","ping":68},{"user_id":459,"name":"Your Dinosaurs","steam_id":76561198392670237,"connected_time":230000000000,"state":"active","ping":45},{"user_id":453,"name":"Ghwhaine","steam_id":76561199045414702,"connected_time":948000000000,"state":"active","ping":84},{"user_id":460,"name":"the one who knocks","steam_id":76561198373946121,"connected_time":187000000000,"state":"active","ping":57},{"user_id":382,"name":"paypur -rng","steam_id":76561198214370515,"connected_time":5939000000000,"state":"active","ping":105},{"user_id":461,"name":"King Julien","steam_id":76561198960808065,"connected_time":186000000000,"state":"active","ping":68},{"user_id":462,"name":"OzzyAkiro47","steam_id":76561199076449499,"connected_time":71000000000,"state":"active","ping":59},{"user_id":404,"name":"||BassMan||","steam_id":76561198279865229,"connected_time":4643000000000,"state":"active","ping":87},{"user_id":421,"name":"Buswolley","steam_id":76561197995205571,"connected_time":3535000000000,"state":"active","ping":56},{"user_id":391,"name":"Toastedtoast222","steam_id":76561198120756409,"connected_time":5562000000000,"state":"active","ping":148},{"user_id":416,"name":"Daypire","steam_id":76561198088120472,"connected_time":3864000000000,"state":"active","ping":69},{"user_id":441,"name":"bootyzilla·¥∏·¥Æ·¥¥","steam_id":76561198322206140,"connected_time":2021000000000,"state":"active","ping":99},{"user_id":450,"name":"ScoutBox","steam_id":76561198111539895,"connected_time":1119000000000,"state":"active","ping":52},{"user_id":447,"name":"dewey","steam_id":76561198132791511,"connected_time":1438000000000,"state":"active","ping":63},{"user_id":419,"name":"Dusk","steam_id":76561198088681558,"connected_time":3709000000000,"state":"active","ping":62},{"user_id":456,"name":"ƒêƒ™ Ä…ò","steam_id":76561199014715203,"connected_time":644000000000,"state":"active","ping":67},{"user_id":431,"name":"kwetzal","steam_id":76561198845749671,"connected_time":2723000000000,"state":"active","ping":58},{"user_id":452,"name":"jackin626","steam_id":76561198269277735,"connected_time":1093000000000,"state":"active","ping":69},{"user_id":430,"name":"CaiGaming","steam_id":76561198313023508,"connected_time":2749000000000,"state":"active","ping":54},{"user_id":446,"name":"C0r0naLight","steam_id":76561198050550310,"connected_time":1543000000000,"state":"active","ping":82}]},{"server_id":18,"name":"Uncletopia | San Francisco | 2 | All Maps","name_short":"sfo-2","host":"sfo-1.us.uncletopia.com","port":27025,"enabled":true,"region":"us-west","cc":"us","latitude":37.77397,"longitude":-122.4313,"reserved":0,"last_update":"0001-01-01T00:00:00Z","name_a2s":"Uncletopia | San Francisco | 2 | All Maps","protocol":17,"map":"pl_upward","folder":"tf","game":"Team Fortress","app_id":440,"player_count":24,"max_players":24,"Bots":0,"server_type":"Dedicated","server_os":"Linux","password":true,"vac":true,"version":"7961495","steam_id":85568392924470000,"keywords":["nocrits","nodmgspread","payload","uncletopia"],"game_id":440,"stv_port":27026,"stv_name":"Uncletopia | San Francisco | 2 | All Maps | STV","players":[{"user_id":436,"name":"RayK_iv","steam_id":76561198882543075,"connected_time":2244000000000,"state":"active","ping":67},{"user_id":439,"name":"self sufficient kitten","steam_id":76561197960592612,"connected_time":1410000000000,"state":"active","ping":67},{"user_id":419,"name":"Action-Flash","steam_id":76561198042438122,"connected_time":3447000000000,"state":"active","ping":86},{"user_id":416,"name":"The Rock","steam_id":76561198433328517,"connected_time":3770000000000,"state":"active","ping":119},{"user_id":432,"name":"sophia!!! (killer)","steam_id":76561198049802690,"connected_time":2395000000000,"state":"active","ping":60},{"user_id":453,"name":"Hakurei Reimu","steam_id":76561198045388290,"connected_time":231000000000,"state":"active","ping":58},{"user_id":441,"name":"Shnakes","steam_id":76561198201649518,"connected_time":1311000000000,"state":"active","ping":73},{"user_id":380,"name":"Drive-By-Fish-Guy","steam_id":76561198105513652,"connected_time":5413000000000,"state":"active","ping":71},{"user_id":442,"name":"AAAAAAAAAAAAAAAAAAAAAAAAAAAAAAA","steam_id":76561198125467937,"connected_time":1309000000000,"state":"active","ping":56},{"user_id":420,"name":"Rango","steam_id":76561198104086771,"connected_time":3413000000000,"state":"active","ping":61},{"user_id":443,"name":"sqnguine","steam_id":76561199481839224,"connected_time":1296000000000,"state":"active","ping":74},{"user_id":437,"name":"TF2 gaming","steam_id":76561198411061839,"connected_time":2159000000000,"state":"active","ping":68},{"user_id":421,"name":"‚õßAlkahestry","steam_id":76561198109641497,"connected_time":3078000000000,"state":"active","ping":47},{"user_id":424,"name":"Savaqa","steam_id":76561198158016688,"connected_time":2960000000000,"state":"active","ping":55},{"user_id":452,"name":"the cock","steam_id":76561198065153674,"connected_time":557000000000,"state":"active","ping":70},{"user_id":405,"name":"FrostNova","steam_id":76561198348354629,"connected_time":4134000000000,"state":"active","ping":57},{"user_id":449,"name":"‚ô´ Gilgion","steam_id":76561198050297529,"connected_time":1113000000000,"state":"active","ping":70},{"user_id":427,"name":"Villchip","steam_id":76561198198599982,"connected_time":2918000000000,"state":"active","ping":66},{"user_id":428,"name":"Mak","steam_id":76561198089197922,"connected_time":2903000000000,"state":"active","ping":75},{"user_id":448,"name":"Green Mario","steam_id":76561198094325997,"connected_time":1176000000000,"state":"active","ping":79},{"user_id":450,"name":"Pho","steam_id":76561198306515742,"connected_time":1071000000000,"state":"active","ping":55},{"user_id":410,"name":"don","steam_id":76561198204410892,"connected_time":4077000000000,"state":"active","ping":107},{"user_id":446,"name":"Super_Sonic133","steam_id":76561198141384474,"connected_time":1285000000000,"state":"active","ping":50},{"user_id":429,"name":"N√º√æ","steam_id":76561198043956703,"connected_time":2782000000000,"state":"active","ping":59}]},{"server_id":19,"name":"Uncletopia | San Francisco | 3 | Stopwatch","name_short":"sfo-3","host":"sfo-1.us.uncletopia.com","port":27035,"enabled":true,"region":"us-west","cc":"us","latitude":37.77397,"longitude":-122.4313,"reserved":0,"last_update":"0001-01-01T00:00:00Z","name_a2s":"Uncletopia | San Francisco | 3 | Stopwatch","protocol":17,"map":"pl_borneo","folder":"tf","game":"Team Fortress","app_id":440,"player_count":0,"max_players":24,"Bots":0,"server_type":"Dedicated","server_os":"Linux","password":true,"vac":true,"version":"7961495","steam_id":85568392924742824,"keywords":["nocrits","nodmgspread","payload","uncletopia"],"game_id":440,"stv_port":27036,"stv_name":"Uncletopia | San Francisco | 3 | Stopwatch | STV","players":null},{"server_id":20,"name":"Uncletopia | San Francisco | 4 | Community","name_short":"sfo-4","host":"sfo-1.us.uncletopia.com","port":27045,"enabled":true,"region":"us-west","cc":"us","latitude":37.77397,"longitude":-122.4313,"reserved":0,"last_update":"0001-01-01T00:00:00Z","name_a2s":"Uncletopia | San Francisco | 4 | Community","protocol":17,"map":"cp_snakewater_final1","folder":"tf","game":"Team Fortress","app_id":440,"player_count":0,"max_players":24,"Bots":0,"server_type":"Dedicated","server_os":"Linux","password":true,"vac":true,"version":"7961495","steam_id":85568392924742826,"keywords":["cp","nocrits","nodmgspread","uncletopia"],"game_id":440,"stv_port":27046,"stv_name":"Uncletopia | San Francisco | 4 | Community | STV","players":null},{"server_id":141,"name":"Uncletopia | Sydney | 1 | All Maps","name_short":"syd-1","host":"syd-1.au.uncletopia.com","port":27015,"enabled":true,"region":"au","cc":"au","latitude":-33.865143,"longitude":151.2099,"reserved":0,"last_update":"0001-01-01T00:00:00Z","name_a2s":"Uncletopia | Sydney | 1 | All Maps","protocol":17,"map":"cp_snakewater_final1","folder":"tf","game":"Team Fortress","app_id":440,"player_count":21,"max_players":24,"Bots":0,"server_type":"Dedicated","server_os":"Linux","password":true,"vac":true,"version":"7961495","steam_id":85568392924470001,"keywords":["cp","nocrits","nodmgspread","uncletopia"],"game_id":440,"stv_port":27016,"stv_name":"Uncletopia | Sydney | 1 | All Maps | STV","players":[{"user_id":147,"name":"ZayClane","steam_id":76561199074276055,"connected_time":6102000000000,"state":"active","ping":55},{"user_id":202,"name":"Oda Gnomebunaga","steam_id":76561198067733319,"connected_time":1257000000000,"state":"active","ping":61},{"user_id":195,"name":"Dupiter","steam_id":76561198108820767,"connected_time":1783000000000,"state":"active","ping":69},{"user_id":210,"name":"bostanc","steam_id":76561199125869659,"connected_time":882000000000,"state":"active","ping":53},{"user_id":144,"name":"Teamfighting","steam_id":76561198160135508,"connected_time":6326000000000,"state":"active","ping":59},{"user_id":181,"name":"you wanna kiss me sooo bad","steam_id":76561198025225448,"connected_time":2975000000000,"state":"active","ping":75},{"user_id":166,"name":"whiteshaq","steam_id":76561198131988811,"connected_time":4504000000000,"state":"active","ping":84},{"user_id":156,"name":"Marzell","steam_id":76561198151276153,"connected_time":5179000000000,"state":"active","ping":97},{"user_id":204,"name":"Bill Nye","steam_id":76561198312898168,"connected_time":1207000000000,"state":"active","ping":56},{"user_id":198,"name":"sav","steam_id":76561198058760041,"connected_time":1557000000000,"state":"active","ping":74},{"user_id":219,"name":"smoke in my eyes","steam_id":76561198836003115,"connected_time":146000000000,"state":"active","ping":60},{"user_id":214,"name":"draining him dry","steam_id":76561198132937542,"connected_time":522000000000,"state":"active","ping":56},{"user_id":154,"name":"hive","steam_id":76561199099744527,"connected_time":5415000000000,"state":"active","ping":58},{"user_id":197,"name":"OY Quan","steam_id":76561198325503336,"connected_time":1579000000000,"state":"active","ping":53},{"user_id":216,"name":"Iron Man Armored Adventures","steam_id":76561198202555552,"connected_time":440000000000,"state":"active","ping":42},{"user_id":220,"name":"Noid","steam_id":76561198045934965,"connected_time":146000000000,"state":"active","ping":89},{"user_id":167,"name":"covenofbats","steam_id":76561198152117315,"connected_time":4483000000000,"state":"active","ping":44},{"user_id":174,"name":"spud_","steam_id":76561198048354831,"connected_time":3932000000000,"state":"active","ping":51},{"user_id":208,"name":"autism","steam_id":76561198125874990,"connected_time":1180000000000,"state":"active","ping":72},{"user_id":212,"name":"no teles 4 u","steam_id":76561198018478297,"connected_time":565000000000,"state":"active","ping":76},{"user_id":192,"name":"Foxivan","steam_id":76561198428775175,"connected_time":2124000000000,"state":"active","ping":71}]},{"server_id":123,"name":"Uncletopia | Sydney | 2 | All Maps","name_short":"syd-2","host":"syd-1.au.uncletopia.com","port":27025,"enabled":true,"region":"au","cc":"au","latitude":-33.865143,"longitude":151.2099,"reserved":0,"last_update":"0001-01-01T00:00:00Z","name_a2s":"Uncletopia | Sydney | 2 | All Maps","protocol":17,"map":"koth_lakeside_final","folder":"tf","game":"Team Fortress","app_id":440,"player_count":17,"max_players":24,"Bots":0,"server_type":"Dedicated","server_os":"Linux","password":true,"vac":true,"version":"7961495","steam_id":85568392924470002,"keywords":["cp","nocrits","nodmgspread","uncletopia"],"game_id":440,"stv_port":27026,"stv_name":"Uncletopia | Sydney | 2 | All Maps | STV","players":[{"user_id":9,"name":"Norwick777","steam_id":76561199186269552,"connected_time":3570000000000,"state":"active","ping":201},{"user_id":30,"name":"Skidallion","steam_id":76561198083922206,"connected_time":992000000000,"state":"active","ping":69},{"user_id":40,"name":"Fastoon","steam_id":76561198041082289,"connected_time":515000000000,"state":"active","ping":116},{"user_id":41,"name":"Finger Bun Fun","steam_id":76561198118383219,"connected_time":469000000000,"state":"active","ping":46},{"user_id":25,"name":"Dadszoo","steam_id":76561198296611122,"connected_time":1139000000000,"state":"active","ping":76},{"user_id":28,"name":"8MILLION (del david)","steam_id":76561198140339181,"connected_time":1061000000000,"state":"active","ping":56},{"user_id":35,"name":"Gavrello","steam_id":76561199493893318,"connected_time":662000000000,"state":"active","ping":47},{"user_id":27,"name":"the weed alien (the weed alien)","steam_id":76561199205171109,"connected_time":1092000000000,"state":"active","ping":66},{"user_id":29,"name":"Daniel Chong (the weed alien)","steam_id":76561199009189725,"connected_time":1052000000000,"state":"active","ping":80},{"user_id":33,"name":"Glorified Toaster with Legs(1)","steam_id":76561198862644355,"connected_time":811000000000,"state":"active","ping":82},{"user_id":42,"name":"Abe","steam_id":76561199221800268,"connected_time":436000000000,"state":"active","ping":69},{"user_id":36,"name":"Golfing with Joel","steam_id":76561199161637215,"connected_time":648000000000,"state":"active","ping":99},{"user_id":48,"name":"Del Davis (Del Davis)","steam_id":76561199365669004,"connected_time":97000000000,"state":"active","ping":58},{"user_id":38,"name":"Chez","steam_id":76561198089925051,"connected_time":559000000000,"state":"active","ping":96},{"user_id":44,"name":"NEVERLUCKY","steam_id":76561198098948455,"connected_time":238000000000,"state":"active","ping":71},{"user_id":49,"name":"LKnight","steam_id":76561198207451708,"connected_time":27000000000,"state":"active","ping":66},{"user_id":47,"name":"Swimming Champion 1967","steam_id":76561198026225936,"connected_time":215000000000,"state":"active","ping":99}]},{"server_id":395,"name":"Uncletopia | Sydney | 3 | All Maps","name_short":"syd-3","host":"syd-1.au.uncletopia.com","port":27035,"enabled":true,"region":"au","cc":"au","latitude":-33.865143,"longitude":151.2099,"reserved":0,"last_update":"0001-01-01T00:00:00Z","name_a2s":"Uncletopia | Sydney | 3 | All Maps","protocol":17,"map":"koth_lakeside_final","folder":"tf","game":"Team Fortress","app_id":440,"player_count":0,"max_players":24,"Bots":0,"server_type":"Dedicated","server_os":"Linux","password":true,"vac":true,"version":"7961495","steam_id":85568392925194467,"keywords":["cp","nocrits","nodmgspread","uncletopia"],"game_id":440,"stv_port":27036,"stv_name":"Uncletopia | Sydney | 3 | All Maps | STV","players":null},{"server_id":396,"name":"Uncletopia | Sydney | 4 | All Maps","name_short":"syd-4","host":"syd-1.au.uncletopia.com","port":27045,"enabled":true,"region":"au","cc":"au","latitude":-33.865143,"longitude":151.2099,"reserved":0,"last_update":"0001-01-01T00:00:00Z","name_a2s":"Uncletopia | Sydney | 4 | All Maps","protocol":17,"map":"koth_viaduct","folder":"tf","game":"Team Fortress","app_id":440,"player_count":0,"max_players":24,"Bots":0,"server_type":"Dedicated","server_os":"Linux","password":true,"vac":true,"version":"7961495","steam_id":85568392925397958,"keywords":["cp","nocrits","nodmgspread","uncletopia"],"game_id":440,"stv_port":27046,"stv_name":"Uncletopia | Sydney | 4 | All Maps | STV","players":null},{"server_id":58,"name":"Uncletopia | Sydney | 5 | Stopwatch Beta","name_short":"syd-5","host":"syd-1.au.uncletopia.com","port":27055,"enabled":true,"region":"au","cc":"au","latitude":-33.865143,"longitude":151.2099,"reserved":0,"last_update":"0001-01-01T00:00:00Z","name_a2s":"Uncletopia | Sydney | 5 | Stopwatch Beta","protocol":17,"map":"workshop/koth_ashville_final.ugc2130459942","folder":"tf","game":"Team Fortress","app_id":440,"player_count":0,"max_players":24,"Bots":0,"server_type":"Dedicated","server_os":"Linux","password":true,"vac":true,"version":"7961495","steam_id":85568392925397959,"keywords":["cp","nocrits","nodmgspread","uncletopia"],"game_id":440,"stv_port":27056,"stv_name":"Uncletopia | Sydney | 5 | Stopwatch Beta | STV","players":null},{"server_id":59,"name":"Uncletopia | Sydney | 6 | Community","name_short":"syd-6","host":"syd-1.au.uncletopia.com","port":27065,"enabled":true,"region":"au","cc":"au","latitude":-33.865143,"longitude":151.2099,"reserved":0,"last_update":"0001-01-01T00:00:00Z","name_a2s":"Uncletopia | Sydney | 6 | Community","protocol":17,"map":"workshop/cp_bruhstbowl_b6.ugc2878604990","folder":"tf","game":"Team Fortress","app_id":440,"player_count":0,"max_players":24,"Bots":0,"server_type":"Dedicated","server_os":"Linux","password":true,"vac":true,"version":"7961495","steam_id":85568392925397960,"keywords":["cp","nocrits","nodmgspread","uncletopia"],"game_id":440,"stv_port":27066,"stv_name":"Uncletopia | Sydney | 6 | Community | STV","players":null},{"server_id":49,"name":"Uncletopia | Warsaw | 1 | All Maps","name_short":"waw-1","host":"waw-1.pl.uncletopia.com","port":27015,"enabled":true,"region":"eu","cc":"pl","latitude":52.2297,"longitude":21.017532,"reserved":0,"last_update":"0001-01-01T00:00:00Z","name_a2s":"Uncletopia | Warsaw | 1 | All Maps","protocol":17,"map":"pl_upward","folder":"tf","game":"Team Fortress","app_id":440,"player_count":0,"max_players":24,"Bots":0,"server_type":"Dedicated","server_os":"Linux","password":true,"vac":true,"version":"7961495","steam_id":85568392925397850,"keywords":["nocrits","nodmgspread","payload","uncletopia"],"game_id":440,"stv_port":27016,"stv_name":"Uncletopia | Warsaw | 1 | All Maps | STV","players":null},{"server_id":50,"name":"Uncletopia | Warsaw | 2 | All Maps","name_short":"waw-2","host":"waw-1.pl.uncletopia.com","port":27025,"enabled":true,"region":"eu","cc":"pl","latitude":52.2297,"longitude":21.017532,"reserved":0,"last_update":"0001-01-01T00:00:00Z","name_a2s":"Uncletopia | Warsaw | 2 | All Maps","protocol":17,"map":"pl_badwater","folder":"tf","game":"Team Fortress","app_id":440,"player_count":0,"max_players":24,"Bots":0,"server_type":"Dedicated","server_os":"Linux","password":true,"vac":true,"version":"7961495","steam_id":85568392925397851,"keywords":["nocrits","nodmgspread","payload","uncletopia"],"game_id":440,"stv_port":27026,"stv_name":"Uncletopia | Warsaw | 2 | All Maps | STV","players":null},{"server_id":51,"name":"Uncletopia | Warsaw | 3 | All Maps","name_short":"waw-3","host":"waw-1.pl.uncletopia.com","port":27035,"enabled":true,"region":"eu","cc":"pl","latitude":52.2297,"longitude":21.017532,"reserved":0,"last_update":"0001-01-01T00:00:00Z","name_a2s":"Uncletopia | Warsaw | 3 | All Maps","protocol":17,"map":"cp_process_final","folder":"tf","game":"Team Fortress","app_id":440,"player_count":0,"max_players":24,"Bots":0,"server_type":"Dedicated","server_os":"Linux","password":true,"vac":true,"version":"7961495","steam_id":85568392925397852,"keywords":["cp","nocrits","nodmgspread","uncletopia"],"game_id":440,"stv_port":27036,"stv_name":"Uncletopia | Warsaw | 3 | All Maps | STV","players":null},{"server_id":52,"name":"Uncletopia | Warsaw | 4 | All Maps","name_short":"waw-4","host":"waw-1.pl.uncletopia.com","port":27045,"enabled":true,"region":"eu","cc":"pl","latitude":52.2297,"longitude":21.017532,"reserved":0,"last_update":"0001-01-01T00:00:00Z","name_a2s":"Uncletopia | Warsaw | 4 | All Maps","protocol":17,"map":"pl_badwater","folder":"tf","game":"Team Fortress","app_id":440,"player_count":0,"max_players":24,"Bots":0,"server_type":"Dedicated","server_os":"Linux","password":true,"vac":true,"version":"7961495","steam_id":85568392925397853,"keywords":["nocrits","nodmgspread","payload","uncletopia"],"game_id":440,"stv_port":27046,"stv_name":"Uncletopia | Warsaw | 4 | All Maps | STV","players":null},{"server_id":53,"name":"Uncletopia | Warsaw | 5 | Stopwatch Beta","name_short":"waw-5","host":"waw-1.pl.uncletopia.com","port":27055,"enabled":true,"region":"eu","cc":"pl","latitude":52.2297,"longitude":21.017532,"reserved":0,"last_update":"0001-01-01T00:00:00Z","name_a2s":"Uncletopia | Warsaw | 5 | Stopwatch Beta","protocol":17,"map":"pl_snowycoast","folder":"tf","game":"Team Fortress","app_id":440,"player_count":0,"max_players":24,"Bots":0,"server_type":"Dedicated","server_os":"Linux","password":true,"vac":true,"version":"7961495","steam_id":85568392925397854,"keywords":["nocrits","nodmgspread","payload","uncletopia"],"game_id":440,"stv_port":27056,"stv_name":"Uncletopia | Warsaw | 5 | Stopwatch Beta | STV","players":null},{"server_id":54,"name":"Uncletopia | Warsaw | 6 | Community","name_short":"waw-6","host":"waw-1.pl.uncletopia.com","port":27065,"enabled":true,"region":"eu","cc":"pl","latitude":52.2297,"longitude":21.017532,"reserved":0,"last_update":"0001-01-01T00:00:00Z","name_a2s":"Uncletopia | Warsaw | 6 | Community","protocol":17,"map":"pl_borneo","folder":"tf","game":"Team Fortress","app_id":440,"player_count":0,"max_players":24,"Bots":0,"server_type":"Dedicated","server_os":"Linux","password":true,"vac":true,"version":"7961495","steam_id":85568392925397856,"keywords":["nocrits","nodmgspread","payload","uncletopia"],"game_id":440,"stv_port":27066,"stv_name":"Uncletopia | Warsaw | 6 | Community | STV","players":null}]}