{"status":true,"message":"","result":[{"server_id":9,"name":"Uncletopia | Atlanta | 1 | All Maps","name_short":"atl-1","host":"atl-1.us.uncletopia.com","port":27015,"enabled":true,"region":"us-east","cc":"us","latitude":33.753746,"longitude":-84.38633,"reserved":0,"last_update":"0001-01-01T00:00:00Z","name_a2s":"Uncletopia | Atlanta | 1 | All Maps","protocol":17,"map":"cp_dustbowl","folder":"tf","game":"Team Fortress","app_id":440,"player_count":24,"max_players":24,"Bots":0,"server_type":"Dedicated","server_os":"Linux","password":true,"vac":true,"version":"7961495","steam_id":85568392924469982,"keywords":["cp","nocrits","nodmgspread","uncletopia"],"game_id":440,"stv_port":27016,"stv_name":"Uncletopia | Atlanta | 1 | All Maps | STV","players":[{"user_id":645,"name":"confield","steam_id":76561198004322265,"connected_time":1350000000000,"state":"active","ping":49},{"user_id":601,"name":"Sinta","steam_id":76561198098398841,"connected_time":5656000000000,"state":"active","ping":59},{"user_id":647,"name":"SuperNovaFox","steam_id":76561198052172564,"connected_time":980000000000,"state":"active","ping":65},{"user_id":648,"name":"Alfonso Molestro","steam_id":76561197998677099,"connected_time":366000000000,"state":"active","ping":87},{"user_id":641,"name":"sumerian death metal warrior","steam_id":76561198997380708,"connected_time":1794000000000,"state":"active","ping":104},{"user_id":528,"name":"gallowsCalibrator","steam_id":76561198404707578,"connected_time":11673000000000,"state":"active","ping":61},{"user_id":639,"name":"ash","steam_id":76561198127890645,"connected_time":2194000000000,"state":"active","ping":73},{"user_id":637,"name":"1st place love live fan","steam_id":76561198037951506,"connected_time":2226000000000,"state":"active","ping":56},{"user_id":622,"name":"Echo","steam_id":76561198072092594,"connected_time":3543000000000,"state":"active","ping":59},{"user_id":644,"name":"Heathcliff","steam_id":76561198044288534,"connected_time":1389000000000,"state":"active","ping":64},{"user_id":609,"name":"zabloinkus","steam_id":76561198069967245,"connected_time":5427000000000,"state":"active","ping":75},{"user_id":646,"name":"Michaelpc1","steam_id":76561198088365519,"connected_time":1163000000000,"state":"active","ping":74},{"user_id":602,"name":"Le4n!!!","steam_id":76561198045522596,"connected_time":5656000000000,"state":"active","ping":72},{"user_id":626,"name":"Colin102004","steam_id":76561198202384334,"connected_time":3483000000000,"state":"active","ping":66},{"user_id":642,"name":"poopshitter9000","steam_id":76561198074624639,"connected_time":1595000000000,"state":"active","ping":72},{"user_id":640,"name":"3Phase","steam_id":76561197995053989,"connected_time":2166000000000,"state":"active","ping":74},{"user_id":636,"name":"Lunch Enjoyer","steam_id":76561198037361116,"connected_time":2367000000000,"state":"active","ping":110},{"user_id":634,"name":"The_Stomach_Stone_Surgeon","steam_id":76561198044643725,"connected_time":2645000000000,"state":"active","ping":42},{"user_id":643,"name":"Erchius (she/her)","steam_id":76561198256892300,"connected_time":1402000000000,"state":"active","ping":47},{"user_id":610,"name":"plutonium isotope","steam_id":76561198319442494,"connected_time":4845000000000,"state":"active","ping":103},{"user_id":615,"name":"Ligh3t","steam_id":76561198179178533,"connected_time":4629000000000,"state":"active","ping":83},{"user_id":560,"name":"PayPal me $3000 USD","steam_id":76561199066185761,"connected_time":9608000000000,"state":"active","ping":116},{"user_id":596,"name":"bobdabuil3er","steam_id":76561199203014888,"connected_time":6046000000000,"state":"active","ping":65},{"user_id":619,"name":"Talented","steam_id":76561198800259660,"connected_time":4169000000000,"state":"active","ping":47}]},{"server_id":104,"name":"Uncletopia | Atlanta | 2 | All Maps","name_short":"atl-2","host":"atl-1.us.uncletopia.com","port":27025,"enabled":true,"region":"us-east","cc":"us","latitude":33.753746,"longitude":-84.38633,"reserved":0,"last_update":"0001-01-01T00:00:00Z","name_a2s":"Uncletopia | Atlanta | 2 | All Maps","protocol":17,"map":"pl_snowycoast","folder":"tf","game":"Team Fortress","app_id":440,"player_count":24,"max_players":24,"Bots":0,"server_type":"Dedicated","server_os":"Linux","password":true,"vac":true,"version":"7961495","steam_id":85568392924469983,"keywords":["nocrits","nodmgspread","payload","uncletopia"],"game_id":440,"stv_port":27026,"stv_name":"Uncletopia | Atlanta | 2 | All Maps | STV","players":[{"user_id":427,"name":"yourmainarab","steam_id":76561199037646643,"connected_time":1588000000000,"state":"active","ping":100},{"user_id":421,"name":"Vlad","steam_id":76561198150626637,"connected_time":1915000000000,"state":"active","ping":59},{"user_id":393,"name":"asoingbob","steam_id":76561198032682990,"connected_time":3549000000000,"state":"active","ping":110},{"user_id":432,"name":"POWER DAD FOREVER","steam_id":76561197970312737,"connected_time":778000000000,"state":"active","ping":68},{"user_id":389,"name":"BurgerSweat47","steam_id":76561198055422562,"connected_time":3639000000000,"state":"active","ping":60},{"user_id":395,"name":"PAULIE WALNUT","steam_id":76561197999913275,"connected_time":3520000000000,"state":"active","ping":64},{"user_id":397,"name":"Carolus Rex","steam_id":76561198116830955,"connected_time":3455000000000,"state":"active","ping":67},{"user_id":332,"name":"General Sherman","steam_id":76561198044769376,"connected_time":9543000000000,"state":"active","ping":52},{"user_id":413,"name":"Cinder","steam_id":76561198020363384,"connected_time":2334000000000,"state":"active","ping":101},{"user_id":385,"name":"DlTTO","steam_id":76561199427026752,"connected_time":4354000000000,"state":"active","ping":72},{"user_id":398,"name":"Bunny B❤tch","steam_id":76561198013286930,"connected_time":3452000000000,"state":"active","ping":63},{"user_id":433,"name":"MissXis","steam_id":76561198256277680,"connected_time":773000000000,"state":"active","ping":73},{"user_id":434,"name":"Fimbulvetr","steam_id":76561198837857545,"connected_time":737000000000,"state":"active","ping":161},{"user_id":429,"name":"dicknballz98","steam_id":76561198010662741,"connected_time":976000000000,"state":"active","ping":47},{"user_id":415,"name":"Bucket","steam_id":76561199105084889,"connected_time":2319000000000,"state":"active","ping":87},{"user_id":435,"name":"Squeakus","steam_id":76561198268607376,"connected_time":726000000000,"state":"active","ping":57},{"user_id":403,"name":"what","steam_id":76561198082336619,"connected_time":3312000000000,"state":"active","ping":75},{"user_id":430,"name":"Delta","steam_id":76561198158985472,"connected_time":953000000000,"state":"active","ping":113},{"user_id":436,"name":"Dakota","steam_id":76561198134092308,"connected_time":725000000000,"state":"active","ping":74},{"user_id":406,"name":"guts' theme (Cut \u0026 Looped)","steam_id":76561198012829728,"connected_time":3273000000000,"state":"active","ping":78},{"user_id":422,"name":"Phoenix","steam_id":76561198068722818,"connected_time":1883000000000,"state":"active","ping":86},{"user_id":420,"name":"squirt","steam_id":76561199169486012,"connected_time":1976000000000,"state":"active","ping":58},{"user_id":409,"name":"Noise","steam_id":76561198075011424,"connected_time":3233000000000,"state":"active","ping":86},{"user_id":425,"name":"loogi-tooie","steam_id":76561198061276213,"connected_time":1797000000000,"state":"active","ping":73}]},{"server_id":400,"name":"Uncletopia | Atlanta | 3 | Stopwatch","name_short":"atl-3","host":"atl-1.us.uncletopia.com","port":27035,"enabled":true,"region":"us-east","cc":"us","latitude":33.753746,"longitude":-84.38633,"reserved":0,"last_update":"0001-01-01T00:00:00Z","name_a2s":"Uncletopia | Atlanta | 3 | Stopwatch","protocol":17,"map":"workshop/koth_jamram_rc1a.ugc2964065613","folder":"tf","game":"Team Fortress","app_id":440,"player_count":0,"max_players":24,"Bots":0,"server_type":"Dedicated","server_os":"Linux","password":true,"vac":true,"version":"7961495","steam_id":85568392924515187,"keywords":["cp","nocrits","nodmgspread","uncletopia"],"game_id":440,"stv_port":27036,"stv_name":"Uncletopia | Atlanta | 3 | Stopwatch | STV","players":null},{"server_id":401,"name":"Uncletopia | Atlanta | 4 | Community","name_short":"atl-4","host":"atl-1.us.uncletopia.com","port":27045,"enabled":true,"region":"us-east","cc":"us","latitude":33.753746,"longitude":-84.38633,"reserved":0,"last_update":"0001-01-01T00:00:00Z","name_a2s":"Uncletopia | Atlanta | 4 | Community","protocol":17,"map":"workshop/cp_reckoner_rc6.ugc674719999","folder":"tf","game":"Team Fortress","app_id":440,"player_count":0,"max_players":24,"Bots":0,"server_type":"Dedicated","server_os":"Linux","password":true,"vac":true,"version":"7961495","steam_id":85568392924515188,"keywords":["cp","nocrits","nodmgspread","uncletopia"],"game_id":440,"stv_port":27046,"stv_name":"Uncletopia | Atlanta | 4 | Community | STV","players":null},{"server_id":2,"name":"Uncletopia | Chicago | 1 | All Maps","name_short":"chi-1","host":"chi-1.us.uncletopia.com","port":27015,"enabled":true,"region":"us-central","cc":"us","latitude":41.881832,"longitude":-87.62318,"reserved":0,"last_update":"0001-01-01T00:00:00Z","name_a2s":"Uncletopia | Chicago | 1 | All Maps","protocol":17,"map":"cp_sunshine","folder":"tf","game":"Team Fortress","app_id":440,"player_count":22,"max_players":24,"Bots":0,"server_type":"Dedicated","server_os":"Linux","password":true,"vac":true,"version":"7961495","steam_id":85568392924469984,"keywords":["cp","nocrits","nodmgspread","uncletopia"],"game_id":440,"stv_port":27016,"stv_name":"Uncletopia | Chicago | 1 | All Maps | STV","players":[{"user_id":533,"name":"An Erect Penis :)","steam_id":76561198086477485,"connected_time":5229000000000,"state":"active","ping":41},{"user_id":574,"name":"corviraptor (certified failgirl","steam_id":76561198058284392,"connected_time":3039000000000,"state":"active","ping":74},{"user_id":599,"name":"checkswing","steam_id":76561198999816132,"connected_time":87000000000,"state":"active","ping":62},{"user_id":592,"name":"SHADOW","steam_id":76561198207768148,"connected_time":400000000000,"state":"active","ping":97},{"user_id":451,"name":"Cobrakid1968","steam_id":76561198106262346,"connected_time":11028000000000,"state":"active","ping":65},{"user_id":583,"name":"Raccoon Wizard","steam_id":76561198072562591,"connected_time":2124000000000,"state":"active","ping":58},{"user_id":538,"name":"lobster","steam_id":76561198147417707,"connected_time":4873000000000,"state":"active","ping":75},{"user_id":595,"name":"Francis Klum","steam_id":76561198979494052,"connected_time":384000000000,"state":"active","ping":98},{"user_id":589,"name":"OH BOY","steam_id":76561199052273428,"connected_time":1251000000000,"state":"active","ping":51},{"user_id":546,"name":"ChickenBagel","steam_id":76561198114485002,"connected_time":3707000000000,"state":"active","ping":60},{"user_id":593,"name":"Funne Monke","steam_id":76561198147868601,"connected_time":397000000000,"state":"active","ping":60},{"user_id":579,"name":"King","steam_id":76561198010019214,"connected_time":2747000000000,"state":"active","ping":64},{"user_id":576,"name":"(\u003e人\u003c;)","steam_id":76561198043684960,"connected_time":2843000000000,"state":"active","ping":70},{"user_id":598,"name":"TheBrocklobster","steam_id":76561198039682984,"connected_time":205000000000,"state":"active","ping":100},{"user_id":584,"name":"Minimite","steam_id":76561198119628940,"connected_time":2077000000000,"state":"active","ping":66},{"user_id":594,"name":"BananaMangoFestival2013","steam_id":76561198218558897,"connected_time":394000000000,"state":"active","ping":137},{"user_id":588,"name":"Real","steam_id":76561198119315680,"connected_time":1424000000000,"state":"active","ping":46},{"user_id":557,"name":"lanoc","steam_id":76561198055415367,"connected_time":3547000000000,"state":"active","ping":60},{"user_id":539,"name":"ุ","steam_id":76561198170624701,"connected_time":4196000000000,"state":"active","ping":85},{"user_id":597,"name":"Aristotle Voulton","steam_id":76561198100174923,"connected_time":349000000000,"state":"active","ping":73},{"user_id":560,"name":"AlecTheNefarious","steam_id":76561198035291230,"connected_time":3539000000000,"state":"active","ping":72},{"user_id":570,"name":"sithreis","steam_id":76561198000564263,"connected_time":3463000000000,"state":"active","ping":74}]},{"server_id":106,"name":"Uncletopia | Chicago | 2 | All Maps","name_short":"chi-2","host":"chi-1.us.uncletopia.com","port":27025,"enabled":true,"region":"us-central","cc":"us","latitude":41.881832,"longitude":-87.62318,"reserved":0,"last_update":"0001-01-01T00:00:00Z","name_a2s":"Uncletopia | Chicago | 2 | All Maps","protocol":17,"map":"pl_snowycoast","folder":"tf","game":"Team Fortress","app_id":440,"player_count":24,"max_players":24,"Bots":0,"server_type":"Dedicated","server_os":"Linux","password":true,"vac":true,"version":"7961495","steam_id":85568392924469985,"keywords":["nocrits","nodmgspread","payload","uncletopia"],"game_id":440,"stv_port":27026,"stv_name":"Uncletopia | Chicago | 2 | All Maps | STV","players":[{"user_id":897,"name":"󠀡󠀡","steam_id":76561198348035053,"connected_time":1872000000000,"state":"active","ping":114},{"user_id":898,"name":"Sweater-Fan","steam_id":76561199389567214,"connected_time":1872000000000,"state":"active","ping":57},{"user_id":892,"name":"Gunkzilla","steam_id":76561198068228415,"connected_time":2375000000000,"state":"active","ping":49},{"user_id":825,"name":"Dad","steam_id":76561198126686695,"connected_time":5476000000000,"state":"active","ping":55},{"user_id":900,"name":"Gelisor","steam_id":76561198001581101,"connected_time":1653000000000,"state":"active","ping":74},{"user_id":861,"name":"Kirby","steam_id":76561199161858008,"connected_time":4131000000000,"state":"active","ping":67},{"user_id":837,"name":"⭐Legendary Blade⭐","steam_id":76561198189176634,"connected_time":4936000000000,"state":"active","ping":97},{"user_id":895,"name":"Big Boy Beni","steam_id":76561197995469460,"connected_time":2342000000000,"state":"active","ping":90},{"user_id":911,"name":"Gene Takovic","steam_id":76561198881039861,"connected_time":217000000000,"state":"active","ping":73},{"user_id":891,"name":"LordGaBe64","steam_id":76561199395143624,"connected_time":2488000000000,"state":"active","ping":111},{"user_id":896,"name":"Fiiib","steam_id":76561198119105438,"connected_time":1951000000000,"state":"active","ping":71},{"user_id":862,"name":"Acuzik","steam_id":76561198045453400,"connected_time":4120000000000,"state":"active","ping":54},{"user_id":832,"name":"stuffedidiot","steam_id":76561199181513019,"connected_time":5370000000000,"state":"active","ping":98},{"user_id":882,"name":"Birch","steam_id":76561198316231704,"connected_time":3160000000000,"state":"active","ping":58},{"user_id":906,"name":"King Of The Chill","steam_id":76561197971394640,"connected_time":956000000000,"state":"active","ping":78},{"user_id":883,"name":"Nibelsnarf (She/They)","steam_id":76561198137642054,"connected_time":3109000000000,"state":"active","ping":60},{"user_id":863,"name":"Braingoo Hex","steam_id":76561198083094783,"connected_time":4119000000000,"state":"active","ping":90},{"user_id":910,"name":"Maj","steam_id":76561198154203415,"connected_time":240000000000,"state":"active","ping":61},{"user_id":835,"name":"❀Shinpuru❀","steam_id":76561198190288063,"connected_time":5248000000000,"state":"active","ping":97},{"user_id":836,"name":"Dr. Ｔｉｍｓｋａ","steam_id":76561198272075712,"connected_time":5246000000000,"state":"active","ping":71},{"user_id":890,"name":"krebex","steam_id":76561198004660630,"connected_time":2653000000000,"state":"active","ping":68},{"user_id":872,"name":"Rat Smacker","steam_id":76561198043629646,"connected_time":3888000000000,"state":"active","ping":79},{"user_id":901,"name":"StarManMatt","steam_id":76561198125513574,"connected_time":1520000000000,"state":"active","ping":84},{"user_id":908,"name":"Papa Smoke","steam_id":76561198181348206,"connected_time":640000000000,"state":"active","ping":47}]},{"server_id":402,"name":"Uncletopia | Chicago | 3 | All Maps","name_short":"chi-3","host":"chi-1.us.uncletopia.com","port":27035,"enabled":true,"region":"us-central","cc":"us","latitude":41.881832,"longitude":-87.62318,"reserved":0,"last_update":"0001-01-01T00:00:00Z","name_a2s":"Uncletopia | Chicago | 3 | All Maps","protocol":17,"map":"koth_lakeside_final","folder":"tf","game":"Team Fortress","app_id":440,"player_count":24,"max_players":24,"Bots":0,"server_type":"Dedicated","server_os":"Linux","password":true,"vac":true,"version":"7961495","steam_id":85568392924515191,"keywords":["cp","nocrits","nodmgspread","uncletopia"],"game_id":440,"stv_port":27036,"stv_name":"Uncletopia | Chicago | 3 | All Maps | STV","players":[{"user_id":423,"name":"River Rat","steam_id":76561198116383976,"connected_time":1950000000000,"state":"active","ping":103},{"user_id":419,"name":"pw","steam_id":76561198087945065,"connected_time":2087000000000,"state":"active","ping":51},{"user_id":436,"name":"Scremz (Jeffery Dommer)","steam_id":76561198090314229,"connected_time":914000000000,"state":"active","ping":72},{"user_id":319,"name":"pa$$w0rd","steam_id":76561198224614084,"connected_time":11051000000000,"state":"active","ping":67},{"user_id":397,"name":"Xx_Savage_Twerks_xX","steam_id":76561198011665915,"connected_time":4169000000000,"state":"active","ping":64},{"user_id":352,"name":"⸸ gaige ⛧","steam_id":76561198090576796,"connected_time":7396000000000,"state":"active","ping":57},{"user_id":428,"name":"GnarlySheep","steam_id":76561198067288233,"connected_time":1585000000000,"state":"active","ping":47},{"user_id":444,"name":"C₄H₈Cl₂SGamez","steam_id":76561198250471340,"connected_time":77000000000,"state":"active","ping":55},{"user_id":433,"name":"Cringelander","steam_id":76561198841559088,"connected_time":1017000000000,"state":"active","ping":63},{"user_id":442,"name":"wetto","steam_id":76561198224811504,"connected_time":380000000000,"state":"active","ping":60},{"user_id":404,"name":"stupid ape","steam_id":76561198350027075,"connected_time":3448000000000,"state":"active","ping":57},{"user_id":438,"name":"kaede","steam_id":76561198345528370,"connected_time":802000000000,"state":"active","ping":83},{"user_id":439,"name":"Yummy Kabobz","steam_id":76561198067661705,"connected_time":760000000000,"state":"active","ping":60},{"user_id":382,"name":"tunaa","steam_id":76561198362763159,"connected_time":5436000000000,"state":"active","ping":101},{"user_id":411,"name":"4TheColiny","steam_id":76561198062184455,"connected_time":2718000000000,"state":"active","ping":52},{"user_id":441,"name":"chrischrischris3018@yahoo.com","steam_id":76561198137316053,"connected_time":533000000000,"state":"active","ping":76},{"user_id":383,"name":"Just Juanito","steam_id":76561198241446874,"connected_time":5430000000000,"state":"active","ping":114},{"user_id":317,"name":"Cider Lia","steam_id":76561198151569597,"connected_time":11324000000000,"state":"active","ping":142},{"user_id":313,"name":"beats (16:38)","steam_id":76561199245717718,"connected_time":11933000000000,"state":"active","ping":48},{"user_id":117,"name":"Rode hard, put away wet","steam_id":76561198062764039,"connected_time":25660000000000,"state":"active","ping":59},{"user_id":425,"name":"MaybeMars","steam_id":76561198084736804,"connected_time":1738000000000,"state":"active","ping":74},{"user_id":415,"name":"Hovg9000","steam_id":76561199191556710,"connected_time":2624000000000,"state":"active","ping":76},{"user_id":443,"name":"L frog","steam_id":76561198040737975,"connected_time":268000000000,"state":"active","ping":47},{"user_id":437,"name":"Skeptical","steam_id":76561198038261789,"connected_time":841000000000,"state":"active","ping":105}]},{"server_id":403,"name":"Uncletopia | Chicago | 4 | All Maps","name_short":"chi-4","host":"chi-1.us.uncletopia.com","port":27045,"enabled":true,"region":"us-central","cc":"us","latitude":41.881832,"longitude":-87.62318,"reserved":0,"last_update":"0001-01-01T00:00:00Z","name_a2s":"Uncletopia | Chicago | 4 | All Maps","protocol":17,"map":"pl_swiftwater_final1","folder":"tf","game":"Team Fortress","app_id":440,"player_count":24,"max_players":24,"Bots":0,"server_type":"Dedicated","server_os":"Linux","password":true,"vac":true,"version":"7961495","steam_id":85568392924515193,"keywords":["nocrits","nodmgspread","payload","uncletopia"],"game_id":440,"stv_port":27046,"stv_name":"Uncletopia | Chicago | 4 | All Maps | STV","players":[{"user_id":458,"name":"Olebat","steam_id":76561198055558589,"connected_time":5025000000000,"state":"active","ping":79},{"user_id":520,"name":"Muffin","steam_id":76561198050715053,"connected_time":2896000000000,"state":"active","ping":74},{"user_id":538,"name":"Q47","steam_id":76561198087128341,"connected_time":746000000000,"state":"active","ping":141},{"user_id":536,"name":"Vin Diesel","steam_id":76561197969386201,"connected_time":774000000000,"state":"active","ping":57},{"user_id":499,"name":"Rudy","steam_id":76561198013456828,"connected_time":3933000000000,"state":"active","ping":59},{"user_id":528,"name":"Pop","steam_id":76561199012562851,"connected_time":2352000000000,"state":"active","ping":72},{"user_id":533,"name":"Siz","steam_id":76561198072962154,"connected_time":1693000000000,"state":"active","ping":59},{"user_id":517,"name":"Zaz","steam_id":76561198140587647,"connected_time":3003000000000,"state":"active","ping":57},{"user_id":448,"name":"xFactr","steam_id":76561198129007422,"connected_time":5279000000000,"state":"active","ping":60},{"user_id":521,"name":"phfez","steam_id":76561198046150386,"connected_time":2867000000000,"state":"active","ping":74},{"user_id":529,"name":"Pheonix Fel Dragon","steam_id":76561198164974227,"connected_time":2050000000000,"state":"active","ping":68},{"user_id":545,"name":"He rolls his own","steam_id":76561198058162684,"connected_time":206000000000,"state":"active","ping":70},{"user_id":531,"name":"harley","steam_id":76561198799384110,"connected_time":1842000000000,"state":"active","ping":64},{"user_id":503,"name":"LVL","steam_id":76561198334403617,"connected_time":3899000000000,"state":"active","ping":59},{"user_id":544,"name":"Jw. www.vaticancatholic.com","steam_id":76561198190170075,"connected_time":249000000000,"state":"active","ping":67},{"user_id":546,"name":"That one rocking chair","steam_id":76561197991063200,"connected_time":123000000000,"state":"active","ping":69},{"user_id":504,"name":"GRANDES BOLAS","steam_id":76561198144766439,"connected_time":3893000000000,"state":"active","ping":45},{"user_id":512,"name":"las montañas","steam_id":76561198105065307,"connected_time":3205000000000,"state":"active","ping":46},{"user_id":534,"name":"Digresser","steam_id":76561198016426367,"connected_time":1279000000000,"state":"active","ping":62},{"user_id":525,"name":"Walrus","steam_id":76561198944681414,"connected_time":2543000000000,"state":"active","ping":77},{"user_id":540,"name":"FreshlyBrewed","steam_id":76561198181099881,"connected_time":653000000000,"state":"active","ping":68},{"user_id":542,"name":"Gon","steam_id":76561198928586728,"connected_time":499000000000,"state":"active","ping":75},{"user_id":527,"name":"crazyabe111","steam_id":76561198407686352,"connected_time":2455000000000,"state":"active","ping":65},{"user_id":524,"name":"StinkyBoi","steam_id":76561198400132605,"connected_time":2838000000000,"state":"active","ping":130}]},{"server_id":36,"name":"Uncletopia | Chicago | 5 | All Maps","name_short":"chi-5","host":"chi-2.us.uncletopia.com","port":27015,"enabled":true,"region":"us-central","cc":"us","latitude":41.881832,"longitude":-87.62318,"reserved":0,"last_update":"0001-01-01T00:00:00Z","name_a2s":"Uncletopia | Chicago | 5 | All Maps","protocol":17,"map":"koth_highpass","folder":"tf","game":"Team Fortress","app_id":440,"player_count":17,"max_players":24,"Bots":0,"server_type":"Dedicated","server_os":"Linux","password":true,"vac":true,"version":"7961495","steam_id":85568392924866362,"keywords":["cp","nocrits","nodmgspread","uncletopia"],"game_id":440,"stv_port":27016,"stv_name":"Uncletopia | Chicago | 5 | All Maps | STV","players":[{"user_id":495,"name":"Uwu Micster","steam_id":76561198843890616,"connected_time":16498000000000,"state":"active","ping":85},{"user_id":808,"name":"Bentus","steam_id":76561198056887235,"connected_time":1544000000000,"state":"active","ping":49},{"user_id":519,"name":"The strongest ⑨ ball","steam_id":76561198126760743,"connected_time":13377000000000,"state":"active","ping":74},{"user_id":846,"name":"The Notorious T.A.F.T.","steam_id":76561198073012352,"connected_time":87000000000,"state":"active","ping":74},{"user_id":809,"name":"Guess I'm just popo","steam_id":76561197966419253,"connected_time":1543000000000,"state":"active","ping":75},{"user_id":843,"name":"Anomic","steam_id":76561198044000414,"connected_time":222000000000,"state":"active","ping":84},{"user_id":844,"name":"NewWRLD","steam_id":76561199147686390,"connected_time":220000000000,"state":"active","ping":59},{"user_id":760,"name":"associate of sanchez","steam_id":76561198056186750,"connected_time":2949000000000,"state":"active","ping":60},{"user_id":845,"name":"Grosmo","steam_id":76561198132567183,"connected_time":163000000000,"state":"active","ping":71},{"user_id":810,"name":"lys de mer","steam_id":76561198054906945,"connected_time":1533000000000,"state":"active","ping":52},{"user_id":811,"name":"DEECH","steam_id":76561198066429444,"connected_time":1478000000000,"state":"active","ping":71},{"user_id":669,"name":"brian eno","steam_id":76561198109901138,"connected_time":5862000000000,"state":"active","ping":78},{"user_id":812,"name":"Tybg123","steam_id":76561198084422657,"connected_time":1474000000000,"state":"active","ping":99},{"user_id":818,"name":"frank","steam_id":76561198137777483,"connected_time":1228000000000,"state":"active","ping":62},{"user_id":770,"name":"Ceige","steam_id":76561198068538473,"connected_time":2659000000000,"state":"active","ping":75},{"user_id":780,"name":"Fluffeline","steam_id":76561198352909489,"connected_time":2448000000000,"state":"active","ping":164},{"user_id":836,"name":"chaffy","steam_id":76561198021754567,"connected_time":516000000000,"state":"active","ping":60}]},{"server_id":37,"name":"Uncletopia | Chicago | 6 | All Maps","name_short":"chi-6","host":"chi-2.us.uncletopia.com","port":27025,"enabled":true,"region":"us-central","cc":"us","latitude":41.881832,"longitude":-87.62318,"reserved":0,"last_update":"0001-01-01T00:00:00Z","name_a2s":"Uncletopia | Chicago | 6 | All Maps","protocol":17,"map":"koth_cascade","folder":"tf","game":"Team Fortress","app_id":440,"player_count":0,"max_players":24,"Bots":0,"server_type":"Dedicated","server_os":"Linux","password":true,"vac":true,"version":"7961495","steam_id":85568392924866363,"keywords":["cp","nocrits","nodmgspread","uncletopia"],"game_id":440,"stv_port":27026,"stv_name":"Uncletopia | Chicago | 6 | All Maps | STV","players":null},{"server_id":38,"name":"Uncletopia | Chicago | 7 | Stopwatch","name_short":"chi-7","host":"chi-2.us.uncletopia.com","port":27035,"enabled":true,"region":"us-central","cc":"us","latitude":41.881832,"longitude":-87.62318,"reserved":0,"last_update":"0001-01-01T00:00:00Z","name_a2s":"Uncletopia | Chicago | 7 | Stopwatch","protocol":17,"map":"koth_lakeside_final","folder":"tf","game":"Team Fortress","app_id":440,"player_count":0,"max_players":24,"Bots":0,"server_type":"Dedicated","server_os":"Linux","password":true,"vac":true,"version":"7961495","steam_id":85568392924866364,"keywords":["cp","nocrits","nodmgspread","uncletopia"],"game_id":440,"stv_port":27036,"stv_name":"Uncletopia | Chicago | 7 | Stopwatch | STV","players":null},{"server_id":39,"name":"Uncletopia | Chicago | 8 | Community","name_short":"chi-8","host":"chi-2.us.uncletopia.com","port":27045,"enabled":true,"region":"us-central","cc":"us","latitude":41.881832,"longitude":-87.62318,"reserved":0,"last_update":"0001-01-01T00:00:00Z","name_a2s":"Uncletopia | Chicago | 8 | Community","protocol":17,"map":"workshop/pl_cashworks_final1.ugc2904065412","folder":"tf","game":"Team Fortress","app_id":440,"player_count":0,"max_players":24,"Bots":0,"server_type":"Dedicated","server_os":"Linux","password":true,"vac":true,"version":"7961495","steam_id":85568392924866365,"keywords":["nocrits","nodmgspread","payload","uncletopia"],"game_id":440,"stv_port":27046,"stv_name":"Uncletopia | Chicago | 8 | Community | STV","players":null},{"server_id":8,"name":"Uncletopia | Dallas | 1 | All Maps","name_short":"dal-1","host":"dal-1.us.uncletopia.com","port":27015,"enabled":true,"region":"us-central","cc":"us","latitude":32.779167,"longitude":-96.80889,"reserved":0,"last_update":"0001-01-01T00:00:00Z","name_a2s":"Uncletopia | Dallas | 1 | All Maps","protocol":17,"map":"koth_cascade","folder":"tf","game":"Team Fortress","app_id":440,"player_count":22,"max_players":24,"Bots":0,"server_type":"Dedicated","server_os":"Linux","password":true,"vac":true,"version":"7961495","steam_id":85568392924469986,"keywords":["cp","nocrits","nodmgspread","uncletopia"],"game_id":440,"stv_port":27016,"stv_name":"Uncletopia | Dallas | 1 | All Maps | STV","players":[{"user_id":607,"name":"Asanez3","steam_id":76561198037381436,"connected_time":2384000000000,"state":"active","ping":88},{"user_id":642,"name":"PIPPIN","steam_id":76561199013202758,"connected_time":223000000000,"state":"active","ping":52},{"user_id":612,"name":"KaosInfinite","steam_id":76561198009126350,"connected_time":2268000000000,"state":"active","ping":70},{"user_id":640,"name":"+","steam_id":76561198262422184,"connected_time":315000000000,"state":"active","ping":52},{"user_id":598,"name":"CreateADebate","steam_id":76561198115760035,"connected_time":2598000000000,"state":"active","ping":63},{"user_id":595,"name":"Stillkill","steam_id":76561198065069057,"connected_time":2646000000000,"state":"active","ping":39},{"user_id":626,"name":"DJ Khaled","steam_id":76561199151702377,"connected_time":1701000000000,"state":"active","ping":70},{"user_id":643,"name":"Bubba Bass","steam_id":76561198026767327,"connected_time":199000000000,"state":"active","ping":60},{"user_id":601,"name":"Mimic","steam_id":76561199204932956,"connected_time":2524000000000,"state":"active","ping":157},{"user_id":638,"name":"Shrimp Flavored Noodles","steam_id":76561198145209609,"connected_time":514000000000,"state":"active","ping":54},{"user_id":644,"name":"rhsiegetank","steam_id":76561198359829118,"connected_time":167000000000,"state":"active","ping":76},{"user_id":645,"name":"Cole Boye","steam_id":76561198282449106,"connected_time":143000000000,"state":"active","ping":69},{"user_id":639,"name":"Irony is pretty cringy","steam_id":76561198120391460,"connected_time":410000000000,"state":"active","ping":71},{"user_id":602,"name":"Shadoe","steam_id":76561198218577281,"connected_time":2483000000000,"state":"active","ping":75},{"user_id":634,"name":"LEFTTRIGGER","steam_id":76561199494382342,"connected_time":1192000000000,"state":"active","ping":48},{"user_id":646,"name":"Giselle","steam_id":76561198162593640,"connected_time":123000000000,"state":"active","ping":103},{"user_id":641,"name":"OGBobbyJohns","steam_id":76561197964339077,"connected_time":310000000000,"state":"active","ping":105},{"user_id":647,"name":"Oliver","steam_id":76561199036584550,"connected_time":92000000000,"state":"active","ping":54},{"user_id":648,"name":"bowling ball biscuits","steam_id":76561199004451589,"connected_time":22000000000,"state":"active","ping":51},{"user_id":631,"name":"Fudge","steam_id":76561198111397414,"connected_time":1552000000000,"state":"active","ping":83},{"user_id":619,"name":"mrthugpug1732","steam_id":76561198881200768,"connected_time":1951000000000,"state":"active","ping":78},{"user_id":636,"name":"IMPROBABLE FLIPPING","steam_id":76561198045964573,"connected_time":1126000000000,"state":"active","ping":76}]},{"server_id":108,"name":"Uncletopia | Dallas | 2 | All Maps","name_short":"dal-2","host":"dal-1.us.uncletopia.com","port":27025,"enabled":true,"region":"us-central","cc":"us","latitude":32.779167,"longitude":-96.80889,"reserved":0,"last_update":"0001-01-01T00:00:00Z","name_a2s":"Uncletopia | Dallas | 2 | All Maps","protocol":17,"map":"pl_barnblitz","folder":"tf","game":"Team Fortress","app_id":440,"player_count":24,"max_players":24,"Bots":0,"server_type":"Dedicated","server_os":"Linux","password":true,"vac":true,"version":"7961495","steam_id":85568392924469988,"keywords":["nocrits","nodmgspread","payload","uncletopia"],"game_id":440,"stv_port":27026,"stv_name":"Uncletopia | Dallas | 2 | All Maps | STV","players":[{"user_id":585,"name":"GLG.Liz","steam_id":76561198021957956,"connected_time":926000000000,"state":"active","ping":48},{"user_id":590,"name":"Matches_                       ","steam_id":76561198048925904,"connected_time":417000000000,"state":"active","ping":89},{"user_id":572,"name":"Dax","steam_id":76561198035787288,"connected_time":1371000000000,"state":"active","ping":107},{"user_id":588,"name":"percocet molly percocet","steam_id":76561198347660282,"connected_time":578000000000,"state":"active","ping":114},{"user_id":562,"name":"The Owlchemist","steam_id":76561198010239032,"connected_time":2285000000000,"state":"active","ping":64},{"user_id":592,"name":"Drapph","steam_id":76561199384213314,"connected_time":218000000000,"state":"active","ping":74},{"user_id":575,"name":"ShapedSilver","steam_id":76561199073305310,"connected_time":1296000000000,"state":"active","ping":64},{"user_id":565,"name":"くコ:彡","steam_id":76561199200969139,"connected_time":2005000000000,"state":"active","ping":109},{"user_id":524,"name":"Gold","steam_id":76561198170467594,"connected_time":5715000000000,"state":"active","ping":74},{"user_id":571,"name":"tsz","steam_id":76561199246231090,"connected_time":1426000000000,"state":"active","ping":70},{"user_id":551,"name":"MrSourLemmon","steam_id":76561199367994914,"connected_time":2895000000000,"state":"active","ping":55},{"user_id":558,"name":"Shoeless","steam_id":76561198243076082,"connected_time":2653000000000,"state":"active","ping":45},{"user_id":589,"name":"ack.awesome676","steam_id":76561199109415958,"connected_time":425000000000,"state":"active","ping":73},{"user_id":582,"name":"XIV Stick","steam_id":76561198001509374,"connected_time":1035000000000,"state":"active","ping":79},{"user_id":587,"name":"Legless Amphibian","steam_id":76561198880476222,"connected_time":731000000000,"state":"active","ping":59},{"user_id":437,"name":"Certified Hood Classic","steam_id":76561199086159354,"connected_time":11473000000000,"state":"active","ping":46},{"user_id":591,"name":"Ssamjang","steam_id":76561197966891870,"connected_time":409000000000,"state":"active","ping":76},{"user_id":581,"name":"daD","steam_id":76561198188498762,"connected_time":1080000000000,"state":"active","ping":62},{"user_id":552,"name":"Shipmunk","steam_id":76561198063062670,"connected_time":2815000000000,"state":"active","ping":75},{"user_id":553,"name":"what're ya buyin","steam_id":76561199277633460,"connected_time":2779000000000,"state":"active","ping":60},{"user_id":559,"name":"zpalmtree","steam_id":76561198134307620,"connected_time":2399000000000,"state":"active","ping":72},{"user_id":593,"name":"jj","steam_id":76561198123287268,"connected_time":132000000000,"state":"active","ping":74},{"user_id":580,"name":"Optimore","steam_id":76561198047662990,"connected_time":1243000000000,"state":"active","ping":76},{"user_id":547,"name":"Ben Shapiro Gaming","steam_id":76561198113651011,"connected_time":3631000000000,"state":"active","ping":91}]},{"server_id":404,"name":"Uncletopia | Dallas | 3 | All Maps","name_short":"dal-3","host":"dal-1.us.uncletopia.com","port":27035,"enabled":true,"region":"us-central","cc":"us","latitude":32.779167,"longitude":-96.80889,"reserved":0,"last_update":"0001-01-01T00:00:00Z","name_a2s":"Uncletopia | Dallas | 3 | All Maps","protocol":17,"map":"plr_bananabay","folder":"tf","game":"Team Fortress","app_id":440,"player_count":0,"max_players":24,"Bots":0,"server_type":"Dedicated","server_os":"Linux","password":true,"vac":true,"version":"7961495","steam_id":85568392924515219,"keywords":["nocrits","nodmgspread","payload","uncletopia"],"game_id":440,"stv_port":27036,"stv_name":"Uncletopia | Dallas | 3 | All Maps | STV","players":null},{"server_id":405,"name":"Uncletopia | Dallas | 4 | Community","name_short":"dal-4","host":"dal-1.us.uncletopia.com","port":27045,"enabled":true,"region":"us-central","cc":"us","latitude":32.779167,"longitude":-96.80889,"reserved":0,"last_update":"0001-01-01T00:00:00Z","name_a2s":"Uncletopia | Dallas | 4 | Community","protocol":17,"map":"workshop/cp_caldera_rc3.ugc2834196889","folder":"tf","game":"Team Fortress","app_id":440,"player_count":0,"max_players":24,"Bots":0,"server_type":"Dedicated","server_os":"Linux","password":true,"vac":true,"version":"7961495","steam_id":85568392924515220,"keywords":["cp","nocrits","nodmgspread","uncletopia"],"game_id":440,"stv_port":27046,"stv_name":"Uncletopia | Dallas | 4 | Community | STV","players":null},{"server_id":5,"name":"Uncletopia | Frankfurt | 1 | All Maps","name_short":"frk-1","host":"frk-1.de.uncletopia.com","port":27015,"enabled":true,"region":"eu","cc":"de","latitude":50.110924,"longitude":8.682127,"reserved":0,"last_update":"0001-01-01T00:00:00Z","name_a2s":"Uncletopia | Frankfurt | 1 | All Maps","protocol":17,"map":"cp_badlands","folder":"tf","game":"Team Fortress","app_id":440,"player_count":0,"max_players":24,"Bots":0,"server_type":"Dedicated","server_os":"Linux","password":true,"vac":true,"version":"7961495","steam_id":85568392924469989,"keywords":["cp","nocrits","nodmgspread","uncletopia"],"game_id":440,"stv_port":27016,"stv_name":"Uncletopia | Frankfurt | 1 | All Maps | STV","players":null},{"server_id":110,"name":"Uncletopia | Frankfurt | 2 | All Maps","name_short":"frk-2","host":"frk-1.de.uncletopia.com","port":27025,"enabled":true,"region":"eu","cc":"de","latitude":50.110924,"longitude":8.682127,"reserved":0,"last_update":"0001-01-01T00:00:00Z","name_a2s":"Uncletopia | Frankfurt | 2 | All Maps","protocol":17,"map":"plr_hightower","folder":"tf","game":"Team Fortress","app_id":440,"player_count":0,"max_players":24,"Bots":0,"server_type":"Dedicated","server_os":"Linux","password":true,"vac":true,"version":"7961495","steam_id":85568392924469990,"keywords":["nocrits","nodmgspread","payload","uncletopia"],"game_id":440,"stv_port":27026,"stv_name":"Uncletopia | Frankfurt | 2 | All Maps | STV","players":null},{"server_id":308,"name":"Uncletopia | Frankfurt | 3 | All Maps","name_short":"frk-3","host":"frk-1.de.uncletopia.com","port":27035,"enabled":true,"region":"eu","cc":"de","latitude":50.110924,"longitude":8.682127,"reserved":0,"last_update":"0001-01-01T00:00:00Z","name_a2s":"Uncletopia | Frankfurt | 3 | All Maps","protocol":17,"map":"cp_metalworks","folder":"tf","game":"Team Fortress","app_id":440,"player_count":0,"max_players":24,"Bots":0,"server_type":"Dedicated","server_os":"Linux","password":true,"vac":true,"version":"7961495","steam_id":85568392924504274,"keywords":["cp","nocrits","nodmgspread","uncletopia"],"game_id":440,"stv_port":27036,"stv_name":"Uncletopia | Frankfurt | 3 | All Maps | STV","players":null},{"server_id":309,"name":"Uncletopia | Frankfurt | 4 | All Maps","name_short":"frk-4","host":"frk-1.de.uncletopia.com","port":27045,"enabled":true,"region":"eu","cc":"de","latitude":50.110924,"longitude":8.682127,"reserved":0,"last_update":"0001-01-01T00:00:00Z","name_a2s":"Uncletopia | Frankfurt | 4 | All Maps","protocol":17,"map":"cp_gorge","folder":"tf","game":"Team Fortress","app_id":440,"player_count":0,"max_players":24,"Bots":0,"server_type":"Dedicated","server_os":"Linux","password":true,"vac":true,"version":"7961495","steam_id":85568392924504275,"keywords":["cp","nocrits","nodmgspread","uncletopia"],"game_id":440,"stv_port":27046,"stv_name":"Uncletopia | Frankfurt | 4 | All Maps | STV","players":null},{"server_id":310,"name":"Uncletopia | Frankfurt | 5 | All Maps","name_short":"frk-5","host":"frk-1.de.uncletopia.com","port":27055,"enabled":true,"region":"eu","cc":"de","latitude":50.110924,"longitude":8.682127,"reserved":0,"last_update":"0001-01-01T00:00:00Z","name_a2s":"Uncletopia | Frankfurt | 5 | All Maps","protocol":17,"map":"cp_mountainlab","folder":"tf","game":"Team Fortress","app_id":440,"player_count":0,"max_players":24,"Bots":0,"server_type":"Dedicated","server_os":"Linux","password":true,"vac":true,"version":"7961495","steam_id":85568392924504277,"keywords":["cp","nocrits","nodmgspread","uncletopia"],"game_id":440,"stv_port":27056,"stv_name":"Uncletopia | Frankfurt | 5 | All Maps | STV","players":null},{"server_id":311,"name":"Uncletopia | Frankfurt | 6 | All Maps","name_short":"frk-6","host":"frk-1.de.uncletopia.com","port":27065,"enabled":true,"region":"eu","cc":"de","latitude":50.110924,"longitude":8.682127,"reserved":0,"last_update":"0001-01-01T00:00:00Z","name_a2s":"Uncletopia | Frankfurt | 6 | All Maps","protocol":17,"map":"cp_coldfront","folder":"tf","game":"Team Fortress","app_id":440,"player_count":0,"max_players":24,"Bots":0,"server_type":"Dedicated","server_os":"Linux","password":true,"vac":true,"version":"7961495","steam_id":85568392924504278,"keywords":["cp","nocrits","nodmgspread","uncletopia"],"game_id":440,"stv_port":27066,"stv_name":"Uncletopia | Frankfurt | 6 | All Maps | STV","players":null},{"server_id":23,"name":"Uncletopia | Frankfurt | 7 | Stopwatch","name_short":"frk-7","host":"frk-1.de.uncletopia.com","port":27075,"enabled":true,"region":"eu","cc":"de","latitude":50.110924,"longitude":8.682127,"reserved":0,"last_update":"0001-01-01T00:00:00Z","name_a2s":"Uncletopia | Frankfurt | 7 | Stopwatch","protocol":17,"map":"cp_sunshine","folder":"tf","game":"Team Fortress","app_id":440,"player_count":0,"max_players":24,"Bots":0,"server_type":"Dedicated","server_os":"Linux","password":true,"vac":true,"version":"7961495","steam_id":85568392924742827,"keywords":["cp","nocrits","nodmgspread","uncletopia"],"game_id":440,"stv_port":27076,"stv_name":"Uncletopia | Frankfurt | 7 | Stopwatch | STV","players":null},{"server_id":24,"name":"Uncletopia | Frankfurt | 8 | Community","name_short":"frk-8","host":"frk-1.de.uncletopia.com","port":27085,"enabled":true,"region":"eu","cc":"de","latitude":50.110924,"longitude":8.682127,"reserved":0,"last_update":"0001-01-01T00:00:00Z","name_a2s":"Uncletopia | Frankfurt | 8 | Community","protocol":17,"map":"workshop/pl_boundary_final1.ugc456799153","folder":"tf","game":"Team Fortress","app_id":440,"player_count":0,"max_players":24,"Bots":0,"server_type":"Dedicated","server_os":"Linux","password":true,"vac":true,"version":"7961495","steam_id":85568392924742828,"keywords":["nocrits","nodmgspread","payload","uncletopia"],"game_id":440,"stv_port":27086,"stv_name":"Uncletopia | Frankfurt | 8 | Community | STV","players":null},{"server_id":202,"name":"Uncletopia | Hong Kong | 1 | All Maps","name_short":"hgk-1","host":"hgk-1.hk.uncletopia.com","port":27015,"enabled":true,"region":"asia","cc":"hk","latitude":22.302711,"longitude":114.177216,"reserved":0,"last_update":"0001-01-01T00:00:00Z","name_a2s":"Uncletopia | Hong Kong | 1 | All Maps","protocol":17,"map":"cp_standin_final","folder":"tf","game":"Team Fortress","app_id":440,"player_count":22,"max_players":24,"Bots":0,"server_type":"Dedicated","server_os":"Linux","password":true,"vac":true,"version":"7961495","steam_id":85568392924494504,"keywords":["cp","nocrits","nodmgspread","uncletopia"],"game_id":440,"stv_port":27016,"stv_name":"Uncletopia | Hong Kong | 1 | All Maps | STV","players":[{"user_id":285,"name":"Kek","steam_id":76561199004616229,"connected_time":1585000000000,"state":"active","ping":91},{"user_id":241,"name":"Lady D.","steam_id":76561199225360457,"connected_time":3508000000000,"state":"spawning","ping":51},{"user_id":287,"name":"2746","steam_id":76561199390507975,"connected_time":1334000000000,"state":"active","ping":36},{"user_id":12,"name":"my gun can shoot now!","steam_id":76561199249938987,"connected_time":12493000000000,"state":"active","ping":38},{"user_id":297,"name":"JDSFE","steam_id":76561198975490851,"connected_time":976000000000,"state":"active","ping":122},{"user_id":242,"name":"E","steam_id":76561199173781370,"connected_time":3485000000000,"state":"active","ping":77},{"user_id":171,"name":"p1st0n","steam_id":76561198992723983,"connected_time":4725000000000,"state":"active","ping":85},{"user_id":126,"name":"Corbezy","steam_id":76561197993398349,"connected_time":5973000000000,"state":"active","ping":92},{"user_id":295,"name":"bad at everything(f2p)","steam_id":76561199378524169,"connected_time":1044000000000,"state":"active","ping":120},{"user_id":127,"name":"A Toilet","steam_id":76561198148278657,"connected_time":5966000000000,"state":"active","ping":143},{"user_id":256,"name":"3wfFbdrjEze5d2G","steam_id":76561198435900451,"connected_time":3213000000000,"state":"active","ping":168},{"user_id":333,"name":"Vesha","steam_id":76561199208233146,"connected_time":48000000000,"state":"active","ping":76},{"user_id":249,"name":"yveth","steam_id":76561198320532821,"connected_time":3391000000000,"state":"active","ping":67},{"user_id":306,"name":"17","steam_id":76561198241530712,"connected_time":477000000000,"state":"active","ping":55},{"user_id":299,"name":"calm","steam_id":76561198360026912,"connected_time":930000000000,"state":"active","ping":90},{"user_id":176,"name":"vintage","steam_id":76561198230213828,"connected_time":4698000000000,"state":"active","ping":58},{"user_id":292,"name":"uber giver 100 CaseOpening.com","steam_id":76561199098238135,"connected_time":1215000000000,"state":"active","ping":156},{"user_id":294,"name":"Ball Fondler","steam_id":76561199445694770,"connected_time":1185000000000,"state":"active","ping":182},{"user_id":181,"name":"bitch tits","steam_id":76561198055553140,"connected_time":4501000000000,"state":"active","ping":76},{"user_id":266,"name":"Jaen26","steam_id":76561198435090902,"connected_time":2523000000000,"state":"spawning","ping":81},{"user_id":305,"name":"onefatboii","steam_id":76561198073675907,"connected_time":533000000000,"state":"active","ping":99},{"user_id":278,"name":"v1.","steam_id":76561198037571054,"connected_time":2039000000000,"state":"active","ping":38}]},{"server_id":1,"name":"Uncletopia | Los Angeles | 1 | All Maps","name_short":"lax-1","host":"lax-1.us.uncletopia.com","port":27015,"enabled":true,"region":"us-west","cc":"us","latitude":33.94279,"longitude":-118.41004,"reserved":0,"last_update":"0001-01-01T00:00:00Z","name_a2s":"Uncletopia | Los Angeles | 1 | All Maps","protocol":17,"map":"koth_brazil","folder":"tf","game":"Team Fortress","app_id":440,"player_count":5,"max_players":24,"Bots":0,"server_type":"Dedicated","server_os":"Linux","password":true,"vac":true,"version":"7961495","steam_id":85568392924469991,"keywords":["cp","nocrits","nodmgspread","uncletopia"],"game_id":440,"stv_port":27016,"stv_name":"Uncletopia | Los Angeles | 1 | All Maps | STV","players":[{"user_id":306,"name":"S O U N D W A V E","steam_id":76561198093417449,"connected_time":2111000000000,"state":"active","ping":47},{"user_id":277,"name":"Shuch","steam_id":76561198932961317,"connected_time":5071000000000,"state":"active","ping":47},{"user_id":316,"name":"Cigarette Fish","steam_id":76561199086973797,"connected_time":770000000000,"state":"active","ping":114},{"user_id":317,"name":"Randle of John","steam_id":76561198328210524,"connected_time":754000000000,"state":"active","ping":38},{"user_id":280,"name":"The New Bob","steam_id":76561199122072556,"connected_time":4889000000000,"state":"active","ping":115}]},{"server_id":112,"name":"Uncletopia | Los Angeles | 2 | All Maps","name_short":"lax-2","host":"lax-1.us.uncletopia.com","port":27025,"enabled":true,"region":"us-west","cc":"us","latitude":33.94279,"longitude":-118.41004,"reserved":0,"last_update":"0001-01-01T00:00:00Z","name_a2s":"Uncletopia | Los Angeles | 2 | All Maps","protocol":17,"map":"pl_barnblitz","folder":"tf","game":"Team Fortress","app_id":440,"player_count":23,"max_players":24,"Bots":0,"server_type":"Dedicated","server_os":"Linux","password":true,"vac":true,"version":"7961495","steam_id":85568392924469992,"keywords":["nocrits","nodmgspread","payload","uncletopia"],"game_id":440,"stv_port":27026,"stv_name":"Uncletopia | Los Angeles | 2 | All Maps | STV","players":[{"user_id":292,"name":"Dontasilagentropes","steam_id":76561198812096071,"connected_time":552000000000,"state":"active","ping":50},{"user_id":262,"name":"paypur -rng","steam_id":76561198214370515,"connected_time":3508000000000,"state":"active","ping":59},{"user_id":295,"name":"Western_dragon","steam_id":76561198130456105,"connected_time":267000000000,"state":"active","ping":52},{"user_id":294,"name":"golia","steam_id":76561198000264266,"connected_time":443000000000,"state":"active","ping":57},{"user_id":284,"name":"a chicken","steam_id":76561198313121580,"connected_time":1999000000000,"state":"active","ping":59},{"user_id":296,"name":"Dog","steam_id":76561198000314730,"connected_time":264000000000,"state":"active","ping":92},{"user_id":282,"name":"G. Howard Dee","steam_id":76561198058382812,"connected_time":2076000000000,"state":"active","ping":47},{"user_id":267,"name":"Jarryl97","steam_id":76561198055451373,"connected_time":3214000000000,"state":"active","ping":89},{"user_id":287,"name":"DusterDan35","steam_id":76561198309129093,"connected_time":1358000000000,"state":"active","ping":75},{"user_id":173,"name":"Hectic_Puppy (bday in 3 DAYS)","steam_id":76561198111645213,"connected_time":6981000000000,"state":"active","ping":54},{"user_id":289,"name":"papi Chulo","steam_id":76561198126274984,"connected_time":1144000000000,"state":"active","ping":50},{"user_id":297,"name":"Khrono691","steam_id":76561198246227600,"connected_time":246000000000,"state":"active","ping":47},{"user_id":298,"name":"Pocky","steam_id":76561199096774182,"connected_time":234000000000,"state":"active","ping":46},{"user_id":299,"name":"pan","steam_id":76561198093968095,"connected_time":168000000000,"state":"active","ping":51},{"user_id":276,"name":"wistful autumn","steam_id":76561198045810207,"connected_time":2331000000000,"state":"active","ping":49},{"user_id":300,"name":"thedeadlyamoeba","steam_id":76561198040810178,"connected_time":165000000000,"state":"active","ping":54},{"user_id":301,"name":"Type 3 Diabeetus","steam_id":76561198074044431,"connected_time":137000000000,"state":"active","ping":78},{"user_id":290,"name":"jellyjiggler45","steam_id":76561198144451401,"connected_time":1120000000000,"state":"active","ping":59},{"user_id":302,"name":"milk then cereal","steam_id":76561198047168548,"connected_time":67000000000,"state":"active","ping":46},{"user_id":305,"name":"panda","steam_id":76561198025214612,"connected_time":22000000000,"state":"active","ping":57},{"user_id":304,"name":"rat","steam_id":76561198130412963,"connected_time":39000000000,"state":"active","ping":84},{"user_id":242,"name":"flo rida","steam_id":76561198226169704,"connected_time":4243000000000,"state":"active","ping":59},{"user_id":254,"name":"Krow","steam_id":76561198010392099,"connected_time":3714000000000,"state":"active","ping":89}]},{"server_id":324,"name":"Uncletopia | Los Angeles | 3 | All Maps","name_short":"lax-3","host":"lax-1.us.uncletopia.com","port":27035,"enabled":true,"region":"us-west","cc":"us","latitude":33.94279,"longitude":-118.41004,"reserved":0,"last_update":"0001-01-01T00:00:00Z","name_a2s":"Uncletopia | Los Angeles | 3 | All Maps","protocol":17,"map":"cp_dustbowl","folder":"tf","game":"Team Fortress","app_id":440,"player_count":21,"max_players":24,"Bots":0,"server_type":"Dedicated","server_os":"Linux","password":true,"vac":true,"version":"7961495","steam_id":85568392924510198,"keywords":["cp","nocrits","nodmgspread","uncletopia"],"game_id":440,"stv_port":27036,"stv_name":"Uncletopia | Los Angeles | 3 | All Maps | STV","players":[{"user_id":180,"name":"elliott smith didnt kill himsel","steam_id":76561198229010452,"connected_time":720000000000,"state":"active","ping":59},{"user_id":198,"name":"Ian","steam_id":76561198159334435,"connected_time":18000000000,"state":"spawning","ping":165},{"user_id":95,"name":"Copy","steam_id":76561198025031590,"connected_time":3568000000000,"state":"active","ping":75},{"user_id":107,"name":"milk","steam_id":76561198053410877,"connected_time":3298000000000,"state":"active","ping":45},{"user_id":174,"name":"Lord Pretty Flocko Jordye","steam_id":76561198962880749,"connected_time":1308000000000,"state":"active","ping":67},{"user_id":193,"name":"Bestmaster202","steam_id":76561198235282680,"connected_time":315000000000,"state":"active","ping":48},{"user_id":183,"name":"Tideflat","steam_id":76561198179850851,"connected_time":543000000000,"state":"active","ping":87},{"user_id":191,"name":"Eden","steam_id":76561198081284664,"connected_time":350000000000,"state":"active","ping":56},{"user_id":186,"name":"doobiebob","steam_id":76561198071963742,"connected_time":369000000000,"state":"active","ping":54},{"user_id":173,"name":"type \"bad med\" to kick","steam_id":76561198076402476,"connected_time":1353000000000,"state":"active","ping":54},{"user_id":199,"name":"El Gato Paranoico","steam_id":76561198116567116,"connected_time":10000000000,"state":"spawning","ping":142},{"user_id":197,"name":"Trippy","steam_id":76561199090730294,"connected_time":177000000000,"state":"active","ping":76},{"user_id":161,"name":"GodToddler","steam_id":76561198004477154,"connected_time":2138000000000,"state":"active","ping":107},{"user_id":162,"name":"uh ham","steam_id":76561197999798208,"connected_time":2115000000000,"state":"active","ping":91},{"user_id":163,"name":"Broedy","steam_id":76561198042325352,"connected_time":2111000000000,"state":"active","ping":78},{"user_id":164,"name":"AdmiralQuida","steam_id":76561198064149128,"connected_time":2109000000000,"state":"active","ping":92},{"user_id":165,"name":"CowardWizard","steam_id":76561198081470121,"connected_time":2107000000000,"state":"active","ping":104},{"user_id":195,"name":"Yune","steam_id":76561198042050530,"connected_time":297000000000,"state":"active","ping":107},{"user_id":177,"name":"Engineer2650","steam_id":76561198121410799,"connected_time":892000000000,"state":"active","ping":76},{"user_id":194,"name":"shredder | Teamfortress.tv","steam_id":76561198035701259,"connected_time":308000000000,"state":"active","ping":52},{"user_id":171,"name":"Melon Keller","steam_id":76561198127426615,"connected_time":1882000000000,"state":"active","ping":61}]},{"server_id":25,"name":"Uncletopia | Los Angeles | 4 | Stopwatch","name_short":"lax-4","host":"lax-1.us.uncletopia.com","port":27045,"enabled":true,"region":"us-west","cc":"us","latitude":33.94279,"longitude":-118.41004,"reserved":0,"last_update":"0001-01-01T00:00:00Z","name_a2s":"Uncletopia | Los Angeles | 4 | Stopwatch","protocol":17,"map":"workshop/koth_jamram_rc1a.ugc2964065613","folder":"tf","game":"Team Fortress","app_id":440,"player_count":0,"max_players":24,"Bots":0,"server_type":"Dedicated","server_os":"Linux","password":true,"vac":true,"version":"7961495","steam_id":85568392924510199,"keywords":["cp","nocrits","nodmgspread","uncletopia"],"game_id":440,"stv_port":27046,"stv_name":"Uncletopia | Los Angeles | 4 | Stopwatch | STV","players":null},{"server_id":11,"name":"Uncletopia | London | 1 | All Maps","name_short":"lon-1","host":"lon-1.uk.uncletopia.com","port":27015,"enabled":true,"region":"eu","cc":"gb","latitude":51.509865,"longitude":-0.118092,"reserved":0,"last_update":"0001-01-01T00:00:00Z","name_a2s":"Uncletopia | London | 1 | All Maps","protocol":17,"map":"pl_borneo","folder":"tf","game":"Team Fortress","app_id":440,"player_count":23,"max_players":24,"Bots":0,"server_type":"Dedicated","server_os":"Linux","password":true,"vac":true,"version":"7961495","steam_id":85568392924367362,"keywords":["nocrits","nodmgspread","payload","uncletopia"],"game_id":440,"stv_port":27016,"stv_name":"Uncletopia | London | 1 | All Maps | STV","players":[{"user_id":50,"name":"रेस्तरां मे","steam_id":76561199302471485,"connected_time":2000000000,"state":"spawning","ping":97},{"user_id":20,"name":"Steelblade","steam_id":76561197984349684,"connected_time":1638000000000,"state":"active","ping":163},{"user_id":44,"name":"Fatmagic Mukbang ASMR","steam_id":76561198063492110,"connected_time":363000000000,"state":"active","ping":60},{"user_id":42,"name":"AuwNina","steam_id":76561198128231464,"connected_time":485000000000,"state":"active","ping":54},{"user_id":21,"name":"Waffy","steam_id":76561199045810038,"connected_time":1611000000000,"state":"active","ping":49},{"user_id":13,"name":"Father Garcia","steam_id":76561199047206294,"connected_time":2420000000000,"state":"active","ping":141},{"user_id":9,"name":"BlueBlueFox","steam_id":76561198053817230,"connected_time":2513000000000,"state":"active","ping":76},{"user_id":11,"name":"Taha","steam_id":76561199259524970,"connected_time":2476000000000,"state":"active","ping":97},{"user_id":22,"name":"The Greasy Strangler","steam_id":76561197999254337,"connected_time":1566000000000,"state":"active","ping":180},{"user_id":15,"name":"Aries","steam_id":76561198275816528,"connected_time":2416000000000,"state":"active","ping":66},{"user_id":36,"name":"[Heavy Mandarin]","steam_id":76561198531978435,"connected_time":881000000000,"state":"active","ping":52},{"user_id":23,"name":"Citromfa","steam_id":76561198427549600,"connected_time":1511000000000,"state":"active","ping":82},{"user_id":24,"name":"Peter.. Limonadee","steam_id":76561198346638308,"connected_time":1503000000000,"state":"active","ping":51},{"user_id":25,"name":"stun","steam_id":76561198276681691,"connected_time":1478000000000,"state":"active","ping":50},{"user_id":29,"name":"Andrew Taste","steam_id":76561199267543998,"connected_time":1154000000000,"state":"active","ping":66},{"user_id":32,"name":"local sink cummer","steam_id":76561199098179877,"connected_time":999000000000,"state":"active","ping":74},{"user_id":31,"name":"FoxyTheFish","steam_id":76561199074190919,"connected_time":1080000000000,"state":"active","ping":54},{"user_id":33,"name":"Several geollos screaming","steam_id":76561198291326102,"connected_time":977000000000,"state":"active","ping":55},{"user_id":47,"name":"rons3n","steam_id":76561197993631294,"connected_time":202000000000,"state":"active","ping":69},{"user_id":45,"name":"BONK-TEC!","steam_id":76561198272667029,"connected_time":330000000000,"state":"active","ping":46},{"user_id":39,"name":"Rin-Nakaret","steam_id":76561197971051188,"connected_time":690000000000,"state":"active","ping":52},{"user_id":49,"name":"QuestionMark","steam_id":76561198976108019,"connected_time":106000000000,"state":"active","ping":135}]},{"server_id":114,"name":"Uncletopia | London | 2 | All Maps","name_short":"lon-2","host":"lon-1.uk.uncletopia.com","port":27025,"enabled":true,"region":"eu","cc":"gb","latitude":51.509865,"longitude":-0.118092,"reserved":0,"last_update":"0001-01-01T00:00:00Z","name_a2s":"Uncletopia | London | 2 | All Maps","protocol":17,"map":"pl_snowycoast","folder":"tf","game":"Team Fortress","app_id":440,"player_count":0,"max_players":24,"Bots":0,"server_type":"Dedicated","server_os":"Linux","password":true,"vac":true,"version":"7961495","steam_id":85568392924470941,"keywords":["nocrits","nodmgspread","payload","uncletopia"],"game_id":440,"stv_port":27026,"stv_name":"Uncletopia | London | 2 | All Maps | STV","players":null},{"server_id":320,"name":"Uncletopia | London | 3 | All Maps","name_short":"lon-3","host":"lon-1.uk.uncletopia.com","port":27035,"enabled":true,"region":"eu","cc":"gb","latitude":51.509865,"longitude":-0.118092,"reserved":0,"last_update":"0001-01-01T00:00:00Z","name_a2s":"Uncletopia | London | 3 | All Maps","protocol":17,"map":"koth_lakeside_final","folder":"tf","game":"Team Fortress","app_id":440,"player_count":0,"max_players":24,"Bots":0,"server_type":"Dedicated","server_os":"Linux","password":true,"vac":true,"version":"7961495","steam_id":85568392924510192,"keywords":["cp","nocrits","nodmgspread","uncletopia"],"game_id":440,"stv_port":27036,"stv_name":"Uncletopia | London | 3 | All Maps | STV","players":null},{"server_id":321,"name":"Uncletopia | London | 4 | All Maps","name_short":"lon-4","host":"lon-1.uk.uncletopia.com","port":27045,"enabled":true,"region":"eu","cc":"gb","latitude":51.509865,"longitude":-0.118092,"reserved":0,"last_update":"0001-01-01T00:00:00Z","name_a2s":"Uncletopia | London | 4 | All Maps","protocol":17,"map":"pl_badwater","folder":"tf","game":"Team Fortress","app_id":440,"player_count":0,"max_players":24,"Bots":0,"server_type":"Dedicated","server_os":"Linux","password":true,"vac":true,"version":"7961495","steam_id":85568392924510193,"keywords":["nocrits","nodmgspread","payload","uncletopia"],"game_id":440,"stv_port":27046,"stv_name":"Uncletopia | London | 4 | All Maps | STV","players":null},{"server_id":21,"name":"Uncletopia | London | 5 | All Maps","name_short":"lon-5","host":"lon-1.uk.uncletopia.com","port":27055,"enabled":true,"region":"eu","cc":"gb","latitude":51.509865,"longitude":-0.118092,"reserved":0,"last_update":"0001-01-01T00:00:00Z","name_a2s":"Uncletopia | London | 5 | All Maps","protocol":17,"map":"koth_lazarus","folder":"tf","game":"Team Fortress","app_id":440,"player_count":0,"max_players":24,"Bots":0,"server_type":"Dedicated","server_os":"Linux","password":true,"vac":true,"version":"7961495","steam_id":85568392924742829,"keywords":["cp","nocrits","nodmgspread","uncletopia"],"game_id":440,"stv_port":27056,"stv_name":"Uncletopia | London | 5 | All Maps | STV","players":null},{"server_id":22,"name":"Uncletopia | London | 6 | All Maps","name_short":"lon-6","host":"lon-1.uk.uncletopia.com","port":27065,"enabled":true,"region":"eu","cc":"gb","latitude":51.509865,"longitude":-0.118092,"reserved":0,"last_update":"0001-01-01T00:00:00Z","name_a2s":"Uncletopia | London | 6 | All Maps","protocol":17,"map":"pl_upward","folder":"tf","game":"Team Fortress","app_id":440,"player_count":2,"max_players":24,"Bots":0,"server_type":"Dedicated","server_os":"Linux","password":true,"vac":true,"version":"7961495","steam_id":85568392924742830,"keywords":["nocrits","nodmgspread","payload","uncletopia"],"game_id":440,"stv_port":27066,"stv_name":"Uncletopia | London | 6 | All Maps | STV","players":[{"user_id":3,"name":"yairshalemm","steam_id":76561199246496166,"connected_time":509000000000,"state":"active","ping":88},{"user_id":4,"name":"Nice Shot","steam_id":76561198267313008,"connected_time":335000000000,"state":"active","ping":90}]},{"server_id":40,"name":"Uncletopia | London | 7 | Stopwatch","name_short":"lon-7","host":"lon-1.uk.uncletopia.com","port":27075,"enabled":true,"region":"eu","cc":"gb","latitude":51.509865,"longitude":-0.118092,"reserved":0,"last_update":"0001-01-01T00:00:00Z","name_a2s":"Uncletopia | London | 7 | Stopwatch","protocol":17,"map":"workshop/pl_badwater_pro_v12.ugc2142942074","folder":"tf","game":"Team Fortress","app_id":440,"player_count":0,"max_players":24,"Bots":0,"server_type":"Dedicated","server_os":"Linux","password":true,"vac":true,"version":"7961495","steam_id":85568392924964314,"keywords":["nocrits","nodmgspread","payload","uncletopia"],"game_id":440,"stv_port":27076,"stv_name":"Uncletopia | London | 7 | Stopwatch | STV","players":null},{"server_id":41,"name":"Uncletopia | London | 8 | Community","name_short":"lon-8","host":"lon-1.uk.uncletopia.com","port":27085,"enabled":true,"region":"eu","cc":"gb","latitude":51.509865,"longitude":-0.118092,"reserved":0,"last_update":"0001-01-01T00:00:00Z","name_a2s":"Uncletopia | London | 8 | Community","protocol":17,"map":"workshop/cp_villa_b19.ugc2113052569","folder":"tf","game":"Team Fortress","app_id":440,"player_count":0,"max_players":24,"Bots":0,"server_type":"Dedicated","server_os":"Linux","password":true,"vac":true,"version":"7961495","steam_id":85568392924964315,"keywords":["cp","nocrits","nodmgspread","uncletopia"],"game_id":440,"stv_port":27086,"stv_name":"Uncletopia | London | 8 | Community | STV","players":null},{"server_id":300,"name":"Uncletopia | Montréal | 1 | One Thousand Uncles","name_short":"mtl-1","host":"mtl-1.ca.uncletopia.com","port":27015,"enabled":true,"region":"us-east","cc":"ca","latitude":45.50889,"longitude":-73.56167,"reserved":0,"last_update":"0001-01-01T00:00:00Z","name_a2s":"Uncletopia | Montréal | 1 | One Thousand Uncles","protocol":17,"map":"cp_dustbowl","folder":"tf","game":"Team Fortress","app_id":440,"player_count":0,"max_players":32,"Bots":0,"server_type":"Dedicated","server_os":"Linux","password":true,"vac":true,"version":"7961495","steam_id":85568392924500087,"keywords":["alltalk","cp","danepve","increased_maxplayers","norespawntime","uncletopia"],"game_id":440,"stv_port":0,"stv_name":"","players":null},{"server_id":301,"name":"Uncletopia | Montréal | 2 | One Thousand Uncles","name_short":"mtl-2","host":"mtl-1.ca.uncletopia.com","port":27025,"enabled":true,"region":"us-east","cc":"ca","latitude":45.50889,"longitude":-73.56167,"reserved":0,"last_update":"0001-01-01T00:00:00Z","name_a2s":"Uncletopia | Montréal | 2 | One Thousand Uncles","protocol":17,"map":"pl_upward","folder":"tf","game":"Team Fortress","app_id":440,"player_count":0,"max_players":32,"Bots":0,"server_type":"Dedicated","server_os":"Linux","password":true,"vac":true,"version":"7961495","steam_id":85568392924500088,"keywords":["alltalk","danepve","increased_maxplayers","norespawntime","payload","uncletopia"],"game_id":440,"stv_port":0,"stv_name":"","players":null},{"server_id":302,"name":"Uncletopia | Montréal | 3 | One Thousand Uncles","name_short":"mtl-3","host":"mtl-1.ca.uncletopia.com","port":27035,"enabled":true,"region":"us-east","cc":"ca","latitude":45.50889,"longitude":-73.56167,"reserved":0,"last_update":"0001-01-01T00:00:00Z","name_a2s":"Uncletopia | Montréal | 3 | One Thousand Uncles","protocol":17,"map":"pl_goldrush","folder":"tf","game":"Team Fortress","app_id":440,"player_count":0,"max_players":32,"Bots":0,"server_type":"Dedicated","server_os":"Linux","password":true,"vac":true,"version":"7961495","steam_id":85568392924500089,"keywords":["alltalk","danepve","increased_maxplayers","norespawntime","payload","uncletopia"],"game_id":440,"stv_port":0,"stv_name":"","players":null},{"server_id":13,"name":"Uncletopia | New York City | 1 | All Maps","name_short":"nyc-1","host":"nyc-1.us.uncletopia.com","port":27015,"enabled":true,"region":"us-east","cc":"us","latitude":40.73061,"longitude":-73.93524,"reserved":0,"last_update":"0001-01-01T00:00:00Z","name_a2s":"Uncletopia | New York City | 1 | All Maps","protocol":17,"map":"pl_frontier_final","folder":"tf","game":"Team Fortress","app_id":440,"player_count":24,"max_players":24,"Bots":0,"server_type":"Dedicated","server_os":"Linux","password":true,"vac":true,"version":"7961495","steam_id":85568392924469993,"keywords":["nocrits","nodmgspread","payload","uncletopia"],"game_id":440,"stv_port":27016,"stv_name":"Uncletopia | New York City | 1 | All Maps | STV","players":[{"user_id":416,"name":"put fentanyl back in pepsi","steam_id":76561198238592900,"connected_time":830000000000,"state":"active","ping":89},{"user_id":424,"name":"Draugluin","steam_id":76561199219965276,"connected_time":273000000000,"state":"active","ping":134},{"user_id":423,"name":"normal","steam_id":76561198133712839,"connected_time":530000000000,"state":"active","ping":48},{"user_id":400,"name":"DaBigFishey","steam_id":76561199077872502,"connected_time":2352000000000,"state":"active","ping":111},{"user_id":379,"name":"chuck","steam_id":76561198032439135,"connected_time":3623000000000,"state":"active","ping":133},{"user_id":421,"name":"doughboy","steam_id":76561198219012928,"connected_time":629000000000,"state":"active","ping":120},{"user_id":398,"name":"boboguguz","steam_id":76561198334924459,"connected_time":2460000000000,"state":"active","ping":137},{"user_id":417,"name":"mostly ham","steam_id":76561199479937232,"connected_time":767000000000,"state":"active","ping":58},{"user_id":406,"name":"Ignalis","steam_id":76561198025662927,"connected_time":2053000000000,"state":"active","ping":51},{"user_id":408,"name":"Chicken Burger","steam_id":76561198358529311,"connected_time":1922000000000,"state":"active","ping":48},{"user_id":414,"name":"A_Happy_Fellow","steam_id":76561199229475610,"connected_time":1362000000000,"state":"active","ping":103},{"user_id":390,"name":"Regin360","steam_id":76561198271970751,"connected_time":2665000000000,"state":"active","ping":143},{"user_id":399,"name":"NotAnypotato","steam_id":76561198397900218,"connected_time":2409000000000,"state":"active","ping":117},{"user_id":412,"name":"DicksOnPizza","steam_id":76561198928660206,"connected_time":1398000000000,"state":"active","ping":78},{"user_id":339,"name":"Wique","steam_id":76561198071217597,"connected_time":6941000000000,"state":"active","ping":60},{"user_id":422,"name":"Chilly","steam_id":76561198310123401,"connected_time":592000000000,"state":"active","ping":53},{"user_id":364,"name":"Yongle","steam_id":76561198068591156,"connected_time":4615000000000,"state":"active","ping":65},{"user_id":401,"name":"Sandbox","steam_id":76561198161977595,"connected_time":2286000000000,"state":"active","ping":83},{"user_id":415,"name":"Sarbanes-Oxley","steam_id":76561197975898479,"connected_time":1017000000000,"state":"active","ping":85},{"user_id":374,"name":"Cthulhu's Malewife","steam_id":76561198085888959,"connected_time":4017000000000,"state":"active","ping":58},{"user_id":403,"name":"⛧ AlphaSatanOmega ⛧","steam_id":76561198035125511,"connected_time":2250000000000,"state":"active","ping":56},{"user_id":404,"name":"Spageti Man","steam_id":76561198082366911,"connected_time":2210000000000,"state":"active","ping":103},{"user_id":405,"name":"Synthess","steam_id":76561198305140294,"connected_time":2108000000000,"state":"active","ping":74},{"user_id":411,"name":"Non-Euclidean Tragic","steam_id":76561197999978254,"connected_time":1822000000000,"state":"active","ping":86}]},{"server_id":14,"name":"Uncletopia | New York City | 2 | All Maps","name_short":"nyc-2","host":"nyc-1.us.uncletopia.com","port":27025,"enabled":true,"region":"us-east","cc":"us","latitude":40.73061,"longitude":-73.93524,"reserved":0,"last_update":"0001-01-01T00:00:00Z","name_a2s":"Uncletopia | New York City | 2 | All Maps","protocol":17,"map":"pl_swiftwater_final1","folder":"tf","game":"Team Fortress","app_id":440,"player_count":9,"max_players":24,"Bots":0,"server_type":"Dedicated","server_os":"Linux","password":true,"vac":true,"version":"7961495","steam_id":85568392924469994,"keywords":["nocrits","nodmgspread","payload","uncletopia"],"game_id":440,"stv_port":27026,"stv_name":"Uncletopia | New York City | 2 | All Maps | STV","players":[{"user_id":515,"name":"GoodleShoes/ttv","steam_id":76561198030993521,"connected_time":3232000000000,"state":"active","ping":70},{"user_id":550,"name":"Kingclinton1","steam_id":76561198052956772,"connected_time":475000000000,"state":"active","ping":41},{"user_id":552,"name":"The Assistant Regional Manager","steam_id":76561199221484936,"connected_time":398000000000,"state":"active","ping":111},{"user_id":558,"name":"thearrab","steam_id":76561198203623919,"connected_time":56000000000,"state":"active","ping":158},{"user_id":554,"name":"gotten","steam_id":76561198033033884,"connected_time":260000000000,"state":"active","ping":47},{"user_id":557,"name":"Adras","steam_id":76561197961740957,"connected_time":153000000000,"state":"active","ping":61},{"user_id":534,"name":"SKELETONS","steam_id":76561198407056645,"connected_time":1468000000000,"state":"active","ping":48},{"user_id":508,"name":"werecat","steam_id":76561198005091213,"connected_time":4147000000000,"state":"active","ping":43},{"user_id":543,"name":"linkel","steam_id":76561198451557189,"connected_time":766000000000,"state":"active","ping":98}]},{"server_id":15,"name":"Uncletopia | New York City | 3 | Stopwatch","name_short":"nyc-3","host":"nyc-1.us.uncletopia.com","port":27035,"enabled":true,"region":"us-east","cc":"us","latitude":40.73061,"longitude":-73.93524,"reserved":0,"last_update":"0001-01-01T00:00:00Z","name_a2s":"Uncletopia | New York City | 3 | Stopwatch","protocol":17,"map":"pl_upward","folder":"tf","game":"Team Fortress","app_id":440,"player_count":0,"max_players":24,"Bots":0,"server_type":"Dedicated","server_os":"Linux","password":true,"vac":true,"version":"7961495","steam_id":85568392924742820,"keywords":["nocrits","nodmgspread","payload","uncletopia"],"game_id":440,"stv_port":27036,"stv_name":"Uncletopia | New York City | 3 | Stopwatch | STV","players":null},{"server_id":16,"name":"Uncletopia | New York City | 4 | Community","name_short":"nyc-4","host":"nyc-1.us.uncletopia.com","port":27045,"enabled":true,"region":"us-east","cc":"us","latitude":40.73061,"longitude":-73.93524,"reserved":0,"last_update":"0001-01-01T00:00:00Z","name_a2s":"Uncletopia | New York City | 4 | Community","protocol":17,"map":"workshop/pl_shoreleave_rc2.ugc1238849347","folder":"tf","game":"Team Fortress","app_id":440,"player_count":0,"max_players":24,"Bots":0,"server_type":"Dedicated","server_os":"Linux","password":true,"vac":true,"version":"7961495","steam_id":85568392924742821,"keywords":["nocrits","nodmgspread","payload","uncletopia"],"game_id":440,"stv_port":27046,"stv_name":"Uncletopia | New York City | 4 | Community | STV","players":null},{"server_id":142,"name":"Uncletopia | São Paulo | 1 | All Maps","name_short":"sao-1","host":"sao-1.br.uncletopia.com","port":27015,"enabled":true,"region":"sa","cc":"br","latitude":-23.533773,"longitude":-46.62529,"reserved":0,"last_update":"0001-01-01T00:00:00Z","name_a2s":"Uncletopia | São Paulo | 1 | All Maps","protocol":17,"map":"koth_highpass","folder":"tf","game":"Team Fortress","app_id":440,"player_count":0,"max_players":24,"Bots":0,"server_type":"Dedicated","server_os":"Linux","password":true,"vac":true,"version":"7961495","steam_id":85568392924469996,"keywords":["cp","nocrits","nodmgspread","uncletopia"],"game_id":440,"stv_port":27016,"stv_name":"Uncletopia | São Paulo | 1 | All Maps | STV","players":null},{"server_id":143,"name":"Uncletopia | São Paulo | 2 | Community","name_short":"sao-2","host":"sao-2.br.uncletopia.com","port":27015,"enabled":true,"region":"sa","cc":"br","latitude":-23.533773,"longitude":-46.62529,"reserved":0,"last_update":"0001-01-01T00:00:00Z","name_a2s":"Uncletopia | São Paulo | 2 | Community","protocol":17,"map":"workshop/cp_logjam_rc12.ugc454812035","folder":"tf","game":"Team Fortress","app_id":440,"player_count":0,"max_players":24,"Bots":0,"server_type":"Dedicated","server_os":"Linux","password":true,"vac":true,"version":"7961495","steam_id":85568392924485349,"keywords":["cp","nocrits","nodmgspread","uncletopia"],"game_id":440,"stv_port":27016,"stv_name":"Uncletopia | São Paulo | 2 | Community | STV","players":null},{"server_id":7,"name":"Uncletopia | Seattle | 1 | All Maps","name_short":"sea-1","host":"sea-1.us.uncletopia.com","port":27015,"enabled":true,"region":"us-west","cc":"us","latitude":47.608013,"longitude":-122.33517,"reserved":0,"last_update":"0001-01-01T00:00:00Z","name_a2s":"Uncletopia | Seattle | 1 | All Maps","protocol":17,"map":"pl_pier","folder":"tf","game":"Team Fortress","app_id":440,"player_count":24,"max_players":24,"Bots":0,"server_type":"Dedicated","server_os":"Linux","password":true,"vac":true,"version":"7961495","steam_id":85568392924469997,"keywords":["nocrits","nodmgspread","payload","uncletopia"],"game_id":440,"stv_port":27016,"stv_name":"Uncletopia | Seattle | 1 | All Maps | STV","players":[{"user_id":560,"name":"PopcornBucketGames","steam_id":76561199089562026,"connected_time":5704000000000,"state":"connecting","ping":45},{"user_id":607,"name":"Kaiga","steam_id":76561198044052046,"connected_time":2128000000000,"state":"connecting","ping":142},{"user_id":579,"name":"toes","steam_id":76561198221151676,"connected_time":4674000000000,"state":"connecting","ping":61},{"user_id":596,"name":"R5-D4","steam_id":76561198025196439,"connected_time":3235000000000,"state":"connecting","ping":66},{"user_id":601,"name":"lynks disease no sound","steam_id":76561198043465434,"connected_time":2169000000000,"state":"connecting","ping":81},{"user_id":581,"name":"Gm_Sweet","steam_id":76561199445091548,"connected_time":4621000000000,"state":"connecting","ping":75},{"user_id":603,"name":"Sniff","steam_id":76561198010270922,"connected_time":2154000000000,"state":"connecting","ping":52},{"user_id":597,"name":"Pootis","steam_id":76561199067766868,"connected_time":3221000000000,"state":"connecting","ping":66},{"user_id":562,"name":"A F2P With Hats","steam_id":76561198171497882,"connected_time":5600000000000,"state":"connecting","ping":97},{"user_id":541,"name":"Hazel (H.A.Z.E)","steam_id":76561199247095754,"connected_time":7055000000000,"state":"connecting","ping":68},{"user_id":555,"name":"swiggity swoogity","steam_id":76561199139228351,"connected_time":6482000000000,"state":"connecting","ping":75},{"user_id":615,"name":"Brathic","steam_id":76561198966232163,"connected_time":713000000000,"state":"connecting","ping":109},{"user_id":602,"name":"Cheezbeargur","steam_id":76561198164702899,"connected_time":2166000000000,"state":"connecting","ping":77},{"user_id":609,"name":"Dog","steam_id":76561198041841128,"connected_time":2031000000000,"state":"connecting","ping":102},{"user_id":605,"name":"Chocc-_-","steam_id":76561198068070211,"connected_time":2150000000000,"state":"connecting","ping":96},{"user_id":616,"name":"Thanks Ants","steam_id":76561197966221018,"connected_time":711000000000,"state":"connecting","ping":39},{"user_id":611,"name":"mub","steam_id":76561197961943948,"connected_time":1382000000000,"state":"connecting","ping":44},{"user_id":595,"name":"Daz","steam_id":76561198041431938,"connected_time":3239000000000,"state":"connecting","ping":68},{"user_id":568,"name":"rat who can kickflip dot com","steam_id":76561198073620027,"connected_time":5477000000000,"state":"connecting","ping":56},{"user_id":592,"name":"november","steam_id":76561198042748172,"connected_time":4057000000000,"state":"connecting","ping":110},{"user_id":618,"name":"Dr. Karl, the AUS Science Guy","steam_id":76561198031278747,"connected_time":26000000000,"state":"connecting","ping":61},{"user_id":619,"name":"Creeping Python","steam_id":76561198041636923,"connected_time":17000000000,"state":"connecting","ping":78},{"user_id":620,"name":"Attrition","steam_id":76561197969881916,"connected_time":17000000000,"state":"connecting","ping":62},{"user_id":576,"name":"Sweets","steam_id":76561198998446307,"connected_time":4801000000000,"state":"connecting","ping":81}]},{"server_id":119,"name":"Uncletopia | Seattle | 2 | All Maps","name_short":"sea-2","host":"sea-1.us.uncletopia.com","port":27025,"enabled":true,"region":"us-west","cc":"us","latitude":47.608013,"longitude":-122.33517,"reserved":0,"last_update":"0001-01-01T00:00:00Z","name_a2s":"Uncletopia | Seattle | 2 | All Maps","protocol":17,"map":"koth_highpass","folder":"tf","game":"Team Fortress","app_id":440,"player_count":0,"max_players":24,"Bots":0,"server_type":"Dedicated","server_os":"Linux","password":true,"vac":true,"version":"7961495","steam_id":85568392924469998,"keywords":["cp","nocrits","nodmgspread","uncletopia"],"game_id":440,"stv_port":27026,"stv_name":"Uncletopia | Seattle | 2 | All Maps | STV","players":null},{"server_id":406,"name":"Uncletopia | Seattle | 3 | Stopwatch","name_short":"sea-3","host":"sea-1.us.uncletopia.com","port":27035,"enabled":true,"region":"us-west","cc":"us","latitude":47.608013,"longitude":-122.33517,"reserved":0,"last_update":"0001-01-01T00:00:00Z","name_a2s":"Uncletopia | Seattle | 3 | Stopwatch","protocol":17,"map":"cp_process_final","folder":"tf","game":"Team Fortress","app_id":440,"player_count":0,"max_players":24,"Bots":0,"server_type":"Dedicated","server_os":"Linux","password":true,"vac":true,"version":"7961495","steam_id":85568392924515217,"keywords":["cp","nocrits","nodmgspread","uncletopia"],"game_id":440,"stv_port":27036,"stv_name":"Uncletopia | Seattle | 3 | Stopwatch | STV","players":null},{"server_id":17,"name":"Uncletopia | San Francisco | 1 | All Maps","name_short":"sfo-1","host":"sfo-1.us.uncletopia.com","port":27015,"enabled":true,"region":"us-west","cc":"us","latitude":37.77397,"longitude":-122.4313,"reserved":0,"last_update":"0001-01-01T00:00:00Z","name_a2s":"Uncletopia | San Francisco | 1 | All Maps","protocol":17,"map":"pl_frontier_final","folder":"tf","game":"Team Fortress","app_id":440,"player_count":4,"max_players":24,"Bots":0,"server_type":"Dedicated","server_os":"Linux","password":true,"vac":true,"version":"7961495","steam_id":85568392924469999,"keywords":["nocrits","nodmgspread","payload","uncletopia"],"game_id":440,"stv_port":27016,"stv_name":"Uncletopia | San Francisco | 1 | All Maps | STV","players":[{"user_id":21,"name":"Cowboyfos","steam_id":76561199055740230,"connected_time":4327000000000,"state":"active","ping":40},{"user_id":23,"name":"FaceLaces","steam_id":76561198194417725,"connected_time":3370000000000,"state":"active","ping":62},{"user_id":28,"name":"demojumper","steam_id":76561199209207003,"connected_time":1904000000000,"state":"active","ping":220},{"user_id":33,"name":"Clockwork0613","steam_id":76561198987121123,"connected_time":1574000000000,"state":"active","ping":59}]},{"server_id":18,"name":"Uncletopia | San Francisco | 2 | All Maps","name_short":"sfo-2","host":"sfo-1.us.uncletopia.com","port":27025,"enabled":true,"region":"us-west","cc":"us","latitude":37.77397,"longitude":-122.4313,"reserved":0,"last_update":"0001-01-01T00:00:00Z","name_a2s":"Uncletopia | San Francisco | 2 | All Maps","protocol":17,"map":"pl_badwater","folder":"tf","game":"Team Fortress","app_id":440,"player_count":24,"max_players":24,"Bots":0,"server_type":"Dedicated","server_os":"Linux","password":true,"vac":true,"version":"7961495","steam_id":85568392924470000,"keywords":["nocrits","nodmgspread","payload","uncletopia"],"game_id":440,"stv_port":27026,"stv_name":"Uncletopia | San Francisco | 2 | All Maps | STV","players":[{"user_id":392,"name":"slowdance","steam_id":76561198097427947,"connected_time":168000000000,"state":"active","ping":98},{"user_id":369,"name":"The Grungler","steam_id":76561198126561438,"connected_time":1386000000000,"state":"active","ping":59},{"user_id":362,"name":"Bitmap","steam_id":76561198285964424,"connected_time":2096000000000,"state":"active","ping":43},{"user_id":393,"name":"Lucky","steam_id":76561198124910662,"connected_time":81000000000,"state":"active","ping":45},{"user_id":396,"name":"SilentScott","steam_id":76561198236688652,"connected_time":29000000000,"state":"active","ping":63},{"user_id":370,"name":"callie","steam_id":76561198131833567,"connected_time":1364000000000,"state":"active","ping":51},{"user_id":382,"name":"Dan","steam_id":76561199236719411,"connected_time":966000000000,"state":"active","ping":121},{"user_id":318,"name":"bansheerubber","steam_id":76561198042009362,"connected_time":6537000000000,"state":"active","ping":66},{"user_id":385,"name":"ronald_stackerusa55","steam_id":76561198150406851,"connected_time":843000000000,"state":"active","ping":45},{"user_id":387,"name":"snak","steam_id":76561199131462397,"connected_time":570000000000,"state":"active","ping":92},{"user_id":388,"name":"Vipplet","steam_id":76561199484292294,"connected_time":239000000000,"state":"active","ping":129},{"user_id":353,"name":"Gojira19","steam_id":76561198206384351,"connected_time":3021000000000,"state":"active","ping":99},{"user_id":391,"name":"kenE^","steam_id":76561198233016572,"connected_time":215000000000,"state":"active","ping":100},{"user_id":354,"name":"Brendan Fraser","steam_id":76561198036728212,"connected_time":2957000000000,"state":"active","ping":52},{"user_id":355,"name":"Throws Before Bros󠀡","steam_id":76561197992905530,"connected_time":2946000000000,"state":"active","ping":38},{"user_id":334,"name":"Jaded","steam_id":76561198272575611,"connected_time":4328000000000,"state":"active","ping":96},{"user_id":335,"name":"Pestilence","steam_id":76561198272327629,"connected_time":4327000000000,"state":"active","ping":44},{"user_id":395,"name":"gugcat","steam_id":76561198129822860,"connected_time":33000000000,"state":"active","ping":59},{"user_id":386,"name":"vampirebunii","steam_id":76561198091018788,"connected_time":728000000000,"state":"active","ping":56},{"user_id":389,"name":"rmbl","steam_id":76561198150137369,"connected_time":231000000000,"state":"active","ping":60},{"user_id":364,"name":"Seriously Bruh","steam_id":76561198070408485,"connected_time":2023000000000,"state":"active","ping":78},{"user_id":365,"name":"Brando","steam_id":76561198078306678,"connected_time":1911000000000,"state":"active","ping":71},{"user_id":351,"name":"Gully","steam_id":76561198215799192,"connected_time":3073000000000,"state":"active","ping":52},{"user_id":381,"name":"tiredfisherman69","steam_id":76561199228963816,"connected_time":1091000000000,"state":"active","ping":54}]},{"server_id":19,"name":"Uncletopia | San Francisco | 3 | Stopwatch","name_short":"sfo-3","host":"sfo-1.us.uncletopia.com","port":27035,"enabled":true,"region":"us-west","cc":"us","latitude":37.77397,"longitude":-122.4313,"reserved":0,"last_update":"0001-01-01T00:00:00Z","name_a2s":"Uncletopia | San Francisco | 3 | Stopwatch","protocol":17,"map":"workshop/koth_bagel_rc6.ugc2514036946","folder":"tf","game":"Team Fortress","app_id":440,"player_count":0,"max_players":24,"Bots":0,"server_type":"Dedicated","server_os":"Linux","password":true,"vac":true,"version":"7961495","steam_id":85568392924742824,"keywords":["cp","nocrits","nodmgspread","uncletopia"],"game_id":440,"stv_port":27036,"stv_name":"Uncletopia | San Francisco | 3 | Stopwatch | STV","players":null},{"server_id":20,"name":"Uncletopia | San Francisco | 4 | Community","name_short":"sfo-4","host":"sfo-1.us.uncletopia.com","port":27045,"enabled":true,"region":"us-west","cc":"us","latitude":37.77397,"longitude":-122.4313,"reserved":0,"last_update":"0001-01-01T00:00:00Z","name_a2s":"Uncletopia | San Francisco | 4 | Community","protocol":17,"map":"workshop/pl_shoreleave_rc2.ugc1238849347","folder":"tf","game":"Team Fortress","app_id":440,"player_count":0,"max_players":24,"Bots":0,"server_type":"Dedicated","server_os":"Linux","password":true,"vac":true,"version":"7961495","steam_id":85568392924742826,"keywords":["nocrits","nodmgspread","payload","uncletopia"],"game_id":440,"stv_port":27046,"stv_name":"Uncletopia | San Francisco | 4 | Community | STV","players":null},{"server_id":141,"name":"Uncletopia | Sydney | 1 | All Maps","name_short":"syd-1","host":"syd-1.au.uncletopia.com","port":27015,"enabled":true,"region":"au","cc":"au","latitude":-33.865143,"longitude":151.2099,"reserved":0,"last_update":"0001-01-01T00:00:00Z","name_a2s":"Uncletopia | Sydney | 1 | All Maps","protocol":17,"map":"pl_upward","folder":"tf","game":"Team Fortress","app_id":440,"player_count":24,"max_players":24,"Bots":0,"server_type":"Dedicated","server_os":"Linux","password":true,"vac":true,"version":"7961495","steam_id":85568392924470001,"keywords":["nocrits","nodmgspread","payload","uncletopia"],"game_id":440,"stv_port":27016,"stv_name":"Uncletopia | Sydney | 1 | All Maps | STV","players":[{"user_id":77,"name":"Neato","steam_id":76561198037781256,"connected_time":1432000000000,"state":"active","ping":64},{"user_id":86,"name":"'turb","steam_id":76561198085124297,"connected_time":127000000000,"state":"active","ping":53},{"user_id":47,"name":"AmethystDragon10","steam_id":76561198412979983,"connected_time":2314000000000,"state":"active","ping":63},{"user_id":53,"name":"webbadon, the horrid ᘛ⁐̤\ufffd\ufffd","steam_id":76561198061998379,"connected_time":1948000000000,"state":"active","ping":51},{"user_id":69,"name":"Feksil","steam_id":76561198127379171,"connected_time":1783000000000,"state":"active","ping":59},{"user_id":83,"name":"ViVi ☄","steam_id":76561198044727237,"connected_time":633000000000,"state":"active","ping":42},{"user_id":85,"name":"Livid","steam_id":76561198060024585,"connected_time":504000000000,"state":"active","ping":33},{"user_id":71,"name":"young thug disciple","steam_id":76561198046239819,"connected_time":1746000000000,"state":"active","ping":88},{"user_id":52,"name":"SaltierThanYou","steam_id":76561198444395188,"connected_time":2036000000000,"state":"active","ping":75},{"user_id":55,"name":"Nyda","steam_id":76561198152311904,"connected_time":1901000000000,"state":"active","ping":60},{"user_id":56,"name":"Titan","steam_id":76561198343953317,"connected_time":1899000000000,"state":"active","ping":57},{"user_id":87,"name":"Fresh Produce Gaming","steam_id":76561198358483352,"connected_time":83000000000,"state":"active","ping":45},{"user_id":58,"name":"krandlez` (Any/All)","steam_id":76561198044839726,"connected_time":1891000000000,"state":"active","ping":40},{"user_id":59,"name":"invert.","steam_id":76561198049619174,"connected_time":1888000000000,"state":"active","ping":52},{"user_id":60,"name":"gnome slayer","steam_id":76561198048064049,"connected_time":1875000000000,"state":"active","ping":81},{"user_id":64,"name":"t.tv/catherine_x3","steam_id":76561198041907885,"connected_time":1812000000000,"state":"active","ping":69},{"user_id":62,"name":"Uncle_Bowlcut","steam_id":76561198225191728,"connected_time":1860000000000,"state":"active","ping":57},{"user_id":82,"name":"Penguinator5000","steam_id":76561198038183553,"connected_time":852000000000,"state":"active","ping":38},{"user_id":65,"name":"buff_sheep","steam_id":76561199122474585,"connected_time":1810000000000,"state":"active","ping":77},{"user_id":75,"name":"Kitty Person","steam_id":76561198798992121,"connected_time":1504000000000,"state":"active","ping":119},{"user_id":67,"name":"...","steam_id":76561198309750355,"connected_time":1802000000000,"state":"active","ping":49},{"user_id":81,"name":"blarglefargle zippoingus","steam_id":76561198063481761,"connected_time":1166000000000,"state":"active","ping":45},{"user_id":78,"name":"NORGO","steam_id":76561197993221889,"connected_time":1425000000000,"state":"active","ping":56},{"user_id":73,"name":"Bunny","steam_id":76561198894341025,"connected_time":1739000000000,"state":"active","ping":70}]},{"server_id":123,"name":"Uncletopia | Sydney | 2 | All Maps","name_short":"syd-2","host":"syd-1.au.uncletopia.com","port":27025,"enabled":true,"region":"au","cc":"au","latitude":-33.865143,"longitude":151.2099,"reserved":0,"last_update":"0001-01-01T00:00:00Z","name_a2s":"Uncletopia | Sydney | 2 | All Maps","protocol":17,"map":"cp_altitude","folder":"tf","game":"Team Fortress","app_id":440,"player_count":0,"max_players":24,"Bots":0,"server_type":"Dedicated","server_os":"Linux","password":true,"vac":true,"version":"7961495","steam_id":85568392924470002,"keywords":["cp","nocrits","nodmgspread","uncletopia"],"game_id":440,"stv_port":27026,"stv_name":"Uncletopia | Sydney | 2 | All Maps | STV","players":null},{"server_id":395,"name":"Uncletopia | Sydney | 3 | All Maps","name_short":"syd-3","host":"syd-1.au.uncletopia.com","port":27035,"enabled":true,"region":"au","cc":"au","latitude":-33.865143,"longitude":151.2099,"reserved":0,"last_update":"0001-01-01T00:00:00Z","name_a2s":"Uncletopia | Sydney | 3 | All Maps","protocol":17,"map":"cp_metalworks","folder":"tf","game":"Team Fortress","app_id":440,"player_count":0,"max_players":24,"Bots":0,"server_type":"Dedicated","server_os":"Linux","password":true,"vac":true,"version":"7961495","steam_id":85568392925194467,"keywords":["cp","nocrits","nodmgspread","uncletopia"],"game_id":440,"stv_port":27036,"stv_name":"Uncletopia | Sydney | 3 | All Maps | STV","players":null},{"server_id":396,"name":"Uncletopia | Sydney | 4 | All Maps","name_short":"syd-4","host":"syd-1.au.uncletopia.com","port":27045,"enabled":true,"region":"au","cc":"au","latitude":-33.865143,"longitude":151.2099,"reserved":0,"last_update":"0001-01-01T00:00:00Z","name_a2s":"Uncletopia | Sydney | 4 | All Maps","protocol":17,"map":"koth_cascade","folder":"tf","game":"Team Fortress","app_id":440,"player_count":0,"max_players":24,"Bots":0,"server_type":"Dedicated","server_os":"Linux","password":true,"vac":true,"version":"7961495","steam_id":85568392925397958,"keywords":["cp","nocrits","nodmgspread","uncletopia"],"game_id":440,"stv_port":27046,"stv_name":"Uncletopia | Sydney | 4 | All Maps | STV","players":null},{"server_id":58,"name":"Uncletopia | Sydney | 5 | Stopwatch","name_short":"syd-5","host":"syd-1.au.uncletopia.com","port":27055,"enabled":true,"region":"au","cc":"au","latitude":-33.865143,"longitude":151.2099,"reserved":0,"last_update":"0001-01-01T00:00:00Z","name_a2s":"Uncletopia | Sydney | 5 | Stopwatch","protocol":17,"map":"workshop/pl_vigil_rc10.ugc1266210012","folder":"tf","game":"Team Fortress","app_id":440,"player_count":0,"max_players":24,"Bots":0,"server_type":"Dedicated","server_os":"Linux","password":true,"vac":true,"version":"7961495","steam_id":85568392925397959,"keywords":["nocrits","nodmgspread","payload","uncletopia"],"game_id":440,"stv_port":27056,"stv_name":"Uncletopia | Sydney | 5 | Stopwatch | STV","players":null},{"server_id":59,"name":"Uncletopia | Sydney | 6 | Community","name_short":"syd-6","host":"syd-1.au.uncletopia.com","port":27065,"enabled":true,"region":"au","cc":"au","latitude":-33.865143,"longitude":151.2099,"reserved":0,"last_update":"0001-01-01T00:00:00Z","name_a2s":"Uncletopia | Sydney | 6 | Community","protocol":17,"map":"workshop/koth_product_final.ugc454272353","folder":"tf","game":"Team Fortress","app_id":440,"player_count":0,"max_players":24,"Bots":0,"server_type":"Dedicated","server_os":"Linux","password":true,"vac":true,"version":"7961495","steam_id":85568392925397960,"keywords":["cp","nocrits","nodmgspread","uncletopia"],"game_id":440,"stv_port":27066,"stv_name":"Uncletopia | Sydney | 6 | Community | STV","players":null},{"server_id":49,"name":"Uncletopia | Warsaw | 1 | One Thousand Uncles","name_short":"waw-1","host":"waw-1.pl.uncletopia.com","port":27015,"enabled":true,"region":"eu","cc":"pl","latitude":52.2297,"longitude":21.017532,"reserved":0,"last_update":"0001-01-01T00:00:00Z","name_a2s":"Uncletopia | Warsaw | 1 | One Thousand Uncles","protocol":17,"map":"cp_mercenarypark","folder":"tf","game":"Team Fortress","app_id":440,"player_count":19,"max_players":32,"Bots":16,"server_type":"Dedicated","server_os":"Linux","password":true,"vac":true,"version":"7961495","steam_id":85568392925397850,"keywords":["alltalk","bots","cp","danepve","increased_maxplayers","norespawntime","uncletopia"],"game_id":440,"stv_port":0,"stv_name":"","players":[{"user_id":3,"name":"JMJGAMING971","steam_id":76561199465588292,"connected_time":1745000000000,"state":"active","ping":320},{"user_id":20,"name":"neco arc gaming (real)","steam_id":76561199472769701,"connected_time":1576000000000,"state":"active","ping":59},{"user_id":23,"name":"xanderomeister","steam_id":76561198882550389,"connected_time":938000000000,"state":"active","ping":68}]},{"server_id":50,"name":"Uncletopia | Warsaw | 2 | One Thousand Uncles","name_short":"waw-2","host":"waw-1.pl.uncletopia.com","port":27025,"enabled":true,"region":"eu","cc":"pl","latitude":52.2297,"longitude":21.017532,"reserved":0,"last_update":"0001-01-01T00:00:00Z","name_a2s":"Uncletopia | Warsaw | 2 | One Thousand Uncles","protocol":17,"map":"cp_egypt_final","folder":"tf","game":"Team Fortress","app_id":440,"player_count":0,"max_players":32,"Bots":0,"server_type":"Dedicated","server_os":"Linux","password":true,"vac":true,"version":"7961495","steam_id":85568392925397851,"keywords":["alltalk","cp","danepve","increased_maxplayers","norespawntime","uncletopia"],"game_id":440,"stv_port":0,"stv_name":"","players":null},{"server_id":51,"name":"Uncletopia | Warsaw | 3 | All Maps","name_short":"waw-3","host":"waw-1.pl.uncletopia.com","port":27035,"enabled":true,"region":"eu","cc":"pl","latitude":52.2297,"longitude":21.017532,"reserved":0,"last_update":"0001-01-01T00:00:00Z","name_a2s":"Uncletopia | Warsaw | 3 | All Maps","protocol":17,"map":"pl_snowycoast","folder":"tf","game":"Team Fortress","app_id":440,"player_count":0,"max_players":24,"Bots":0,"server_type":"Dedicated","server_os":"Linux","password":true,"vac":true,"version":"7961495","steam_id":85568392925397852,"keywords":["nocrits","nodmgspread","payload","uncletopia"],"game_id":440,"stv_port":27036,"stv_name":"Uncletopia | Warsaw | 3 | All Maps | STV","players":null},{"server_id":52,"name":"Uncletopia | Warsaw | 4 | All Maps","name_short":"waw-4","host":"waw-1.pl.uncletopia.com","port":27045,"enabled":true,"region":"eu","cc":"pl","latitude":52.2297,"longitude":21.017532,"reserved":0,"last_update":"0001-01-01T00:00:00Z","name_a2s":"Uncletopia | Warsaw | 4 | All Maps","protocol":17,"map":"cp_fastlane","folder":"tf","game":"Team Fortress","app_id":440,"player_count":0,"max_players":24,"Bots":0,"server_type":"Dedicated","server_os":"Linux","password":true,"vac":true,"version":"7961495","steam_id":85568392925397853,"keywords":["cp","nocrits","nodmgspread","uncletopia"],"game_id":440,"stv_port":27046,"stv_name":"Uncletopia | Warsaw | 4 | All Maps | STV","players":null},{"server_id":53,"name":"Uncletopia | Warsaw | 5 | Stopwatch","name_short":"waw-5","host":"waw-1.pl.uncletopia.com","port":27055,"enabled":true,"region":"eu","cc":"pl","latitude":52.2297,"longitude":21.017532,"reserved":0,"last_update":"0001-01-01T00:00:00Z","name_a2s":"Uncletopia | Warsaw | 5 | Stopwatch","protocol":17,"map":"cp_gullywash_final1","folder":"tf","game":"Team Fortress","app_id":440,"player_count":0,"max_players":24,"Bots":0,"server_type":"Dedicated","server_os":"Linux","password":true,"vac":true,"version":"7961495","steam_id":85568392925397854,"keywords":["cp","nocrits","nodmgspread","uncletopia"],"game_id":440,"stv_port":27056,"stv_name":"Uncletopia | Warsaw | 5 | Stopwatch | STV","players":null},{"server_id":54,"name":"Uncletopia | Warsaw | 6 | Community","name_short":"waw-6","host":"waw-1.pl.uncletopia.com","port":27065,"enabled":true,"region":"eu","cc":"pl","latitude":52.2297,"longitude":21.017532,"reserved":0,"last_update":"0001-01-01T00:00:00Z","name_a2s":"Uncletopia | Warsaw | 6 | Community","protocol":17,"map":"workshop/cp_fulgur_rc2a.ugc2068252300","folder":"tf","game":"Team Fortress","app_id":440,"player_count":0,"max_players":24,"Bots":0,"server_type":"Dedicated","server_os":"Linux","password":true,"vac":true,"version":"7961495","steam_id":85568392925397856,"keywords":["cp","nocrits","nodmgspread","uncletopia"],"game_id":440,"stv_port":27066,"stv_name":"Uncletopia | Warsaw | 6 | Community | STV","players":null}]}