{"status":true,"message":"","result":[{"server_id":9,"name":"Uncletopia | Atlanta | 1 | All Maps","name_short":"atl-1","host":"atl-1.us.uncletopia.com","port":27015,"enabled":true,"region":"us-east","cc":"us","latitude":33.753746,"longitude":-84.38633,"reserved":0,"last_update":"0001-01-01T00:00:00Z","name_a2s":"Uncletopia | Atlanta | 1 | All Maps","protocol":17,"map":"pl_badwater","folder":"tf","game":"Team Fortress","app_id":440,"player_count":24,"max_players":24,"Bots":0,"server_type":"Dedicated","server_os":"Linux","password":true,"vac":true,"version":"7757534","steam_id":85568392924469982,"keywords":["nocrits","nodmgspread","payload","uncletopia"],"game_id":440,"stv_port":27016,"stv_name":"Uncletopia | Atlanta | 1 | All Maps | STV","players":[{"user_id":164,"name":"Crunchy","steam_id":76561199065412274,"connected_time":5965000000000,"state":"active","ping":61},{"user_id":192,"name":"Monochrome","steam_id":76561198377320040,"connected_time":3301000000000,"state":"active","ping":60},{"user_id":206,"name":"the_Qcumber","steam_id":76561199152515819,"connected_time":2218000000000,"state":"active","ping":169},{"user_id":178,"name":"6'4 manly man! ♥","steam_id":76561198091741658,"connected_time":3869000000000,"state":"active","ping":79},{"user_id":211,"name":"LionHeart","steam_id":76561198075573693,"connected_time":1723000000000,"state":"active","ping":61},{"user_id":215,"name":"Tony","steam_id":76561197995848919,"connected_time":1538000000000,"state":"active","ping":117},{"user_id":226,"name":"Sex on the peach","steam_id":76561198002353326,"connected_time":33000000000,"state":"spawning","ping":66},{"user_id":169,"name":"Obelisk","steam_id":76561198049416866,"connected_time":5240000000000,"state":"active","ping":49},{"user_id":103,"name":"FheeseWurger Insouptitty","steam_id":76561198130772096,"connected_time":11072000000000,"state":"active","ping":57},{"user_id":222,"name":"BOTBOT","steam_id":76561198271928618,"connected_time":391000000000,"state":"active","ping":85},{"user_id":200,"name":"Matchstick","steam_id":76561198399856863,"connected_time":2697000000000,"state":"active","ping":93},{"user_id":225,"name":"mayhem","steam_id":76561199246637881,"connected_time":94000000000,"state":"active","ping":57},{"user_id":212,"name":"Inkmix (F2P","steam_id":76561198854070384,"connected_time":1656000000000,"state":"active","ping":101},{"user_id":220,"name":"Motorolª","steam_id":76561198358119669,"connected_time":735000000000,"state":"active","ping":113},{"user_id":217,"name":"I Like Cheese","steam_id":76561198006265659,"connected_time":1292000000000,"state":"active","ping":93},{"user_id":171,"name":"ATL 1 | Save your wifi","steam_id":76561198286147372,"connected_time":4344000000000,"state":"active","ping":59},{"user_id":168,"name":"Wren","steam_id":76561198071109787,"connected_time":5295000000000,"state":"active","ping":88},{"user_id":219,"name":"Recursive Gamer","steam_id":76561198042102952,"connected_time":839000000000,"state":"active","ping":75},{"user_id":223,"name":"Albino Jellyfish","steam_id":76561198208561097,"connected_time":376000000000,"state":"active","ping":67},{"user_id":221,"name":"ATL1 | Lancer Fan Club","steam_id":76561198355495948,"connected_time":447000000000,"state":"active","ping":50},{"user_id":224,"name":"I Eat FheeseWurger's","steam_id":76561198829607485,"connected_time":195000000000,"state":"active","ping":46},{"user_id":205,"name":"Lost","steam_id":76561198093713427,"connected_time":2247000000000,"state":"active","ping":75},{"user_id":209,"name":"Kami","steam_id":76561199039249396,"connected_time":2132000000000,"state":"active","ping":101},{"user_id":214,"name":"Alkivo","steam_id":76561198315999766,"connected_time":1595000000000,"state":"active","ping":75}]},{"server_id":104,"name":"Uncletopia | Atlanta | 2 | All Maps","name_short":"atl-2","host":"atl-1.us.uncletopia.com","port":27025,"enabled":true,"region":"us-east","cc":"us","latitude":33.753746,"longitude":-84.38633,"reserved":0,"last_update":"0001-01-01T00:00:00Z","name_a2s":"Uncletopia | Atlanta | 2 | All Maps","protocol":17,"map":"koth_suijin","folder":"tf","game":"Team Fortress","app_id":440,"player_count":24,"max_players":24,"Bots":0,"server_type":"Dedicated","server_os":"Linux","password":true,"vac":true,"version":"7757534","steam_id":85568392924469983,"keywords":["cp","nocrits","nodmgspread","uncletopia"],"game_id":440,"stv_port":27026,"stv_name":"Uncletopia | Atlanta | 2 | All Maps | STV","players":[{"user_id":98,"name":"kiviviviviviviviviviviviviviviv","steam_id":76561198838223023,"connected_time":758000000000,"state":"active","ping":70},{"user_id":58,"name":"Mike Charlie","steam_id":76561199470538309,"connected_time":4298000000000,"state":"active","ping":76},{"user_id":104,"name":"Skill Saw Stan","steam_id":76561199013064727,"connected_time":483000000000,"state":"active","ping":105},{"user_id":77,"name":"Shwaey","steam_id":76561198218886668,"connected_time":2550000000000,"state":"active","ping":67},{"user_id":79,"name":"Erin","steam_id":76561198394148072,"connected_time":2457000000000,"state":"active","ping":61},{"user_id":108,"name":"Samrizo el Chorizo","steam_id":76561198009838162,"connected_time":94000000000,"state":"active","ping":70},{"user_id":93,"name":"King","steam_id":76561198039763676,"connected_time":1046000000000,"state":"active","ping":55},{"user_id":102,"name":"sex (real)","steam_id":76561198396414319,"connected_time":568000000000,"state":"active","ping":108},{"user_id":84,"name":"Kawflynn","steam_id":76561198029885678,"connected_time":2035000000000,"state":"active","ping":99},{"user_id":105,"name":"DogThrowUp","steam_id":76561198109028172,"connected_time":369000000000,"state":"active","ping":79},{"user_id":49,"name":"Big Yoshi","steam_id":76561199160576376,"connected_time":5014000000000,"state":"active","ping":120},{"user_id":95,"name":"zzz","steam_id":76561198143727547,"connected_time":947000000000,"state":"active","ping":105},{"user_id":40,"name":"wally","steam_id":76561198027450079,"connected_time":5609000000000,"state":"active","ping":63},{"user_id":71,"name":"lucil3 on Bandcamp","steam_id":76561198149063013,"connected_time":3296000000000,"state":"active","ping":69},{"user_id":31,"name":"Jeffenthropus","steam_id":76561198134204248,"connected_time":5855000000000,"state":"active","ping":65},{"user_id":96,"name":"God's Drunkest Driver","steam_id":76561198165175875,"connected_time":773000000000,"state":"active","ping":44},{"user_id":107,"name":"lifted tater","steam_id":76561198404564240,"connected_time":299000000000,"state":"active","ping":66},{"user_id":101,"name":"Raine","steam_id":76561199081937889,"connected_time":663000000000,"state":"active","ping":47},{"user_id":110,"name":"Walka","steam_id":76561198074325951,"connected_time":79000000000,"state":"active","ping":98},{"user_id":92,"name":"Menacing Pile of Frogs","steam_id":76561198360134800,"connected_time":1222000000000,"state":"active","ping":71},{"user_id":74,"name":"Osrio","steam_id":76561198083428069,"connected_time":3052000000000,"state":"active","ping":96},{"user_id":76,"name":"jaydn","steam_id":76561198086615208,"connected_time":2998000000000,"state":"active","ping":44},{"user_id":100,"name":"Jetology","steam_id":76561198102782759,"connected_time":733000000000,"state":"active","ping":85},{"user_id":111,"name":"andyiscolorless","steam_id":76561199239870921,"connected_time":77000000000,"state":"active","ping":125}]},{"server_id":400,"name":"Uncletopia | Atlanta | 3 | Community","name_short":"atl-3","host":"atl-1.us.uncletopia.com","port":27035,"enabled":true,"region":"us-east","cc":"us","latitude":33.753746,"longitude":-84.38633,"reserved":0,"last_update":"0001-01-01T00:00:00Z","name_a2s":"Uncletopia | Atlanta | 3 | Community","protocol":17,"map":"workshop/cp_alloy_rc3.ugc592805587","folder":"tf","game":"Team Fortress","app_id":440,"player_count":0,"max_players":24,"Bots":0,"server_type":"Dedicated","server_os":"Linux","password":true,"vac":true,"version":"7757534","steam_id":85568392924515187,"keywords":["cp","nocrits","nodmgspread","uncletopia"],"game_id":440,"stv_port":27036,"stv_name":"Uncletopia | Atlanta | 3 | Community | STV","players":null},{"server_id":401,"name":"Uncletopia | Atlanta | 4 | No Payload","name_short":"atl-4","host":"atl-1.us.uncletopia.com","port":27045,"enabled":true,"region":"us-east","cc":"us","latitude":33.753746,"longitude":-84.38633,"reserved":0,"last_update":"0001-01-01T00:00:00Z","name_a2s":"","protocol":0,"map":"","folder":"","game":"","app_id":0,"player_count":0,"max_players":0,"Bots":0,"server_type":"","server_os":"","password":false,"vac":false,"version":"","steam_id":0,"keywords":null,"game_id":0,"stv_port":0,"stv_name":"","players":null},{"server_id":2,"name":"Uncletopia | Chicago | 1 | All Maps","name_short":"chi-1","host":"chi-1.us.uncletopia.com","port":27015,"enabled":true,"region":"us-central","cc":"us","latitude":41.881832,"longitude":-87.62318,"reserved":0,"last_update":"0001-01-01T00:00:00Z","name_a2s":"Uncletopia | Chicago | 1 | All Maps","protocol":17,"map":"pl_swiftwater_final1","folder":"tf","game":"Team Fortress","app_id":440,"player_count":24,"max_players":24,"Bots":0,"server_type":"Dedicated","server_os":"Linux","password":true,"vac":true,"version":"7757534","steam_id":85568392924469984,"keywords":["nocrits","nodmgspread","payload","uncletopia"],"game_id":440,"stv_port":27016,"stv_name":"Uncletopia | Chicago | 1 | All Maps | STV","players":[{"user_id":4,"name":"Big Man","steam_id":76561198353366625,"connected_time":12792000000000,"state":"active","ping":78},{"user_id":105,"name":"Amazingamerhawk","steam_id":76561199064935924,"connected_time":3922000000000,"state":"active","ping":67},{"user_id":159,"name":"Kuro Fox","steam_id":76561198141743790,"connected_time":419000000000,"state":"active","ping":182},{"user_id":137,"name":"DarthEthanBoy","steam_id":76561198441643581,"connected_time":2181000000000,"state":"active","ping":66},{"user_id":161,"name":"Fresh0c0","steam_id":76561198271933283,"connected_time":381000000000,"state":"active","ping":55},{"user_id":149,"name":"x3 ♡","steam_id":76561198132011077,"connected_time":1506000000000,"state":"active","ping":61},{"user_id":152,"name":"Influrrno","steam_id":76561198398893302,"connected_time":1237000000000,"state":"active","ping":72},{"user_id":155,"name":"Craig Isonychia","steam_id":76561198272013678,"connected_time":756000000000,"state":"active","ping":72},{"user_id":160,"name":"tA.CHRONIC","steam_id":76561197960760990,"connected_time":410000000000,"state":"active","ping":66},{"user_id":153,"name":"ジKiloeジ","steam_id":76561199084636926,"connected_time":1219000000000,"state":"active","ping":114},{"user_id":162,"name":"Fresh 1026","steam_id":76561198050651475,"connected_time":371000000000,"state":"active","ping":84},{"user_id":165,"name":"Chicanery","steam_id":76561198977589038,"connected_time":302000000000,"state":"active","ping":82},{"user_id":134,"name":"Mister Mundy","steam_id":76561198145675134,"connected_time":2330000000000,"state":"active","ping":76},{"user_id":163,"name":"Proudaazz","steam_id":76561199015525980,"connected_time":369000000000,"state":"active","ping":76},{"user_id":164,"name":":^|","steam_id":76561198119826352,"connected_time":367000000000,"state":"active","ping":71},{"user_id":166,"name":"Thix","steam_id":76561199187457689,"connected_time":295000000000,"state":"active","ping":63},{"user_id":156,"name":"bappo","steam_id":76561199294792123,"connected_time":660000000000,"state":"active","ping":57},{"user_id":119,"name":"mayak2112","steam_id":76561199186794035,"connected_time":2924000000000,"state":"active","ping":97},{"user_id":167,"name":"Stardust Birds","steam_id":76561198056816698,"connected_time":265000000000,"state":"active","ping":64},{"user_id":144,"name":"Catboy Lukario","steam_id":76561198386404089,"connected_time":1888000000000,"state":"active","ping":79},{"user_id":168,"name":"SnazzyCelestial","steam_id":76561198328763813,"connected_time":258000000000,"state":"active","ping":82},{"user_id":169,"name":"Pebbled","steam_id":76561199390347605,"connected_time":249000000000,"state":"active","ping":86},{"user_id":171,"name":"Training Arc","steam_id":76561198038832034,"connected_time":199000000000,"state":"active","ping":102},{"user_id":112,"name":"ColonelKermit","steam_id":76561198318215660,"connected_time":3147000000000,"state":"active","ping":55}]},{"server_id":106,"name":"Uncletopia | Chicago | 2 | All Maps","name_short":"chi-2","host":"chi-1.us.uncletopia.com","port":27025,"enabled":true,"region":"us-central","cc":"us","latitude":41.881832,"longitude":-87.62318,"reserved":0,"last_update":"0001-01-01T00:00:00Z","name_a2s":"Uncletopia | Chicago | 2 | All Maps","protocol":17,"map":"pl_borneo","folder":"tf","game":"Team Fortress","app_id":440,"player_count":24,"max_players":24,"Bots":0,"server_type":"Dedicated","server_os":"Linux","password":true,"vac":true,"version":"7757534","steam_id":85568392924469985,"keywords":["nocrits","nodmgspread","payload","uncletopia"],"game_id":440,"stv_port":27026,"stv_name":"Uncletopia | Chicago | 2 | All Maps | STV","players":[{"user_id":104,"name":"antknee","steam_id":76561198263793809,"connected_time":865000000000,"state":"active","ping":70},{"user_id":91,"name":"WhippedHook","steam_id":76561198069581138,"connected_time":1864000000000,"state":"active","ping":65},{"user_id":103,"name":"Drapph","steam_id":76561199384213314,"connected_time":1405000000000,"state":"active","ping":61},{"user_id":86,"name":"LVL 4 Dispenser Gaming","steam_id":76561198044244547,"connected_time":2382000000000,"state":"active","ping":78},{"user_id":97,"name":"Kyle H. McCloud","steam_id":76561198025050432,"connected_time":1711000000000,"state":"active","ping":88},{"user_id":87,"name":"Brother Pudge","steam_id":76561198247815090,"connected_time":2256000000000,"state":"active","ping":51},{"user_id":84,"name":"Quaker Oats","steam_id":76561197992800293,"connected_time":2427000000000,"state":"active","ping":86},{"user_id":57,"name":"TwoBit","steam_id":76561198062437559,"connected_time":4588000000000,"state":"active","ping":76},{"user_id":100,"name":"MattJettskie","steam_id":76561199229493583,"connected_time":1628000000000,"state":"active","ping":89},{"user_id":105,"name":"Pop","steam_id":76561199012562851,"connected_time":575000000000,"state":"active","ping":92},{"user_id":64,"name":"Doctobob","steam_id":76561198095283669,"connected_time":4333000000000,"state":"active","ping":75},{"user_id":113,"name":"Asanez3","steam_id":76561198037381436,"connected_time":458000000000,"state":"active","ping":93},{"user_id":106,"name":"SunSet :^)","steam_id":76561198067598194,"connected_time":558000000000,"state":"active","ping":81},{"user_id":95,"name":"scrapheap","steam_id":76561198202407087,"connected_time":1761000000000,"state":"active","ping":81},{"user_id":71,"name":"Broadsword","steam_id":76561198011160411,"connected_time":3510000000000,"state":"active","ping":86},{"user_id":81,"name":"ChozoChorizo","steam_id":76561198272609196,"connected_time":3252000000000,"state":"active","ping":61},{"user_id":112,"name":"peter griffinfield","steam_id":76561198108546357,"connected_time":513000000000,"state":"active","ping":81},{"user_id":72,"name":"I'm in your walls","steam_id":76561198153502981,"connected_time":3498000000000,"state":"active","ping":63},{"user_id":99,"name":"ImnotAbot:(","steam_id":76561199475442611,"connected_time":1636000000000,"state":"active","ping":104},{"user_id":89,"name":"AquaPhoenix","steam_id":76561198157474924,"connected_time":2225000000000,"state":"active","ping":52},{"user_id":101,"name":"DoubleTee","steam_id":76561198018980347,"connected_time":1603000000000,"state":"active","ping":81},{"user_id":82,"name":"Peter Popoff","steam_id":76561198027171160,"connected_time":3247000000000,"state":"active","ping":47},{"user_id":110,"name":"Legit_Jaxer","steam_id":76561198172234053,"connected_time":548000000000,"state":"active","ping":87},{"user_id":111,"name":"Coolshroomish","steam_id":76561199109440924,"connected_time":547000000000,"state":"active","ping":102}]},{"server_id":402,"name":"Uncletopia | Chicago | 3 | All Maps","name_short":"chi-3","host":"chi-1.us.uncletopia.com","port":27035,"enabled":true,"region":"us-central","cc":"us","latitude":41.881832,"longitude":-87.62318,"reserved":0,"last_update":"0001-01-01T00:00:00Z","name_a2s":"Uncletopia | Chicago | 3 | All Maps","protocol":17,"map":"pl_snowycoast","folder":"tf","game":"Team Fortress","app_id":440,"player_count":0,"max_players":24,"Bots":0,"server_type":"Dedicated","server_os":"Linux","password":true,"vac":true,"version":"7757534","steam_id":85568392924515191,"keywords":["nocrits","nodmgspread","payload","uncletopia"],"game_id":440,"stv_port":27036,"stv_name":"Uncletopia | Chicago | 3 | All Maps | STV","players":null},{"server_id":403,"name":"Uncletopia | Chicago | 4 | All Maps","name_short":"chi-4","host":"chi-1.us.uncletopia.com","port":27045,"enabled":true,"region":"us-central","cc":"us","latitude":41.881832,"longitude":-87.62318,"reserved":0,"last_update":"0001-01-01T00:00:00Z","name_a2s":"Uncletopia | Chicago | 4 | All Maps","protocol":17,"map":"pl_upward","folder":"tf","game":"Team Fortress","app_id":440,"player_count":24,"max_players":24,"Bots":0,"server_type":"Dedicated","server_os":"Linux","password":true,"vac":true,"version":"7757534","steam_id":85568392924515193,"keywords":["nocrits","nodmgspread","payload","uncletopia"],"game_id":440,"stv_port":27046,"stv_name":"Uncletopia | Chicago | 4 | All Maps | STV","players":[{"user_id":64,"name":"Edder","steam_id":76561198011088393,"connected_time":56000000000,"state":"active","ping":74},{"user_id":43,"name":"Dwayne 'The Rock' Johnson","steam_id":76561198080072997,"connected_time":1540000000000,"state":"active","ping":142},{"user_id":11,"name":"CTHUWU","steam_id":76561198012388926,"connected_time":2346000000000,"state":"active","ping":69},{"user_id":13,"name":"god gamer","steam_id":76561198168149434,"connected_time":2297000000000,"state":"active","ping":119},{"user_id":15,"name":"Daehypeels","steam_id":76561198268981599,"connected_time":2236000000000,"state":"active","ping":61},{"user_id":17,"name":"HostileEnvironment","steam_id":76561198087019876,"connected_time":2138000000000,"state":"active","ping":85},{"user_id":40,"name":"Zeyno","steam_id":76561198797582823,"connected_time":1688000000000,"state":"active","ping":69},{"user_id":62,"name":"Robin","steam_id":76561198121165149,"connected_time":87000000000,"state":"active","ping":43},{"user_id":63,"name":"FakeBot","steam_id":76561197961193303,"connected_time":71000000000,"state":"active","ping":120},{"user_id":56,"name":"volta","steam_id":76561199214283884,"connected_time":774000000000,"state":"active","ping":103},{"user_id":60,"name":"Lightatex","steam_id":76561199068097196,"connected_time":467000000000,"state":"active","ping":58},{"user_id":48,"name":"Aureum","steam_id":76561199001172403,"connected_time":1440000000000,"state":"active","ping":82},{"user_id":61,"name":"Cyber Glitch","steam_id":76561199277801462,"connected_time":120000000000,"state":"active","ping":79},{"user_id":42,"name":"lazarust","steam_id":76561198355322731,"connected_time":1556000000000,"state":"active","ping":75},{"user_id":26,"name":"Sir, this is a Wendy's","steam_id":76561198983656317,"connected_time":2024000000000,"state":"active","ping":74},{"user_id":36,"name":"19037189","steam_id":76561198053960810,"connected_time":1875000000000,"state":"active","ping":85},{"user_id":44,"name":"Jun Manjoume","steam_id":76561198124040126,"connected_time":1519000000000,"state":"active","ping":72},{"user_id":45,"name":"Kuyumiester","steam_id":76561198126835302,"connected_time":1504000000000,"state":"active","ping":62},{"user_id":46,"name":"Gavii","steam_id":76561198183680605,"connected_time":1500000000000,"state":"active","ping":69},{"user_id":65,"name":"Xx-CostcoShopper-xX","steam_id":76561198066429444,"connected_time":53000000000,"state":"active","ping":60},{"user_id":66,"name":"TheKees301","steam_id":76561198827506371,"connected_time":35000000000,"state":"active","ping":159},{"user_id":52,"name":"|WS| Don't_Taze_Me_Bro","steam_id":76561198043289495,"connected_time":1408000000000,"state":"active","ping":77},{"user_id":53,"name":"kable.gilmore","steam_id":76561198966400208,"connected_time":1402000000000,"state":"active","ping":57},{"user_id":54,"name":"Walkiing","steam_id":76561198074473413,"connected_time":1361000000000,"state":"active","ping":31}]},{"server_id":36,"name":"Uncletopia | Chicago | 5 | All Maps","name_short":"chi-5","host":"chi-2.us.uncletopia.com","port":27015,"enabled":true,"region":"us-central","cc":"us","latitude":41.881832,"longitude":-87.62318,"reserved":0,"last_update":"0001-01-01T00:00:00Z","name_a2s":"Uncletopia | Chicago | 5 | All Maps","protocol":17,"map":"koth_cascade","folder":"tf","game":"Team Fortress","app_id":440,"player_count":2,"max_players":24,"Bots":0,"server_type":"Dedicated","server_os":"Linux","password":true,"vac":true,"version":"7757534","steam_id":85568392924866362,"keywords":["cp","nocrits","nodmgspread","uncletopia"],"game_id":440,"stv_port":27016,"stv_name":"Uncletopia | Chicago | 5 | All Maps | STV","players":[{"user_id":6,"name":"Justis","steam_id":76561197963835016,"connected_time":588000000000,"state":"active","ping":71},{"user_id":7,"name":"Replica","steam_id":76561198043761647,"connected_time":495000000000,"state":"active","ping":68}]},{"server_id":37,"name":"Uncletopia | Chicago | 6 | All Maps","name_short":"chi-6","host":"chi-2.us.uncletopia.com","port":27025,"enabled":true,"region":"us-central","cc":"us","latitude":41.881832,"longitude":-87.62318,"reserved":0,"last_update":"0001-01-01T00:00:00Z","name_a2s":"Uncletopia | Chicago | 6 | All Maps","protocol":17,"map":"koth_lakeside_final","folder":"tf","game":"Team Fortress","app_id":440,"player_count":0,"max_players":24,"Bots":0,"server_type":"Dedicated","server_os":"Linux","password":true,"vac":true,"version":"7757534","steam_id":85568392924866363,"keywords":["cp","nocrits","nodmgspread","uncletopia"],"game_id":440,"stv_port":27026,"stv_name":"Uncletopia | Chicago | 6 | All Maps | STV","players":null},{"server_id":38,"name":"Uncletopia | Chicago | 7 | Stopwatch Beta","name_short":"chi-7","host":"chi-2.us.uncletopia.com","port":27035,"enabled":true,"region":"us-central","cc":"us","latitude":41.881832,"longitude":-87.62318,"reserved":0,"last_update":"0001-01-01T00:00:00Z","name_a2s":"Uncletopia | Chicago | 7 | Stopwatch Beta","protocol":17,"map":"pl_barnblitz","folder":"tf","game":"Team Fortress","app_id":440,"player_count":0,"max_players":24,"Bots":0,"server_type":"Dedicated","server_os":"Linux","password":true,"vac":true,"version":"7757534","steam_id":85568392924866364,"keywords":["nocrits","nodmgspread","payload","uncletopia"],"game_id":440,"stv_port":27036,"stv_name":"Uncletopia | Chicago | 7 | Stopwatch Beta | STV","players":null},{"server_id":39,"name":"Uncletopia | Chicago | 8 | Community","name_short":"chi-8","host":"chi-2.us.uncletopia.com","port":27045,"enabled":true,"region":"us-central","cc":"us","latitude":41.881832,"longitude":-87.62318,"reserved":0,"last_update":"0001-01-01T00:00:00Z","name_a2s":"Uncletopia | Chicago | 8 | Community","protocol":17,"map":"workshop/koth_slaughter_rc1.ugc1712845210","folder":"tf","game":"Team Fortress","app_id":440,"player_count":0,"max_players":24,"Bots":0,"server_type":"Dedicated","server_os":"Linux","password":true,"vac":true,"version":"7757534","steam_id":85568392924866365,"keywords":["cp","nocrits","nodmgspread","uncletopia"],"game_id":440,"stv_port":27046,"stv_name":"Uncletopia | Chicago | 8 | Community | STV","players":null},{"server_id":8,"name":"Uncletopia | Dallas | 1 | All Maps","name_short":"dal-1","host":"dal-1.us.uncletopia.com","port":27015,"enabled":true,"region":"us-central","cc":"us","latitude":32.779167,"longitude":-96.80889,"reserved":0,"last_update":"0001-01-01T00:00:00Z","name_a2s":"Uncletopia | Dallas | 1 | All Maps","protocol":17,"map":"koth_highpass","folder":"tf","game":"Team Fortress","app_id":440,"player_count":24,"max_players":24,"Bots":0,"server_type":"Dedicated","server_os":"Linux","password":true,"vac":true,"version":"7757534","steam_id":85568392924469986,"keywords":["cp","nocrits","nodmgspread","uncletopia"],"game_id":440,"stv_port":27016,"stv_name":"Uncletopia | Dallas | 1 | All Maps | STV","players":[{"user_id":262,"name":"CSharp","steam_id":76561199185191710,"connected_time":345000000000,"state":"active","ping":139},{"user_id":260,"name":"cant speak english (chinese)","steam_id":76561198397662124,"connected_time":466000000000,"state":"active","ping":59},{"user_id":253,"name":"big balls but only 2","steam_id":76561199001464827,"connected_time":681000000000,"state":"active","ping":55},{"user_id":249,"name":"MrChez198","steam_id":76561199243583673,"connected_time":739000000000,"state":"active","ping":83},{"user_id":263,"name":"Zombiegamer4724","steam_id":76561199082373311,"connected_time":296000000000,"state":"active","ping":96},{"user_id":250,"name":"Frambouille","steam_id":76561198210342928,"connected_time":714000000000,"state":"active","ping":166},{"user_id":119,"name":"boredomhitshard","steam_id":76561199445629071,"connected_time":11631000000000,"state":"active","ping":79},{"user_id":247,"name":"only says gg if it was bad","steam_id":76561198073269122,"connected_time":759000000000,"state":"active","ping":90},{"user_id":264,"name":"Name","steam_id":76561199111748012,"connected_time":291000000000,"state":"active","ping":78},{"user_id":251,"name":"Cervidé","steam_id":76561198098579497,"connected_time":711000000000,"state":"active","ping":90},{"user_id":244,"name":"Motreir","steam_id":76561198151717946,"connected_time":998000000000,"state":"active","ping":80},{"user_id":225,"name":"Bottom Ramen","steam_id":76561197970450546,"connected_time":2537000000000,"state":"active","ping":114},{"user_id":224,"name":"T̵̲̒H̶̪̐E̴͉͂̊M̶̾͆\ufffd","steam_id":76561198091875604,"connected_time":2557000000000,"state":"active","ping":70},{"user_id":237,"name":"silly little feller","steam_id":76561198041975003,"connected_time":2284000000000,"state":"active","ping":78},{"user_id":246,"name":"Zune","steam_id":76561198119382708,"connected_time":777000000000,"state":"active","ping":176},{"user_id":266,"name":"Monsieur l'INGENIEUR","steam_id":76561198090504334,"connected_time":66000000000,"state":"active","ping":92},{"user_id":267,"name":"steelzepplin","steam_id":76561197993182335,"connected_time":5000000000,"state":"spawning","ping":339},{"user_id":265,"name":"Nugakku","steam_id":76561198082346219,"connected_time":276000000000,"state":"active","ping":77},{"user_id":210,"name":"The_Epic_Conclusion","steam_id":76561198084250179,"connected_time":4634000000000,"state":"active","ping":88},{"user_id":256,"name":"Winterchillz","steam_id":76561198886519094,"connected_time":638000000000,"state":"active","ping":102},{"user_id":219,"name":"spherewithahat","steam_id":76561199122192660,"connected_time":3781000000000,"state":"active","ping":94},{"user_id":233,"name":"Drive-By-Fish-Guy","steam_id":76561198105513652,"connected_time":2370000000000,"state":"active","ping":91},{"user_id":234,"name":"sly cooper","steam_id":76561198163717474,"connected_time":2360000000000,"state":"active","ping":62},{"user_id":258,"name":"Bush.exe","steam_id":76561198124385307,"connected_time":575000000000,"state":"active","ping":88}]},{"server_id":108,"name":"Uncletopia | Dallas | 2 | All Maps","name_short":"dal-2","host":"dal-1.us.uncletopia.com","port":27025,"enabled":true,"region":"us-central","cc":"us","latitude":32.779167,"longitude":-96.80889,"reserved":0,"last_update":"0001-01-01T00:00:00Z","name_a2s":"Uncletopia | Dallas | 2 | All Maps","protocol":17,"map":"pl_pier","folder":"tf","game":"Team Fortress","app_id":440,"player_count":0,"max_players":24,"Bots":0,"server_type":"Dedicated","server_os":"Linux","password":true,"vac":true,"version":"7757534","steam_id":85568392924469988,"keywords":["nocrits","nodmgspread","payload","uncletopia"],"game_id":440,"stv_port":27026,"stv_name":"Uncletopia | Dallas | 2 | All Maps | STV","players":null},{"server_id":5,"name":"Uncletopia | Frankfurt | 1 | All Maps","name_short":"frk-1","host":"frk-1.de.uncletopia.com","port":27015,"enabled":true,"region":"eu","cc":"de","latitude":50.110924,"longitude":8.682127,"reserved":0,"last_update":"0001-01-01T00:00:00Z","name_a2s":"Uncletopia | Frankfurt | 1 | All Maps","protocol":17,"map":"pl_pier","folder":"tf","game":"Team Fortress","app_id":440,"player_count":24,"max_players":24,"Bots":0,"server_type":"Dedicated","server_os":"Linux","password":true,"vac":true,"version":"7757534","steam_id":85568392924469989,"keywords":["nocrits","nodmgspread","payload","uncletopia"],"game_id":440,"stv_port":27016,"stv_name":"Uncletopia | Frankfurt | 1 | All Maps | STV","players":[{"user_id":465,"name":"SlowMode","steam_id":76561198039631442,"connected_time":3968000000000,"state":"active","ping":77},{"user_id":493,"name":"zvekan","steam_id":76561198381101196,"connected_time":2600000000000,"state":"active","ping":65},{"user_id":464,"name":"tallen","steam_id":76561198061708595,"connected_time":3977000000000,"state":"active","ping":80},{"user_id":518,"name":"iokoieon","steam_id":76561198065009070,"connected_time":1114000000000,"state":"active","ping":81},{"user_id":480,"name":"Grumble","steam_id":76561198053880090,"connected_time":3374000000000,"state":"active","ping":68},{"user_id":497,"name":"That Phlog mfer","steam_id":76561198050416948,"connected_time":2311000000000,"state":"active","ping":57},{"user_id":467,"name":"LivEssense","steam_id":76561198052476979,"connected_time":3838000000000,"state":"active","ping":75},{"user_id":505,"name":"MiFrylek","steam_id":76561198864381510,"connected_time":1910000000000,"state":"active","ping":52},{"user_id":481,"name":"Osaka gaming","steam_id":76561199052513609,"connected_time":3370000000000,"state":"active","ping":130},{"user_id":521,"name":"hud_saytext_time 0","steam_id":76561198010327228,"connected_time":978000000000,"state":"active","ping":67},{"user_id":417,"name":"OreHaX","steam_id":76561198272166623,"connected_time":7902000000000,"state":"active","ping":75},{"user_id":507,"name":"ereh","steam_id":76561198061239823,"connected_time":1705000000000,"state":"active","ping":68},{"user_id":510,"name":"Mayor Wank from Wanker Town","steam_id":76561197998253588,"connected_time":1687000000000,"state":"active","ping":45},{"user_id":490,"name":"Kleiner Engel","steam_id":76561198009922500,"connected_time":2877000000000,"state":"active","ping":59},{"user_id":524,"name":"Carl","steam_id":76561198045638738,"connected_time":566000000000,"state":"active","ping":70},{"user_id":453,"name":"Penis Contortionist","steam_id":76561198073663784,"connected_time":5577000000000,"state":"active","ping":50},{"user_id":492,"name":"YuraGreek","steam_id":76561198050182252,"connected_time":2656000000000,"state":"active","ping":74},{"user_id":511,"name":"Ptahotep","steam_id":76561198008708645,"connected_time":1684000000000,"state":"active","ping":63},{"user_id":495,"name":"Saint","steam_id":76561198003296382,"connected_time":2533000000000,"state":"active","ping":63},{"user_id":526,"name":"Tea guy","steam_id":76561198797847641,"connected_time":101000000000,"state":"active","ping":79},{"user_id":523,"name":"HarMala","steam_id":76561198055298143,"connected_time":757000000000,"state":"active","ping":76},{"user_id":527,"name":"Mr_Joergen","steam_id":76561198364713702,"connected_time":70000000000,"state":"active","ping":70},{"user_id":525,"name":"failwife","steam_id":76561198183999845,"connected_time":430000000000,"state":"active","ping":70},{"user_id":491,"name":"Shovelhalfrusty","steam_id":76561198346447513,"connected_time":2711000000000,"state":"active","ping":81}]},{"server_id":110,"name":"Uncletopia | Frankfurt | 2 | All Maps","name_short":"frk-2","host":"frk-1.de.uncletopia.com","port":27025,"enabled":true,"region":"eu","cc":"de","latitude":50.110924,"longitude":8.682127,"reserved":0,"last_update":"0001-01-01T00:00:00Z","name_a2s":"Uncletopia | Frankfurt | 2 | All Maps","protocol":17,"map":"cp_dustbowl","folder":"tf","game":"Team Fortress","app_id":440,"player_count":0,"max_players":24,"Bots":0,"server_type":"Dedicated","server_os":"Linux","password":true,"vac":true,"version":"7757534","steam_id":85568392924469990,"keywords":["cp","nocrits","nodmgspread","uncletopia"],"game_id":440,"stv_port":27026,"stv_name":"Uncletopia | Frankfurt | 2 | All Maps | STV","players":null},{"server_id":308,"name":"Uncletopia | Frankfurt | 3 | All Maps","name_short":"frk-3","host":"frk-1.de.uncletopia.com","port":27035,"enabled":true,"region":"eu","cc":"de","latitude":50.110924,"longitude":8.682127,"reserved":0,"last_update":"0001-01-01T00:00:00Z","name_a2s":"Uncletopia | Frankfurt | 3 | All Maps","protocol":17,"map":"pl_upward","folder":"tf","game":"Team Fortress","app_id":440,"player_count":24,"max_players":24,"Bots":0,"server_type":"Dedicated","server_os":"Linux","password":true,"vac":true,"version":"7757534","steam_id":85568392924504274,"keywords":["nocrits","nodmgspread","payload","uncletopia"],"game_id":440,"stv_port":27036,"stv_name":"Uncletopia | Frankfurt | 3 | All Maps | STV","players":[{"user_id":384,"name":"Sámuel Jóember","steam_id":76561199013031650,"connected_time":602000000000,"state":"active","ping":62},{"user_id":358,"name":"Neon","steam_id":76561198089944674,"connected_time":2883000000000,"state":"active","ping":70},{"user_id":381,"name":"acskama","steam_id":76561198136743845,"connected_time":628000000000,"state":"active","ping":61},{"user_id":370,"name":"Makumba","steam_id":76561198057014708,"connected_time":1689000000000,"state":"active","ping":64},{"user_id":383,"name":"Ohad","steam_id":76561198067989324,"connected_time":619000000000,"state":"active","ping":114},{"user_id":385,"name":"ksg","steam_id":76561198042894236,"connected_time":599000000000,"state":"active","ping":69},{"user_id":386,"name":"[sigma] rwota","steam_id":76561198385769722,"connected_time":585000000000,"state":"active","ping":105},{"user_id":387,"name":"noobdog","steam_id":76561198036486671,"connected_time":584000000000,"state":"active","ping":60},{"user_id":372,"name":"Lord z Párnie","steam_id":76561198070815677,"connected_time":1493000000000,"state":"active","ping":58},{"user_id":355,"name":"Efemek","steam_id":76561199076133712,"connected_time":3062000000000,"state":"active","ping":92},{"user_id":375,"name":"69 ME 2NITE","steam_id":76561199124261801,"connected_time":1283000000000,"state":"active","ping":100},{"user_id":396,"name":"usmanov.inc","steam_id":76561198263734652,"connected_time":66000000000,"state":"active","ping":107},{"user_id":397,"name":"lyudmilakh","steam_id":76561198362779878,"connected_time":21000000000,"state":"spawning","ping":74},{"user_id":389,"name":"holykyckling","steam_id":76561198040661615,"connected_time":389000000000,"state":"active","ping":74},{"user_id":350,"name":"BlinkedUp","steam_id":76561198249985618,"connected_time":3284000000000,"state":"active","ping":59},{"user_id":346,"name":"Special Agent Big Smoke","steam_id":76561198154468827,"connected_time":3372000000000,"state":"active","ping":75},{"user_id":395,"name":"(wm) Das Fleisch","steam_id":76561198001250715,"connected_time":88000000000,"state":"active","ping":54},{"user_id":391,"name":"Stefel","steam_id":76561198803244101,"connected_time":350000000000,"state":"active","ping":71},{"user_id":335,"name":"Stoic","steam_id":76561199088506542,"connected_time":3996000000000,"state":"active","ping":75},{"user_id":394,"name":"consigliere","steam_id":76561198219945364,"connected_time":173000000000,"state":"active","ping":83},{"user_id":376,"name":"Toofy","steam_id":76561197989727907,"connected_time":1224000000000,"state":"active","ping":50},{"user_id":392,"name":"he smonk(need e-wife)","steam_id":76561197996468677,"connected_time":348000000000,"state":"active","ping":59},{"user_id":363,"name":"T der Ba","steam_id":76561198091189185,"connected_time":2600000000000,"state":"active","ping":45},{"user_id":380,"name":"Naomi ★","steam_id":76561198060307235,"connected_time":664000000000,"state":"active","ping":68}]},{"server_id":309,"name":"Uncletopia | Frankfurt | 4 | All Maps","name_short":"frk-4","host":"frk-1.de.uncletopia.com","port":27045,"enabled":true,"region":"eu","cc":"de","latitude":50.110924,"longitude":8.682127,"reserved":0,"last_update":"0001-01-01T00:00:00Z","name_a2s":"Uncletopia | Frankfurt | 4 | All Maps","protocol":17,"map":"koth_viaduct","folder":"tf","game":"Team Fortress","app_id":440,"player_count":1,"max_players":24,"Bots":0,"server_type":"Dedicated","server_os":"Linux","password":true,"vac":true,"version":"7757534","steam_id":85568392924504275,"keywords":["cp","nocrits","nodmgspread","uncletopia"],"game_id":440,"stv_port":27046,"stv_name":"Uncletopia | Frankfurt | 4 | All Maps | STV","players":[{"user_id":24,"name":"sp00ky","steam_id":76561198279985917,"connected_time":234000000000,"state":"active","ping":80}]},{"server_id":310,"name":"Uncletopia | Frankfurt | 5 | All Maps","name_short":"frk-5","host":"frk-1.de.uncletopia.com","port":27055,"enabled":true,"region":"eu","cc":"de","latitude":50.110924,"longitude":8.682127,"reserved":0,"last_update":"0001-01-01T00:00:00Z","name_a2s":"Uncletopia | Frankfurt | 5 | All Maps","protocol":17,"map":"pl_snowycoast","folder":"tf","game":"Team Fortress","app_id":440,"player_count":24,"max_players":24,"Bots":0,"server_type":"Dedicated","server_os":"Linux","password":true,"vac":true,"version":"7757534","steam_id":85568392924504277,"keywords":["nocrits","nodmgspread","payload","uncletopia"],"game_id":440,"stv_port":27056,"stv_name":"Uncletopia | Frankfurt | 5 | All Maps | STV","players":[{"user_id":447,"name":"eNine the FOREVER","steam_id":76561198890193313,"connected_time":433000000000,"state":"active","ping":67},{"user_id":428,"name":"Mircoxi","steam_id":76561199407632710,"connected_time":1881000000000,"state":"active","ping":71},{"user_id":387,"name":"Egor Pomidor","steam_id":76561199175688390,"connected_time":4682000000000,"state":"active","ping":80},{"user_id":372,"name":"sm0ke","steam_id":76561198198977226,"connected_time":5551000000000,"state":"active","ping":75},{"user_id":385,"name":"bigwish | bmod.tf","steam_id":76561197997859723,"connected_time":4883000000000,"state":"active","ping":85},{"user_id":411,"name":"| ThePro | People are afraid","steam_id":76561198089330547,"connected_time":3140000000000,"state":"active","ping":48},{"user_id":435,"name":"被错误地禁止","steam_id":76561198106049954,"connected_time":905000000000,"state":"active","ping":86},{"user_id":374,"name":"♥ aura ♥","steam_id":76561198066258544,"connected_time":5517000000000,"state":"active","ping":55},{"user_id":432,"name":"Dark ^^","steam_id":76561198036241064,"connected_time":1047000000000,"state":"active","ping":65},{"user_id":443,"name":"Udinese Dion","steam_id":76561198067931573,"connected_time":706000000000,"state":"active","ping":54},{"user_id":340,"name":"static","steam_id":76561198836825741,"connected_time":8367000000000,"state":"active","ping":60},{"user_id":404,"name":"wormson","steam_id":76561198836754631,"connected_time":3716000000000,"state":"active","ping":58},{"user_id":431,"name":"rigel_","steam_id":76561198148640847,"connected_time":1284000000000,"state":"active","ping":90},{"user_id":408,"name":"spy in the base","steam_id":76561198284570752,"connected_time":3435000000000,"state":"active","ping":61},{"user_id":429,"name":"SpeddyMeddy","steam_id":76561197999693825,"connected_time":1526000000000,"state":"active","ping":70},{"user_id":359,"name":"Woman (Real)","steam_id":76561199151823932,"connected_time":7335000000000,"state":"active","ping":74},{"user_id":444,"name":"AWP Bodyshot :) ❤","steam_id":76561198029928533,"connected_time":698000000000,"state":"active","ping":47},{"user_id":445,"name":"Dåvid","steam_id":76561198184135755,"connected_time":697000000000,"state":"active","ping":63},{"user_id":423,"name":"COTHuK","steam_id":76561198330633932,"connected_time":2384000000000,"state":"active","ping":76},{"user_id":439,"name":"pakin157","steam_id":76561198035125667,"connected_time":785000000000,"state":"active","ping":83},{"user_id":440,"name":"dabri88","steam_id":76561198103645497,"connected_time":784000000000,"state":"active","ping":166},{"user_id":390,"name":"pain train tf2","steam_id":76561198111568728,"connected_time":4371000000000,"state":"active","ping":45},{"user_id":398,"name":"medicinal man","steam_id":76561198202668788,"connected_time":3970000000000,"state":"active","ping":70},{"user_id":441,"name":"世界上最可愛的貓","steam_id":76561199042056825,"connected_time":780000000000,"state":"active","ping":71}]},{"server_id":311,"name":"Uncletopia | Frankfurt | 6 | All Maps","name_short":"frk-6","host":"frk-1.de.uncletopia.com","port":27065,"enabled":true,"region":"eu","cc":"de","latitude":50.110924,"longitude":8.682127,"reserved":0,"last_update":"0001-01-01T00:00:00Z","name_a2s":"Uncletopia | Frankfurt | 6 | All Maps","protocol":17,"map":"pl_upward","folder":"tf","game":"Team Fortress","app_id":440,"player_count":24,"max_players":24,"Bots":0,"server_type":"Dedicated","server_os":"Linux","password":true,"vac":true,"version":"7757534","steam_id":85568392924504278,"keywords":["nocrits","nodmgspread","payload","uncletopia"],"game_id":440,"stv_port":27066,"stv_name":"Uncletopia | Frankfurt | 6 | All Maps | STV","players":[{"user_id":500,"name":"Boki","steam_id":76561198044553351,"connected_time":212000000000,"state":"active","ping":75},{"user_id":491,"name":"0","steam_id":76561198984436595,"connected_time":979000000000,"state":"active","ping":78},{"user_id":474,"name":"copium addict","steam_id":76561199401665282,"connected_time":2732000000000,"state":"active","ping":104},{"user_id":493,"name":"Ladi","steam_id":76561198047735194,"connected_time":272000000000,"state":"active","ping":70},{"user_id":392,"name":"Killer8880","steam_id":76561199094449560,"connected_time":7481000000000,"state":"active","ping":107},{"user_id":482,"name":"trout population","steam_id":76561198163244605,"connected_time":1490000000000,"state":"active","ping":76},{"user_id":429,"name":"Team Fortress","steam_id":76561198058722801,"connected_time":5735000000000,"state":"active","ping":52},{"user_id":486,"name":"Mr. Mundy","steam_id":76561198132008918,"connected_time":1464000000000,"state":"active","ping":72},{"user_id":492,"name":"2:31","steam_id":76561198046921199,"connected_time":337000000000,"state":"active","ping":61},{"user_id":496,"name":"TJ1212","steam_id":76561199013575313,"connected_time":242000000000,"state":"active","ping":65},{"user_id":483,"name":"0xDEADBEEF","steam_id":76561199075416111,"connected_time":1480000000000,"state":"active","ping":94},{"user_id":475,"name":"JOK'R","steam_id":76561198140741944,"connected_time":2696000000000,"state":"active","ping":127},{"user_id":495,"name":"ErJu","steam_id":76561198106273165,"connected_time":251000000000,"state":"active","ping":79},{"user_id":488,"name":"kaelan","steam_id":76561198001425310,"connected_time":1456000000000,"state":"active","ping":75},{"user_id":497,"name":"Ecy","steam_id":76561198110756682,"connected_time":240000000000,"state":"active","ping":50},{"user_id":469,"name":":)","steam_id":76561198039964082,"connected_time":3214000000000,"state":"active","ping":55},{"user_id":477,"name":"CAR DOOR","steam_id":76561198055283295,"connected_time":2307000000000,"state":"active","ping":46},{"user_id":476,"name":"Schizo' Cucumber","steam_id":76561198066341713,"connected_time":2531000000000,"state":"active","ping":60},{"user_id":487,"name":"Salih","steam_id":76561198287934839,"connected_time":1461000000000,"state":"active","ping":45},{"user_id":489,"name":"maiden","steam_id":76561197994492154,"connected_time":1441000000000,"state":"active","ping":60},{"user_id":455,"name":"Jackriz","steam_id":76561198024882111,"connected_time":3860000000000,"state":"active","ping":80},{"user_id":498,"name":"Ixion","steam_id":76561198041660675,"connected_time":239000000000,"state":"active","ping":76},{"user_id":490,"name":"Xx_EpicGaymer_xX","steam_id":76561198846784757,"connected_time":1435000000000,"state":"active","ping":76},{"user_id":499,"name":"Luuk","steam_id":76561198088266026,"connected_time":239000000000,"state":"active","ping":56}]},{"server_id":23,"name":"Uncletopia | Frankfurt | 7 | Stopwatch Beta","name_short":"frk-7","host":"frk-1.de.uncletopia.com","port":27075,"enabled":true,"region":"eu","cc":"de","latitude":50.110924,"longitude":8.682127,"reserved":0,"last_update":"0001-01-01T00:00:00Z","name_a2s":"Uncletopia | Frankfurt | 7 | Stopwatch Beta","protocol":17,"map":"workshop/pl_badwater_pro_v12.ugc2142942074","folder":"tf","game":"Team Fortress","app_id":440,"player_count":5,"max_players":24,"Bots":0,"server_type":"Dedicated","server_os":"Linux","password":true,"vac":true,"version":"7757534","steam_id":85568392924742827,"keywords":["nocrits","nodmgspread","payload","uncletopia"],"game_id":440,"stv_port":27076,"stv_name":"Uncletopia | Frankfurt | 7 | Stopwatch Beta | STV","players":[{"user_id":259,"name":"strobery","steam_id":76561198988675980,"connected_time":53000000000,"state":"spawning","ping":479},{"user_id":260,"name":"johncenx","steam_id":76561198366703672,"connected_time":24000000000,"state":"spawning","ping":315},{"user_id":261,"name":"ddchdrn","steam_id":76561198024358566,"connected_time":17000000000,"state":"active","ping":47},{"user_id":258,"name":"Insain Bolt!","steam_id":76561198025687726,"connected_time":125000000000,"state":"active","ping":66},{"user_id":262,"name":"juku06","steam_id":76561198953966982,"connected_time":0,"state":"spawning","ping":24}]},{"server_id":24,"name":"Uncletopia | Frankfurt | 8 | Community","name_short":"frk-8","host":"frk-1.de.uncletopia.com","port":27085,"enabled":true,"region":"eu","cc":"de","latitude":50.110924,"longitude":8.682127,"reserved":0,"last_update":"0001-01-01T00:00:00Z","name_a2s":"Uncletopia | Frankfurt | 8 | Community","protocol":17,"map":"workshop/pl_cashworks_final1.ugc2904065412","folder":"tf","game":"Team Fortress","app_id":440,"player_count":0,"max_players":24,"Bots":0,"server_type":"Dedicated","server_os":"Linux","password":true,"vac":true,"version":"7757534","steam_id":85568392924742828,"keywords":["nocrits","nodmgspread","payload","uncletopia"],"game_id":440,"stv_port":27086,"stv_name":"Uncletopia | Frankfurt | 8 | Community | STV","players":null},{"server_id":202,"name":"Uncletopia | Hong Kong | 1 | All Maps","name_short":"hgk-1","host":"hgk-1.hk.uncletopia.com","port":27015,"enabled":true,"region":"asia","cc":"hk","latitude":22.302711,"longitude":114.177216,"reserved":0,"last_update":"0001-01-01T00:00:00Z","name_a2s":"Uncletopia | Hong Kong | 1 | All Maps","protocol":17,"map":"koth_lakeside_final","folder":"tf","game":"Team Fortress","app_id":440,"player_count":0,"max_players":24,"Bots":0,"server_type":"Dedicated","server_os":"Linux","password":true,"vac":true,"version":"7757534","steam_id":85568392924494504,"keywords":["cp","nocrits","nodmgspread","uncletopia"],"game_id":440,"stv_port":27016,"stv_name":"Uncletopia | Hong Kong | 1 | All Maps | STV","players":null},{"server_id":1,"name":"Uncletopia | Los Angeles | 1 | All Maps","name_short":"lax-1","host":"lax-1.us.uncletopia.com","port":27015,"enabled":true,"region":"us-west","cc":"us","latitude":33.94279,"longitude":-118.41004,"reserved":0,"last_update":"0001-01-01T00:00:00Z","name_a2s":"Uncletopia | Los Angeles | 1 | All Maps","protocol":17,"map":"koth_lakeside_final","folder":"tf","game":"Team Fortress","app_id":440,"player_count":0,"max_players":24,"Bots":0,"server_type":"Dedicated","server_os":"Linux","password":true,"vac":true,"version":"7757534","steam_id":85568392924469991,"keywords":["cp","nocrits","nodmgspread","uncletopia"],"game_id":440,"stv_port":27016,"stv_name":"Uncletopia | Los Angeles | 1 | All Maps | STV","players":null},{"server_id":112,"name":"Uncletopia | Los Angeles | 2 | All Maps","name_short":"lax-2","host":"lax-1.us.uncletopia.com","port":27025,"enabled":true,"region":"us-west","cc":"us","latitude":33.94279,"longitude":-118.41004,"reserved":0,"last_update":"0001-01-01T00:00:00Z","name_a2s":"Uncletopia | Los Angeles | 2 | All Maps","protocol":17,"map":"pl_borneo","folder":"tf","game":"Team Fortress","app_id":440,"player_count":0,"max_players":24,"Bots":0,"server_type":"Dedicated","server_os":"Linux","password":true,"vac":true,"version":"7757534","steam_id":85568392924469992,"keywords":["nocrits","nodmgspread","payload","uncletopia"],"game_id":440,"stv_port":27026,"stv_name":"Uncletopia | Los Angeles | 2 | All Maps | STV","players":null},{"server_id":324,"name":"Uncletopia | Los Angeles | 3 | All Maps","name_short":"lax-3","host":"lax-1.us.uncletopia.com","port":27035,"enabled":true,"region":"us-west","cc":"us","latitude":33.94279,"longitude":-118.41004,"reserved":0,"last_update":"0001-01-01T00:00:00Z","name_a2s":"Uncletopia | Los Angeles | 3 | All Maps","protocol":17,"map":"pl_barnblitz","folder":"tf","game":"Team Fortress","app_id":440,"player_count":0,"max_players":24,"Bots":0,"server_type":"Dedicated","server_os":"Linux","password":true,"vac":true,"version":"7757534","steam_id":85568392924510198,"keywords":["nocrits","nodmgspread","payload","uncletopia"],"game_id":440,"stv_port":27036,"stv_name":"Uncletopia | Los Angeles | 3 | All Maps | STV","players":null},{"server_id":25,"name":"Uncletopia | Los Angeles | 4 | Stopwatch Beta","name_short":"lax-4","host":"lax-1.us.uncletopia.com","port":27045,"enabled":true,"region":"us-west","cc":"us","latitude":33.94279,"longitude":-118.41004,"reserved":0,"last_update":"0001-01-01T00:00:00Z","name_a2s":"Uncletopia | Los Angeles | 4 | Stopwatch Beta","protocol":17,"map":"pl_swiftwater_final1","folder":"tf","game":"Team Fortress","app_id":440,"player_count":0,"max_players":24,"Bots":0,"server_type":"Dedicated","server_os":"Linux","password":true,"vac":true,"version":"7757534","steam_id":85568392924510199,"keywords":["nocrits","nodmgspread","payload","uncletopia"],"game_id":440,"stv_port":27046,"stv_name":"Uncletopia | Los Angeles | 4 | Stopwatch Beta | STV","players":null},{"server_id":11,"name":"Uncletopia | London | 1 | All Maps","name_short":"lon-1","host":"lon-1.uk.uncletopia.com","port":27015,"enabled":true,"region":"eu","cc":"gb","latitude":51.509865,"longitude":-0.118092,"reserved":0,"last_update":"0001-01-01T00:00:00Z","name_a2s":"Uncletopia | London | 1 | All Maps","protocol":17,"map":"cp_mountainlab","folder":"tf","game":"Team Fortress","app_id":440,"player_count":22,"max_players":24,"Bots":0,"server_type":"Dedicated","server_os":"Linux","password":true,"vac":true,"version":"7757534","steam_id":85568392924367362,"keywords":["cp","nocrits","nodmgspread","uncletopia"],"game_id":440,"stv_port":27016,"stv_name":"Uncletopia | London | 1 | All Maps | STV","players":[{"user_id":510,"name":"ijustsmokeandcry","steam_id":76561198044189114,"connected_time":1836000000000,"state":"spawning","ping":101},{"user_id":470,"name":"NLSAM","steam_id":76561199111154916,"connected_time":3452000000000,"state":"spawning","ping":67},{"user_id":522,"name":"yeyegoncas","steam_id":76561198061217656,"connected_time":1045000000000,"state":"spawning","ping":138},{"user_id":528,"name":"✘˵ ˡ ◡ ˡ ˶✘","steam_id":76561198016642281,"connected_time":740000000000,"state":"spawning","ping":79},{"user_id":530,"name":"unFunny Valentine","steam_id":76561198203242543,"connected_time":710000000000,"state":"spawning","ping":151},{"user_id":479,"name":"Son Goku","steam_id":76561199383437138,"connected_time":3186000000000,"state":"spawning","ping":188},{"user_id":369,"name":"dec","steam_id":76561198009660168,"connected_time":11085000000000,"state":"spawning","ping":64},{"user_id":538,"name":"SausageRoll","steam_id":76561197994072622,"connected_time":8000000000,"state":"connecting","ping":36},{"user_id":529,"name":"Slim3rs","steam_id":76561199088010585,"connected_time":727000000000,"state":"spawning","ping":209},{"user_id":513,"name":"Starly","steam_id":76561198055771921,"connected_time":1627000000000,"state":"spawning","ping":96},{"user_id":526,"name":"Breeio","steam_id":76561199030302979,"connected_time":822000000000,"state":"spawning","ping":94},{"user_id":501,"name":"Hive","steam_id":76561199480966681,"connected_time":2562000000000,"state":"spawning","ping":122},{"user_id":514,"name":"cheezy27","steam_id":76561198071067236,"connected_time":1509000000000,"state":"spawning","ping":91},{"user_id":536,"name":"Debbie M (radio gal)","steam_id":76561198063093802,"connected_time":244000000000,"state":"spawning","ping":52},{"user_id":511,"name":"icy_spicy","steam_id":76561199481524657,"connected_time":1707000000000,"state":"spawning","ping":103},{"user_id":527,"name":"SOPHIIEE","steam_id":76561198443798981,"connected_time":761000000000,"state":"spawning","ping":108},{"user_id":532,"name":"moseley519","steam_id":76561198045485374,"connected_time":685000000000,"state":"spawning","ping":73},{"user_id":507,"name":"JOHN GAMING (#1 gunspy)","steam_id":76561199085822219,"connected_time":2068000000000,"state":"spawning","ping":132},{"user_id":537,"name":"casual schizophrenic","steam_id":76561198255357694,"connected_time":112000000000,"state":"spawning","ping":120},{"user_id":516,"name":"Koli","steam_id":76561197992428783,"connected_time":1251000000000,"state":"spawning","ping":85},{"user_id":533,"name":"no.","steam_id":76561198988350454,"connected_time":683000000000,"state":"spawning","ping":87},{"user_id":505,"name":"Ocelot","steam_id":76561198263386006,"connected_time":2307000000000,"state":"spawning","ping":164}]},{"server_id":114,"name":"Uncletopia | London | 2 | All Maps","name_short":"lon-2","host":"lon-1.uk.uncletopia.com","port":27025,"enabled":true,"region":"eu","cc":"gb","latitude":51.509865,"longitude":-0.118092,"reserved":0,"last_update":"0001-01-01T00:00:00Z","name_a2s":"Uncletopia | London | 2 | All Maps","protocol":17,"map":"koth_badlands","folder":"tf","game":"Team Fortress","app_id":440,"player_count":24,"max_players":24,"Bots":0,"server_type":"Dedicated","server_os":"Linux","password":true,"vac":true,"version":"7757534","steam_id":85568392924470941,"keywords":["cp","nocrits","nodmgspread","uncletopia"],"game_id":440,"stv_port":27026,"stv_name":"Uncletopia | London | 2 | All Maps | STV","players":[{"user_id":373,"name":"B4R10N","steam_id":76561198047167954,"connected_time":543000000000,"state":"active","ping":32},{"user_id":331,"name":"max","steam_id":76561198059206184,"connected_time":3722000000000,"state":"active","ping":60},{"user_id":375,"name":"I-I","steam_id":76561198267969436,"connected_time":455000000000,"state":"active","ping":68},{"user_id":209,"name":"ThatGamingKiwi","steam_id":76561199170522237,"connected_time":10008000000000,"state":"active","ping":148},{"user_id":374,"name":"Theran_1","steam_id":76561198082232097,"connected_time":538000000000,"state":"active","ping":70},{"user_id":370,"name":"Destinys","steam_id":76561198056132894,"connected_time":647000000000,"state":"active","ping":68},{"user_id":316,"name":"Providence","steam_id":76561198003920270,"connected_time":4382000000000,"state":"active","ping":65},{"user_id":366,"name":"SnowShot","steam_id":76561198004766638,"connected_time":709000000000,"state":"active","ping":64},{"user_id":321,"name":"laser","steam_id":76561198036030697,"connected_time":4120000000000,"state":"active","ping":68},{"user_id":371,"name":"quickfast","steam_id":76561199438900919,"connected_time":631000000000,"state":"active","ping":45},{"user_id":334,"name":"all mute","steam_id":76561198105739516,"connected_time":3672000000000,"state":"active","ping":55},{"user_id":376,"name":"Dr. Le Quack","steam_id":76561197995711176,"connected_time":454000000000,"state":"active","ping":90},{"user_id":377,"name":"Stayprone","steam_id":76561197963491785,"connected_time":450000000000,"state":"active","ping":68},{"user_id":378,"name":"Petight","steam_id":76561197999438798,"connected_time":443000000000,"state":"active","ping":30},{"user_id":389,"name":"[Sheep] Tomco","steam_id":76561198388549261,"connected_time":204000000000,"state":"active","ping":67},{"user_id":379,"name":"pensami forte","steam_id":76561198066071855,"connected_time":442000000000,"state":"active","ping":73},{"user_id":390,"name":"Regan","steam_id":76561198100631086,"connected_time":196000000000,"state":"active","ping":65},{"user_id":388,"name":"wunderrabbi","steam_id":76561198101210970,"connected_time":262000000000,"state":"active","ping":92},{"user_id":391,"name":"R@DIO","steam_id":76561197995533046,"connected_time":178000000000,"state":"active","ping":80},{"user_id":385,"name":"gary1239871","steam_id":76561199262295365,"connected_time":399000000000,"state":"active","ping":52},{"user_id":386,"name":"MFA [pt]","steam_id":76561198021950957,"connected_time":395000000000,"state":"active","ping":67},{"user_id":357,"name":"Panique","steam_id":76561197993239675,"connected_time":2198000000000,"state":"active","ping":54},{"user_id":387,"name":"artonzhun","steam_id":76561198259104010,"connected_time":391000000000,"state":"active","ping":79},{"user_id":363,"name":"Pershing[GER]","steam_id":76561197970330818,"connected_time":1090000000000,"state":"active","ping":71}]},{"server_id":320,"name":"Uncletopia | London | 3 | All Maps","name_short":"lon-3","host":"lon-1.uk.uncletopia.com","port":27035,"enabled":true,"region":"eu","cc":"gb","latitude":51.509865,"longitude":-0.118092,"reserved":0,"last_update":"0001-01-01T00:00:00Z","name_a2s":"Uncletopia | London | 3 | All Maps","protocol":17,"map":"pl_swiftwater_final1","folder":"tf","game":"Team Fortress","app_id":440,"player_count":24,"max_players":24,"Bots":0,"server_type":"Dedicated","server_os":"Linux","password":true,"vac":true,"version":"7757534","steam_id":85568392924510192,"keywords":["nocrits","nodmgspread","payload","uncletopia"],"game_id":440,"stv_port":27036,"stv_name":"Uncletopia | London | 3 | All Maps | STV","players":[{"user_id":447,"name":"Locke","steam_id":76561198339408300,"connected_time":121000000000,"state":"active","ping":57},{"user_id":453,"name":"Tobleroney","steam_id":76561198154402655,"connected_time":64000000000,"state":"active","ping":45},{"user_id":434,"name":"PashaVerti","steam_id":76561199013963024,"connected_time":1390000000000,"state":"active","ping":83},{"user_id":404,"name":"Anri Okita's Massive Milkers","steam_id":76561199186352720,"connected_time":3122000000000,"state":"active","ping":61},{"user_id":408,"name":"kfc greavy","steam_id":76561199415466192,"connected_time":3063000000000,"state":"active","ping":58},{"user_id":439,"name":"goodguydragg","steam_id":76561198305104891,"connected_time":1018000000000,"state":"active","ping":71},{"user_id":436,"name":"Rachugh","steam_id":76561199235852578,"connected_time":1247000000000,"state":"active","ping":160},{"user_id":443,"name":"Labial","steam_id":76561198385163046,"connected_time":1000000000000,"state":"active","ping":36},{"user_id":446,"name":"NEDI WINNER","steam_id":76561198875472890,"connected_time":235000000000,"state":"active","ping":70},{"user_id":437,"name":"$nØw","steam_id":76561198238781028,"connected_time":1240000000000,"state":"active","ping":107},{"user_id":449,"name":"Nugget","steam_id":76561198338916407,"connected_time":92000000000,"state":"active","ping":69},{"user_id":409,"name":"A Shiny Meat Bicycle","steam_id":76561198358757709,"connected_time":3059000000000,"state":"active","ping":170},{"user_id":450,"name":"KrustyBean #Save TF2","steam_id":76561199482828774,"connected_time":88000000000,"state":"spawning","ping":52},{"user_id":451,"name":"Ummdustry","steam_id":76561198063470477,"connected_time":86000000000,"state":"active","ping":66},{"user_id":452,"name":"_Corvo_","steam_id":76561198129339188,"connected_time":80000000000,"state":"active","ping":89},{"user_id":454,"name":"(Voice) God","steam_id":76561198118605824,"connected_time":55000000000,"state":"active","ping":119},{"user_id":455,"name":"GlokkParadise ॐ","steam_id":76561199126241602,"connected_time":33000000000,"state":"active","ping":76},{"user_id":279,"name":"slightly drunk","steam_id":76561199184873889,"connected_time":14678000000000,"state":"active","ping":69},{"user_id":444,"name":"twitch.tv/red_naxela","steam_id":76561197998803950,"connected_time":855000000000,"state":"active","ping":65},{"user_id":429,"name":"Jesus Enjoyer","steam_id":76561198840259819,"connected_time":1582000000000,"state":"active","ping":59},{"user_id":442,"name":"idfk","steam_id":76561199013486916,"connected_time":1009000000000,"state":"active","ping":102},{"user_id":430,"name":"Choruptian","steam_id":76561198017686366,"connected_time":1582000000000,"state":"active","ping":60},{"user_id":456,"name":"Een schaap zonder slaap","steam_id":76561198084808410,"connected_time":22000000000,"state":"spawning","ping":31},{"user_id":445,"name":"Ježek :)","steam_id":76561198127703483,"connected_time":304000000000,"state":"active","ping":69}]},{"server_id":321,"name":"Uncletopia | London | 4 | All Maps","name_short":"lon-4","host":"lon-1.uk.uncletopia.com","port":27045,"enabled":true,"region":"eu","cc":"gb","latitude":51.509865,"longitude":-0.118092,"reserved":0,"last_update":"0001-01-01T00:00:00Z","name_a2s":"Uncletopia | London | 4 | All Maps","protocol":17,"map":"koth_highpass","folder":"tf","game":"Team Fortress","app_id":440,"player_count":1,"max_players":24,"Bots":0,"server_type":"Dedicated","server_os":"Linux","password":true,"vac":true,"version":"7757534","steam_id":85568392924510193,"keywords":["cp","nocrits","nodmgspread","uncletopia"],"game_id":440,"stv_port":27046,"stv_name":"Uncletopia | London | 4 | All Maps | STV","players":[{"user_id":15,"name":"MannicM","steam_id":76561199063372247,"connected_time":262000000000,"state":"active","ping":51}]},{"server_id":21,"name":"Uncletopia | London | 5 | All Maps","name_short":"lon-5","host":"lon-1.uk.uncletopia.com","port":27055,"enabled":true,"region":"eu","cc":"gb","latitude":51.509865,"longitude":-0.118092,"reserved":0,"last_update":"0001-01-01T00:00:00Z","name_a2s":"Uncletopia | London | 5 | All Maps","protocol":17,"map":"pl_borneo","folder":"tf","game":"Team Fortress","app_id":440,"player_count":24,"max_players":24,"Bots":0,"server_type":"Dedicated","server_os":"Linux","password":true,"vac":true,"version":"7757534","steam_id":85568392924742829,"keywords":["nocrits","nodmgspread","payload","uncletopia"],"game_id":440,"stv_port":27056,"stv_name":"Uncletopia | London | 5 | All Maps | STV","players":[{"user_id":262,"name":"Gnarville","steam_id":76561198006373329,"connected_time":248000000000,"state":"active","ping":47},{"user_id":254,"name":"Cypher","steam_id":76561197996967254,"connected_time":487000000000,"state":"active","ping":63},{"user_id":244,"name":"Alcohol Hominid","steam_id":76561198320313950,"connected_time":537000000000,"state":"active","ping":169},{"user_id":176,"name":"do you believe in magic?","steam_id":76561198193357946,"connected_time":5495000000000,"state":"active","ping":102},{"user_id":234,"name":"Dictatorial Karelian","steam_id":76561198196736457,"connected_time":1183000000000,"state":"active","ping":82},{"user_id":267,"name":"Gio'sMonkey","steam_id":76561198892432223,"connected_time":28000000000,"state":"spawning","ping":65},{"user_id":232,"name":"NitPig","steam_id":76561198212991935,"connected_time":2016000000000,"state":"active","ping":97},{"user_id":263,"name":"Sparky","steam_id":76561198036754195,"connected_time":90000000000,"state":"active","ping":47},{"user_id":251,"name":"Noob_with_source","steam_id":76561198870362103,"connected_time":508000000000,"state":"active","ping":59},{"user_id":236,"name":"lore","steam_id":76561198120984188,"connected_time":905000000000,"state":"active","ping":63},{"user_id":246,"name":"Jenna Zdravkovich","steam_id":76561198191074514,"connected_time":535000000000,"state":"active","ping":75},{"user_id":188,"name":"midlpsyzl47","steam_id":76561199475972637,"connected_time":4923000000000,"state":"active","ping":63},{"user_id":264,"name":"🅜🅔🅔🅚🅢🅣🅔\ufffd\ufffd\ufffd","steam_id":76561197999748343,"connected_time":81000000000,"state":"active","ping":149},{"user_id":252,"name":"help","steam_id":76561199056338917,"connected_time":500000000000,"state":"active","ping":169},{"user_id":258,"name":"Mr Canar","steam_id":76561199104463925,"connected_time":425000000000,"state":"active","ping":60},{"user_id":235,"name":"brehs","steam_id":76561198150653454,"connected_time":941000000000,"state":"active","ping":53},{"user_id":265,"name":"sin","steam_id":76561198193416785,"connected_time":43000000000,"state":"active","ping":53},{"user_id":253,"name":"padillacampos","steam_id":76561198161923970,"connected_time":494000000000,"state":"active","ping":72},{"user_id":250,"name":"keri","steam_id":76561199066513442,"connected_time":513000000000,"state":"active","ping":65},{"user_id":248,"name":"metamikko","steam_id":76561198324704234,"connected_time":527000000000,"state":"active","ping":124},{"user_id":239,"name":"meriones","steam_id":76561198034234373,"connected_time":843000000000,"state":"active","ping":43},{"user_id":255,"name":"Uncle Terry","steam_id":76561198396415736,"connected_time":484000000000,"state":"active","ping":55},{"user_id":224,"name":"Ruvix","steam_id":76561198239689346,"connected_time":2913000000000,"state":"active","ping":71},{"user_id":256,"name":"benibachi","steam_id":76561198190816499,"connected_time":470000000000,"state":"active","ping":78}]},{"server_id":22,"name":"Uncletopia | London | 6 | All Maps","name_short":"lon-6","host":"lon-1.uk.uncletopia.com","port":27065,"enabled":true,"region":"eu","cc":"gb","latitude":51.509865,"longitude":-0.118092,"reserved":0,"last_update":"0001-01-01T00:00:00Z","name_a2s":"Uncletopia | London | 6 | All Maps","protocol":17,"map":"koth_cascade","folder":"tf","game":"Team Fortress","app_id":440,"player_count":0,"max_players":24,"Bots":0,"server_type":"Dedicated","server_os":"Linux","password":true,"vac":true,"version":"7757534","steam_id":85568392924742830,"keywords":["cp","nocrits","nodmgspread","uncletopia"],"game_id":440,"stv_port":27066,"stv_name":"Uncletopia | London | 6 | All Maps | STV","players":null},{"server_id":40,"name":"Uncletopia | London | 7 | No Payload","name_short":"lon-7","host":"lon-1.uk.uncletopia.com","port":27075,"enabled":true,"region":"eu","cc":"gb","latitude":51.509865,"longitude":-0.118092,"reserved":0,"last_update":"0001-01-01T00:00:00Z","name_a2s":"Uncletopia | London | 7 | No Payload","protocol":17,"map":"cp_gullywash_final1","folder":"tf","game":"Team Fortress","app_id":440,"player_count":0,"max_players":24,"Bots":0,"server_type":"Dedicated","server_os":"Linux","password":true,"vac":true,"version":"7757534","steam_id":85568392924964314,"keywords":["cp","nocrits","nodmgspread","uncletopia"],"game_id":440,"stv_port":27076,"stv_name":"Uncletopia | London | 7 | No Payload | STV","players":null},{"server_id":41,"name":"Uncletopia | London | 8 | Community","name_short":"lon-8","host":"lon-1.uk.uncletopia.com","port":27085,"enabled":true,"region":"eu","cc":"gb","latitude":51.509865,"longitude":-0.118092,"reserved":0,"last_update":"0001-01-01T00:00:00Z","name_a2s":"Uncletopia | London | 8 | Community","protocol":17,"map":"workshop/koth_ashville_final.ugc2130459942","folder":"tf","game":"Team Fortress","app_id":440,"player_count":0,"max_players":24,"Bots":0,"server_type":"Dedicated","server_os":"Linux","password":true,"vac":true,"version":"7757534","steam_id":85568392924964315,"keywords":["cp","nocrits","nodmgspread","uncletopia"],"game_id":440,"stv_port":27086,"stv_name":"Uncletopia | London | 8 | Community | STV","players":null},{"server_id":300,"name":"Uncletopia | Montréal | 1 | All Maps","name_short":"mtl-1","host":"mtl-1.ca.uncletopia.com","port":27015,"enabled":true,"region":"us-east","cc":"ca","latitude":45.50889,"longitude":-73.56167,"reserved":0,"last_update":"0001-01-01T00:00:00Z","name_a2s":"Uncletopia | Montréal | 1 | All Maps","protocol":17,"map":"pl_upward","folder":"tf","game":"Team Fortress","app_id":440,"player_count":0,"max_players":24,"Bots":0,"server_type":"Dedicated","server_os":"Linux","password":true,"vac":true,"version":"7757534","steam_id":85568392924500087,"keywords":["nocrits","nodmgspread","payload","uncletopia"],"game_id":440,"stv_port":27016,"stv_name":"Uncletopia | Montréal | 1 | All Maps | STV","players":null},{"server_id":301,"name":"Uncletopia | Montréal | 2 | All Maps","name_short":"mtl-2","host":"mtl-1.ca.uncletopia.com","port":27025,"enabled":true,"region":"us-east","cc":"ca","latitude":45.50889,"longitude":-73.56167,"reserved":0,"last_update":"0001-01-01T00:00:00Z","name_a2s":"Uncletopia | Montréal | 2 | All Maps","protocol":17,"map":"pl_snowycoast","folder":"tf","game":"Team Fortress","app_id":440,"player_count":0,"max_players":24,"Bots":0,"server_type":"Dedicated","server_os":"Linux","password":true,"vac":true,"version":"7757534","steam_id":85568392924500088,"keywords":["nocrits","nodmgspread","payload","uncletopia"],"game_id":440,"stv_port":27026,"stv_name":"Uncletopia | Montréal | 2 | All Maps | STV","players":null},{"server_id":302,"name":"Uncletopia | Montréal | 3 | All Maps","name_short":"mtl-3","host":"mtl-1.ca.uncletopia.com","port":27035,"enabled":true,"region":"us-east","cc":"ca","latitude":45.50889,"longitude":-73.56167,"reserved":0,"last_update":"0001-01-01T00:00:00Z","name_a2s":"Uncletopia | Montréal | 3 | All Maps","protocol":17,"map":"cp_sunshine","folder":"tf","game":"Team Fortress","app_id":440,"player_count":0,"max_players":24,"Bots":0,"server_type":"Dedicated","server_os":"Linux","password":true,"vac":true,"version":"7757534","steam_id":85568392924500089,"keywords":["cp","nocrits","nodmgspread","uncletopia"],"game_id":440,"stv_port":27036,"stv_name":"Uncletopia | Montréal | 3 | All Maps | STV","players":null},{"server_id":303,"name":"Uncletopia | Montréal | 4 | No Payload","name_short":"mtl-4","host":"mtl-1.ca.uncletopia.com","port":27045,"enabled":true,"region":"us-east","cc":"ca","latitude":45.50889,"longitude":-73.56167,"reserved":0,"last_update":"0001-01-01T00:00:00Z","name_a2s":"Uncletopia | Montréal | 4 | No Payload","protocol":17,"map":"pl_pier","folder":"tf","game":"Team Fortress","app_id":440,"player_count":0,"max_players":24,"Bots":0,"server_type":"Dedicated","server_os":"Linux","password":true,"vac":true,"version":"7757534","steam_id":85568392924500090,"keywords":["nocrits","nodmgspread","payload","uncletopia"],"game_id":440,"stv_port":27046,"stv_name":"Uncletopia | Montréal | 4 | No Payload | STV","players":null},{"server_id":13,"name":"Uncletopia | New York City | 1 | All Maps","name_short":"nyc-1","host":"nyc-1.us.uncletopia.com","port":27015,"enabled":true,"region":"us-east","cc":"us","latitude":40.73061,"longitude":-73.93524,"reserved":0,"last_update":"0001-01-01T00:00:00Z","name_a2s":"Uncletopia | New York City | 1 | All Maps","protocol":17,"map":"cp_dustbowl","folder":"tf","game":"Team Fortress","app_id":440,"player_count":23,"max_players":24,"Bots":0,"server_type":"Dedicated","server_os":"Linux","password":true,"vac":true,"version":"7757534","steam_id":85568392924469993,"keywords":["cp","nocrits","nodmgspread","uncletopia"],"game_id":440,"stv_port":27016,"stv_name":"Uncletopia | New York City | 1 | All Maps | STV","players":[{"user_id":200,"name":"Oh no","steam_id":76561198123441203,"connected_time":639000000000,"state":"active","ping":69},{"user_id":174,"name":"go play rimworld","steam_id":76561199397932924,"connected_time":1708000000000,"state":"active","ping":145},{"user_id":187,"name":"Phocae (She/Her)","steam_id":76561199317584594,"connected_time":1160000000000,"state":"active","ping":62},{"user_id":188,"name":"GIGAMODE","steam_id":76561198027140064,"connected_time":1132000000000,"state":"active","ping":71},{"user_id":159,"name":"Cigtar","steam_id":76561198079842818,"connected_time":2327000000000,"state":"active","ping":66},{"user_id":207,"name":"footoftheday","steam_id":76561198052712449,"connected_time":160000000000,"state":"active","ping":77},{"user_id":189,"name":"dicksnip","steam_id":76561198356515396,"connected_time":1089000000000,"state":"active","ping":98},{"user_id":151,"name":"Cleetchle","steam_id":76561198103093270,"connected_time":3175000000000,"state":"active","ping":45},{"user_id":181,"name":"Donk","steam_id":76561198803472441,"connected_time":1392000000000,"state":"active","ping":61},{"user_id":175,"name":"Aristotle Voulton","steam_id":76561198100174923,"connected_time":1656000000000,"state":"active","ping":89},{"user_id":205,"name":"GanZ","steam_id":76561199378883538,"connected_time":212000000000,"state":"active","ping":66},{"user_id":204,"name":"Sniper","steam_id":76561199482262282,"connected_time":542000000000,"state":"active","ping":72},{"user_id":190,"name":"jema","steam_id":76561198276513608,"connected_time":1079000000000,"state":"active","ping":153},{"user_id":198,"name":"orange porridge","steam_id":76561198044102244,"connected_time":667000000000,"state":"active","ping":55},{"user_id":117,"name":"Gamer Girl Meth","steam_id":76561199276295259,"connected_time":5179000000000,"state":"active","ping":75},{"user_id":184,"name":"Ellen Baker","steam_id":76561198065712435,"connected_time":1327000000000,"state":"active","ping":135},{"user_id":182,"name":"Banshee Levis","steam_id":76561198297295697,"connected_time":1367000000000,"state":"active","ping":170},{"user_id":185,"name":"g00bur","steam_id":76561197993622520,"connected_time":1292000000000,"state":"active","ping":58},{"user_id":206,"name":"echo","steam_id":76561199411724732,"connected_time":182000000000,"state":"active","ping":44},{"user_id":192,"name":"Small Tiddies Loli Trap","steam_id":76561198088563129,"connected_time":1047000000000,"state":"active","ping":69},{"user_id":112,"name":"pogo","steam_id":76561198148913461,"connected_time":5644000000000,"state":"active","ping":44},{"user_id":199,"name":"Gabe Newell","steam_id":76561199215798445,"connected_time":659000000000,"state":"active","ping":123},{"user_id":74,"name":"glue sniffer","steam_id":76561198044689778,"connected_time":8514000000000,"state":"active","ping":46}]},{"server_id":14,"name":"Uncletopia | New York City | 2 | All Maps","name_short":"nyc-2","host":"nyc-1.us.uncletopia.com","port":27025,"enabled":true,"region":"us-east","cc":"us","latitude":40.73061,"longitude":-73.93524,"reserved":0,"last_update":"0001-01-01T00:00:00Z","name_a2s":"Uncletopia | New York City | 2 | All Maps","protocol":17,"map":"pl_badwater","folder":"tf","game":"Team Fortress","app_id":440,"player_count":24,"max_players":24,"Bots":0,"server_type":"Dedicated","server_os":"Linux","password":true,"vac":true,"version":"7757534","steam_id":85568392924469994,"keywords":["nocrits","nodmgspread","payload","uncletopia"],"game_id":440,"stv_port":27026,"stv_name":"Uncletopia | New York City | 2 | All Maps | STV","players":[{"user_id":135,"name":"Normalux","steam_id":76561198293891426,"connected_time":1856000000000,"state":"active","ping":84},{"user_id":115,"name":"Goat","steam_id":76561198068447650,"connected_time":3842000000000,"state":"active","ping":106},{"user_id":83,"name":"John West","steam_id":76561198018783676,"connected_time":6136000000000,"state":"active","ping":121},{"user_id":157,"name":"Long Legged Larry","steam_id":76561198023585856,"connected_time":56000000000,"state":"active","ping":104},{"user_id":137,"name":"earth sprite","steam_id":76561199102542822,"connected_time":980000000000,"state":"active","ping":82},{"user_id":138,"name":"SkyGhost","steam_id":76561198271474593,"connected_time":970000000000,"state":"active","ping":64},{"user_id":155,"name":"xen","steam_id":76561198048568188,"connected_time":168000000000,"state":"active","ping":46},{"user_id":151,"name":"SubZeroDestruction","steam_id":76561198145082209,"connected_time":514000000000,"state":"active","ping":50},{"user_id":148,"name":"Rick Assley","steam_id":76561198365019199,"connected_time":746000000000,"state":"active","ping":74},{"user_id":154,"name":"tntexplosion","steam_id":76561199090152308,"connected_time":188000000000,"state":"active","ping":108},{"user_id":149,"name":"Fiendish Frog","steam_id":76561198029478821,"connected_time":746000000000,"state":"active","ping":50},{"user_id":133,"name":"Jameszzezz","steam_id":76561198317677617,"connected_time":1978000000000,"state":"active","ping":78},{"user_id":103,"name":"Hunter78c","steam_id":76561198035682341,"connected_time":4136000000000,"state":"active","ping":104},{"user_id":140,"name":"Outlander","steam_id":76561199032887232,"connected_time":957000000000,"state":"active","ping":94},{"user_id":156,"name":"Green Icicle","steam_id":76561198069624529,"connected_time":83000000000,"state":"active","ping":106},{"user_id":150,"name":"Gaben Gaming","steam_id":76561198330119627,"connected_time":746000000000,"state":"active","ping":75},{"user_id":153,"name":"CoconutNeutral","steam_id":76561198277110108,"connected_time":256000000000,"state":"active","ping":123},{"user_id":56,"name":"illias","steam_id":76561198077807254,"connected_time":7394000000000,"state":"active","ping":43},{"user_id":141,"name":"Riandox","steam_id":76561198130577326,"connected_time":949000000000,"state":"active","ping":60},{"user_id":122,"name":"The impostor","steam_id":76561198877970675,"connected_time":3411000000000,"state":"active","ping":150},{"user_id":92,"name":"LasagneMan","steam_id":76561198971904377,"connected_time":5935000000000,"state":"active","ping":114},{"user_id":142,"name":"judesro","steam_id":76561198352244888,"connected_time":936000000000,"state":"active","ping":69},{"user_id":143,"name":"MR.CRAB","steam_id":76561198329833659,"connected_time":900000000000,"state":"active","ping":136},{"user_id":146,"name":"I'm so full of stem cells","steam_id":76561198329087915,"connected_time":772000000000,"state":"active","ping":120}]},{"server_id":15,"name":"Uncletopia | New York City | 3 | Stopwatch Beta","name_short":"nyc-3","host":"nyc-1.us.uncletopia.com","port":27035,"enabled":true,"region":"us-east","cc":"us","latitude":40.73061,"longitude":-73.93524,"reserved":0,"last_update":"0001-01-01T00:00:00Z","name_a2s":"Uncletopia | New York City | 3 | Stopwatch Beta","protocol":17,"map":"pl_upward","folder":"tf","game":"Team Fortress","app_id":440,"player_count":0,"max_players":24,"Bots":0,"server_type":"Dedicated","server_os":"Linux","password":true,"vac":true,"version":"7757534","steam_id":85568392924742820,"keywords":["nocrits","nodmgspread","payload","uncletopia"],"game_id":440,"stv_port":27036,"stv_name":"Uncletopia | New York City | 3 | Stopwatch Beta | STV","players":null},{"server_id":16,"name":"Uncletopia | New York City | 4 | Community","name_short":"nyc-4","host":"nyc-1.us.uncletopia.com","port":27045,"enabled":true,"region":"us-east","cc":"us","latitude":40.73061,"longitude":-73.93524,"reserved":0,"last_update":"0001-01-01T00:00:00Z","name_a2s":"Uncletopia | New York City | 4 | Community","protocol":17,"map":"workshop/pl_divulgence_b4b.ugc2884808746","folder":"tf","game":"Team Fortress","app_id":440,"player_count":0,"max_players":24,"Bots":0,"server_type":"Dedicated","server_os":"Linux","password":true,"vac":true,"version":"7757534","steam_id":85568392924742821,"keywords":["nocrits","nodmgspread","payload","uncletopia"],"game_id":440,"stv_port":27046,"stv_name":"Uncletopia | New York City | 4 | Community | STV","players":null},{"server_id":142,"name":"Uncletopia | São Paulo | 1 | All Maps","name_short":"sao-1","host":"sao-1.br.uncletopia.com","port":27015,"enabled":true,"region":"sa","cc":"br","latitude":-23.533773,"longitude":-46.62529,"reserved":0,"last_update":"0001-01-01T00:00:00Z","name_a2s":"Uncletopia | São Paulo | 1 | All Maps","protocol":17,"map":"pl_barnblitz","folder":"tf","game":"Team Fortress","app_id":440,"player_count":2,"max_players":24,"Bots":0,"server_type":"Dedicated","server_os":"Linux","password":true,"vac":true,"version":"7757534","steam_id":85568392924469996,"keywords":["nocrits","nodmgspread","payload","uncletopia"],"game_id":440,"stv_port":27016,"stv_name":"Uncletopia | São Paulo | 1 | All Maps | STV","players":[{"user_id":35,"name":"Meaning Less Ness","steam_id":76561199152463241,"connected_time":803000000000,"state":"active","ping":55},{"user_id":36,"name":"lautabolzan","steam_id":76561198343281714,"connected_time":501000000000,"state":"active","ping":145}]},{"server_id":143,"name":"Uncletopia | São Paulo | 2 | All Maps","name_short":"sao-2","host":"sao-2.br.uncletopia.com","port":27015,"enabled":true,"region":"sa","cc":"br","latitude":-23.533773,"longitude":-46.62529,"reserved":0,"last_update":"0001-01-01T00:00:00Z","name_a2s":"Uncletopia | São Paulo | 2 | All Maps","protocol":17,"map":"pl_badwater","folder":"tf","game":"Team Fortress","app_id":440,"player_count":2,"max_players":24,"Bots":0,"server_type":"Dedicated","server_os":"Linux","password":true,"vac":true,"version":"7757534","steam_id":85568392924485349,"keywords":["nocrits","nodmgspread","payload","uncletopia"],"game_id":440,"stv_port":27016,"stv_name":"Uncletopia | São Paulo | 2 | All Maps | STV","players":[{"user_id":16,"name":"牛肉とクリーム","steam_id":76561198391399039,"connected_time":355000000000,"state":"active","ping":57},{"user_id":17,"name":"Tj","steam_id":76561199144268605,"connected_time":345000000000,"state":"active","ping":76}]},{"server_id":7,"name":"Uncletopia | Seattle | 1 | All Maps","name_short":"sea-1","host":"sea-1.us.uncletopia.com","port":27015,"enabled":true,"region":"us-west","cc":"us","latitude":47.608013,"longitude":-122.33517,"reserved":0,"last_update":"0001-01-01T00:00:00Z","name_a2s":"Uncletopia | Seattle | 1 | All Maps","protocol":17,"map":"koth_sawmill","folder":"tf","game":"Team Fortress","app_id":440,"player_count":24,"max_players":24,"Bots":0,"server_type":"Dedicated","server_os":"Linux","password":true,"vac":true,"version":"7757534","steam_id":85568392924469997,"keywords":["cp","nocrits","nodmgspread","uncletopia"],"game_id":440,"stv_port":27016,"stv_name":"Uncletopia | Seattle | 1 | All Maps | STV","players":[{"user_id":127,"name":"Power Jake","steam_id":76561198051510260,"connected_time":4202000000000,"state":"active","ping":60},{"user_id":4,"name":"Flesh Eating Turtle","steam_id":76561198116742139,"connected_time":13912000000000,"state":"active","ping":50},{"user_id":102,"name":"༘ ⋆˚🎧Caffeine☕*˖°","steam_id":76561199259309294,"connected_time":5304000000000,"state":"active","ping":126},{"user_id":135,"name":"crashymicsplody","steam_id":76561198213916765,"connected_time":3830000000000,"state":"active","ping":112},{"user_id":164,"name":"endo","steam_id":76561197995204381,"connected_time":813000000000,"state":"active","ping":98},{"user_id":168,"name":"kinda strange","steam_id":76561198136556324,"connected_time":320000000000,"state":"active","ping":72},{"user_id":104,"name":"Belmore","steam_id":76561198009355231,"connected_time":5275000000000,"state":"active","ping":72},{"user_id":147,"name":"Zetta","steam_id":76561198045710113,"connected_time":2486000000000,"state":"active","ping":101},{"user_id":62,"name":"They/Them Rattussy","steam_id":76561198238186628,"connected_time":9576000000000,"state":"active","ping":75},{"user_id":163,"name":"AmiableNebula","steam_id":76561198094306627,"connected_time":904000000000,"state":"active","ping":75},{"user_id":157,"name":"HaphazardHazel","steam_id":76561198316812693,"connected_time":1540000000000,"state":"active","ping":139},{"user_id":129,"name":"DIGGY","steam_id":76561198991238982,"connected_time":4142000000000,"state":"active","ping":53},{"user_id":160,"name":"dearender","steam_id":76561199427644498,"connected_time":1384000000000,"state":"active","ping":72},{"user_id":170,"name":"ArchmageF","steam_id":76561197992246851,"connected_time":113000000000,"state":"active","ping":54},{"user_id":130,"name":"big bang attack","steam_id":76561198886203540,"connected_time":4135000000000,"state":"active","ping":53},{"user_id":150,"name":"Saul Goodman","steam_id":76561199082247402,"connected_time":2290000000000,"state":"active","ping":91},{"user_id":159,"name":"XxDragon4321xX","steam_id":76561198046705735,"connected_time":1459000000000,"state":"active","ping":102},{"user_id":161,"name":"PopcornBucketGames","steam_id":76561199089562026,"connected_time":1064000000000,"state":"active","ping":53},{"user_id":145,"name":"Baconous","steam_id":76561198205380112,"connected_time":2549000000000,"state":"active","ping":60},{"user_id":109,"name":"Themasterman75","steam_id":76561199385573293,"connected_time":5050000000000,"state":"active","ping":69},{"user_id":169,"name":"HideOnTate","steam_id":76561198209880837,"connected_time":252000000000,"state":"active","ping":49},{"user_id":166,"name":"Willy Wonker","steam_id":76561198082944789,"connected_time":582000000000,"state":"active","ping":76},{"user_id":140,"name":"Gaiduk","steam_id":76561198112323877,"connected_time":2806000000000,"state":"active","ping":136},{"user_id":152,"name":"O","steam_id":76561198450073779,"connected_time":2246000000000,"state":"active","ping":53}]},{"server_id":119,"name":"Uncletopia | Seattle | 2 | All Maps","name_short":"sea-2","host":"sea-1.us.uncletopia.com","port":27025,"enabled":true,"region":"us-west","cc":"us","latitude":47.608013,"longitude":-122.33517,"reserved":0,"last_update":"0001-01-01T00:00:00Z","name_a2s":"Uncletopia | Seattle | 2 | All Maps","protocol":17,"map":"pl_badwater","folder":"tf","game":"Team Fortress","app_id":440,"player_count":1,"max_players":24,"Bots":0,"server_type":"Dedicated","server_os":"Linux","password":true,"vac":true,"version":"7757534","steam_id":85568392924469998,"keywords":["nocrits","nodmgspread","payload","uncletopia"],"game_id":440,"stv_port":27026,"stv_name":"Uncletopia | Seattle | 2 | All Maps | STV","players":[{"user_id":6,"name":"lilbombtech212","steam_id":76561198203055223,"connected_time":105000000000,"state":"active","ping":47}]},{"server_id":406,"name":"Uncletopia | Seattle | 3 | Stopwatch Beta","name_short":"sea-3","host":"sea-1.us.uncletopia.com","port":27035,"enabled":true,"region":"us-west","cc":"us","latitude":47.608013,"longitude":-122.33517,"reserved":0,"last_update":"0001-01-01T00:00:00Z","name_a2s":"Uncletopia | Seattle | 3 | Stopwatch Beta","protocol":17,"map":"workshop/pl_badwater_pro_v12.ugc2142942074","folder":"tf","game":"Team Fortress","app_id":440,"player_count":0,"max_players":24,"Bots":0,"server_type":"Dedicated","server_os":"Linux","password":true,"vac":true,"version":"7757534","steam_id":85568392924515217,"keywords":["nocrits","nodmgspread","payload","uncletopia"],"game_id":440,"stv_port":27036,"stv_name":"Uncletopia | Seattle | 3 | Stopwatch Beta | STV","players":null},{"server_id":17,"name":"Uncletopia | San Francisco | 1 | All Maps","name_short":"sfo-1","host":"sfo-1.us.uncletopia.com","port":27015,"enabled":true,"region":"us-west","cc":"us","latitude":37.77397,"longitude":-122.4313,"reserved":0,"last_update":"0001-01-01T00:00:00Z","name_a2s":"Uncletopia | San Francisco | 1 | All Maps","protocol":17,"map":"cp_process_final","folder":"tf","game":"Team Fortress","app_id":440,"player_count":0,"max_players":24,"Bots":0,"server_type":"Dedicated","server_os":"Linux","password":true,"vac":true,"version":"7757534","steam_id":85568392924469999,"keywords":["cp","nocrits","nodmgspread","uncletopia"],"game_id":440,"stv_port":27016,"stv_name":"Uncletopia | San Francisco | 1 | All Maps | STV","players":null},{"server_id":18,"name":"Uncletopia | San Francisco | 2 | All Maps","name_short":"sfo-2","host":"sfo-1.us.uncletopia.com","port":27025,"enabled":true,"region":"us-west","cc":"us","latitude":37.77397,"longitude":-122.4313,"reserved":0,"last_update":"0001-01-01T00:00:00Z","name_a2s":"Uncletopia | San Francisco | 2 | All Maps","protocol":17,"map":"koth_highpass","folder":"tf","game":"Team Fortress","app_id":440,"player_count":0,"max_players":24,"Bots":0,"server_type":"Dedicated","server_os":"Linux","password":true,"vac":true,"version":"7757534","steam_id":85568392924470000,"keywords":["cp","nocrits","nodmgspread","uncletopia"],"game_id":440,"stv_port":27026,"stv_name":"Uncletopia | San Francisco | 2 | All Maps | STV","players":null},{"server_id":19,"name":"Uncletopia | San Francisco | 3 | Stopwatch Beta","name_short":"sfo-3","host":"sfo-1.us.uncletopia.com","port":27035,"enabled":true,"region":"us-west","cc":"us","latitude":37.77397,"longitude":-122.4313,"reserved":0,"last_update":"0001-01-01T00:00:00Z","name_a2s":"Uncletopia | San Francisco | 3 | Stopwatch Beta","protocol":17,"map":"koth_lakeside_final","folder":"tf","game":"Team Fortress","app_id":440,"player_count":0,"max_players":24,"Bots":0,"server_type":"Dedicated","server_os":"Linux","password":true,"vac":true,"version":"7757534","steam_id":85568392924742824,"keywords":["cp","nocrits","nodmgspread","uncletopia"],"game_id":440,"stv_port":27036,"stv_name":"Uncletopia | San Francisco | 3 | Stopwatch Beta | STV","players":null},{"server_id":20,"name":"Uncletopia | San Francisco | 4 | Community","name_short":"sfo-4","host":"sfo-1.us.uncletopia.com","port":27045,"enabled":true,"region":"us-west","cc":"us","latitude":37.77397,"longitude":-122.4313,"reserved":0,"last_update":"0001-01-01T00:00:00Z","name_a2s":"Uncletopia | San Francisco | 4 | Community","protocol":17,"map":"workshop/pl_cactuscanyon_redux_final2.ugc2579644293","folder":"tf","game":"Team Fortress","app_id":440,"player_count":24,"max_players":24,"Bots":0,"server_type":"Dedicated","server_os":"Linux","password":true,"vac":true,"version":"7757534","steam_id":85568392924742826,"keywords":["nocrits","nodmgspread","payload","uncletopia"],"game_id":440,"stv_port":27046,"stv_name":"Uncletopia | San Francisco | 4 | Community | STV","players":[{"user_id":53,"name":"Turtimos","steam_id":76561198093519137,"connected_time":459000000000,"state":"active","ping":71},{"user_id":28,"name":"rustyorion","steam_id":76561198439186347,"connected_time":1624000000000,"state":"active","ping":70},{"user_id":55,"name":"reiidaya","steam_id":76561198325306660,"connected_time":69000000000,"state":"active","ping":68},{"user_id":8,"name":"tamaclagan","steam_id":76561198882009720,"connected_time":3035000000000,"state":"active","ping":120},{"user_id":45,"name":"MrTweady","steam_id":76561198073352802,"connected_time":1060000000000,"state":"active","ping":133},{"user_id":10,"name":"Cpt. Medrash","steam_id":76561198035981656,"connected_time":2985000000000,"state":"active","ping":117},{"user_id":34,"name":"shitass","steam_id":76561198355094896,"connected_time":1247000000000,"state":"active","ping":103},{"user_id":15,"name":"ZekeN0Tech","steam_id":76561198042151365,"connected_time":2754000000000,"state":"active","ping":99},{"user_id":22,"name":"hoOmIN","steam_id":76561198334947079,"connected_time":2078000000000,"state":"active","ping":47},{"user_id":23,"name":"Dolphinator","steam_id":76561198089270171,"connected_time":2040000000000,"state":"active","ping":83},{"user_id":44,"name":"123","steam_id":76561198106308056,"connected_time":1090000000000,"state":"active","ping":60},{"user_id":31,"name":"Ass Blaster, Disaster Master","steam_id":76561197997774469,"connected_time":1408000000000,"state":"active","ping":46},{"user_id":56,"name":"JS","steam_id":76561198149183514,"connected_time":6000000000,"state":"spawning","ping":64},{"user_id":46,"name":"Mom","steam_id":76561198207936000,"connected_time":1033000000000,"state":"active","ping":45},{"user_id":47,"name":"The Gremlin","steam_id":76561198419066993,"connected_time":1032000000000,"state":"active","ping":77},{"user_id":36,"name":"hypotenuse","steam_id":76561198062479158,"connected_time":1242000000000,"state":"active","ping":71},{"user_id":54,"name":"jayzak24","steam_id":76561198354267509,"connected_time":131000000000,"state":"active","ping":60},{"user_id":48,"name":"boulder","steam_id":76561198347225801,"connected_time":1029000000000,"state":"active","ping":64},{"user_id":41,"name":"Reeder0417","steam_id":76561198160340032,"connected_time":1170000000000,"state":"active","ping":89},{"user_id":42,"name":"Explosions990","steam_id":76561199212000482,"connected_time":1164000000000,"state":"active","ping":62},{"user_id":49,"name":"Jimjohn","steam_id":76561198018654088,"connected_time":1024000000000,"state":"active","ping":119},{"user_id":50,"name":"Mariopan","steam_id":76561198166980348,"connected_time":1012000000000,"state":"active","ping":174},{"user_id":51,"name":"Queso2469","steam_id":76561197993024580,"connected_time":1003000000000,"state":"active","ping":115},{"user_id":52,"name":"blue_tristan03","steam_id":76561199468377688,"connected_time":970000000000,"state":"active","ping":45}]},{"server_id":141,"name":"Uncletopia | Sydney | 1 | All Maps","name_short":"syd-1","host":"syd-1.au.uncletopia.com","port":27015,"enabled":true,"region":"au","cc":"au","latitude":-33.865143,"longitude":151.2099,"reserved":0,"last_update":"0001-01-01T00:00:00Z","name_a2s":"Uncletopia | Sydney | 1 | All Maps","protocol":17,"map":"koth_lakeside_final","folder":"tf","game":"Team Fortress","app_id":440,"player_count":0,"max_players":24,"Bots":0,"server_type":"Dedicated","server_os":"Linux","password":true,"vac":true,"version":"7757534","steam_id":85568392924470001,"keywords":["cp","nocrits","nodmgspread","uncletopia"],"game_id":440,"stv_port":27016,"stv_name":"Uncletopia | Sydney | 1 | All Maps | STV","players":null},{"server_id":123,"name":"Uncletopia | Sydney | 2 | All Maps","name_short":"syd-2","host":"syd-1.au.uncletopia.com","port":27025,"enabled":true,"region":"au","cc":"au","latitude":-33.865143,"longitude":151.2099,"reserved":0,"last_update":"0001-01-01T00:00:00Z","name_a2s":"Uncletopia | Sydney | 2 | All Maps","protocol":17,"map":"koth_lakeside_final","folder":"tf","game":"Team Fortress","app_id":440,"player_count":0,"max_players":24,"Bots":0,"server_type":"Dedicated","server_os":"Linux","password":true,"vac":true,"version":"7757534","steam_id":85568392924470002,"keywords":["cp","nocrits","nodmgspread","uncletopia"],"game_id":440,"stv_port":27026,"stv_name":"Uncletopia | Sydney | 2 | All Maps | STV","players":null},{"server_id":395,"name":"Uncletopia | Sydney | 3 | All Maps","name_short":"syd-3","host":"syd-1.au.uncletopia.com","port":27035,"enabled":true,"region":"au","cc":"au","latitude":-33.865143,"longitude":151.2099,"reserved":0,"last_update":"0001-01-01T00:00:00Z","name_a2s":"Uncletopia | Sydney | 3 | All Maps","protocol":17,"map":"koth_lakeside_final","folder":"tf","game":"Team Fortress","app_id":440,"player_count":0,"max_players":24,"Bots":0,"server_type":"Dedicated","server_os":"Linux","password":true,"vac":true,"version":"7757534","steam_id":85568392925194467,"keywords":["cp","nocrits","nodmgspread","uncletopia"],"game_id":440,"stv_port":27036,"stv_name":"Uncletopia | Sydney | 3 | All Maps | STV","players":null},{"server_id":396,"name":"Uncletopia | Sydney | 4 | All Maps","name_short":"syd-4","host":"syd-1.au.uncletopia.com","port":27045,"enabled":true,"region":"au","cc":"au","latitude":-33.865143,"longitude":151.2099,"reserved":0,"last_update":"0001-01-01T00:00:00Z","name_a2s":"Uncletopia | Sydney | 4 | All Maps","protocol":17,"map":"pl_frontier_final","folder":"tf","game":"Team Fortress","app_id":440,"player_count":0,"max_players":24,"Bots":0,"server_type":"Dedicated","server_os":"Linux","password":true,"vac":true,"version":"7757534","steam_id":85568392925397958,"keywords":["nocrits","nodmgspread","payload","uncletopia"],"game_id":440,"stv_port":27046,"stv_name":"Uncletopia | Sydney | 4 | All Maps | STV","players":null},{"server_id":58,"name":"Uncletopia | Sydney | 5 | Stopwatch Beta","name_short":"syd-5","host":"syd-1.au.uncletopia.com","port":27055,"enabled":true,"region":"au","cc":"au","latitude":-33.865143,"longitude":151.2099,"reserved":0,"last_update":"0001-01-01T00:00:00Z","name_a2s":"Uncletopia | Sydney | 5 | Stopwatch Beta","protocol":17,"map":"workshop/pl_summercoast_rc8e.ugc1761528829","folder":"tf","game":"Team Fortress","app_id":440,"player_count":0,"max_players":24,"Bots":0,"server_type":"Dedicated","server_os":"Linux","password":true,"vac":true,"version":"7757534","steam_id":85568392925397959,"keywords":["nocrits","nodmgspread","payload","uncletopia"],"game_id":440,"stv_port":27056,"stv_name":"Uncletopia | Sydney | 5 | Stopwatch Beta | STV","players":null},{"server_id":59,"name":"Uncletopia | Sydney | 6 | Community","name_short":"syd-6","host":"syd-1.au.uncletopia.com","port":27065,"enabled":true,"region":"au","cc":"au","latitude":-33.865143,"longitude":151.2099,"reserved":0,"last_update":"0001-01-01T00:00:00Z","name_a2s":"Uncletopia | Sydney | 6 | Community","protocol":17,"map":"workshop/cp_snowbase_b18.ugc2081770490","folder":"tf","game":"Team Fortress","app_id":440,"player_count":0,"max_players":24,"Bots":0,"server_type":"Dedicated","server_os":"Linux","password":true,"vac":true,"version":"7757534","steam_id":85568392925397960,"keywords":["cp","nocrits","nodmgspread","uncletopia"],"game_id":440,"stv_port":27066,"stv_name":"Uncletopia | Sydney | 6 | Community | STV","players":null},{"server_id":49,"name":"Uncletopia | Warsaw | 1 | All Maps","name_short":"waw-1","host":"waw-1.pl.uncletopia.com","port":27015,"enabled":true,"region":"eu","cc":"pl","latitude":52.2297,"longitude":21.017532,"reserved":0,"last_update":"0001-01-01T00:00:00Z","name_a2s":"","protocol":0,"map":"","folder":"","game":"","app_id":0,"player_count":0,"max_players":0,"Bots":0,"server_type":"","server_os":"","password":false,"vac":false,"version":"","steam_id":0,"keywords":null,"game_id":0,"stv_port":0,"stv_name":"","players":null},{"server_id":50,"name":"Uncletopia | Warsaw | 2 | All Maps","name_short":"waw-2","host":"waw-1.pl.uncletopia.com","port":27025,"enabled":true,"region":"eu","cc":"pl","latitude":52.2297,"longitude":21.017532,"reserved":0,"last_update":"0001-01-01T00:00:00Z","name_a2s":"Uncletopia | Warsaw | 2 | All Maps","protocol":17,"map":"koth_viaduct","folder":"tf","game":"Team Fortress","app_id":440,"player_count":0,"max_players":24,"Bots":0,"server_type":"Dedicated","server_os":"Linux","password":true,"vac":true,"version":"7757534","steam_id":85568392925397851,"keywords":["cp","nocrits","nodmgspread","uncletopia"],"game_id":440,"stv_port":27026,"stv_name":"Uncletopia | Warsaw | 2 | All Maps | STV","players":null},{"server_id":51,"name":"Uncletopia | Warsaw | 3 | All Maps","name_short":"waw-3","host":"waw-1.pl.uncletopia.com","port":27035,"enabled":true,"region":"eu","cc":"pl","latitude":52.2297,"longitude":21.017532,"reserved":0,"last_update":"0001-01-01T00:00:00Z","name_a2s":"Uncletopia | Warsaw | 3 | All Maps","protocol":17,"map":"pl_swiftwater_final1","folder":"tf","game":"Team Fortress","app_id":440,"player_count":22,"max_players":24,"Bots":0,"server_type":"Dedicated","server_os":"Linux","password":true,"vac":true,"version":"7757534","steam_id":85568392925397852,"keywords":["nocrits","nodmgspread","payload","uncletopia"],"game_id":440,"stv_port":27036,"stv_name":"Uncletopia | Warsaw | 3 | All Maps | STV","players":[{"user_id":8,"name":"The","steam_id":76561199028541854,"connected_time":6792000000000,"state":"active","ping":161},{"user_id":15,"name":"cool guy zagawii","steam_id":76561197999285844,"connected_time":1689000000000,"state":"active","ping":107},{"user_id":53,"name":"LFGGGGGG","steam_id":76561199062586342,"connected_time":259000000000,"state":"active","ping":100},{"user_id":52,"name":"jeezongus","steam_id":76561198123592400,"connected_time":271000000000,"state":"active","ping":88},{"user_id":24,"name":"Niki 🌍","steam_id":76561198044238129,"connected_time":1281000000000,"state":"active","ping":95},{"user_id":18,"name":"nvmHastee","steam_id":76561199371458295,"connected_time":1501000000000,"state":"active","ping":92},{"user_id":23,"name":"SAS41","steam_id":76561197998649851,"connected_time":1291000000000,"state":"active","ping":75},{"user_id":25,"name":"Acheron","steam_id":76561198306593373,"connected_time":1239000000000,"state":"active","ping":95},{"user_id":27,"name":"Bosak","steam_id":76561198003037363,"connected_time":1132000000000,"state":"active","ping":89},{"user_id":28,"name":"Pan W","steam_id":76561198384111099,"connected_time":1075000000000,"state":"active","ping":40},{"user_id":33,"name":"zapdos981","steam_id":76561198119674397,"connected_time":933000000000,"state":"active","ping":85},{"user_id":30,"name":"Sch","steam_id":76561198071341689,"connected_time":1045000000000,"state":"active","ping":70},{"user_id":35,"name":"...","steam_id":76561198969234594,"connected_time":734000000000,"state":"active","ping":68},{"user_id":36,"name":"♥ Cirno ♥","steam_id":76561198834982738,"connected_time":726000000000,"state":"active","ping":81},{"user_id":46,"name":"ScarredPixel123","steam_id":76561199165112703,"connected_time":449000000000,"state":"spawning","ping":81},{"user_id":55,"name":"the uncle from uncle dane","steam_id":76561198326214068,"connected_time":178000000000,"state":"active","ping":92},{"user_id":56,"name":"NUTS from Big Joey Slap Nuts","steam_id":76561199098984554,"connected_time":155000000000,"state":"active","ping":46},{"user_id":40,"name":"Finnish Farmer","steam_id":76561198205366043,"connected_time":557000000000,"state":"active","ping":104},{"user_id":41,"name":"TDR","steam_id":76561198093243434,"connected_time":551000000000,"state":"active","ping":188},{"user_id":51,"name":"MajorKlebstoff","steam_id":76561198035489363,"connected_time":322000000000,"state":"active","ping":47},{"user_id":44,"name":"zek","steam_id":76561198862763731,"connected_time":504000000000,"state":"active","ping":76},{"user_id":50,"name":"Red","steam_id":76561198255311543,"connected_time":359000000000,"state":"active","ping":148}]},{"server_id":52,"name":"Uncletopia | Warsaw | 4 | All Maps","name_short":"waw-4","host":"waw-1.pl.uncletopia.com","port":27045,"enabled":true,"region":"eu","cc":"pl","latitude":52.2297,"longitude":21.017532,"reserved":0,"last_update":"0001-01-01T00:00:00Z","name_a2s":"Uncletopia | Warsaw | 4 | All Maps","protocol":17,"map":"koth_lakeside_final","folder":"tf","game":"Team Fortress","app_id":440,"player_count":0,"max_players":24,"Bots":0,"server_type":"Dedicated","server_os":"Linux","password":true,"vac":true,"version":"7757534","steam_id":85568392925397853,"keywords":["cp","nocrits","nodmgspread","uncletopia"],"game_id":440,"stv_port":27046,"stv_name":"Uncletopia | Warsaw | 4 | All Maps | STV","players":null},{"server_id":53,"name":"Uncletopia | Warsaw | 5 | Stopwatch Beta","name_short":"waw-5","host":"waw-1.pl.uncletopia.com","port":27055,"enabled":true,"region":"eu","cc":"pl","latitude":52.2297,"longitude":21.017532,"reserved":0,"last_update":"0001-01-01T00:00:00Z","name_a2s":"Uncletopia | Warsaw | 5 | Stopwatch Beta","protocol":17,"map":"pl_borneo","folder":"tf","game":"Team Fortress","app_id":440,"player_count":0,"max_players":24,"Bots":0,"server_type":"Dedicated","server_os":"Linux","password":true,"vac":true,"version":"7757534","steam_id":85568392925397854,"keywords":["nocrits","nodmgspread","payload","uncletopia"],"game_id":440,"stv_port":27056,"stv_name":"Uncletopia | Warsaw | 5 | Stopwatch Beta | STV","players":null},{"server_id":54,"name":"Uncletopia | Warsaw | 6 | Community","name_short":"waw-6","host":"waw-1.pl.uncletopia.com","port":27065,"enabled":true,"region":"eu","cc":"pl","latitude":52.2297,"longitude":21.017532,"reserved":0,"last_update":"0001-01-01T00:00:00Z","name_a2s":"Uncletopia | Warsaw | 6 | Community","protocol":17,"map":"workshop/cp_glacier_rc6.ugc2905735376","folder":"tf","game":"Team Fortress","app_id":440,"player_count":0,"max_players":24,"Bots":0,"server_type":"Dedicated","server_os":"Linux","password":true,"vac":true,"version":"7757534","steam_id":85568392925397856,"keywords":["cp","nocrits","nodmgspread","uncletopia"],"game_id":440,"stv_port":27066,"stv_name":"Uncletopia | Warsaw | 6 | Community | STV","players":null}]}