{"status":true,"message":"","result":[{"server_id":9,"name":"Uncletopia | Atlanta | 1 | All Maps","name_short":"atl-1","host":"atl-1.us.uncletopia.com","port":27015,"enabled":true,"region":"us-east","cc":"us","latitude":33.753746,"longitude":-84.38633,"reserved":0,"last_update":"0001-01-01T00:00:00Z","name_a2s":"Uncletopia | Atlanta | 1 | All Maps","protocol":17,"map":"cp_steel","folder":"tf","game":"Team Fortress","app_id":440,"player_count":14,"max_players":24,"Bots":0,"server_type":"Dedicated","server_os":"Linux","password":true,"vac":true,"version":"7882260","steam_id":85568392924469982,"keywords":["cp","nocrits","nodmgspread","uncletopia"],"game_id":440,"stv_port":27016,"stv_name":"Uncletopia | Atlanta | 1 | All Maps | STV","players":[{"user_id":798,"name":"Walla","steam_id":76561198103379757,"connected_time":243000000000,"state":"active","ping":74},{"user_id":794,"name":"Sqilluy","steam_id":76561198130993466,"connected_time":565000000000,"state":"active","ping":88},{"user_id":760,"name":"Petrivus","steam_id":76561198202152453,"connected_time":2564000000000,"state":"active","ping":116},{"user_id":801,"name":"Le4n!!!","steam_id":76561198045522596,"connected_time":82000000000,"state":"active","ping":63},{"user_id":768,"name":"Jin","steam_id":76561198119873148,"connected_time":1878000000000,"state":"active","ping":96},{"user_id":796,"name":"Blade","steam_id":76561198153163098,"connected_time":365000000000,"state":"active","ping":67},{"user_id":773,"name":"paetho YT","steam_id":76561198152690003,"connected_time":1441000000000,"state":"active","ping":38},{"user_id":791,"name":"TacticalWalrus","steam_id":76561198358665884,"connected_time":734000000000,"state":"active","ping":60},{"user_id":797,"name":"SparkStorm","steam_id":76561198095817025,"connected_time":266000000000,"state":"active","ping":34},{"user_id":776,"name":"Kung fu Mungus","steam_id":76561198069281556,"connected_time":1364000000000,"state":"active","ping":80},{"user_id":777,"name":"HUMBY","steam_id":76561198065045867,"connected_time":1354000000000,"state":"active","ping":97},{"user_id":779,"name":"WesyUWU (The mini crit pig)","steam_id":76561198069188177,"connected_time":1342000000000,"state":"active","ping":78},{"user_id":749,"name":"TheRealMud","steam_id":76561198138312993,"connected_time":3729000000000,"state":"active","ping":99},{"user_id":799,"name":"GoldtoothFour","steam_id":76561198055529332,"connected_time":198000000000,"state":"active","ping":69}]},{"server_id":104,"name":"Uncletopia | Atlanta | 2 | All Maps","name_short":"atl-2","host":"atl-1.us.uncletopia.com","port":27025,"enabled":true,"region":"us-east","cc":"us","latitude":33.753746,"longitude":-84.38633,"reserved":0,"last_update":"0001-01-01T00:00:00Z","name_a2s":"Uncletopia | Atlanta | 2 | All Maps","protocol":17,"map":"pl_swiftwater_final1","folder":"tf","game":"Team Fortress","app_id":440,"player_count":18,"max_players":24,"Bots":0,"server_type":"Dedicated","server_os":"Linux","password":true,"vac":true,"version":"7882260","steam_id":85568392924469983,"keywords":["nocrits","nodmgspread","payload","uncletopia"],"game_id":440,"stv_port":27026,"stv_name":"Uncletopia | Atlanta | 2 | All Maps | STV","players":[{"user_id":428,"name":"frizzle fried","steam_id":76561198062991744,"connected_time":2685000000000,"state":"active","ping":61},{"user_id":448,"name":"Jake The Snake","steam_id":76561198047722285,"connected_time":717000000000,"state":"active","ping":69},{"user_id":449,"name":"Pokon","steam_id":76561198053113088,"connected_time":714000000000,"state":"active","ping":44},{"user_id":425,"name":"rach9411","steam_id":76561198256535721,"connected_time":2760000000000,"state":"active","ping":133},{"user_id":460,"name":"Fivan","steam_id":76561198097145922,"connected_time":193000000000,"state":"active","ping":86},{"user_id":458,"name":"DungeonKeeper","steam_id":76561199475507686,"connected_time":353000000000,"state":"active","ping":54},{"user_id":435,"name":"VolcanoShed","steam_id":76561198078988973,"connected_time":2481000000000,"state":"active","ping":76},{"user_id":432,"name":"how do i girl???","steam_id":76561198050290565,"connected_time":2519000000000,"state":"active","ping":73},{"user_id":441,"name":"mEch114","steam_id":76561198236936060,"connected_time":1594000000000,"state":"active","ping":64},{"user_id":430,"name":"La Rana","steam_id":76561198358974675,"connected_time":2554000000000,"state":"active","ping":93},{"user_id":440,"name":"Gaming","steam_id":76561198107080532,"connected_time":1765000000000,"state":"active","ping":69},{"user_id":370,"name":"drooskie","steam_id":76561198036083886,"connected_time":9023000000000,"state":"active","ping":66},{"user_id":445,"name":"Blorgh","steam_id":76561197990534924,"connected_time":1289000000000,"state":"active","ping":103},{"user_id":422,"name":"Keb","steam_id":76561198095467734,"connected_time":4474000000000,"state":"active","ping":64},{"user_id":443,"name":"SireOfTheSun","steam_id":76561199049465503,"connected_time":1475000000000,"state":"active","ping":62},{"user_id":446,"name":"An Unhappy Clown","steam_id":76561198175516514,"connected_time":1285000000000,"state":"active","ping":66},{"user_id":414,"name":"Starkiller","steam_id":76561198101643120,"connected_time":5001000000000,"state":"active","ping":59},{"user_id":447,"name":"Shadow The Hedgehog","steam_id":76561198323622980,"connected_time":1009000000000,"state":"active","ping":166}]},{"server_id":400,"name":"Uncletopia | Atlanta | 3 | Community","name_short":"atl-3","host":"atl-1.us.uncletopia.com","port":27035,"enabled":true,"region":"us-east","cc":"us","latitude":33.753746,"longitude":-84.38633,"reserved":0,"last_update":"0001-01-01T00:00:00Z","name_a2s":"Uncletopia | Atlanta | 3 | Community","protocol":17,"map":"workshop/cp_sulfur_rc2.ugc619869471","folder":"tf","game":"Team Fortress","app_id":440,"player_count":17,"max_players":24,"Bots":0,"server_type":"Dedicated","server_os":"Linux","password":true,"vac":true,"version":"7882260","steam_id":85568392924515187,"keywords":["cp","nocrits","nodmgspread","uncletopia"],"game_id":440,"stv_port":27036,"stv_name":"Uncletopia | Atlanta | 3 | Community | STV","players":[{"user_id":171,"name":"Uwasatchi","steam_id":76561198011501261,"connected_time":1315000000000,"state":"active","ping":72},{"user_id":154,"name":"cycoone","steam_id":76561198059745285,"connected_time":3116000000000,"state":"active","ping":99},{"user_id":155,"name":"thanksgiving turkey","steam_id":76561198976876859,"connected_time":3064000000000,"state":"active","ping":65},{"user_id":181,"name":"craven","steam_id":76561198088191503,"connected_time":64000000000,"state":"active","ping":61},{"user_id":111,"name":"Zoro01","steam_id":76561198407989540,"connected_time":6733000000000,"state":"active","ping":105},{"user_id":145,"name":"catlovinggreenbean","steam_id":76561198355974740,"connected_time":4065000000000,"state":"active","ping":86},{"user_id":179,"name":"pinuapp","steam_id":76561198981828319,"connected_time":444000000000,"state":"active","ping":76},{"user_id":172,"name":"potato pat","steam_id":76561198025489194,"connected_time":1302000000000,"state":"active","ping":74},{"user_id":104,"name":"FRANKY!!!","steam_id":76561199211305343,"connected_time":7892000000000,"state":"active","ping":102},{"user_id":176,"name":"Shy","steam_id":76561198394890836,"connected_time":821000000000,"state":"active","ping":52},{"user_id":177,"name":"Spring Beans","steam_id":76561197978546259,"connected_time":723000000000,"state":"active","ping":56},{"user_id":159,"name":"nickell88","steam_id":76561198061661797,"connected_time":2962000000000,"state":"active","ping":74},{"user_id":163,"name":"Yato","steam_id":76561198084100335,"connected_time":2127000000000,"state":"active","ping":85},{"user_id":126,"name":"Pimastr","steam_id":76561198230996464,"connected_time":6250000000000,"state":"active","ping":77},{"user_id":178,"name":"Mr. Peon","steam_id":76561198012334474,"connected_time":697000000000,"state":"active","ping":63},{"user_id":112,"name":"Modeus","steam_id":76561199228751836,"connected_time":6677000000000,"state":"active","ping":59},{"user_id":153,"name":"Chin","steam_id":76561198247426906,"connected_time":3303000000000,"state":"active","ping":75}]},{"server_id":401,"name":"Uncletopia | Atlanta | 4 | No Payload","name_short":"atl-4","host":"atl-1.us.uncletopia.com","port":27045,"enabled":true,"region":"us-east","cc":"us","latitude":33.753746,"longitude":-84.38633,"reserved":0,"last_update":"0001-01-01T00:00:00Z","name_a2s":"","protocol":0,"map":"","folder":"","game":"","app_id":0,"player_count":0,"max_players":0,"Bots":0,"server_type":"","server_os":"","password":false,"vac":false,"version":"","steam_id":0,"keywords":null,"game_id":0,"stv_port":0,"stv_name":"","players":null},{"server_id":2,"name":"Uncletopia | Chicago | 1 | All Maps","name_short":"chi-1","host":"chi-1.us.uncletopia.com","port":27015,"enabled":true,"region":"us-central","cc":"us","latitude":41.881832,"longitude":-87.62318,"reserved":0,"last_update":"0001-01-01T00:00:00Z","name_a2s":"Uncletopia | Chicago | 1 | All Maps","protocol":17,"map":"pl_frontier_final","folder":"tf","game":"Team Fortress","app_id":440,"player_count":9,"max_players":24,"Bots":0,"server_type":"Dedicated","server_os":"Linux","password":true,"vac":true,"version":"7882260","steam_id":85568392924469984,"keywords":["nocrits","nodmgspread","payload","uncletopia"],"game_id":440,"stv_port":27016,"stv_name":"Uncletopia | Chicago | 1 | All Maps | STV","players":[{"user_id":850,"name":"Bobato Chaps","steam_id":76561198065103552,"connected_time":2089000000000,"state":"active","ping":49},{"user_id":860,"name":"FART SMELLA!","steam_id":76561198340417623,"connected_time":1456000000000,"state":"active","ping":105},{"user_id":887,"name":"Season Veteran","steam_id":76561198088619665,"connected_time":241000000000,"state":"active","ping":60},{"user_id":889,"name":"Scott_The_Bot","steam_id":76561199474825993,"connected_time":145000000000,"state":"active","ping":79},{"user_id":784,"name":"Minerva Amadon","steam_id":76561198138543341,"connected_time":8108000000000,"state":"spawning","ping":25},{"user_id":877,"name":"lokm","steam_id":76561198030374238,"connected_time":758000000000,"state":"active","ping":104},{"user_id":891,"name":"Allyn (She/they)","steam_id":76561198999161827,"connected_time":88000000000,"state":"spawning","ping":53},{"user_id":828,"name":"Chode Mode","steam_id":76561198353840477,"connected_time":4587000000000,"state":"active","ping":44},{"user_id":874,"name":"Some Sinner","steam_id":76561198063331396,"connected_time":948000000000,"state":"active","ping":163}]},{"server_id":106,"name":"Uncletopia | Chicago | 2 | All Maps","name_short":"chi-2","host":"chi-1.us.uncletopia.com","port":27025,"enabled":true,"region":"us-central","cc":"us","latitude":41.881832,"longitude":-87.62318,"reserved":0,"last_update":"0001-01-01T00:00:00Z","name_a2s":"Uncletopia | Chicago | 2 | All Maps","protocol":17,"map":"koth_cascade","folder":"tf","game":"Team Fortress","app_id":440,"player_count":5,"max_players":24,"Bots":0,"server_type":"Dedicated","server_os":"Linux","password":true,"vac":true,"version":"7882260","steam_id":85568392924469985,"keywords":["cp","nocrits","nodmgspread","uncletopia"],"game_id":440,"stv_port":27026,"stv_name":"Uncletopia | Chicago | 2 | All Maps | STV","players":[{"user_id":715,"name":"watchfull","steam_id":76561198433266742,"connected_time":2465000000000,"state":"active","ping":104},{"user_id":728,"name":"Lerny_Bander69","steam_id":76561199467619936,"connected_time":76000000000,"state":"active","ping":250},{"user_id":717,"name":"Kaprinae","steam_id":76561199260109617,"connected_time":2412000000000,"state":"active","ping":68},{"user_id":724,"name":"ariwinters","steam_id":76561198273249163,"connected_time":613000000000,"state":"active","ping":76},{"user_id":718,"name":"EpicGamer48484","steam_id":76561199230935031,"connected_time":2404000000000,"state":"active","ping":63}]},{"server_id":402,"name":"Uncletopia | Chicago | 3 | All Maps","name_short":"chi-3","host":"chi-1.us.uncletopia.com","port":27035,"enabled":true,"region":"us-central","cc":"us","latitude":41.881832,"longitude":-87.62318,"reserved":0,"last_update":"0001-01-01T00:00:00Z","name_a2s":"Uncletopia | Chicago | 3 | All Maps","protocol":17,"map":"pl_barnblitz","folder":"tf","game":"Team Fortress","app_id":440,"player_count":23,"max_players":24,"Bots":0,"server_type":"Dedicated","server_os":"Linux","password":true,"vac":true,"version":"7882260","steam_id":85568392924515191,"keywords":["nocrits","nodmgspread","payload","uncletopia"],"game_id":440,"stv_port":27036,"stv_name":"Uncletopia | Chicago | 3 | All Maps | STV","players":[{"user_id":742,"name":"2 for $3.50 McChickens","steam_id":76561198089908660,"connected_time":774000000000,"state":"active","ping":90},{"user_id":753,"name":"Wuncle Dumps","steam_id":76561198067167895,"connected_time":584000000000,"state":"active","ping":69},{"user_id":744,"name":"Bambeau","steam_id":76561198047904568,"connected_time":755000000000,"state":"active","ping":100},{"user_id":739,"name":"LerN","steam_id":76561198083463877,"connected_time":1692000000000,"state":"active","ping":90},{"user_id":745,"name":"1995 Nissan 240SX","steam_id":76561198080485472,"connected_time":753000000000,"state":"active","ping":86},{"user_id":746,"name":"jmp","steam_id":76561198168283286,"connected_time":725000000000,"state":"active","ping":156},{"user_id":754,"name":"cliftoce","steam_id":76561197998912007,"connected_time":234000000000,"state":"active","ping":84},{"user_id":748,"name":"Major_Pippy","steam_id":76561198004482878,"connected_time":693000000000,"state":"active","ping":101},{"user_id":711,"name":"Blitzy","steam_id":76561198149472890,"connected_time":3140000000000,"state":"active","ping":73},{"user_id":749,"name":"RagingRoosevelt","steam_id":76561197985483153,"connected_time":678000000000,"state":"active","ping":91},{"user_id":716,"name":"Dunkin' Ponuts","steam_id":76561198082382465,"connected_time":3031000000000,"state":"active","ping":67},{"user_id":717,"name":"Holp","steam_id":76561199019186848,"connected_time":3014000000000,"state":"active","ping":133},{"user_id":718,"name":"DO NOT call me BART SIMPSON!!","steam_id":76561198069113375,"connected_time":2993000000000,"state":"active","ping":70},{"user_id":719,"name":"Selenddron","steam_id":76561198130341338,"connected_time":2969000000000,"state":"active","ping":87},{"user_id":720,"name":"Ludcmorais","steam_id":76561198359217809,"connected_time":2956000000000,"state":"active","ping":182},{"user_id":696,"name":"[DEEP] Danmar33","steam_id":76561198056453091,"connected_time":4818000000000,"state":"active","ping":46},{"user_id":750,"name":"6kre_1t","steam_id":76561198106157810,"connected_time":675000000000,"state":"active","ping":59},{"user_id":751,"name":"noblehallett","steam_id":76561197990994280,"connected_time":668000000000,"state":"active","ping":112},{"user_id":752,"name":"aussie","steam_id":76561198374523099,"connected_time":660000000000,"state":"active","ping":94},{"user_id":741,"name":"hatsune miku‚ô°","steam_id":76561199445009981,"connected_time":1113000000000,"state":"active","ping":100},{"user_id":734,"name":"Sunflower","steam_id":76561198081223793,"connected_time":2103000000000,"state":"active","ping":55},{"user_id":728,"name":"oomper","steam_id":76561199189982701,"connected_time":2776000000000,"state":"active","ping":54},{"user_id":675,"name":"Argon","steam_id":76561199254804349,"connected_time":7188000000000,"state":"active","ping":127}]},{"server_id":403,"name":"Uncletopia | Chicago | 4 | All Maps","name_short":"chi-4","host":"chi-1.us.uncletopia.com","port":27045,"enabled":true,"region":"us-central","cc":"us","latitude":41.881832,"longitude":-87.62318,"reserved":0,"last_update":"0001-01-01T00:00:00Z","name_a2s":"Uncletopia | Chicago | 4 | All Maps","protocol":17,"map":"cp_dustbowl","folder":"tf","game":"Team Fortress","app_id":440,"player_count":24,"max_players":24,"Bots":0,"server_type":"Dedicated","server_os":"Linux","password":true,"vac":true,"version":"7882260","steam_id":85568392924515193,"keywords":["cp","nocrits","nodmgspread","uncletopia"],"game_id":440,"stv_port":27046,"stv_name":"Uncletopia | Chicago | 4 | All Maps | STV","players":[{"user_id":836,"name":"Dullahan","steam_id":76561198119668908,"connected_time":1954000000000,"state":"active","ping":93},{"user_id":823,"name":"Bree","steam_id":76561198060193542,"connected_time":2811000000000,"state":"active","ping":71},{"user_id":794,"name":"Drippin Jimmy","steam_id":76561198161241865,"connected_time":5013000000000,"state":"active","ping":75},{"user_id":838,"name":"`o2","steam_id":76561197992030936,"connected_time":1882000000000,"state":"active","ping":69},{"user_id":809,"name":"Champloo","steam_id":76561198026779745,"connected_time":4123000000000,"state":"active","ping":86},{"user_id":839,"name":"Professor Scrub","steam_id":76561198129044760,"connected_time":1833000000000,"state":"active","ping":70},{"user_id":834,"name":"chem‚≠ë","steam_id":76561198972045654,"connected_time":2206000000000,"state":"active","ping":83},{"user_id":850,"name":"Team Fartpiss Poo","steam_id":76561199163591880,"connected_time":595000000000,"state":"active","ping":90},{"user_id":789,"name":"cal","steam_id":76561198067015101,"connected_time":5284000000000,"state":"active","ping":86},{"user_id":851,"name":"sunny","steam_id":76561198069380992,"connected_time":467000000000,"state":"active","ping":72},{"user_id":840,"name":"kitty paradise","steam_id":76561199058167329,"connected_time":1762000000000,"state":"active","ping":105},{"user_id":793,"name":"pablo.rodriguez2006","steam_id":76561198059740184,"connected_time":5157000000000,"state":"active","ping":91},{"user_id":826,"name":"HammerHead","steam_id":76561197975668646,"connected_time":2804000000000,"state":"active","ping":80},{"user_id":841,"name":"Sploof","steam_id":76561198078577114,"connected_time":1722000000000,"state":"active","ping":85},{"user_id":786,"name":"Darth Phrogg","steam_id":76561198150844229,"connected_time":5991000000000,"state":"active","ping":62},{"user_id":829,"name":"Wolverine466","steam_id":76561198417522516,"connected_time":2693000000000,"state":"active","ping":46},{"user_id":842,"name":"Spastic Gremlin","steam_id":76561198129059206,"connected_time":1703000000000,"state":"active","ping":76},{"user_id":726,"name":"Castroy","steam_id":76561198108160099,"connected_time":10756000000000,"state":"active","ping":69},{"user_id":791,"name":"spirit","steam_id":76561198102040731,"connected_time":5248000000000,"state":"active","ping":47},{"user_id":820,"name":"gobolin","steam_id":76561198066970734,"connected_time":2887000000000,"state":"active","ping":99},{"user_id":844,"name":"Kane","steam_id":76561198065749098,"connected_time":1507000000000,"state":"active","ping":87},{"user_id":818,"name":"lucil3 on Bandcamp","steam_id":76561198149063013,"connected_time":3347000000000,"state":"active","ping":65},{"user_id":845,"name":"Bread","steam_id":76561198251896612,"connected_time":1365000000000,"state":"active","ping":42},{"user_id":796,"name":"DuskDragon911","steam_id":76561198996036702,"connected_time":4769000000000,"state":"active","ping":74}]},{"server_id":36,"name":"Uncletopia | Chicago | 5 | All Maps","name_short":"chi-5","host":"chi-2.us.uncletopia.com","port":27015,"enabled":true,"region":"us-central","cc":"us","latitude":41.881832,"longitude":-87.62318,"reserved":0,"last_update":"0001-01-01T00:00:00Z","name_a2s":"Uncletopia | Chicago | 5 | All Maps","protocol":17,"map":"pl_barnblitz","folder":"tf","game":"Team Fortress","app_id":440,"player_count":24,"max_players":24,"Bots":0,"server_type":"Dedicated","server_os":"Linux","password":true,"vac":true,"version":"7882260","steam_id":85568392924866362,"keywords":["nocrits","nodmgspread","payload","uncletopia"],"game_id":440,"stv_port":27016,"stv_name":"Uncletopia | Chicago | 5 | All Maps | STV","players":[{"user_id":589,"name":"c9","steam_id":76561198136642793,"connected_time":582000000000,"state":"active","ping":64},{"user_id":597,"name":"SCP-2703-1","steam_id":76561198851724742,"connected_time":365000000000,"state":"active","ping":116},{"user_id":570,"name":"J21","steam_id":76561198066590783,"connected_time":1925000000000,"state":"active","ping":62},{"user_id":561,"name":"Antifa Supersoldier","steam_id":76561198141816516,"connected_time":2821000000000,"state":"active","ping":71},{"user_id":583,"name":"jalapeno handjob","steam_id":76561198123298824,"connected_time":1369000000000,"state":"active","ping":86},{"user_id":591,"name":"Bro I'm On Your Team!","steam_id":76561198124771378,"connected_time":492000000000,"state":"active","ping":60},{"user_id":594,"name":"party rock","steam_id":76561198257019042,"connected_time":452000000000,"state":"active","ping":82},{"user_id":533,"name":"Luca!","steam_id":76561198137880777,"connected_time":5126000000000,"state":"active","ping":70},{"user_id":564,"name":"Eyesac","steam_id":76561198839757321,"connected_time":2258000000000,"state":"active","ping":114},{"user_id":555,"name":"jumbi","steam_id":76561198353456379,"connected_time":3029000000000,"state":"active","ping":67},{"user_id":537,"name":"Stick","steam_id":76561198001509374,"connected_time":4634000000000,"state":"active","ping":72},{"user_id":581,"name":"ApertureCity","steam_id":76561198004153607,"connected_time":1438000000000,"state":"active","ping":90},{"user_id":593,"name":"HiddenEgg","steam_id":76561199045105518,"connected_time":479000000000,"state":"active","ping":104},{"user_id":584,"name":"Infinite_Twelve","steam_id":76561198980401269,"connected_time":1294000000000,"state":"active","ping":117},{"user_id":608,"name":"domino","steam_id":76561198066114874,"connected_time":38000000000,"state":"active","ping":95},{"user_id":595,"name":"it's_xenos","steam_id":76561198336526266,"connected_time":429000000000,"state":"active","ping":96},{"user_id":572,"name":"Wizard Raccoon","steam_id":76561198072562591,"connected_time":1882000000000,"state":"active","ping":85},{"user_id":605,"name":"WHY U RUNNIN PAPI","steam_id":76561198144766439,"connected_time":147000000000,"state":"active","ping":45},{"user_id":607,"name":"OmniMoto","steam_id":76561198091298557,"connected_time":92000000000,"state":"active","ping":77},{"user_id":600,"name":"I love you","steam_id":76561198393099419,"connected_time":246000000000,"state":"active","ping":74},{"user_id":588,"name":"The Horselords and Animal Gods","steam_id":76561197975094050,"connected_time":1098000000000,"state":"active","ping":120},{"user_id":574,"name":"El Intruso","steam_id":76561198045873987,"connected_time":1852000000000,"state":"active","ping":106},{"user_id":606,"name":"schr√∂dinger","steam_id":76561198123475433,"connected_time":120000000000,"state":"active","ping":129},{"user_id":602,"name":"HanakoToast","steam_id":76561198045233131,"connected_time":222000000000,"state":"active","ping":126}]},{"server_id":37,"name":"Uncletopia | Chicago | 6 | All Maps","name_short":"chi-6","host":"chi-2.us.uncletopia.com","port":27025,"enabled":true,"region":"us-central","cc":"us","latitude":41.881832,"longitude":-87.62318,"reserved":0,"last_update":"0001-01-01T00:00:00Z","name_a2s":"Uncletopia | Chicago | 6 | All Maps","protocol":17,"map":"pl_pier","folder":"tf","game":"Team Fortress","app_id":440,"player_count":24,"max_players":24,"Bots":0,"server_type":"Dedicated","server_os":"Linux","password":true,"vac":true,"version":"7882260","steam_id":85568392924866363,"keywords":["nocrits","nodmgspread","payload","uncletopia"],"game_id":440,"stv_port":27026,"stv_name":"Uncletopia | Chicago | 6 | All Maps | STV","players":[{"user_id":426,"name":"Prophet","steam_id":76561198134948582,"connected_time":1332000000000,"state":"active","ping":136},{"user_id":320,"name":"BigDeac","steam_id":76561198091237274,"connected_time":8185000000000,"state":"active","ping":65},{"user_id":425,"name":"AgenT BendeR RodrigueZ","steam_id":76561197962498428,"connected_time":1407000000000,"state":"active","ping":84},{"user_id":419,"name":"Proxy-mo","steam_id":76561198221741428,"connected_time":1745000000000,"state":"active","ping":77},{"user_id":443,"name":"Gabinator32","steam_id":76561198872467183,"connected_time":164000000000,"state":"active","ping":47},{"user_id":389,"name":"atari jaguar","steam_id":76561198084849541,"connected_time":4548000000000,"state":"active","ping":62},{"user_id":420,"name":"unlucky","steam_id":76561199204822104,"connected_time":1694000000000,"state":"active","ping":132},{"user_id":432,"name":"claeb :)","steam_id":76561198028761580,"connected_time":1129000000000,"state":"active","ping":64},{"user_id":447,"name":"Person","steam_id":76561198093244204,"connected_time":54000000000,"state":"active","ping":74},{"user_id":445,"name":"Rumi_killer","steam_id":76561198077439866,"connected_time":108000000000,"state":"active","ping":88},{"user_id":436,"name":"None of that $9.99 bullshit","steam_id":76561198116169903,"connected_time":535000000000,"state":"active","ping":58},{"user_id":446,"name":"Lore","steam_id":76561198098407538,"connected_time":91000000000,"state":"active","ping":54},{"user_id":431,"name":"aphip","steam_id":76561198084621244,"connected_time":1152000000000,"state":"active","ping":102},{"user_id":397,"name":"elastigo gomez","steam_id":76561198056834532,"connected_time":3972000000000,"state":"active","ping":54},{"user_id":422,"name":"It's Over!","steam_id":76561198104086771,"connected_time":1610000000000,"state":"active","ping":100},{"user_id":429,"name":"AugustSkies","steam_id":76561198119544213,"connected_time":1220000000000,"state":"active","ping":142},{"user_id":430,"name":"Im losing the game rn","steam_id":76561198966277057,"connected_time":1197000000000,"state":"active","ping":108},{"user_id":435,"name":"SpecialForce19","steam_id":76561198120974644,"connected_time":801000000000,"state":"active","ping":75},{"user_id":437,"name":"Drapph","steam_id":76561199384213314,"connected_time":432000000000,"state":"active","ping":61},{"user_id":441,"name":"rapture","steam_id":76561199480586167,"connected_time":329000000000,"state":"active","ping":107},{"user_id":442,"name":"Atlas","steam_id":76561198127975050,"connected_time":259000000000,"state":"active","ping":70},{"user_id":423,"name":"Scorpianswag","steam_id":76561198260651036,"connected_time":1532000000000,"state":"active","ping":89},{"user_id":440,"name":"HOMESHAKE","steam_id":76561198045144546,"connected_time":339000000000,"state":"active","ping":87},{"user_id":418,"name":"Jelqing Table","steam_id":76561198051373750,"connected_time":1746000000000,"state":"active","ping":73}]},{"server_id":38,"name":"Uncletopia | Chicago | 7 | Stopwatch Beta","name_short":"chi-7","host":"chi-2.us.uncletopia.com","port":27035,"enabled":true,"region":"us-central","cc":"us","latitude":41.881832,"longitude":-87.62318,"reserved":0,"last_update":"0001-01-01T00:00:00Z","name_a2s":"Uncletopia | Chicago | 7 | Stopwatch Beta","protocol":17,"map":"pl_borneo","folder":"tf","game":"Team Fortress","app_id":440,"player_count":0,"max_players":24,"Bots":0,"server_type":"Dedicated","server_os":"Linux","password":true,"vac":true,"version":"7882260","steam_id":85568392924866364,"keywords":["nocrits","nodmgspread","payload","uncletopia"],"game_id":440,"stv_port":27036,"stv_name":"Uncletopia | Chicago | 7 | Stopwatch Beta | STV","players":null},{"server_id":39,"name":"Uncletopia | Chicago | 8 | Community","name_short":"chi-8","host":"chi-2.us.uncletopia.com","port":27045,"enabled":true,"region":"us-central","cc":"us","latitude":41.881832,"longitude":-87.62318,"reserved":0,"last_update":"0001-01-01T00:00:00Z","name_a2s":"Uncletopia | Chicago | 8 | Community","protocol":17,"map":"workshop/koth_synthetic_rc6a.ugc1549817316","folder":"tf","game":"Team Fortress","app_id":440,"player_count":0,"max_players":24,"Bots":0,"server_type":"Dedicated","server_os":"Linux","password":true,"vac":true,"version":"7882260","steam_id":85568392924866365,"keywords":["cp","nocrits","nodmgspread","uncletopia"],"game_id":440,"stv_port":27046,"stv_name":"Uncletopia | Chicago | 8 | Community | STV","players":null},{"server_id":8,"name":"Uncletopia | Dallas | 1 | All Maps","name_short":"dal-1","host":"dal-1.us.uncletopia.com","port":27015,"enabled":true,"region":"us-central","cc":"us","latitude":32.779167,"longitude":-96.80889,"reserved":0,"last_update":"0001-01-01T00:00:00Z","name_a2s":"Uncletopia | Dallas | 1 | All Maps","protocol":17,"map":"cp_mountainlab","folder":"tf","game":"Team Fortress","app_id":440,"player_count":22,"max_players":24,"Bots":0,"server_type":"Dedicated","server_os":"Linux","password":true,"vac":true,"version":"7882260","steam_id":85568392924469986,"keywords":["cp","nocrits","nodmgspread","uncletopia"],"game_id":440,"stv_port":27016,"stv_name":"Uncletopia | Dallas | 1 | All Maps | STV","players":[{"user_id":763,"name":"SPREAD SPRING GROWTH AND WARMTH","steam_id":76561198800386026,"connected_time":2269000000000,"state":"active","ping":92},{"user_id":779,"name":"AvapXia","steam_id":76561198147476096,"connected_time":1922000000000,"state":"active","ping":104},{"user_id":744,"name":"H. P. Corbcraft","steam_id":76561198119470355,"connected_time":3943000000000,"state":"active","ping":60},{"user_id":780,"name":"JAKandBEL","steam_id":76561198213060931,"connected_time":1753000000000,"state":"active","ping":81},{"user_id":803,"name":"Goatdog","steam_id":76561198857320754,"connected_time":94000000000,"state":"active","ping":126},{"user_id":786,"name":"murph","steam_id":76561197973805634,"connected_time":1339000000000,"state":"active","ping":87},{"user_id":801,"name":"Allotrope","steam_id":76561197998450103,"connected_time":166000000000,"state":"active","ping":46},{"user_id":794,"name":"trainmarine -bt","steam_id":76561198341784551,"connected_time":508000000000,"state":"active","ping":47},{"user_id":765,"name":"Pleiades, the Sorceror","steam_id":76561198079590693,"connected_time":2201000000000,"state":"active","ping":60},{"user_id":772,"name":"Galaxy","steam_id":76561197997354354,"connected_time":2115000000000,"state":"active","ping":75},{"user_id":769,"name":"MeMyBongusAndTheGreatOutdoors","steam_id":76561198097708978,"connected_time":2172000000000,"state":"active","ping":50},{"user_id":802,"name":"your little goofy homie","steam_id":76561198967158026,"connected_time":123000000000,"state":"active","ping":72},{"user_id":758,"name":"mr_dripnsplash","steam_id":76561199145352716,"connected_time":3093000000000,"state":"active","ping":44},{"user_id":795,"name":"wavlog0124","steam_id":76561199079614516,"connected_time":444000000000,"state":"active","ping":56},{"user_id":804,"name":"Luffa Rigno","steam_id":76561197998700507,"connected_time":33000000000,"state":"active","ping":118},{"user_id":805,"name":"Prince Sword","steam_id":76561198054656093,"connected_time":13000000000,"state":"active","ping":164},{"user_id":783,"name":"Klub","steam_id":76561198086374280,"connected_time":1625000000000,"state":"active","ping":75},{"user_id":767,"name":"Miss Pauling Gaming","steam_id":76561198078479083,"connected_time":2198000000000,"state":"active","ping":58},{"user_id":800,"name":"cesartele3000","steam_id":76561198142149479,"connected_time":223000000000,"state":"active","ping":267},{"user_id":770,"name":"Drozz Misses Shots","steam_id":76561198072555204,"connected_time":2164000000000,"state":"active","ping":74},{"user_id":784,"name":"Galactamarx","steam_id":76561198028065755,"connected_time":1544000000000,"state":"active","ping":69},{"user_id":775,"name":"I pocket eboys *‚ô•‚Äß‚ÇäÀö","steam_id":76561198048925904,"connected_time":2028000000000,"state":"active","ping":81}]},{"server_id":108,"name":"Uncletopia | Dallas | 2 | All Maps","name_short":"dal-2","host":"dal-1.us.uncletopia.com","port":27025,"enabled":true,"region":"us-central","cc":"us","latitude":32.779167,"longitude":-96.80889,"reserved":0,"last_update":"0001-01-01T00:00:00Z","name_a2s":"Uncletopia | Dallas | 2 | All Maps","protocol":17,"map":"koth_viaduct","folder":"tf","game":"Team Fortress","app_id":440,"player_count":0,"max_players":24,"Bots":0,"server_type":"Dedicated","server_os":"Linux","password":true,"vac":true,"version":"7882260","steam_id":85568392924469988,"keywords":["cp","nocrits","nodmgspread","uncletopia"],"game_id":440,"stv_port":27026,"stv_name":"Uncletopia | Dallas | 2 | All Maps | STV","players":null},{"server_id":5,"name":"Uncletopia | Frankfurt | 1 | All Maps","name_short":"frk-1","host":"frk-1.de.uncletopia.com","port":27015,"enabled":true,"region":"eu","cc":"de","latitude":50.110924,"longitude":8.682127,"reserved":0,"last_update":"0001-01-01T00:00:00Z","name_a2s":"Uncletopia | Frankfurt | 1 | All Maps","protocol":17,"map":"cp_process_final","folder":"tf","game":"Team Fortress","app_id":440,"player_count":0,"max_players":24,"Bots":0,"server_type":"Dedicated","server_os":"Linux","password":true,"vac":true,"version":"7882260","steam_id":85568392924469989,"keywords":["cp","nocrits","nodmgspread","uncletopia"],"game_id":440,"stv_port":27016,"stv_name":"Uncletopia | Frankfurt | 1 | All Maps | STV","players":null},{"server_id":110,"name":"Uncletopia | Frankfurt | 2 | All Maps","name_short":"frk-2","host":"frk-1.de.uncletopia.com","port":27025,"enabled":true,"region":"eu","cc":"de","latitude":50.110924,"longitude":8.682127,"reserved":0,"last_update":"0001-01-01T00:00:00Z","name_a2s":"Uncletopia | Frankfurt | 2 | All Maps","protocol":17,"map":"pl_swiftwater_final1","folder":"tf","game":"Team Fortress","app_id":440,"player_count":0,"max_players":24,"Bots":0,"server_type":"Dedicated","server_os":"Linux","password":true,"vac":true,"version":"7882260","steam_id":85568392924469990,"keywords":["nocrits","nodmgspread","payload","uncletopia"],"game_id":440,"stv_port":27026,"stv_name":"Uncletopia | Frankfurt | 2 | All Maps | STV","players":null},{"server_id":308,"name":"Uncletopia | Frankfurt | 3 | All Maps","name_short":"frk-3","host":"frk-1.de.uncletopia.com","port":27035,"enabled":true,"region":"eu","cc":"de","latitude":50.110924,"longitude":8.682127,"reserved":0,"last_update":"0001-01-01T00:00:00Z","name_a2s":"Uncletopia | Frankfurt | 3 | All Maps","protocol":17,"map":"pl_snowycoast","folder":"tf","game":"Team Fortress","app_id":440,"player_count":0,"max_players":24,"Bots":0,"server_type":"Dedicated","server_os":"Linux","password":true,"vac":true,"version":"7882260","steam_id":85568392924504274,"keywords":["nocrits","nodmgspread","payload","uncletopia"],"game_id":440,"stv_port":27036,"stv_name":"Uncletopia | Frankfurt | 3 | All Maps | STV","players":null},{"server_id":309,"name":"Uncletopia | Frankfurt | 4 | All Maps","name_short":"frk-4","host":"frk-1.de.uncletopia.com","port":27045,"enabled":true,"region":"eu","cc":"de","latitude":50.110924,"longitude":8.682127,"reserved":0,"last_update":"0001-01-01T00:00:00Z","name_a2s":"Uncletopia | Frankfurt | 4 | All Maps","protocol":17,"map":"pl_badwater","folder":"tf","game":"Team Fortress","app_id":440,"player_count":0,"max_players":24,"Bots":0,"server_type":"Dedicated","server_os":"Linux","password":true,"vac":true,"version":"7882260","steam_id":85568392924504275,"keywords":["nocrits","nodmgspread","payload","uncletopia"],"game_id":440,"stv_port":27046,"stv_name":"Uncletopia | Frankfurt | 4 | All Maps | STV","players":null},{"server_id":310,"name":"Uncletopia | Frankfurt | 5 | All Maps","name_short":"frk-5","host":"frk-1.de.uncletopia.com","port":27055,"enabled":true,"region":"eu","cc":"de","latitude":50.110924,"longitude":8.682127,"reserved":0,"last_update":"0001-01-01T00:00:00Z","name_a2s":"Uncletopia | Frankfurt | 5 | All Maps","protocol":17,"map":"cp_mountainlab","folder":"tf","game":"Team Fortress","app_id":440,"player_count":0,"max_players":24,"Bots":0,"server_type":"Dedicated","server_os":"Linux","password":true,"vac":true,"version":"7882260","steam_id":85568392924504277,"keywords":["cp","nocrits","nodmgspread","uncletopia"],"game_id":440,"stv_port":27056,"stv_name":"Uncletopia | Frankfurt | 5 | All Maps | STV","players":null},{"server_id":311,"name":"Uncletopia | Frankfurt | 6 | All Maps","name_short":"frk-6","host":"frk-1.de.uncletopia.com","port":27065,"enabled":true,"region":"eu","cc":"de","latitude":50.110924,"longitude":8.682127,"reserved":0,"last_update":"0001-01-01T00:00:00Z","name_a2s":"Uncletopia | Frankfurt | 6 | All Maps","protocol":17,"map":"pl_badwater","folder":"tf","game":"Team Fortress","app_id":440,"player_count":0,"max_players":24,"Bots":0,"server_type":"Dedicated","server_os":"Linux","password":true,"vac":true,"version":"7882260","steam_id":85568392924504278,"keywords":["nocrits","nodmgspread","payload","uncletopia"],"game_id":440,"stv_port":27066,"stv_name":"Uncletopia | Frankfurt | 6 | All Maps | STV","players":null},{"server_id":23,"name":"Uncletopia | Frankfurt | 7 | Stopwatch Beta","name_short":"frk-7","host":"frk-1.de.uncletopia.com","port":27075,"enabled":true,"region":"eu","cc":"de","latitude":50.110924,"longitude":8.682127,"reserved":0,"last_update":"0001-01-01T00:00:00Z","name_a2s":"Uncletopia | Frankfurt | 7 | Stopwatch Beta","protocol":17,"map":"cp_dustbowl","folder":"tf","game":"Team Fortress","app_id":440,"player_count":0,"max_players":24,"Bots":0,"server_type":"Dedicated","server_os":"Linux","password":true,"vac":true,"version":"7882260","steam_id":85568392924742827,"keywords":["cp","nocrits","nodmgspread","uncletopia"],"game_id":440,"stv_port":27076,"stv_name":"Uncletopia | Frankfurt | 7 | Stopwatch Beta | STV","players":null},{"server_id":24,"name":"Uncletopia | Frankfurt | 8 | Community","name_short":"frk-8","host":"frk-1.de.uncletopia.com","port":27085,"enabled":true,"region":"eu","cc":"de","latitude":50.110924,"longitude":8.682127,"reserved":0,"last_update":"0001-01-01T00:00:00Z","name_a2s":"Uncletopia | Frankfurt | 8 | Community","protocol":17,"map":"koth_cascade","folder":"tf","game":"Team Fortress","app_id":440,"player_count":0,"max_players":24,"Bots":0,"server_type":"Dedicated","server_os":"Linux","password":true,"vac":true,"version":"7882260","steam_id":85568392924742828,"keywords":["cp","nocrits","nodmgspread","uncletopia"],"game_id":440,"stv_port":27086,"stv_name":"Uncletopia | Frankfurt | 8 | Community | STV","players":null},{"server_id":202,"name":"Uncletopia | Hong Kong | 1 | All Maps","name_short":"hgk-1","host":"hgk-1.hk.uncletopia.com","port":27015,"enabled":true,"region":"asia","cc":"hk","latitude":22.302711,"longitude":114.177216,"reserved":0,"last_update":"0001-01-01T00:00:00Z","name_a2s":"Uncletopia | Hong Kong | 1 | All Maps","protocol":17,"map":"cp_sunshine","folder":"tf","game":"Team Fortress","app_id":440,"player_count":6,"max_players":24,"Bots":0,"server_type":"Dedicated","server_os":"Linux","password":true,"vac":true,"version":"7882260","steam_id":85568392924494504,"keywords":["cp","nocrits","nodmgspread","uncletopia"],"game_id":440,"stv_port":27016,"stv_name":"Uncletopia | Hong Kong | 1 | All Maps | STV","players":[{"user_id":21,"name":"MeetTeMedic99","steam_id":76561199208706868,"connected_time":1282000000000,"state":"active","ping":79},{"user_id":12,"name":"Bossrabeet (‡∂¨ arc)","steam_id":76561199203075792,"connected_time":3294000000000,"state":"active","ping":59},{"user_id":13,"name":"Piezapan","steam_id":76561198877700372,"connected_time":3225000000000,"state":"active","ping":128},{"user_id":27,"name":"TorresGeek","steam_id":76561198260166924,"connected_time":147000000000,"state":"active","ping":225},{"user_id":24,"name":"OhLookItsBenny","steam_id":76561198991898106,"connected_time":581000000000,"state":"active","ping":50},{"user_id":26,"name":"Silent Game","steam_id":76561198136685157,"connected_time":443000000000,"state":"active","ping":52}]},{"server_id":1,"name":"Uncletopia | Los Angeles | 1 | All Maps","name_short":"lax-1","host":"lax-1.us.uncletopia.com","port":27015,"enabled":true,"region":"us-west","cc":"us","latitude":33.94279,"longitude":-118.41004,"reserved":0,"last_update":"0001-01-01T00:00:00Z","name_a2s":"Uncletopia | Los Angeles | 1 | All Maps","protocol":17,"map":"pl_frontier_final","folder":"tf","game":"Team Fortress","app_id":440,"player_count":24,"max_players":24,"Bots":0,"server_type":"Dedicated","server_os":"Linux","password":true,"vac":true,"version":"7882260","steam_id":85568392924469991,"keywords":["nocrits","nodmgspread","payload","uncletopia"],"game_id":440,"stv_port":27016,"stv_name":"Uncletopia | Los Angeles | 1 | All Maps | STV","players":[{"user_id":663,"name":"dzcreeper","steam_id":76561198072250723,"connected_time":427000000000,"state":"active","ping":88},{"user_id":649,"name":"Axel Beoulve","steam_id":76561198126511231,"connected_time":3153000000000,"state":"active","ping":85},{"user_id":604,"name":"Peachy","steam_id":76561198355191810,"connected_time":6164000000000,"state":"active","ping":57},{"user_id":581,"name":"The Dinkle","steam_id":76561198098155041,"connected_time":8000000000000,"state":"active","ping":70},{"user_id":659,"name":"stiiizy pod","steam_id":76561199093733603,"connected_time":545000000000,"state":"active","ping":49},{"user_id":621,"name":"üå∏MelWormüå∏","steam_id":76561198084145814,"connected_time":5249000000000,"state":"active","ping":79},{"user_id":662,"name":"Daddy Topps","steam_id":76561198203594332,"connected_time":493000000000,"state":"active","ping":72},{"user_id":644,"name":"ena - d","steam_id":76561198072329335,"connected_time":3506000000000,"state":"active","ping":94},{"user_id":645,"name":"ReputedOcelot","steam_id":76561198233075052,"connected_time":3478000000000,"state":"active","ping":61},{"user_id":658,"name":"Igrium","steam_id":76561198119549811,"connected_time":558000000000,"state":"active","ping":66},{"user_id":636,"name":"Taco+Taco=Burrito","steam_id":76561198063128663,"connected_time":4493000000000,"state":"active","ping":33},{"user_id":654,"name":"cream team","steam_id":76561198139043953,"connected_time":2085000000000,"state":"active","ping":84},{"user_id":616,"name":"mao zedong","steam_id":76561199060687332,"connected_time":5489000000000,"state":"active","ping":55},{"user_id":642,"name":"Nemesis_421.EXE","steam_id":76561198311948563,"connected_time":3915000000000,"state":"active","ping":45},{"user_id":664,"name":"Al","steam_id":76561198044720379,"connected_time":183000000000,"state":"active","ping":60},{"user_id":615,"name":"momb","steam_id":76561198142234038,"connected_time":5722000000000,"state":"active","ping":101},{"user_id":634,"name":"Ken","steam_id":76561198190992453,"connected_time":4623000000000,"state":"active","ping":49},{"user_id":655,"name":"HeroOfTime","steam_id":76561199096218001,"connected_time":1717000000000,"state":"active","ping":55},{"user_id":646,"name":"Aridox","steam_id":76561198120758249,"connected_time":3469000000000,"state":"active","ping":60},{"user_id":648,"name":"Eggzilla","steam_id":76561199122890568,"connected_time":3373000000000,"state":"active","ping":53},{"user_id":653,"name":"KrylonHeretic","steam_id":76561198139811459,"connected_time":2201000000000,"state":"active","ping":79},{"user_id":661,"name":"Erntest","steam_id":76561198049499899,"connected_time":524000000000,"state":"active","ping":66},{"user_id":635,"name":"ELIZABETH WILL BE REAL IN 10..","steam_id":76561198093177175,"connected_time":4608000000000,"state":"active","ping":61},{"user_id":657,"name":"T _ T","steam_id":76561198041907345,"connected_time":568000000000,"state":"active","ping":53}]},{"server_id":112,"name":"Uncletopia | Los Angeles | 2 | All Maps","name_short":"lax-2","host":"lax-1.us.uncletopia.com","port":27025,"enabled":true,"region":"us-west","cc":"us","latitude":33.94279,"longitude":-118.41004,"reserved":0,"last_update":"0001-01-01T00:00:00Z","name_a2s":"Uncletopia | Los Angeles | 2 | All Maps","protocol":17,"map":"pl_frontier_final","folder":"tf","game":"Team Fortress","app_id":440,"player_count":24,"max_players":24,"Bots":0,"server_type":"Dedicated","server_os":"Linux","password":true,"vac":true,"version":"7882260","steam_id":85568392924469992,"keywords":["nocrits","nodmgspread","payload","uncletopia"],"game_id":440,"stv_port":27026,"stv_name":"Uncletopia | Los Angeles | 2 | All Maps | STV","players":[{"user_id":357,"name":"trumpydumpy45","steam_id":76561198068299933,"connected_time":818000000000,"state":"active","ping":73},{"user_id":352,"name":"BuncusBeffer","steam_id":76561198285936616,"connected_time":1350000000000,"state":"active","ping":70},{"user_id":344,"name":"An00bis","steam_id":76561198044084508,"connected_time":1759000000000,"state":"active","ping":54},{"user_id":360,"name":"ElectronX","steam_id":76561198116034988,"connected_time":553000000000,"state":"active","ping":51},{"user_id":351,"name":"‚ù§ Ashley ‚ù§","steam_id":76561198056428303,"connected_time":1367000000000,"state":"active","ping":46},{"user_id":339,"name":"DarkMewMew","steam_id":76561199471715552,"connected_time":1824000000000,"state":"active","ping":68},{"user_id":358,"name":"Mr SexPack","steam_id":76561198810926715,"connected_time":762000000000,"state":"active","ping":67},{"user_id":353,"name":"SAVECASEY","steam_id":76561198857896847,"connected_time":1303000000000,"state":"active","ping":51},{"user_id":271,"name":"Bagoool","steam_id":76561198065368286,"connected_time":7973000000000,"state":"active","ping":101},{"user_id":335,"name":"Pangolin","steam_id":76561198318126190,"connected_time":2796000000000,"state":"active","ping":143},{"user_id":348,"name":"cupnoodles","steam_id":76561198076137957,"connected_time":1503000000000,"state":"active","ping":47},{"user_id":356,"name":"KellyKapoor","steam_id":76561198040828123,"connected_time":858000000000,"state":"active","ping":69},{"user_id":284,"name":"ghostglitch","steam_id":76561197991608573,"connected_time":6309000000000,"state":"active","ping":54},{"user_id":337,"name":"Unlucky Optima","steam_id":76561198102009930,"connected_time":1835000000000,"state":"active","ping":63},{"user_id":272,"name":"lite","steam_id":76561198041535914,"connected_time":7962000000000,"state":"active","ping":107},{"user_id":349,"name":"level 7 firemancer","steam_id":76561198209571677,"connected_time":1500000000000,"state":"active","ping":100},{"user_id":343,"name":"lasagnalarry12","steam_id":76561198162688146,"connected_time":1770000000000,"state":"active","ping":53},{"user_id":359,"name":"supcupman","steam_id":76561198051513866,"connected_time":739000000000,"state":"active","ping":71},{"user_id":345,"name":"SODA!!!!!!!!","steam_id":76561198837570484,"connected_time":1756000000000,"state":"active","ping":52},{"user_id":355,"name":"Drac0c4t","steam_id":76561199073871583,"connected_time":1204000000000,"state":"active","ping":114},{"user_id":274,"name":"Hector Salamanca","steam_id":76561199103213955,"connected_time":7670000000000,"state":"active","ping":73},{"user_id":333,"name":"what da dog doin","steam_id":76561198090573639,"connected_time":2831000000000,"state":"active","ping":49},{"user_id":306,"name":"Just a Good Friend","steam_id":76561198140052403,"connected_time":4346000000000,"state":"active","ping":49},{"user_id":282,"name":"Khaast","steam_id":76561198170253694,"connected_time":6426000000000,"state":"active","ping":91}]},{"server_id":324,"name":"Uncletopia | Los Angeles | 3 | All Maps","name_short":"lax-3","host":"lax-1.us.uncletopia.com","port":27035,"enabled":true,"region":"us-west","cc":"us","latitude":33.94279,"longitude":-118.41004,"reserved":0,"last_update":"0001-01-01T00:00:00Z","name_a2s":"Uncletopia | Los Angeles | 3 | All Maps","protocol":17,"map":"pl_badwater","folder":"tf","game":"Team Fortress","app_id":440,"player_count":24,"max_players":24,"Bots":0,"server_type":"Dedicated","server_os":"Linux","password":true,"vac":true,"version":"7882260","steam_id":85568392924510198,"keywords":["nocrits","nodmgspread","payload","uncletopia"],"game_id":440,"stv_port":27036,"stv_name":"Uncletopia | Los Angeles | 3 | All Maps | STV","players":[{"user_id":261,"name":"Truffles","steam_id":76561198095868800,"connected_time":7288000000000,"state":"active","ping":92},{"user_id":312,"name":"Eugene Thaddeus Hinkle V","steam_id":76561198821535846,"connected_time":2540000000000,"state":"active","ping":116},{"user_id":309,"name":"vioxynteris","steam_id":76561198161428666,"connected_time":2840000000000,"state":"active","ping":30},{"user_id":255,"name":"carpet","steam_id":76561198207881077,"connected_time":7573000000000,"state":"active","ping":97},{"user_id":262,"name":"Grand","steam_id":76561198290143399,"connected_time":7239000000000,"state":"active","ping":77},{"user_id":310,"name":"The Goat","steam_id":76561197960432083,"connected_time":2647000000000,"state":"active","ping":74},{"user_id":320,"name":"ÓÄîKorwin","steam_id":76561198027369126,"connected_time":1645000000000,"state":"active","ping":89},{"user_id":311,"name":"MonkeyNobody","steam_id":76561199451266605,"connected_time":2612000000000,"state":"active","ping":53},{"user_id":313,"name":"basmati jarate","steam_id":76561198319442494,"connected_time":2348000000000,"state":"active","ping":68},{"user_id":321,"name":"Slim Charles","steam_id":76561197981687895,"connected_time":1403000000000,"state":"active","ping":57},{"user_id":324,"name":" Ä. ö…û.","steam_id":76561198029580420,"connected_time":597000000000,"state":"active","ping":148},{"user_id":305,"name":"Mihy","steam_id":76561199042677419,"connected_time":3179000000000,"state":"active","ping":52},{"user_id":290,"name":"I LIFT TO THE HALF LIFE OST","steam_id":76561198145669711,"connected_time":4803000000000,"state":"active","ping":41},{"user_id":238,"name":"bigman1","steam_id":76561198050225055,"connected_time":8765000000000,"state":"active","ping":44},{"user_id":317,"name":"VibinRacc","steam_id":76561198830728559,"connected_time":2103000000000,"state":"active","ping":103},{"user_id":322,"name":"Bonus Oceans","steam_id":76561198066820572,"connected_time":906000000000,"state":"active","ping":50},{"user_id":230,"name":"lol","steam_id":76561198026491738,"connected_time":9303000000000,"state":"active","ping":57},{"user_id":225,"name":"Dragoninventor (He/Him)","steam_id":76561198956224948,"connected_time":9322000000000,"state":"active","ping":75},{"user_id":315,"name":"LatinRhythms -2 ref","steam_id":76561198025110751,"connected_time":2130000000000,"state":"active","ping":107},{"user_id":266,"name":"ArumiKaze","steam_id":76561198026814729,"connected_time":6685000000000,"state":"active","ping":59},{"user_id":296,"name":"Ecksbox","steam_id":76561198352502577,"connected_time":4595000000000,"state":"active","ping":59},{"user_id":319,"name":"soupy","steam_id":76561197974283797,"connected_time":2026000000000,"state":"active","ping":91},{"user_id":325,"name":"Jomdac","steam_id":76561198150447896,"connected_time":405000000000,"state":"active","ping":46},{"user_id":300,"name":"cringy","steam_id":76561198323000455,"connected_time":3684000000000,"state":"active","ping":59}]},{"server_id":25,"name":"Uncletopia | Los Angeles | 4 | Stopwatch Beta","name_short":"lax-4","host":"lax-1.us.uncletopia.com","port":27045,"enabled":true,"region":"us-west","cc":"us","latitude":33.94279,"longitude":-118.41004,"reserved":0,"last_update":"0001-01-01T00:00:00Z","name_a2s":"Uncletopia | Los Angeles | 4 | Stopwatch Beta","protocol":17,"map":"koth_lakeside_final","folder":"tf","game":"Team Fortress","app_id":440,"player_count":22,"max_players":24,"Bots":0,"server_type":"Dedicated","server_os":"Linux","password":true,"vac":true,"version":"7882260","steam_id":85568392924510199,"keywords":["cp","nocrits","nodmgspread","uncletopia"],"game_id":440,"stv_port":27046,"stv_name":"Uncletopia | Los Angeles | 4 | Stopwatch Beta | STV","players":[{"user_id":219,"name":"Giselle","steam_id":76561198162593640,"connected_time":7460000000000,"state":"active","ping":106},{"user_id":294,"name":"Zizen","steam_id":76561199011832069,"connected_time":2614000000000,"state":"active","ping":62},{"user_id":321,"name":"Beebo","steam_id":76561198042271448,"connected_time":882000000000,"state":"active","ping":105},{"user_id":317,"name":"PillCosby","steam_id":76561199396184696,"connected_time":1021000000000,"state":"active","ping":77},{"user_id":318,"name":"Fuulip","steam_id":76561199109275013,"connected_time":1013000000000,"state":"active","ping":46},{"user_id":319,"name":"Seriously Bruh","steam_id":76561198070408485,"connected_time":994000000000,"state":"active","ping":73},{"user_id":324,"name":"Peter, what are you doing?","steam_id":76561198066452726,"connected_time":469000000000,"state":"active","ping":49},{"user_id":320,"name":"SmallErection","steam_id":76561198071770147,"connected_time":958000000000,"state":"active","ping":81},{"user_id":331,"name":"Keyboardbreaker","steam_id":76561198372836132,"connected_time":70000000000,"state":"active","ping":61},{"user_id":325,"name":"kommando1911","steam_id":76561198121455141,"connected_time":418000000000,"state":"active","ping":55},{"user_id":326,"name":"Killer Fish From San Diego","steam_id":76561199037594575,"connected_time":344000000000,"state":"active","ping":86},{"user_id":328,"name":"Maid 'n' China","steam_id":76561198423392976,"connected_time":193000000000,"state":"active","ping":63},{"user_id":311,"name":"dudescore","steam_id":76561199091453555,"connected_time":1418000000000,"state":"active","ping":66},{"user_id":315,"name":"yateyay","steam_id":76561198311004039,"connected_time":1229000000000,"state":"active","ping":109},{"user_id":297,"name":"Abed","steam_id":76561198120360801,"connected_time":2369000000000,"state":"active","ping":59},{"user_id":298,"name":"fallen gooble","steam_id":76561198014920568,"connected_time":2365000000000,"state":"active","ping":100},{"user_id":312,"name":"‚Ä∫‚Ä∫ 1dayumay","steam_id":76561198218719943,"connected_time":1309000000000,"state":"active","ping":45},{"user_id":313,"name":"MAN I CAN'T COMPLAIN","steam_id":76561198111925708,"connected_time":1252000000000,"state":"active","ping":86},{"user_id":329,"name":"Pretzel","steam_id":76561198092856398,"connected_time":175000000000,"state":"active","ping":81},{"user_id":330,"name":"HOG RIDER","steam_id":76561198298589502,"connected_time":97000000000,"state":"active","ping":46},{"user_id":332,"name":"Sad Sapling","steam_id":76561198075612150,"connected_time":54000000000,"state":"active","ping":50},{"user_id":333,"name":"Ayayayayayahuasca","steam_id":76561199002906056,"connected_time":53000000000,"state":"active","ping":70}]},{"server_id":11,"name":"Uncletopia | London | 1 | All Maps","name_short":"lon-1","host":"lon-1.uk.uncletopia.com","port":27015,"enabled":true,"region":"eu","cc":"gb","latitude":51.509865,"longitude":-0.118092,"reserved":0,"last_update":"0001-01-01T00:00:00Z","name_a2s":"Uncletopia | London | 1 | All Maps","protocol":17,"map":"cp_process_final","folder":"tf","game":"Team Fortress","app_id":440,"player_count":0,"max_players":24,"Bots":0,"server_type":"Dedicated","server_os":"Linux","password":true,"vac":true,"version":"7882260","steam_id":85568392924367362,"keywords":["cp","nocrits","nodmgspread","uncletopia"],"game_id":440,"stv_port":27016,"stv_name":"Uncletopia | London | 1 | All Maps | STV","players":null},{"server_id":114,"name":"Uncletopia | London | 2 | All Maps","name_short":"lon-2","host":"lon-1.uk.uncletopia.com","port":27025,"enabled":true,"region":"eu","cc":"gb","latitude":51.509865,"longitude":-0.118092,"reserved":0,"last_update":"0001-01-01T00:00:00Z","name_a2s":"Uncletopia | London | 2 | All Maps","protocol":17,"map":"pl_swiftwater_final1","folder":"tf","game":"Team Fortress","app_id":440,"player_count":0,"max_players":24,"Bots":0,"server_type":"Dedicated","server_os":"Linux","password":true,"vac":true,"version":"7882260","steam_id":85568392924470941,"keywords":["nocrits","nodmgspread","payload","uncletopia"],"game_id":440,"stv_port":27026,"stv_name":"Uncletopia | London | 2 | All Maps | STV","players":null},{"server_id":320,"name":"Uncletopia | London | 3 | All Maps","name_short":"lon-3","host":"lon-1.uk.uncletopia.com","port":27035,"enabled":true,"region":"eu","cc":"gb","latitude":51.509865,"longitude":-0.118092,"reserved":0,"last_update":"0001-01-01T00:00:00Z","name_a2s":"Uncletopia | London | 3 | All Maps","protocol":17,"map":"koth_highpass","folder":"tf","game":"Team Fortress","app_id":440,"player_count":0,"max_players":24,"Bots":0,"server_type":"Dedicated","server_os":"Linux","password":true,"vac":true,"version":"7882260","steam_id":85568392924510192,"keywords":["cp","nocrits","nodmgspread","uncletopia"],"game_id":440,"stv_port":27036,"stv_name":"Uncletopia | London | 3 | All Maps | STV","players":null},{"server_id":321,"name":"Uncletopia | London | 4 | All Maps","name_short":"lon-4","host":"lon-1.uk.uncletopia.com","port":27045,"enabled":true,"region":"eu","cc":"gb","latitude":51.509865,"longitude":-0.118092,"reserved":0,"last_update":"0001-01-01T00:00:00Z","name_a2s":"Uncletopia | London | 4 | All Maps","protocol":17,"map":"pl_upward","folder":"tf","game":"Team Fortress","app_id":440,"player_count":16,"max_players":24,"Bots":0,"server_type":"Dedicated","server_os":"Linux","password":true,"vac":true,"version":"7882260","steam_id":85568392924510193,"keywords":["nocrits","nodmgspread","payload","uncletopia"],"game_id":440,"stv_port":27046,"stv_name":"Uncletopia | London | 4 | All Maps | STV","players":[{"user_id":3,"name":"dorak","steam_id":76561198818037965,"connected_time":1097000000000,"state":"active","ping":105},{"user_id":5,"name":"Lewylow","steam_id":76561198005425686,"connected_time":1092000000000,"state":"active","ping":56},{"user_id":6,"name":"Perpetual Pub Push","steam_id":76561198256714846,"connected_time":1091000000000,"state":"active","ping":33},{"user_id":18,"name":"–ê–Ω–¥—Ä–µ–π","steam_id":76561199004027817,"connected_time":728000000000,"state":"active","ping":112},{"user_id":17,"name":"1Jofi1","steam_id":76561198965857439,"connected_time":754000000000,"state":"active","ping":127},{"user_id":9,"name":"thanus","steam_id":76561199091889576,"connected_time":1081000000000,"state":"active","ping":45},{"user_id":24,"name":"shsh","steam_id":76561198963841479,"connected_time":558000000000,"state":"active","ping":90},{"user_id":11,"name":"zoinks!","steam_id":76561198068645362,"connected_time":1080000000000,"state":"active","ping":40},{"user_id":12,"name":"spxcy","steam_id":76561198080296853,"connected_time":1078000000000,"state":"active","ping":98},{"user_id":13,"name":"wide appreciator","steam_id":76561198083286511,"connected_time":1064000000000,"state":"active","ping":32},{"user_id":19,"name":"‚úß Ghosty ‚úß","steam_id":76561198312022168,"connected_time":693000000000,"state":"active","ping":49},{"user_id":22,"name":"Random Class Gaming","steam_id":76561198362116755,"connected_time":576000000000,"state":"active","ping":176},{"user_id":25,"name":"Sugercrash","steam_id":76561199187685119,"connected_time":531000000000,"state":"active","ping":171},{"user_id":26,"name":"tori_spring","steam_id":76561199375975842,"connected_time":437000000000,"state":"active","ping":52},{"user_id":27,"name":"Marcus","steam_id":76561198205027963,"connected_time":274000000000,"state":"active","ping":60},{"user_id":29,"name":"Demonica","steam_id":76561198841858340,"connected_time":108000000000,"state":"active","ping":164}]},{"server_id":21,"name":"Uncletopia | London | 5 | All Maps","name_short":"lon-5","host":"lon-1.uk.uncletopia.com","port":27055,"enabled":true,"region":"eu","cc":"gb","latitude":51.509865,"longitude":-0.118092,"reserved":0,"last_update":"0001-01-01T00:00:00Z","name_a2s":"Uncletopia | London | 5 | All Maps","protocol":17,"map":"pl_frontier_final","folder":"tf","game":"Team Fortress","app_id":440,"player_count":0,"max_players":24,"Bots":0,"server_type":"Dedicated","server_os":"Linux","password":true,"vac":true,"version":"7882260","steam_id":85568392924742829,"keywords":["nocrits","nodmgspread","payload","uncletopia"],"game_id":440,"stv_port":27056,"stv_name":"Uncletopia | London | 5 | All Maps | STV","players":null},{"server_id":22,"name":"Uncletopia | London | 6 | All Maps","name_short":"lon-6","host":"lon-1.uk.uncletopia.com","port":27065,"enabled":true,"region":"eu","cc":"gb","latitude":51.509865,"longitude":-0.118092,"reserved":0,"last_update":"0001-01-01T00:00:00Z","name_a2s":"Uncletopia | London | 6 | All Maps","protocol":17,"map":"cp_altitude","folder":"tf","game":"Team Fortress","app_id":440,"player_count":0,"max_players":24,"Bots":0,"server_type":"Dedicated","server_os":"Linux","password":true,"vac":true,"version":"7882260","steam_id":85568392924742830,"keywords":["cp","nocrits","nodmgspread","uncletopia"],"game_id":440,"stv_port":27066,"stv_name":"Uncletopia | London | 6 | All Maps | STV","players":null},{"server_id":40,"name":"Uncletopia | London | 7 | No Payload","name_short":"lon-7","host":"lon-1.uk.uncletopia.com","port":27075,"enabled":true,"region":"eu","cc":"gb","latitude":51.509865,"longitude":-0.118092,"reserved":0,"last_update":"0001-01-01T00:00:00Z","name_a2s":"Uncletopia | London | 7 | No Payload","protocol":17,"map":"pl_pier","folder":"tf","game":"Team Fortress","app_id":440,"player_count":0,"max_players":24,"Bots":0,"server_type":"Dedicated","server_os":"Linux","password":true,"vac":true,"version":"7882260","steam_id":85568392924964314,"keywords":["nocrits","nodmgspread","payload","uncletopia"],"game_id":440,"stv_port":27076,"stv_name":"Uncletopia | London | 7 | No Payload | STV","players":null},{"server_id":41,"name":"Uncletopia | London | 8 | Community","name_short":"lon-8","host":"lon-1.uk.uncletopia.com","port":27085,"enabled":true,"region":"eu","cc":"gb","latitude":51.509865,"longitude":-0.118092,"reserved":0,"last_update":"0001-01-01T00:00:00Z","name_a2s":"Uncletopia | London | 8 | Community","protocol":17,"map":"pl_swiftwater_final1","folder":"tf","game":"Team Fortress","app_id":440,"player_count":0,"max_players":24,"Bots":0,"server_type":"Dedicated","server_os":"Linux","password":true,"vac":true,"version":"7882260","steam_id":85568392924964315,"keywords":["nocrits","nodmgspread","payload","uncletopia"],"game_id":440,"stv_port":27086,"stv_name":"Uncletopia | London | 8 | Community | STV","players":null},{"server_id":300,"name":"Uncletopia | Montr√©al | 1 | All Maps","name_short":"mtl-1","host":"mtl-1.ca.uncletopia.com","port":27015,"enabled":true,"region":"us-east","cc":"ca","latitude":45.50889,"longitude":-73.56167,"reserved":0,"last_update":"0001-01-01T00:00:00Z","name_a2s":"Uncletopia | Montr√©al | 1 | All Maps","protocol":17,"map":"cp_snakewater_final1","folder":"tf","game":"Team Fortress","app_id":440,"player_count":0,"max_players":24,"Bots":0,"server_type":"Dedicated","server_os":"Linux","password":true,"vac":true,"version":"7882260","steam_id":85568392924500087,"keywords":["cp","nocrits","nodmgspread","uncletopia"],"game_id":440,"stv_port":27016,"stv_name":"Uncletopia | Montr√©al | 1 | All Maps | STV","players":null},{"server_id":301,"name":"Uncletopia | Montr√©al | 2 | All Maps","name_short":"mtl-2","host":"mtl-1.ca.uncletopia.com","port":27025,"enabled":true,"region":"us-east","cc":"ca","latitude":45.50889,"longitude":-73.56167,"reserved":0,"last_update":"0001-01-01T00:00:00Z","name_a2s":"Uncletopia | Montr√©al | 2 | All Maps","protocol":17,"map":"koth_suijin","folder":"tf","game":"Team Fortress","app_id":440,"player_count":0,"max_players":24,"Bots":0,"server_type":"Dedicated","server_os":"Linux","password":true,"vac":true,"version":"7882260","steam_id":85568392924500088,"keywords":["cp","nocrits","nodmgspread","uncletopia"],"game_id":440,"stv_port":27026,"stv_name":"Uncletopia | Montr√©al | 2 | All Maps | STV","players":null},{"server_id":302,"name":"Uncletopia | Montr√©al | 3 | All Maps","name_short":"mtl-3","host":"mtl-1.ca.uncletopia.com","port":27035,"enabled":true,"region":"us-east","cc":"ca","latitude":45.50889,"longitude":-73.56167,"reserved":0,"last_update":"0001-01-01T00:00:00Z","name_a2s":"Uncletopia | Montr√©al | 3 | All Maps","protocol":17,"map":"pl_frontier_final","folder":"tf","game":"Team Fortress","app_id":440,"player_count":0,"max_players":24,"Bots":0,"server_type":"Dedicated","server_os":"Linux","password":true,"vac":true,"version":"7882260","steam_id":85568392924500089,"keywords":["nocrits","nodmgspread","payload","uncletopia"],"game_id":440,"stv_port":27036,"stv_name":"Uncletopia | Montr√©al | 3 | All Maps | STV","players":null},{"server_id":303,"name":"Uncletopia | Montr√©al | 4 | No Payload","name_short":"mtl-4","host":"mtl-1.ca.uncletopia.com","port":27045,"enabled":true,"region":"us-east","cc":"ca","latitude":45.50889,"longitude":-73.56167,"reserved":0,"last_update":"0001-01-01T00:00:00Z","name_a2s":"Uncletopia | Montr√©al | 4 | No Payload","protocol":17,"map":"cp_altitude","folder":"tf","game":"Team Fortress","app_id":440,"player_count":0,"max_players":24,"Bots":0,"server_type":"Dedicated","server_os":"Linux","password":true,"vac":true,"version":"7882260","steam_id":85568392924500090,"keywords":["cp","nocrits","nodmgspread","uncletopia"],"game_id":440,"stv_port":27046,"stv_name":"Uncletopia | Montr√©al | 4 | No Payload | STV","players":null},{"server_id":13,"name":"Uncletopia | New York City | 1 | All Maps","name_short":"nyc-1","host":"nyc-1.us.uncletopia.com","port":27015,"enabled":true,"region":"us-east","cc":"us","latitude":40.73061,"longitude":-73.93524,"reserved":0,"last_update":"0001-01-01T00:00:00Z","name_a2s":"Uncletopia | New York City | 1 | All Maps","protocol":17,"map":"pl_barnblitz","folder":"tf","game":"Team Fortress","app_id":440,"player_count":18,"max_players":24,"Bots":0,"server_type":"Dedicated","server_os":"Linux","password":true,"vac":true,"version":"7882260","steam_id":85568392924469993,"keywords":["nocrits","nodmgspread","payload","uncletopia"],"game_id":440,"stv_port":27016,"stv_name":"Uncletopia | New York City | 1 | All Maps | STV","players":[{"user_id":446,"name":"Super D Duper","steam_id":76561198078203677,"connected_time":2598000000000,"state":"active","ping":53},{"user_id":478,"name":"St. Michael","steam_id":76561198037611052,"connected_time":42000000000,"state":"active","ping":74},{"user_id":443,"name":"Logic is a Good Rapper","steam_id":76561198976821898,"connected_time":2875000000000,"state":"active","ping":118},{"user_id":459,"name":"bepo","steam_id":76561199029030831,"connected_time":1443000000000,"state":"active","ping":74},{"user_id":308,"name":"Wique","steam_id":76561198071217597,"connected_time":14980000000000,"state":"active","ping":71},{"user_id":454,"name":"ballsackfondler9000","steam_id":76561198332667074,"connected_time":1687000000000,"state":"active","ping":63},{"user_id":421,"name":"healthy boundaries","steam_id":76561198025760608,"connected_time":5677000000000,"state":"active","ping":46},{"user_id":476,"name":"Maxxycat","steam_id":76561198194062681,"connected_time":132000000000,"state":"active","ping":62},{"user_id":477,"name":"Navis","steam_id":76561198996230924,"connected_time":72000000000,"state":"active","ping":61},{"user_id":451,"name":"Sam","steam_id":76561198043918040,"connected_time":2161000000000,"state":"active","ping":85},{"user_id":453,"name":"scarecrow (evil)","steam_id":76561198082979347,"connected_time":1923000000000,"state":"active","ping":60},{"user_id":364,"name":"Battery Acid Slurper","steam_id":76561198439793697,"connected_time":11135000000000,"state":"active","ping":83},{"user_id":450,"name":"Drew","steam_id":76561198042864345,"connected_time":2314000000000,"state":"active","ping":84},{"user_id":467,"name":"Miner2495","steam_id":76561198445904523,"connected_time":1024000000000,"state":"active","ping":64},{"user_id":472,"name":"Vex","steam_id":76561198182477649,"connected_time":467000000000,"state":"active","ping":128},{"user_id":449,"name":"Cluwn","steam_id":76561198001336085,"connected_time":2402000000000,"state":"active","ping":96},{"user_id":447,"name":"WibbyOne","steam_id":76561198052843846,"connected_time":2525000000000,"state":"active","ping":42},{"user_id":470,"name":"mel0n","steam_id":76561198034817244,"connected_time":928000000000,"state":"active","ping":44}]},{"server_id":14,"name":"Uncletopia | New York City | 2 | All Maps","name_short":"nyc-2","host":"nyc-1.us.uncletopia.com","port":27025,"enabled":true,"region":"us-east","cc":"us","latitude":40.73061,"longitude":-73.93524,"reserved":0,"last_update":"0001-01-01T00:00:00Z","name_a2s":"Uncletopia | New York City | 2 | All Maps","protocol":17,"map":"ctf_2fort","folder":"tf","game":"Team Fortress","app_id":440,"player_count":15,"max_players":24,"Bots":0,"server_type":"Dedicated","server_os":"Linux","password":true,"vac":true,"version":"7882260","steam_id":85568392924469994,"keywords":["ctf","nocrits","nodmgspread","uncletopia"],"game_id":440,"stv_port":27026,"stv_name":"Uncletopia | New York City | 2 | All Maps | STV","players":[{"user_id":370,"name":"Serene Salamander","steam_id":76561198001094770,"connected_time":302000000000,"state":"active","ping":129},{"user_id":324,"name":"dig","steam_id":76561198050061475,"connected_time":3543000000000,"state":"active","ping":62},{"user_id":371,"name":"Eggregis-Thumbs","steam_id":76561198310566277,"connected_time":232000000000,"state":"active","ping":73},{"user_id":372,"name":"intooblivion","steam_id":76561197964080250,"connected_time":4000000000,"state":"spawning","ping":99},{"user_id":363,"name":"Pee Pee Magee","steam_id":76561198025653742,"connected_time":769000000000,"state":"active","ping":52},{"user_id":364,"name":"kiwi","steam_id":76561198089394626,"connected_time":730000000000,"state":"active","ping":86},{"user_id":365,"name":"fatpapi","steam_id":76561198080471834,"connected_time":708000000000,"state":"active","ping":60},{"user_id":292,"name":"Periculosum PhD in Funny","steam_id":76561198123370914,"connected_time":6587000000000,"state":"active","ping":86},{"user_id":366,"name":"SDannniel2552","steam_id":76561198064899849,"connected_time":685000000000,"state":"active","ping":56},{"user_id":368,"name":"mizu919","steam_id":76561198267244027,"connected_time":595000000000,"state":"active","ping":84},{"user_id":325,"name":"what game","steam_id":76561198066812433,"connected_time":3503000000000,"state":"active","ping":52},{"user_id":344,"name":"gnomer","steam_id":76561198046926728,"connected_time":2250000000000,"state":"active","ping":106},{"user_id":369,"name":"mika kagehira","steam_id":76561198799326339,"connected_time":589000000000,"state":"active","ping":32},{"user_id":340,"name":"stella","steam_id":76561197993839636,"connected_time":2497000000000,"state":"active","ping":45},{"user_id":273,"name":"BakerTheDavid","steam_id":76561198801177078,"connected_time":7791000000000,"state":"active","ping":98}]},{"server_id":15,"name":"Uncletopia | New York City | 3 | Stopwatch Beta","name_short":"nyc-3","host":"nyc-1.us.uncletopia.com","port":27035,"enabled":true,"region":"us-east","cc":"us","latitude":40.73061,"longitude":-73.93524,"reserved":0,"last_update":"0001-01-01T00:00:00Z","name_a2s":"Uncletopia | New York City | 3 | Stopwatch Beta","protocol":17,"map":"pl_borneo","folder":"tf","game":"Team Fortress","app_id":440,"player_count":0,"max_players":24,"Bots":0,"server_type":"Dedicated","server_os":"Linux","password":true,"vac":true,"version":"7882260","steam_id":85568392924742820,"keywords":["nocrits","nodmgspread","payload","uncletopia"],"game_id":440,"stv_port":27036,"stv_name":"Uncletopia | New York City | 3 | Stopwatch Beta | STV","players":null},{"server_id":16,"name":"Uncletopia | New York City | 4 | Community","name_short":"nyc-4","host":"nyc-1.us.uncletopia.com","port":27045,"enabled":true,"region":"us-east","cc":"us","latitude":40.73061,"longitude":-73.93524,"reserved":0,"last_update":"0001-01-01T00:00:00Z","name_a2s":"Uncletopia | New York City | 4 | Community","protocol":17,"map":"workshop/koth_slaughter_rc1.ugc1712845210","folder":"tf","game":"Team Fortress","app_id":440,"player_count":0,"max_players":24,"Bots":0,"server_type":"Dedicated","server_os":"Linux","password":true,"vac":true,"version":"7882260","steam_id":85568392924742821,"keywords":["cp","nocrits","nodmgspread","uncletopia"],"game_id":440,"stv_port":27046,"stv_name":"Uncletopia | New York City | 4 | Community | STV","players":null},{"server_id":142,"name":"Uncletopia | S√£o Paulo | 1 | All Maps","name_short":"sao-1","host":"sao-1.br.uncletopia.com","port":27015,"enabled":true,"region":"sa","cc":"br","latitude":-23.533773,"longitude":-46.62529,"reserved":0,"last_update":"0001-01-01T00:00:00Z","name_a2s":"Uncletopia | S√£o Paulo | 1 | All Maps","protocol":17,"map":"koth_viaduct","folder":"tf","game":"Team Fortress","app_id":440,"player_count":0,"max_players":24,"Bots":0,"server_type":"Dedicated","server_os":"Linux","password":true,"vac":true,"version":"7882260","steam_id":85568392924469996,"keywords":["cp","nocrits","nodmgspread","uncletopia"],"game_id":440,"stv_port":27016,"stv_name":"Uncletopia | S√£o Paulo | 1 | All Maps | STV","players":null},{"server_id":143,"name":"Uncletopia | S√£o Paulo | 2 | All Maps","name_short":"sao-2","host":"sao-2.br.uncletopia.com","port":27015,"enabled":true,"region":"sa","cc":"br","latitude":-23.533773,"longitude":-46.62529,"reserved":0,"last_update":"0001-01-01T00:00:00Z","name_a2s":"Uncletopia | S√£o Paulo | 2 | All Maps","protocol":17,"map":"koth_highpass","folder":"tf","game":"Team Fortress","app_id":440,"player_count":0,"max_players":24,"Bots":0,"server_type":"Dedicated","server_os":"Linux","password":true,"vac":true,"version":"7882260","steam_id":85568392924485349,"keywords":["cp","nocrits","nodmgspread","uncletopia"],"game_id":440,"stv_port":27016,"stv_name":"Uncletopia | S√£o Paulo | 2 | All Maps | STV","players":null},{"server_id":7,"name":"Uncletopia | Seattle | 1 | All Maps","name_short":"sea-1","host":"sea-1.us.uncletopia.com","port":27015,"enabled":true,"region":"us-west","cc":"us","latitude":47.608013,"longitude":-122.33517,"reserved":0,"last_update":"0001-01-01T00:00:00Z","name_a2s":"Uncletopia | Seattle | 1 | All Maps","protocol":17,"map":"pl_pier","folder":"tf","game":"Team Fortress","app_id":440,"player_count":24,"max_players":24,"Bots":0,"server_type":"Dedicated","server_os":"Linux","password":true,"vac":true,"version":"7882260","steam_id":85568392924469997,"keywords":["nocrits","nodmgspread","payload","uncletopia"],"game_id":440,"stv_port":27016,"stv_name":"Uncletopia | Seattle | 1 | All Maps | STV","players":[{"user_id":587,"name":"SvicidalBug","steam_id":76561198221390504,"connected_time":8159000000000,"state":"active","ping":67},{"user_id":662,"name":"WaffleWithNoToppings","steam_id":76561199088280111,"connected_time":3511000000000,"state":"active","ping":45},{"user_id":678,"name":"Scrumpy Main","steam_id":76561198146302597,"connected_time":1723000000000,"state":"active","ping":108},{"user_id":686,"name":"„Åµ„Çè„Åµ„ÇèÊØõÂ∏É","steam_id":76561198088403016,"connected_time":1251000000000,"state":"active","ping":191},{"user_id":638,"name":"Chocc","steam_id":76561198068070211,"connected_time":4661000000000,"state":"active","ping":82},{"user_id":685,"name":"Little shit","steam_id":76561199076902831,"connected_time":1379000000000,"state":"active","ping":84},{"user_id":688,"name":"loyaldandan0764","steam_id":76561199231020424,"connected_time":850000000000,"state":"active","ping":66},{"user_id":578,"name":"tweakseason","steam_id":76561198169755734,"connected_time":8763000000000,"state":"active","ping":63},{"user_id":665,"name":"resh","steam_id":76561198239598834,"connected_time":2844000000000,"state":"active","ping":132},{"user_id":697,"name":"toilet thief","steam_id":76561198057486874,"connected_time":193000000000,"state":"active","ping":76},{"user_id":689,"name":"HeavenHearst","steam_id":76561198066083947,"connected_time":826000000000,"state":"active","ping":123},{"user_id":699,"name":"Infuzion4","steam_id":76561198119664203,"connected_time":166000000000,"state":"active","ping":99},{"user_id":652,"name":"roryisonamobilehotspot","steam_id":76561198065825165,"connected_time":4173000000000,"state":"active","ping":112},{"user_id":691,"name":"i love u","steam_id":76561198062768872,"connected_time":804000000000,"state":"active","ping":45},{"user_id":694,"name":"mega","steam_id":76561198089520959,"connected_time":622000000000,"state":"active","ping":98},{"user_id":692,"name":"worker","steam_id":76561198039608940,"connected_time":798000000000,"state":"active","ping":63},{"user_id":667,"name":"pyrotechnic","steam_id":76561198043558709,"connected_time":2601000000000,"state":"active","ping":46},{"user_id":672,"name":"soltuno","steam_id":76561198074430565,"connected_time":2150000000000,"state":"active","ping":98},{"user_id":682,"name":"DoxPlaysGames","steam_id":76561198240339332,"connected_time":1635000000000,"state":"active","ping":112},{"user_id":646,"name":"penis scout tf2","steam_id":76561198408792773,"connected_time":4450000000000,"state":"active","ping":55},{"user_id":695,"name":"cerious","steam_id":76561197994365894,"connected_time":586000000000,"state":"active","ping":40},{"user_id":673,"name":"oil","steam_id":76561198099980149,"connected_time":2078000000000,"state":"active","ping":83},{"user_id":700,"name":"cracky","steam_id":76561197971365444,"connected_time":166000000000,"state":"active","ping":51},{"user_id":696,"name":"high birthday jorts","steam_id":76561199041179985,"connected_time":431000000000,"state":"active","ping":57}]},{"server_id":119,"name":"Uncletopia | Seattle | 2 | All Maps","name_short":"sea-2","host":"sea-1.us.uncletopia.com","port":27025,"enabled":true,"region":"us-west","cc":"us","latitude":47.608013,"longitude":-122.33517,"reserved":0,"last_update":"0001-01-01T00:00:00Z","name_a2s":"Uncletopia | Seattle | 2 | All Maps","protocol":17,"map":"pl_borneo","folder":"tf","game":"Team Fortress","app_id":440,"player_count":24,"max_players":24,"Bots":0,"server_type":"Dedicated","server_os":"Linux","password":true,"vac":true,"version":"7882260","steam_id":85568392924469998,"keywords":["nocrits","nodmgspread","payload","uncletopia"],"game_id":440,"stv_port":27026,"stv_name":"Uncletopia | Seattle | 2 | All Maps | STV","players":[{"user_id":643,"name":"Dominos Pizza Guy","steam_id":76561199247095754,"connected_time":1047000000000,"state":"active","ping":68},{"user_id":655,"name":"Ad3ptus","steam_id":76561198272045750,"connected_time":375000000000,"state":"active","ping":37},{"user_id":632,"name":"bubbles","steam_id":76561198040940902,"connected_time":1890000000000,"state":"active","ping":59},{"user_id":644,"name":"Algibruh","steam_id":76561199221599415,"connected_time":1039000000000,"state":"active","ping":47},{"user_id":658,"name":"Skabbety","steam_id":76561198168044257,"connected_time":74000000000,"state":"active","ping":44},{"user_id":498,"name":"Jacobzeba01","steam_id":76561198131808718,"connected_time":10329000000000,"state":"active","ping":63},{"user_id":639,"name":"Pie","steam_id":76561198996610188,"connected_time":1341000000000,"state":"active","ping":121},{"user_id":657,"name":"Stev the Prurient Oxymoron","steam_id":76561197999442625,"connected_time":90000000000,"state":"active","ping":61},{"user_id":606,"name":"Overvote","steam_id":76561198067641129,"connected_time":3174000000000,"state":"active","ping":54},{"user_id":619,"name":"MyMonkeyBaby","steam_id":76561198046896670,"connected_time":2725000000000,"state":"active","ping":64},{"user_id":607,"name":"EleventhGoose","steam_id":76561198912390211,"connected_time":3162000000000,"state":"active","ping":85},{"user_id":565,"name":"The King of Piss World","steam_id":76561198082806956,"connected_time":5950000000000,"state":"active","ping":112},{"user_id":620,"name":"Duckyispoggers","steam_id":76561198357205322,"connected_time":2692000000000,"state":"active","ping":53},{"user_id":649,"name":"KitKats","steam_id":76561198201069328,"connected_time":830000000000,"state":"active","ping":52},{"user_id":617,"name":"Mr. Ravioli","steam_id":76561197996625649,"connected_time":2817000000000,"state":"active","ping":60},{"user_id":582,"name":"makeshift_burrito","steam_id":76561198042510825,"connected_time":5364000000000,"state":"active","ping":70},{"user_id":654,"name":"CranAppleGaming","steam_id":76561198398206209,"connected_time":416000000000,"state":"active","ping":94},{"user_id":656,"name":"FlamingManiac","steam_id":76561198361996837,"connected_time":106000000000,"state":"active","ping":117},{"user_id":650,"name":"invb","steam_id":76561197998263914,"connected_time":733000000000,"state":"active","ping":109},{"user_id":628,"name":"Thazdrin","steam_id":76561197968326212,"connected_time":2341000000000,"state":"active","ping":64},{"user_id":634,"name":"John Wick's puppy","steam_id":76561198064662875,"connected_time":1802000000000,"state":"active","ping":63},{"user_id":648,"name":"Octo","steam_id":76561198024056355,"connected_time":956000000000,"state":"active","ping":76},{"user_id":613,"name":"Wingman","steam_id":76561198066270405,"connected_time":3094000000000,"state":"active","ping":64},{"user_id":652,"name":"Feasent","steam_id":76561198987316504,"connected_time":655000000000,"state":"active","ping":63}]},{"server_id":406,"name":"Uncletopia | Seattle | 3 | Stopwatch Beta","name_short":"sea-3","host":"sea-1.us.uncletopia.com","port":27035,"enabled":true,"region":"us-west","cc":"us","latitude":47.608013,"longitude":-122.33517,"reserved":0,"last_update":"0001-01-01T00:00:00Z","name_a2s":"Uncletopia | Seattle | 3 | Stopwatch Beta","protocol":17,"map":"cp_granary","folder":"tf","game":"Team Fortress","app_id":440,"player_count":24,"max_players":24,"Bots":0,"server_type":"Dedicated","server_os":"Linux","password":true,"vac":true,"version":"7882260","steam_id":85568392924515217,"keywords":["cp","nocrits","nodmgspread","uncletopia"],"game_id":440,"stv_port":27036,"stv_name":"Uncletopia | Seattle | 3 | Stopwatch Beta | STV","players":[{"user_id":130,"name":"melon_eater","steam_id":76561198018714084,"connected_time":1544000000000,"state":"active","ping":35},{"user_id":121,"name":"nuh uh","steam_id":76561198413839489,"connected_time":2155000000000,"state":"active","ping":60},{"user_id":156,"name":"Jpzarde","steam_id":76561197978240364,"connected_time":209000000000,"state":"active","ping":102},{"user_id":124,"name":"SSLG D.I.N. (She/They)","steam_id":76561198178087429,"connected_time":1690000000000,"state":"active","ping":98},{"user_id":125,"name":"Jill","steam_id":76561198097398193,"connected_time":1680000000000,"state":"active","ping":60},{"user_id":142,"name":"chanoc","steam_id":76561198026734746,"connected_time":1034000000000,"state":"active","ping":69},{"user_id":127,"name":"CreativeName","steam_id":76561198853344895,"connected_time":1622000000000,"state":"active","ping":76},{"user_id":144,"name":"babbage","steam_id":76561198126730687,"connected_time":881000000000,"state":"active","ping":84},{"user_id":140,"name":"CheeseLikeSubstance","steam_id":76561197977170646,"connected_time":1107000000000,"state":"active","ping":92},{"user_id":150,"name":"SAP","steam_id":76561198005186905,"connected_time":636000000000,"state":"active","ping":59},{"user_id":147,"name":"bigindarug","steam_id":76561198165784818,"connected_time":773000000000,"state":"active","ping":76},{"user_id":63,"name":"Robotguy9","steam_id":76561198147429617,"connected_time":5178000000000,"state":"active","ping":70},{"user_id":137,"name":"Flex Pexico","steam_id":76561198041838930,"connected_time":1198000000000,"state":"active","ping":54},{"user_id":65,"name":"Keth","steam_id":76561198155903648,"connected_time":5156000000000,"state":"active","ping":54},{"user_id":149,"name":"canine defecation","steam_id":76561198115656778,"connected_time":716000000000,"state":"active","ping":117},{"user_id":151,"name":"JonBoy","steam_id":76561198082052480,"connected_time":571000000000,"state":"active","ping":69},{"user_id":116,"name":"benji","steam_id":76561198084417967,"connected_time":2501000000000,"state":"active","ping":70},{"user_id":141,"name":"MrChaosOK","steam_id":76561197976353083,"connected_time":1089000000000,"state":"active","ping":75},{"user_id":155,"name":"Makina","steam_id":76561198057475567,"connected_time":498000000000,"state":"active","ping":87},{"user_id":71,"name":"Master Cache","steam_id":76561198849856411,"connected_time":5032000000000,"state":"active","ping":59},{"user_id":146,"name":"Pah-Wraith Gul Dukat","steam_id":76561198033918106,"connected_time":806000000000,"state":"active","ping":75},{"user_id":117,"name":"Byte The Protogen","steam_id":76561199229871383,"connected_time":2468000000000,"state":"active","ping":82},{"user_id":154,"name":"Marshall","steam_id":76561198042570322,"connected_time":534000000000,"state":"active","ping":104},{"user_id":134,"name":"californjoe","steam_id":76561197965047795,"connected_time":1484000000000,"state":"active","ping":83}]},{"server_id":17,"name":"Uncletopia | San Francisco | 1 | All Maps","name_short":"sfo-1","host":"sfo-1.us.uncletopia.com","port":27015,"enabled":true,"region":"us-west","cc":"us","latitude":37.77397,"longitude":-122.4313,"reserved":0,"last_update":"0001-01-01T00:00:00Z","name_a2s":"Uncletopia | San Francisco | 1 | All Maps","protocol":17,"map":"cp_process_final","folder":"tf","game":"Team Fortress","app_id":440,"player_count":0,"max_players":24,"Bots":0,"server_type":"Dedicated","server_os":"Linux","password":true,"vac":true,"version":"7757534","steam_id":85568392924469999,"keywords":["cp","nocrits","nodmgspread","uncletopia"],"game_id":440,"stv_port":27016,"stv_name":"Uncletopia | San Francisco | 1 | All Maps | STV","players":null},{"server_id":18,"name":"Uncletopia | San Francisco | 2 | All Maps","name_short":"sfo-2","host":"sfo-1.us.uncletopia.com","port":27025,"enabled":true,"region":"us-west","cc":"us","latitude":37.77397,"longitude":-122.4313,"reserved":0,"last_update":"0001-01-01T00:00:00Z","name_a2s":"Uncletopia | San Francisco | 2 | All Maps","protocol":17,"map":"koth_highpass","folder":"tf","game":"Team Fortress","app_id":440,"player_count":0,"max_players":24,"Bots":0,"server_type":"Dedicated","server_os":"Linux","password":true,"vac":true,"version":"7757534","steam_id":85568392924470000,"keywords":["cp","nocrits","nodmgspread","uncletopia"],"game_id":440,"stv_port":27026,"stv_name":"Uncletopia | San Francisco | 2 | All Maps | STV","players":null},{"server_id":19,"name":"Uncletopia | San Francisco | 3 | Stopwatch Beta","name_short":"sfo-3","host":"sfo-1.us.uncletopia.com","port":27035,"enabled":true,"region":"us-west","cc":"us","latitude":37.77397,"longitude":-122.4313,"reserved":0,"last_update":"0001-01-01T00:00:00Z","name_a2s":"Uncletopia | San Francisco | 3 | Stopwatch Beta","protocol":17,"map":"koth_lakeside_final","folder":"tf","game":"Team Fortress","app_id":440,"player_count":0,"max_players":24,"Bots":0,"server_type":"Dedicated","server_os":"Linux","password":true,"vac":true,"version":"7757534","steam_id":85568392924742824,"keywords":["cp","nocrits","nodmgspread","uncletopia"],"game_id":440,"stv_port":27036,"stv_name":"Uncletopia | San Francisco | 3 | Stopwatch Beta | STV","players":null},{"server_id":20,"name":"Uncletopia | San Francisco | 4 | Community","name_short":"sfo-4","host":"sfo-1.us.uncletopia.com","port":27045,"enabled":true,"region":"us-west","cc":"us","latitude":37.77397,"longitude":-122.4313,"reserved":0,"last_update":"0001-01-01T00:00:00Z","name_a2s":"Uncletopia | San Francisco | 4 | Community","protocol":17,"map":"cp_altitude","folder":"tf","game":"Team Fortress","app_id":440,"player_count":0,"max_players":24,"Bots":0,"server_type":"Dedicated","server_os":"Linux","password":true,"vac":true,"version":"7757534","steam_id":85568392924742826,"keywords":["cp","nocrits","nodmgspread","uncletopia"],"game_id":440,"stv_port":27046,"stv_name":"Uncletopia | San Francisco | 4 | Community | STV","players":null},{"server_id":141,"name":"Uncletopia | Sydney | 1 | All Maps","name_short":"syd-1","host":"syd-1.au.uncletopia.com","port":27015,"enabled":true,"region":"au","cc":"au","latitude":-33.865143,"longitude":151.2099,"reserved":0,"last_update":"0001-01-01T00:00:00Z","name_a2s":"Uncletopia | Sydney | 1 | All Maps","protocol":17,"map":"pl_badwater","folder":"tf","game":"Team Fortress","app_id":440,"player_count":24,"max_players":24,"Bots":0,"server_type":"Dedicated","server_os":"Linux","password":true,"vac":true,"version":"7882260","steam_id":85568392924470001,"keywords":["nocrits","nodmgspread","payload","uncletopia"],"game_id":440,"stv_port":27016,"stv_name":"Uncletopia | Sydney | 1 | All Maps | STV","players":[{"user_id":182,"name":"Flex of Funk","steam_id":76561198035899262,"connected_time":1957000000000,"state":"active","ping":48},{"user_id":178,"name":"vent","steam_id":76561197984081096,"connected_time":2040000000000,"state":"active","ping":65},{"user_id":202,"name":"therealllamait","steam_id":76561198841226950,"connected_time":317000000000,"state":"active","ping":73},{"user_id":176,"name":"Eugene (built different)","steam_id":76561198079108027,"connected_time":2578000000000,"state":"active","ping":57},{"user_id":132,"name":"lavanderpumpernickle","steam_id":76561199093611800,"connected_time":5101000000000,"state":"active","ping":54},{"user_id":203,"name":"C U in the NT","steam_id":76561198242220874,"connected_time":198000000000,"state":"active","ping":110},{"user_id":82,"name":"Yeat","steam_id":76561198202555552,"connected_time":8732000000000,"state":"active","ping":39},{"user_id":204,"name":"DropBearWarrior","steam_id":76561198352774039,"connected_time":169000000000,"state":"active","ping":73},{"user_id":181,"name":"E","steam_id":76561199173781370,"connected_time":2022000000000,"state":"active","ping":147},{"user_id":157,"name":"ODancer","steam_id":76561198210474748,"connected_time":3776000000000,"state":"active","ping":70},{"user_id":191,"name":"Le Flippers","steam_id":76561198061144091,"connected_time":1676000000000,"state":"active","ping":44},{"user_id":156,"name":"Owlenstein‚Ñ¢","steam_id":76561198093983826,"connected_time":3822000000000,"state":"active","ping":119},{"user_id":195,"name":"Cyan","steam_id":76561199123867057,"connected_time":717000000000,"state":"active","ping":57},{"user_id":198,"name":"Centrelink","steam_id":76561198988128327,"connected_time":625000000000,"state":"active","ping":45},{"user_id":136,"name":"dumbomb","steam_id":76561198048066069,"connected_time":4778000000000,"state":"active","ping":75},{"user_id":158,"name":"Zieria","steam_id":76561199261811388,"connected_time":3752000000000,"state":"active","ping":45},{"user_id":118,"name":"Mooty","steam_id":76561198301293435,"connected_time":6169000000000,"state":"active","ping":51},{"user_id":140,"name":"Jay Lamar","steam_id":76561198107504114,"connected_time":4588000000000,"state":"active","ping":55},{"user_id":192,"name":"Snowy","steam_id":76561198255720598,"connected_time":1166000000000,"state":"active","ping":46},{"user_id":95,"name":"jim :)","steam_id":76561198127508905,"connected_time":7882000000000,"state":"active","ping":35},{"user_id":155,"name":"uwotm8","steam_id":76561198152215695,"connected_time":4028000000000,"state":"active","ping":69},{"user_id":205,"name":"FascismSalad","steam_id":76561198262410973,"connected_time":156000000000,"state":"active","ping":54}]},{"server_id":123,"name":"Uncletopia | Sydney | 2 | All Maps","name_short":"syd-2","host":"syd-1.au.uncletopia.com","port":27025,"enabled":true,"region":"au","cc":"au","latitude":-33.865143,"longitude":151.2099,"reserved":0,"last_update":"0001-01-01T00:00:00Z","name_a2s":"Uncletopia | Sydney | 2 | All Maps","protocol":17,"map":"pl_badwater","folder":"tf","game":"Team Fortress","app_id":440,"player_count":3,"max_players":24,"Bots":0,"server_type":"Dedicated","server_os":"Linux","password":true,"vac":true,"version":"7882260","steam_id":85568392924470002,"keywords":["nocrits","nodmgspread","payload","uncletopia"],"game_id":440,"stv_port":27026,"stv_name":"Uncletopia | Sydney | 2 | All Maps | STV","players":[{"user_id":29,"name":"Jellyfish_kurage","steam_id":76561198425670698,"connected_time":1044000000000,"state":"active","ping":50},{"user_id":31,"name":"smite","steam_id":76561198845304189,"connected_time":395000000000,"state":"active","ping":116},{"user_id":25,"name":"SpEnZeR","steam_id":76561199470854321,"connected_time":1812000000000,"state":"active","ping":58}]},{"server_id":395,"name":"Uncletopia | Sydney | 3 | All Maps","name_short":"syd-3","host":"syd-1.au.uncletopia.com","port":27035,"enabled":true,"region":"au","cc":"au","latitude":-33.865143,"longitude":151.2099,"reserved":0,"last_update":"0001-01-01T00:00:00Z","name_a2s":"Uncletopia | Sydney | 3 | All Maps","protocol":17,"map":"pl_badwater","folder":"tf","game":"Team Fortress","app_id":440,"player_count":0,"max_players":24,"Bots":0,"server_type":"Dedicated","server_os":"Linux","password":true,"vac":true,"version":"7882260","steam_id":85568392925194467,"keywords":["nocrits","nodmgspread","payload","uncletopia"],"game_id":440,"stv_port":27036,"stv_name":"Uncletopia | Sydney | 3 | All Maps | STV","players":null},{"server_id":396,"name":"Uncletopia | Sydney | 4 | All Maps","name_short":"syd-4","host":"syd-1.au.uncletopia.com","port":27045,"enabled":true,"region":"au","cc":"au","latitude":-33.865143,"longitude":151.2099,"reserved":0,"last_update":"0001-01-01T00:00:00Z","name_a2s":"Uncletopia | Sydney | 4 | All Maps","protocol":17,"map":"koth_cascade","folder":"tf","game":"Team Fortress","app_id":440,"player_count":0,"max_players":24,"Bots":0,"server_type":"Dedicated","server_os":"Linux","password":true,"vac":true,"version":"7882260","steam_id":85568392925397958,"keywords":["cp","nocrits","nodmgspread","uncletopia"],"game_id":440,"stv_port":27046,"stv_name":"Uncletopia | Sydney | 4 | All Maps | STV","players":null},{"server_id":58,"name":"Uncletopia | Sydney | 5 | Stopwatch Beta","name_short":"syd-5","host":"syd-1.au.uncletopia.com","port":27055,"enabled":true,"region":"au","cc":"au","latitude":-33.865143,"longitude":151.2099,"reserved":0,"last_update":"0001-01-01T00:00:00Z","name_a2s":"Uncletopia | Sydney | 5 | Stopwatch Beta","protocol":17,"map":"cp_snakewater_final1","folder":"tf","game":"Team Fortress","app_id":440,"player_count":0,"max_players":24,"Bots":0,"server_type":"Dedicated","server_os":"Linux","password":true,"vac":true,"version":"7882260","steam_id":85568392925397959,"keywords":["cp","nocrits","nodmgspread","uncletopia"],"game_id":440,"stv_port":27056,"stv_name":"Uncletopia | Sydney | 5 | Stopwatch Beta | STV","players":null},{"server_id":59,"name":"Uncletopia | Sydney | 6 | Community","name_short":"syd-6","host":"syd-1.au.uncletopia.com","port":27065,"enabled":true,"region":"au","cc":"au","latitude":-33.865143,"longitude":151.2099,"reserved":0,"last_update":"0001-01-01T00:00:00Z","name_a2s":"Uncletopia | Sydney | 6 | Community","protocol":17,"map":"workshop/koth_ramjam_rc1.ugc459778887","folder":"tf","game":"Team Fortress","app_id":440,"player_count":0,"max_players":24,"Bots":0,"server_type":"Dedicated","server_os":"Linux","password":true,"vac":true,"version":"7882260","steam_id":85568392925397960,"keywords":["cp","nocrits","nodmgspread","uncletopia"],"game_id":440,"stv_port":27066,"stv_name":"Uncletopia | Sydney | 6 | Community | STV","players":null},{"server_id":49,"name":"Uncletopia | Warsaw | 1 | All Maps","name_short":"waw-1","host":"waw-1.pl.uncletopia.com","port":27015,"enabled":true,"region":"eu","cc":"pl","latitude":52.2297,"longitude":21.017532,"reserved":0,"last_update":"0001-01-01T00:00:00Z","name_a2s":"","protocol":0,"map":"","folder":"","game":"","app_id":0,"player_count":0,"max_players":0,"Bots":0,"server_type":"","server_os":"","password":false,"vac":false,"version":"","steam_id":0,"keywords":null,"game_id":0,"stv_port":0,"stv_name":"","players":null},{"server_id":50,"name":"Uncletopia | Warsaw | 2 | All Maps","name_short":"waw-2","host":"waw-1.pl.uncletopia.com","port":27025,"enabled":true,"region":"eu","cc":"pl","latitude":52.2297,"longitude":21.017532,"reserved":0,"last_update":"0001-01-01T00:00:00Z","name_a2s":"Uncletopia | Warsaw | 2 | All Maps","protocol":17,"map":"pl_swiftwater_final1","folder":"tf","game":"Team Fortress","app_id":440,"player_count":0,"max_players":24,"Bots":0,"server_type":"Dedicated","server_os":"Linux","password":true,"vac":true,"version":"7882260","steam_id":85568392925397851,"keywords":["nocrits","nodmgspread","payload","uncletopia"],"game_id":440,"stv_port":27026,"stv_name":"Uncletopia | Warsaw | 2 | All Maps | STV","players":null},{"server_id":51,"name":"Uncletopia | Warsaw | 3 | All Maps","name_short":"waw-3","host":"waw-1.pl.uncletopia.com","port":27035,"enabled":true,"region":"eu","cc":"pl","latitude":52.2297,"longitude":21.017532,"reserved":0,"last_update":"0001-01-01T00:00:00Z","name_a2s":"Uncletopia | Warsaw | 3 | All Maps","protocol":17,"map":"koth_viaduct","folder":"tf","game":"Team Fortress","app_id":440,"player_count":0,"max_players":24,"Bots":0,"server_type":"Dedicated","server_os":"Linux","password":true,"vac":true,"version":"7882260","steam_id":85568392925397852,"keywords":["cp","nocrits","nodmgspread","uncletopia"],"game_id":440,"stv_port":27036,"stv_name":"Uncletopia | Warsaw | 3 | All Maps | STV","players":null},{"server_id":52,"name":"Uncletopia | Warsaw | 4 | All Maps","name_short":"waw-4","host":"waw-1.pl.uncletopia.com","port":27045,"enabled":true,"region":"eu","cc":"pl","latitude":52.2297,"longitude":21.017532,"reserved":0,"last_update":"0001-01-01T00:00:00Z","name_a2s":"Uncletopia | Warsaw | 4 | All Maps","protocol":17,"map":"koth_highpass","folder":"tf","game":"Team Fortress","app_id":440,"player_count":0,"max_players":24,"Bots":0,"server_type":"Dedicated","server_os":"Linux","password":true,"vac":true,"version":"7882260","steam_id":85568392925397853,"keywords":["cp","nocrits","nodmgspread","uncletopia"],"game_id":440,"stv_port":27046,"stv_name":"Uncletopia | Warsaw | 4 | All Maps | STV","players":null},{"server_id":53,"name":"Uncletopia | Warsaw | 5 | Stopwatch Beta","name_short":"waw-5","host":"waw-1.pl.uncletopia.com","port":27055,"enabled":true,"region":"eu","cc":"pl","latitude":52.2297,"longitude":21.017532,"reserved":0,"last_update":"0001-01-01T00:00:00Z","name_a2s":"Uncletopia | Warsaw | 5 | Stopwatch Beta","protocol":17,"map":"cp_mountainlab","folder":"tf","game":"Team Fortress","app_id":440,"player_count":0,"max_players":24,"Bots":0,"server_type":"Dedicated","server_os":"Linux","password":true,"vac":true,"version":"7882260","steam_id":85568392925397854,"keywords":["cp","nocrits","nodmgspread","uncletopia"],"game_id":440,"stv_port":27056,"stv_name":"Uncletopia | Warsaw | 5 | Stopwatch Beta | STV","players":null},{"server_id":54,"name":"Uncletopia | Warsaw | 6 | Community","name_short":"waw-6","host":"waw-1.pl.uncletopia.com","port":27065,"enabled":true,"region":"eu","cc":"pl","latitude":52.2297,"longitude":21.017532,"reserved":0,"last_update":"0001-01-01T00:00:00Z","name_a2s":"Uncletopia | Warsaw | 6 | Community","protocol":17,"map":"koth_viaduct","folder":"tf","game":"Team Fortress","app_id":440,"player_count":0,"max_players":24,"Bots":0,"server_type":"Dedicated","server_os":"Linux","password":true,"vac":true,"version":"7882260","steam_id":85568392925397856,"keywords":["cp","nocrits","nodmgspread","uncletopia"],"game_id":440,"stv_port":27066,"stv_name":"Uncletopia | Warsaw | 6 | Community | STV","players":null}]}