{"status":true,"message":"","result":[{"server_id":9,"name":"Uncletopia | Atlanta | 1 | All Maps","name_short":"atl-1","host":"atl-1.us.uncletopia.com","port":27015,"enabled":true,"region":"us-east","cc":"us","latitude":33.753746,"longitude":-84.38633,"reserved":0,"last_update":"0001-01-01T00:00:00Z","name_a2s":"Uncletopia | Atlanta | 1 | All Maps","protocol":17,"map":"koth_harvest_final","folder":"tf","game":"Team Fortress","app_id":440,"player_count":23,"max_players":24,"Bots":0,"server_type":"Dedicated","server_os":"Linux","password":true,"vac":true,"version":"7961495","steam_id":85568392924469982,"keywords":["cp","nocrits","nodmgspread","uncletopia"],"game_id":440,"stv_port":27016,"stv_name":"Uncletopia | Atlanta | 1 | All Maps | STV","players":[{"user_id":562,"name":"Leadgold","steam_id":76561198068864003,"connected_time":283000000000,"state":"active","ping":122},{"user_id":561,"name":"Oddball","steam_id":76561198040440984,"connected_time":314000000000,"state":"active","ping":85},{"user_id":536,"name":"shreklover69","steam_id":76561198054070811,"connected_time":4462000000000,"state":"active","ping":118},{"user_id":551,"name":"Camper","steam_id":76561198972004586,"connected_time":2128000000000,"state":"active","ping":61},{"user_id":500,"name":"--_Cook_--","steam_id":76561198080855748,"connected_time":9627000000000,"state":"active","ping":62},{"user_id":545,"name":"Umbra","steam_id":76561198122650609,"connected_time":2765000000000,"state":"active","ping":68},{"user_id":558,"name":"Squanchy","steam_id":76561198036319676,"connected_time":1193000000000,"state":"active","ping":45},{"user_id":532,"name":"Whompert","steam_id":76561198042939624,"connected_time":4925000000000,"state":"active","ping":71},{"user_id":552,"name":"simply","steam_id":76561198215728721,"connected_time":2015000000000,"state":"active","ping":52},{"user_id":557,"name":"Cooldog","steam_id":76561198080548713,"connected_time":1409000000000,"state":"active","ping":67},{"user_id":540,"name":"kite","steam_id":76561198346516392,"connected_time":3979000000000,"state":"active","ping":89},{"user_id":542,"name":"Bunt","steam_id":76561198124477567,"connected_time":2809000000000,"state":"active","ping":43},{"user_id":563,"name":"Xocolatl 魔鐘","steam_id":76561198007405067,"connected_time":139000000000,"state":"active","ping":58},{"user_id":559,"name":"why","steam_id":76561199059732212,"connected_time":332000000000,"state":"active","ping":58},{"user_id":492,"name":"FEBLUCAXZ","steam_id":76561198355845884,"connected_time":10142000000000,"state":"active","ping":103},{"user_id":515,"name":"NovaSc6ut","steam_id":76561198277163301,"connected_time":8232000000000,"state":"active","ping":87},{"user_id":553,"name":"Bippums","steam_id":76561198366406729,"connected_time":1751000000000,"state":"active","ping":69},{"user_id":560,"name":"napstagbo","steam_id":76561198119378766,"connected_time":329000000000,"state":"active","ping":144},{"user_id":547,"name":"krebex","steam_id":76561198004660630,"connected_time":2668000000000,"state":"active","ping":75},{"user_id":523,"name":"Onyx","steam_id":76561198275349640,"connected_time":7170000000000,"state":"active","ping":76},{"user_id":535,"name":"chexo4","steam_id":76561198150532531,"connected_time":4481000000000,"state":"active","ping":51},{"user_id":524,"name":"Spiceitwithred","steam_id":76561198313150295,"connected_time":7170000000000,"state":"active","ping":117},{"user_id":549,"name":"Grace","steam_id":76561199004825390,"connected_time":2506000000000,"state":"active","ping":117}]},{"server_id":104,"name":"Uncletopia | Atlanta | 2 | All Maps","name_short":"atl-2","host":"atl-1.us.uncletopia.com","port":27025,"enabled":true,"region":"us-east","cc":"us","latitude":33.753746,"longitude":-84.38633,"reserved":0,"last_update":"0001-01-01T00:00:00Z","name_a2s":"Uncletopia | Atlanta | 2 | All Maps","protocol":17,"map":"pl_borneo","folder":"tf","game":"Team Fortress","app_id":440,"player_count":15,"max_players":24,"Bots":0,"server_type":"Dedicated","server_os":"Linux","password":true,"vac":true,"version":"7961495","steam_id":85568392924469983,"keywords":["nocrits","nodmgspread","payload","uncletopia"],"game_id":440,"stv_port":27026,"stv_name":"Uncletopia | Atlanta | 2 | All Maps | STV","players":[{"user_id":365,"name":"Puss-Destroyer The Virile","steam_id":76561198088298999,"connected_time":8612000000000,"state":"active","ping":65},{"user_id":449,"name":"farfalle","steam_id":76561198882758067,"connected_time":284000000000,"state":"active","ping":46},{"user_id":450,"name":"SNEPPY","steam_id":76561198065040243,"connected_time":171000000000,"state":"active","ping":65},{"user_id":364,"name":"tac","steam_id":76561198408477421,"connected_time":8652000000000,"state":"active","ping":87},{"user_id":446,"name":"vinny6","steam_id":76561198386735728,"connected_time":556000000000,"state":"active","ping":60},{"user_id":447,"name":"Dalsmo","steam_id":76561198062947397,"connected_time":468000000000,"state":"active","ping":50},{"user_id":448,"name":"awsome man 369","steam_id":76561198090729853,"connected_time":454000000000,"state":"active","ping":62},{"user_id":433,"name":"my b","steam_id":76561198007464245,"connected_time":2620000000000,"state":"active","ping":56},{"user_id":452,"name":"Grishlock","steam_id":76561198000366744,"connected_time":127000000000,"state":"active","ping":115},{"user_id":425,"name":"cass","steam_id":76561198074502046,"connected_time":3304000000000,"state":"active","ping":83},{"user_id":453,"name":"ouroboros","steam_id":76561199220599371,"connected_time":112000000000,"state":"active","ping":57},{"user_id":454,"name":"Jon Arbuckle","steam_id":76561198153295874,"connected_time":2000000000,"state":"spawning","ping":89},{"user_id":417,"name":"♥ Tomboy ♥","steam_id":76561198069881436,"connected_time":4176000000000,"state":"active","ping":54},{"user_id":444,"name":"FenderBender","steam_id":76561198106379456,"connected_time":1322000000000,"state":"active","ping":97},{"user_id":438,"name":"RocketRabbit","steam_id":76561198803062131,"connected_time":2490000000000,"state":"active","ping":71}]},{"server_id":400,"name":"Uncletopia | Atlanta | 3 | Stopwatch","name_short":"atl-3","host":"atl-1.us.uncletopia.com","port":27035,"enabled":true,"region":"us-east","cc":"us","latitude":33.753746,"longitude":-84.38633,"reserved":0,"last_update":"0001-01-01T00:00:00Z","name_a2s":"Uncletopia | Atlanta | 3 | Stopwatch","protocol":17,"map":"workshop/cp_reckoner_rc6.ugc674719999","folder":"tf","game":"Team Fortress","app_id":440,"player_count":0,"max_players":24,"Bots":0,"server_type":"Dedicated","server_os":"Linux","password":true,"vac":true,"version":"7961495","steam_id":85568392924515187,"keywords":["cp","nocrits","nodmgspread","uncletopia"],"game_id":440,"stv_port":27036,"stv_name":"Uncletopia | Atlanta | 3 | Stopwatch | STV","players":null},{"server_id":401,"name":"Uncletopia | Atlanta | 4 | Community","name_short":"atl-4","host":"atl-1.us.uncletopia.com","port":27045,"enabled":true,"region":"us-east","cc":"us","latitude":33.753746,"longitude":-84.38633,"reserved":0,"last_update":"0001-01-01T00:00:00Z","name_a2s":"Uncletopia | Atlanta | 4 | Community","protocol":17,"map":"workshop/cp_caldera_rc3.ugc2834196889","folder":"tf","game":"Team Fortress","app_id":440,"player_count":0,"max_players":24,"Bots":0,"server_type":"Dedicated","server_os":"Linux","password":true,"vac":true,"version":"7961495","steam_id":85568392924515188,"keywords":["cp","nocrits","nodmgspread","uncletopia"],"game_id":440,"stv_port":27046,"stv_name":"Uncletopia | Atlanta | 4 | Community | STV","players":null},{"server_id":2,"name":"Uncletopia | Chicago | 1 | All Maps","name_short":"chi-1","host":"chi-1.us.uncletopia.com","port":27015,"enabled":true,"region":"us-central","cc":"us","latitude":41.881832,"longitude":-87.62318,"reserved":0,"last_update":"0001-01-01T00:00:00Z","name_a2s":"Uncletopia | Chicago | 1 | All Maps","protocol":17,"map":"pl_badwater","folder":"tf","game":"Team Fortress","app_id":440,"player_count":24,"max_players":24,"Bots":0,"server_type":"Dedicated","server_os":"Linux","password":true,"vac":true,"version":"7961495","steam_id":85568392924469984,"keywords":["nocrits","nodmgspread","payload","uncletopia"],"game_id":440,"stv_port":27016,"stv_name":"Uncletopia | Chicago | 1 | All Maps | STV","players":[{"user_id":718,"name":"loser","steam_id":76561198259380127,"connected_time":12437000000000,"state":"active","ping":60},{"user_id":840,"name":"NOLSEY","steam_id":76561198108959504,"connected_time":1231000000000,"state":"active","ping":42},{"user_id":845,"name":"Ethanol","steam_id":76561198252600202,"connected_time":982000000000,"state":"active","ping":46},{"user_id":848,"name":"reknud lft","steam_id":76561198066114874,"connected_time":594000000000,"state":"active","ping":101},{"user_id":843,"name":"maZe","steam_id":76561198025769991,"connected_time":1063000000000,"state":"active","ping":68},{"user_id":802,"name":"gerf.","steam_id":76561198811706201,"connected_time":5268000000000,"state":"active","ping":61},{"user_id":832,"name":"Kantamoe","steam_id":76561198046661611,"connected_time":2655000000000,"state":"active","ping":80},{"user_id":824,"name":"DevoutPage14990","steam_id":76561198831347354,"connected_time":3061000000000,"state":"active","ping":85},{"user_id":826,"name":"Shmoopy","steam_id":76561198030459152,"connected_time":3029000000000,"state":"active","ping":86},{"user_id":798,"name":"bologna forklift 2012","steam_id":76561198199061206,"connected_time":5472000000000,"state":"active","ping":37},{"user_id":849,"name":"Mihalys","steam_id":76561198076645019,"connected_time":591000000000,"state":"active","ping":72},{"user_id":835,"name":"Garfield","steam_id":76561199251237007,"connected_time":2054000000000,"state":"active","ping":86},{"user_id":803,"name":"Kero","steam_id":76561198343231436,"connected_time":5078000000000,"state":"active","ping":57},{"user_id":767,"name":"Tito","steam_id":76561198041702529,"connected_time":7377000000000,"state":"active","ping":90},{"user_id":850,"name":"basilberry","steam_id":76561198145275937,"connected_time":587000000000,"state":"active","ping":90},{"user_id":842,"name":"Matches_                       ","steam_id":76561198048925904,"connected_time":1213000000000,"state":"active","ping":111},{"user_id":825,"name":"The Heart","steam_id":76561198271979288,"connected_time":3041000000000,"state":"active","ping":36},{"user_id":844,"name":"Aniz","steam_id":76561199226665024,"connected_time":1049000000000,"state":"active","ping":136},{"user_id":828,"name":"Dieu-Sama","steam_id":76561198002075862,"connected_time":2975000000000,"state":"active","ping":83},{"user_id":846,"name":"The Grim Heaper","steam_id":76561197987759101,"connected_time":978000000000,"state":"active","ping":111},{"user_id":839,"name":"Cooler Ye","steam_id":76561198068830312,"connected_time":1602000000000,"state":"active","ping":45},{"user_id":775,"name":"MechaSixVII","steam_id":76561198014927379,"connected_time":6640000000000,"state":"active","ping":70},{"user_id":834,"name":"Greymatter","steam_id":76561198325006558,"connected_time":2093000000000,"state":"active","ping":58},{"user_id":830,"name":"Rat God","steam_id":76561198066161598,"connected_time":2904000000000,"state":"active","ping":61}]},{"server_id":106,"name":"Uncletopia | Chicago | 2 | All Maps","name_short":"chi-2","host":"chi-1.us.uncletopia.com","port":27025,"enabled":true,"region":"us-central","cc":"us","latitude":41.881832,"longitude":-87.62318,"reserved":0,"last_update":"0001-01-01T00:00:00Z","name_a2s":"Uncletopia | Chicago | 2 | All Maps","protocol":17,"map":"pl_pier","folder":"tf","game":"Team Fortress","app_id":440,"player_count":24,"max_players":24,"Bots":0,"server_type":"Dedicated","server_os":"Linux","password":true,"vac":true,"version":"7961495","steam_id":85568392924469985,"keywords":["nocrits","nodmgspread","payload","uncletopia"],"game_id":440,"stv_port":27026,"stv_name":"Uncletopia | Chicago | 2 | All Maps | STV","players":[{"user_id":808,"name":"Kamin","steam_id":76561198255299559,"connected_time":2177000000000,"state":"active","ping":85},{"user_id":828,"name":"slep.py","steam_id":76561197988287144,"connected_time":635000000000,"state":"active","ping":57},{"user_id":801,"name":"Racist soldier main","steam_id":76561198121411970,"connected_time":2511000000000,"state":"active","ping":64},{"user_id":777,"name":"LVL","steam_id":76561198334403617,"connected_time":5711000000000,"state":"active","ping":58},{"user_id":818,"name":"onion","steam_id":76561198242311084,"connected_time":1674000000000,"state":"active","ping":59},{"user_id":776,"name":"CEO, Co-Producer, Manager, Etc.","steam_id":76561197969386201,"connected_time":5732000000000,"state":"active","ping":46},{"user_id":802,"name":"IloveBiggers","steam_id":76561199367539608,"connected_time":2503000000000,"state":"active","ping":67},{"user_id":830,"name":"Comrade Red Line","steam_id":76561198371109224,"connected_time":97000000000,"state":"active","ping":83},{"user_id":821,"name":"Jax","steam_id":76561198376152125,"connected_time":1389000000000,"state":"active","ping":73},{"user_id":822,"name":"james_bondage","steam_id":76561199476062624,"connected_time":951000000000,"state":"active","ping":85},{"user_id":820,"name":"Piyono","steam_id":76561197962188504,"connected_time":1597000000000,"state":"active","ping":68},{"user_id":823,"name":"ms. capgras","steam_id":76561199080209996,"connected_time":923000000000,"state":"active","ping":51},{"user_id":790,"name":"rudy","steam_id":76561198088712799,"connected_time":3884000000000,"state":"active","ping":83},{"user_id":767,"name":"bad spy player","steam_id":76561198873699671,"connected_time":6441000000000,"state":"active","ping":102},{"user_id":824,"name":"JOY","steam_id":76561198397009880,"connected_time":921000000000,"state":"active","ping":60},{"user_id":825,"name":"Coffee Instant Type 2","steam_id":76561198307845869,"connected_time":891000000000,"state":"active","ping":70},{"user_id":811,"name":"Wide (X ˵ l ◡ l ˵ X)","steam_id":76561198213130899,"connected_time":2131000000000,"state":"active","ping":65},{"user_id":812,"name":"Captain Cutler's Horny Ghost","steam_id":76561198129293584,"connected_time":2120000000000,"state":"active","ping":85},{"user_id":775,"name":"bofa ur parents dislike u","steam_id":76561198144766439,"connected_time":5887000000000,"state":"active","ping":45},{"user_id":814,"name":"xFactr","steam_id":76561198129007422,"connected_time":2072000000000,"state":"active","ping":58},{"user_id":787,"name":"Carpet enthusiast","steam_id":76561198024040142,"connected_time":4430000000000,"state":"active","ping":99},{"user_id":827,"name":"Tots","steam_id":76561198027485007,"connected_time":826000000000,"state":"active","ping":60},{"user_id":792,"name":"Gachalover","steam_id":76561199231552074,"connected_time":3603000000000,"state":"active","ping":88},{"user_id":826,"name":"jayyteeAT","steam_id":76561198059575962,"connected_time":867000000000,"state":"active","ping":62}]},{"server_id":402,"name":"Uncletopia | Chicago | 3 | All Maps","name_short":"chi-3","host":"chi-1.us.uncletopia.com","port":27035,"enabled":true,"region":"us-central","cc":"us","latitude":41.881832,"longitude":-87.62318,"reserved":0,"last_update":"0001-01-01T00:00:00Z","name_a2s":"Uncletopia | Chicago | 3 | All Maps","protocol":17,"map":"cp_dustbowl","folder":"tf","game":"Team Fortress","app_id":440,"player_count":24,"max_players":24,"Bots":0,"server_type":"Dedicated","server_os":"Linux","password":true,"vac":true,"version":"7961495","steam_id":85568392924515191,"keywords":["cp","nocrits","nodmgspread","uncletopia"],"game_id":440,"stv_port":27036,"stv_name":"Uncletopia | Chicago | 3 | All Maps | STV","players":[{"user_id":660,"name":"Wolfmeme","steam_id":76561198115713601,"connected_time":5238000000000,"state":"active","ping":73},{"user_id":710,"name":"M249 | Spectre","steam_id":76561198118334485,"connected_time":1011000000000,"state":"active","ping":75},{"user_id":719,"name":"GruntRule","steam_id":76561198039987143,"connected_time":27000000000,"state":"active","ping":79},{"user_id":706,"name":"SimpKing","steam_id":76561198061431512,"connected_time":1675000000000,"state":"active","ping":67},{"user_id":713,"name":"Colossal Falafel","steam_id":76561198108086245,"connected_time":652000000000,"state":"active","ping":53},{"user_id":709,"name":"Borbis","steam_id":76561198317305554,"connected_time":1191000000000,"state":"active","ping":57},{"user_id":691,"name":"wheat","steam_id":76561197971158435,"connected_time":3382000000000,"state":"active","ping":60},{"user_id":673,"name":"Cy4nideCutie\u003c3","steam_id":76561198126686695,"connected_time":4632000000000,"state":"active","ping":70},{"user_id":675,"name":"totally not a pile of beans","steam_id":76561198119851931,"connected_time":4384000000000,"state":"active","ping":81},{"user_id":682,"name":"George Holdin' W Bush","steam_id":76561198030066204,"connected_time":3929000000000,"state":"active","ping":50},{"user_id":717,"name":"AmazingPlasma","steam_id":76561199005527586,"connected_time":149000000000,"state":"active","ping":84},{"user_id":714,"name":"Irritated Duck","steam_id":76561198247792076,"connected_time":631000000000,"state":"active","ping":123},{"user_id":715,"name":"clavin","steam_id":76561198069380992,"connected_time":564000000000,"state":"active","ping":80},{"user_id":565,"name":"glue","steam_id":76561198003593070,"connected_time":10507000000000,"state":"active","ping":56},{"user_id":637,"name":"TheGerg","steam_id":76561198257099217,"connected_time":5852000000000,"state":"active","ping":84},{"user_id":707,"name":"Nobody","steam_id":76561198160544586,"connected_time":1456000000000,"state":"active","ping":74},{"user_id":689,"name":"silvr :3","steam_id":76561198069368377,"connected_time":3752000000000,"state":"active","ping":71},{"user_id":584,"name":"Whiamy Aleeve","steam_id":76561199007736086,"connected_time":9712000000000,"state":"active","ping":81},{"user_id":693,"name":"TTV hunter","steam_id":76561198115812405,"connected_time":3345000000000,"state":"active","ping":82},{"user_id":596,"name":"Castroy","steam_id":76561198108160099,"connected_time":8775000000000,"state":"active","ping":55},{"user_id":711,"name":"elso","steam_id":76561198058209902,"connected_time":973000000000,"state":"active","ping":85},{"user_id":640,"name":"Crutch","steam_id":76561198079048965,"connected_time":5822000000000,"state":"active","ping":66},{"user_id":669,"name":"[Woodsie]","steam_id":76561198125832082,"connected_time":4833000000000,"state":"active","ping":45},{"user_id":718,"name":"-Avh-","steam_id":76561198087593160,"connected_time":127000000000,"state":"active","ping":71}]},{"server_id":403,"name":"Uncletopia | Chicago | 4 | All Maps","name_short":"chi-4","host":"chi-1.us.uncletopia.com","port":27045,"enabled":true,"region":"us-central","cc":"us","latitude":41.881832,"longitude":-87.62318,"reserved":0,"last_update":"0001-01-01T00:00:00Z","name_a2s":"Uncletopia | Chicago | 4 | All Maps","protocol":17,"map":"pl_hoodoo_final","folder":"tf","game":"Team Fortress","app_id":440,"player_count":24,"max_players":24,"Bots":0,"server_type":"Dedicated","server_os":"Linux","password":true,"vac":true,"version":"7961495","steam_id":85568392924515193,"keywords":["nocrits","nodmgspread","payload","uncletopia"],"game_id":440,"stv_port":27046,"stv_name":"Uncletopia | Chicago | 4 | All Maps | STV","players":[{"user_id":579,"name":"Enron Hubbard","steam_id":76561198012951411,"connected_time":5934000000000,"state":"active","ping":57},{"user_id":643,"name":"Give Me Your Huo-Longs","steam_id":76561198255619557,"connected_time":436000000000,"state":"active","ping":48},{"user_id":631,"name":"hittign dabong","steam_id":76561198097588802,"connected_time":1774000000000,"state":"active","ping":49},{"user_id":644,"name":"roy","steam_id":76561198032579971,"connected_time":435000000000,"state":"active","ping":72},{"user_id":627,"name":"evilwitch420","steam_id":76561198033351858,"connected_time":1831000000000,"state":"active","ping":72},{"user_id":645,"name":"LPenne","steam_id":76561198072972471,"connected_time":426000000000,"state":"active","ping":94},{"user_id":646,"name":"Gambull","steam_id":76561198051152458,"connected_time":393000000000,"state":"active","ping":169},{"user_id":610,"name":"Bring Me Pictures of Spider-Cum","steam_id":76561197999753555,"connected_time":3312000000000,"state":"active","ping":54},{"user_id":626,"name":"milk then cereal","steam_id":76561198047168548,"connected_time":1851000000000,"state":"active","ping":102},{"user_id":642,"name":"KevilPo","steam_id":76561199244507267,"connected_time":555000000000,"state":"active","ping":76},{"user_id":647,"name":"VidzCMC","steam_id":76561198848142973,"connected_time":381000000000,"state":"active","ping":54},{"user_id":609,"name":"Miserable Little Pile of Secret","steam_id":76561198007696932,"connected_time":3499000000000,"state":"active","ping":104},{"user_id":580,"name":"Tony Hawk Underground 2 for PSP","steam_id":76561197999901620,"connected_time":5913000000000,"state":"active","ping":59},{"user_id":648,"name":"FreshlyBrewed","steam_id":76561198181099881,"connected_time":337000000000,"state":"active","ping":74},{"user_id":649,"name":"(TPT) Ghost","steam_id":76561198123262873,"connected_time":317000000000,"state":"active","ping":119},{"user_id":632,"name":"zuma deluxe","steam_id":76561198059041027,"connected_time":1726000000000,"state":"active","ping":106},{"user_id":650,"name":"TallBadUserName","steam_id":76561198399685508,"connected_time":312000000000,"state":"active","ping":75},{"user_id":607,"name":"frank","steam_id":76561198137777483,"connected_time":3928000000000,"state":"active","ping":70},{"user_id":651,"name":"Ti-Son","steam_id":76561198123905455,"connected_time":309000000000,"state":"active","ping":67},{"user_id":471,"name":"Owls = Government Drones","steam_id":76561198439793697,"connected_time":13557000000000,"state":"active","ping":73},{"user_id":652,"name":"competitive sitting champion","steam_id":76561198014326643,"connected_time":287000000000,"state":"active","ping":79},{"user_id":653,"name":"nShxny","steam_id":76561198308608114,"connected_time":283000000000,"state":"active","ping":50},{"user_id":618,"name":"Turts","steam_id":76561197998448097,"connected_time":2760000000000,"state":"active","ping":73},{"user_id":636,"name":"HollowMan","steam_id":76561198967266827,"connected_time":1467000000000,"state":"active","ping":77}]},{"server_id":36,"name":"Uncletopia | Chicago | 5 | All Maps","name_short":"chi-5","host":"chi-2.us.uncletopia.com","port":27015,"enabled":true,"region":"us-central","cc":"us","latitude":41.881832,"longitude":-87.62318,"reserved":0,"last_update":"0001-01-01T00:00:00Z","name_a2s":"Uncletopia | Chicago | 5 | All Maps","protocol":17,"map":"koth_lakeside_final","folder":"tf","game":"Team Fortress","app_id":440,"player_count":3,"max_players":24,"Bots":0,"server_type":"Dedicated","server_os":"Linux","password":true,"vac":true,"version":"7961495","steam_id":85568392924866362,"keywords":["cp","nocrits","nodmgspread","uncletopia"],"game_id":440,"stv_port":27016,"stv_name":"Uncletopia | Chicago | 5 | All Maps | STV","players":[{"user_id":801,"name":"Mazel-Tov✡Cocktail","steam_id":76561197979855281,"connected_time":667000000000,"state":"active","ping":29},{"user_id":794,"name":"menonamed","steam_id":76561198199564382,"connected_time":2172000000000,"state":"active","ping":69},{"user_id":785,"name":"bleach65","steam_id":76561198115270571,"connected_time":3169000000000,"state":"active","ping":75}]},{"server_id":37,"name":"Uncletopia | Chicago | 6 | All Maps","name_short":"chi-6","host":"chi-2.us.uncletopia.com","port":27025,"enabled":true,"region":"us-central","cc":"us","latitude":41.881832,"longitude":-87.62318,"reserved":0,"last_update":"0001-01-01T00:00:00Z","name_a2s":"Uncletopia | Chicago | 6 | All Maps","protocol":17,"map":"pl_swiftwater_final1","folder":"tf","game":"Team Fortress","app_id":440,"player_count":24,"max_players":24,"Bots":0,"server_type":"Dedicated","server_os":"Linux","password":true,"vac":true,"version":"7961495","steam_id":85568392924866363,"keywords":["nocrits","nodmgspread","payload","uncletopia"],"game_id":440,"stv_port":27026,"stv_name":"Uncletopia | Chicago | 6 | All Maps | STV","players":[{"user_id":461,"name":"[MRY] Sk-iLite","steam_id":76561198041797350,"connected_time":5743000000000,"state":"active","ping":72},{"user_id":545,"name":"Bard T","steam_id":76561198164403681,"connected_time":1060000000000,"state":"active","ping":95},{"user_id":525,"name":"sapnu puas","steam_id":76561198009546994,"connected_time":3090000000000,"state":"active","ping":74},{"user_id":528,"name":"Howard Hamlin","steam_id":76561198881039861,"connected_time":2741000000000,"state":"active","ping":67},{"user_id":544,"name":"Zech","steam_id":76561198254030784,"connected_time":1076000000000,"state":"active","ping":65},{"user_id":494,"name":"SpockASD","steam_id":76561198830243167,"connected_time":4363000000000,"state":"active","ping":66},{"user_id":534,"name":"Rex NITRO","steam_id":76561198165374439,"connected_time":2612000000000,"state":"active","ping":62},{"user_id":524,"name":"chippy","steam_id":76561198079655664,"connected_time":3153000000000,"state":"active","ping":80},{"user_id":548,"name":"Twinkie Esquire","steam_id":76561199416942848,"connected_time":965000000000,"state":"active","ping":63},{"user_id":546,"name":"StarB","steam_id":76561198149605368,"connected_time":1035000000000,"state":"active","ping":83},{"user_id":547,"name":"Luca!","steam_id":76561198137880777,"connected_time":1032000000000,"state":"active","ping":73},{"user_id":512,"name":"ethanf","steam_id":76561198103930234,"connected_time":3775000000000,"state":"active","ping":47},{"user_id":496,"name":"I'm not a rapper","steam_id":76561198307516731,"connected_time":4360000000000,"state":"active","ping":78},{"user_id":497,"name":"lal","steam_id":76561198243965308,"connected_time":4347000000000,"state":"active","ping":96},{"user_id":511,"name":"ECCO","steam_id":76561198002821513,"connected_time":3869000000000,"state":"active","ping":61},{"user_id":498,"name":"Mercy!Avatar","steam_id":76561199113870006,"connected_time":4343000000000,"state":"active","ping":63},{"user_id":499,"name":"The Assistant Regional Manager","steam_id":76561199221484936,"connected_time":4330000000000,"state":"active","ping":119},{"user_id":513,"name":"Sunflower","steam_id":76561198081223793,"connected_time":3771000000000,"state":"active","ping":63},{"user_id":514,"name":"big chungus wholesome 9000","steam_id":76561198111259720,"connected_time":3770000000000,"state":"active","ping":66},{"user_id":529,"name":"Tobo","steam_id":76561198085846393,"connected_time":2732000000000,"state":"active","ping":92},{"user_id":551,"name":"KASHI","steam_id":76561198045285049,"connected_time":107000000000,"state":"active","ping":73},{"user_id":521,"name":"I lost my temper on stage","steam_id":76561198340079559,"connected_time":3535000000000,"state":"active","ping":64},{"user_id":550,"name":"Dr. Kalahari","steam_id":76561198062731079,"connected_time":636000000000,"state":"active","ping":69},{"user_id":507,"name":"Ignatious Guster","steam_id":76561198170840838,"connected_time":4220000000000,"state":"active","ping":73}]},{"server_id":38,"name":"Uncletopia | Chicago | 7 | Stopwatch","name_short":"chi-7","host":"chi-2.us.uncletopia.com","port":27035,"enabled":true,"region":"us-central","cc":"us","latitude":41.881832,"longitude":-87.62318,"reserved":0,"last_update":"0001-01-01T00:00:00Z","name_a2s":"Uncletopia | Chicago | 7 | Stopwatch","protocol":17,"map":"workshop/koth_ramjam_rc1.ugc459778887","folder":"tf","game":"Team Fortress","app_id":440,"player_count":0,"max_players":24,"Bots":0,"server_type":"Dedicated","server_os":"Linux","password":true,"vac":true,"version":"7961495","steam_id":85568392924866364,"keywords":["cp","nocrits","nodmgspread","uncletopia"],"game_id":440,"stv_port":27036,"stv_name":"Uncletopia | Chicago | 7 | Stopwatch | STV","players":null},{"server_id":39,"name":"Uncletopia | Chicago | 8 | Community","name_short":"chi-8","host":"chi-2.us.uncletopia.com","port":27045,"enabled":true,"region":"us-central","cc":"us","latitude":41.881832,"longitude":-87.62318,"reserved":0,"last_update":"0001-01-01T00:00:00Z","name_a2s":"Uncletopia | Chicago | 8 | Community","protocol":17,"map":"workshop/rd_asteroid_redux_b1.ugc2154902912","folder":"tf","game":"Team Fortress","app_id":440,"player_count":0,"max_players":24,"Bots":0,"server_type":"Dedicated","server_os":"Linux","password":true,"vac":true,"version":"7961495","steam_id":85568392924866365,"keywords":["beta","nocrits","nodmgspread","rd","uncletopia"],"game_id":440,"stv_port":27046,"stv_name":"Uncletopia | Chicago | 8 | Community | STV","players":null},{"server_id":8,"name":"Uncletopia | Dallas | 1 | All Maps","name_short":"dal-1","host":"dal-1.us.uncletopia.com","port":27015,"enabled":true,"region":"us-central","cc":"us","latitude":32.779167,"longitude":-96.80889,"reserved":0,"last_update":"0001-01-01T00:00:00Z","name_a2s":"Uncletopia | Dallas | 1 | All Maps","protocol":17,"map":"pl_snowycoast","folder":"tf","game":"Team Fortress","app_id":440,"player_count":24,"max_players":24,"Bots":0,"server_type":"Dedicated","server_os":"Linux","password":true,"vac":true,"version":"7961495","steam_id":85568392924469986,"keywords":["nocrits","nodmgspread","payload","uncletopia"],"game_id":440,"stv_port":27016,"stv_name":"Uncletopia | Dallas | 1 | All Maps | STV","players":[{"user_id":851,"name":"IZISOO","steam_id":76561198970380577,"connected_time":589000000000,"state":"active","ping":71},{"user_id":841,"name":"Grand Piano Tuna","steam_id":76561198135137213,"connected_time":929000000000,"state":"active","ping":48},{"user_id":828,"name":"HalfDead","steam_id":76561198049700226,"connected_time":1232000000000,"state":"active","ping":103},{"user_id":854,"name":"Bogey","steam_id":76561198096227944,"connected_time":180000000000,"state":"active","ping":51},{"user_id":826,"name":"jc11111","steam_id":76561199342965693,"connected_time":1275000000000,"state":"active","ping":89},{"user_id":827,"name":"Iaskedgaming","steam_id":76561199191154439,"connected_time":1254000000000,"state":"active","ping":72},{"user_id":844,"name":"Underscorn","steam_id":76561198374209415,"connected_time":799000000000,"state":"active","ping":58},{"user_id":807,"name":"catrinaisahuman","steam_id":76561198281355729,"connected_time":2356000000000,"state":"active","ping":60},{"user_id":819,"name":"Jurassicsteel24","steam_id":76561199019369817,"connected_time":1807000000000,"state":"active","ping":92},{"user_id":809,"name":"dave :3","steam_id":76561198135961731,"connected_time":2231000000000,"state":"active","ping":55},{"user_id":787,"name":"tsz","steam_id":76561199246231090,"connected_time":4441000000000,"state":"active","ping":87},{"user_id":810,"name":"ArcticBird","steam_id":76561198076681105,"connected_time":2140000000000,"state":"active","ping":88},{"user_id":843,"name":"poggerchamp","steam_id":76561199145124973,"connected_time":867000000000,"state":"active","ping":53},{"user_id":812,"name":"yj ♡","steam_id":76561198071594527,"connected_time":1965000000000,"state":"active","ping":115},{"user_id":853,"name":"Sarbanes-Oxley","steam_id":76561197975898479,"connected_time":182000000000,"state":"active","ping":52},{"user_id":814,"name":"Van Tastic","steam_id":76561198063855523,"connected_time":1948000000000,"state":"active","ping":42},{"user_id":846,"name":"hounschellxd","steam_id":76561198165243870,"connected_time":728000000000,"state":"active","ping":47},{"user_id":763,"name":"Butteryback","steam_id":76561198049642485,"connected_time":6063000000000,"state":"active","ping":60},{"user_id":830,"name":"Remix.SMG","steam_id":76561198052895933,"connected_time":1190000000000,"state":"active","ping":90},{"user_id":852,"name":"The Caretaker","steam_id":76561198125241411,"connected_time":417000000000,"state":"active","ping":102},{"user_id":850,"name":"(´｡• ω •｡`) ♡","steam_id":76561198120326983,"connected_time":617000000000,"state":"active","ping":50},{"user_id":849,"name":"Cottoneyes","steam_id":76561197994730627,"connected_time":630000000000,"state":"active","ping":73},{"user_id":834,"name":"Velocity","steam_id":76561198188085449,"connected_time":1149000000000,"state":"active","ping":86},{"user_id":837,"name":"GlizzyGladiator","steam_id":76561199292174534,"connected_time":1067000000000,"state":"active","ping":91}]},{"server_id":108,"name":"Uncletopia | Dallas | 2 | All Maps","name_short":"dal-2","host":"dal-1.us.uncletopia.com","port":27025,"enabled":true,"region":"us-central","cc":"us","latitude":32.779167,"longitude":-96.80889,"reserved":0,"last_update":"0001-01-01T00:00:00Z","name_a2s":"Uncletopia | Dallas | 2 | All Maps","protocol":17,"map":"pl_upward","folder":"tf","game":"Team Fortress","app_id":440,"player_count":24,"max_players":24,"Bots":0,"server_type":"Dedicated","server_os":"Linux","password":true,"vac":true,"version":"7961495","steam_id":85568392924469988,"keywords":["nocrits","nodmgspread","payload","uncletopia"],"game_id":440,"stv_port":27026,"stv_name":"Uncletopia | Dallas | 2 | All Maps | STV","players":[{"user_id":683,"name":"Certified Hood Classic","steam_id":76561199086159354,"connected_time":1492000000000,"state":"active","ping":56},{"user_id":669,"name":"⛧1-800-INN-KEEP⛧","steam_id":76561198012055277,"connected_time":4266000000000,"state":"active","ping":88},{"user_id":693,"name":"Gadmt_","steam_id":76561198077910059,"connected_time":1305000000000,"state":"active","ping":71},{"user_id":661,"name":"grunch","steam_id":76561198354292689,"connected_time":4885000000000,"state":"active","ping":52},{"user_id":687,"name":"PTR","steam_id":76561198237253772,"connected_time":1454000000000,"state":"active","ping":48},{"user_id":682,"name":"Doctor Emerald(bison boss)","steam_id":76561199123003872,"connected_time":1638000000000,"state":"active","ping":88},{"user_id":680,"name":"Heatflamesmen","steam_id":76561198212578115,"connected_time":3027000000000,"state":"active","ping":95},{"user_id":688,"name":"LIMBS","steam_id":76561198101220604,"connected_time":1428000000000,"state":"active","ping":90},{"user_id":686,"name":"rf","steam_id":76561199018207049,"connected_time":1454000000000,"state":"active","ping":69},{"user_id":663,"name":"Harpwing","steam_id":76561198076741105,"connected_time":4714000000000,"state":"active","ping":86},{"user_id":697,"name":"DustBowl TF2","steam_id":76561199171572966,"connected_time":885000000000,"state":"active","ping":55},{"user_id":656,"name":"AzuriousAlex","steam_id":76561198158026405,"connected_time":5817000000000,"state":"active","ping":76},{"user_id":674,"name":"Hornk","steam_id":76561197988393372,"connected_time":4087000000000,"state":"active","ping":77},{"user_id":694,"name":"Majestic-A","steam_id":76561198988062101,"connected_time":1217000000000,"state":"active","ping":95},{"user_id":701,"name":"Expand Dong","steam_id":76561198048159150,"connected_time":822000000000,"state":"active","ping":71},{"user_id":677,"name":"bismuth casual","steam_id":76561198090412935,"connected_time":3074000000000,"state":"active","ping":56},{"user_id":636,"name":"tf2 noob vs pro","steam_id":76561198120973162,"connected_time":6968000000000,"state":"active","ping":91},{"user_id":660,"name":"kaputon","steam_id":76561198146299782,"connected_time":5065000000000,"state":"active","ping":75},{"user_id":681,"name":"KhorneBread ︻デ 一","steam_id":76561198097069958,"connected_time":2976000000000,"state":"active","ping":96},{"user_id":702,"name":"Mr. Hankey","steam_id":76561198872852200,"connected_time":605000000000,"state":"active","ping":143},{"user_id":629,"name":"tf2 toddler","steam_id":76561198051310816,"connected_time":8156000000000,"state":"active","ping":43},{"user_id":700,"name":"Jaydyn","steam_id":76561198140326797,"connected_time":837000000000,"state":"active","ping":94},{"user_id":673,"name":"✩Boski✩","steam_id":76561197999945008,"connected_time":4205000000000,"state":"active","ping":95},{"user_id":584,"name":"TheGreythreat","steam_id":76561198021995538,"connected_time":11035000000000,"state":"active","ping":90}]},{"server_id":404,"name":"Uncletopia | Dallas | 3 | All Maps","name_short":"dal-3","host":"dal-1.us.uncletopia.com","port":27035,"enabled":true,"region":"us-central","cc":"us","latitude":32.779167,"longitude":-96.80889,"reserved":0,"last_update":"0001-01-01T00:00:00Z","name_a2s":"Uncletopia | Dallas | 3 | All Maps","protocol":17,"map":"pl_badwater","folder":"tf","game":"Team Fortress","app_id":440,"player_count":24,"max_players":24,"Bots":0,"server_type":"Dedicated","server_os":"Linux","password":true,"vac":true,"version":"7961495","steam_id":85568392924515219,"keywords":["nocrits","nodmgspread","payload","uncletopia"],"game_id":440,"stv_port":27036,"stv_name":"Uncletopia | Dallas | 3 | All Maps | STV","players":[{"user_id":368,"name":"Mix56374","steam_id":76561199093717909,"connected_time":430000000000,"state":"active","ping":91},{"user_id":338,"name":"Lemonade Juice","steam_id":76561198402892608,"connected_time":3116000000000,"state":"active","ping":73},{"user_id":308,"name":"Boyz in heat","steam_id":76561198042327471,"connected_time":5527000000000,"state":"active","ping":100},{"user_id":369,"name":"pyros_beans","steam_id":76561198421569712,"connected_time":428000000000,"state":"active","ping":74},{"user_id":367,"name":"Spaceman","steam_id":76561198098025074,"connected_time":513000000000,"state":"active","ping":77},{"user_id":370,"name":"EnragedWaters","steam_id":76561198317135757,"connected_time":403000000000,"state":"active","ping":88},{"user_id":344,"name":"Magnet Dood","steam_id":76561198364178746,"connected_time":2518000000000,"state":"active","ping":75},{"user_id":345,"name":"WiteBord","steam_id":76561198891799301,"connected_time":2466000000000,"state":"active","ping":80},{"user_id":366,"name":"JohnnyGitGud","steam_id":76561198401455467,"connected_time":556000000000,"state":"active","ping":99},{"user_id":346,"name":"-W3E- ILikeLuna","steam_id":76561198140003332,"connected_time":2447000000000,"state":"active","ping":86},{"user_id":362,"name":"Lore","steam_id":76561198098407538,"connected_time":1288000000000,"state":"active","ping":74},{"user_id":371,"name":"Kelbo","steam_id":76561197999557126,"connected_time":402000000000,"state":"active","ping":45},{"user_id":313,"name":"Garrus","steam_id":76561198035649276,"connected_time":5347000000000,"state":"active","ping":96},{"user_id":372,"name":"ginosaurusx","steam_id":76561198410640142,"connected_time":399000000000,"state":"active","ping":93},{"user_id":347,"name":"CopperFlame","steam_id":76561198138257957,"connected_time":2419000000000,"state":"active","ping":99},{"user_id":348,"name":"tibbar rellik","steam_id":76561198169172853,"connected_time":2417000000000,"state":"active","ping":75},{"user_id":373,"name":"Shotty Man","steam_id":76561198175255334,"connected_time":382000000000,"state":"active","ping":40},{"user_id":353,"name":"Muselk","steam_id":76561199289676387,"connected_time":2321000000000,"state":"active","ping":65},{"user_id":374,"name":"Five","steam_id":76561198026640473,"connected_time":381000000000,"state":"active","ping":63},{"user_id":283,"name":"cake.","steam_id":76561198036167388,"connected_time":8408000000000,"state":"active","ping":68},{"user_id":352,"name":"Levi","steam_id":76561198089832776,"connected_time":2336000000000,"state":"active","ping":53},{"user_id":360,"name":"koisamis","steam_id":76561198364459442,"connected_time":1458000000000,"state":"active","ping":61},{"user_id":378,"name":"Artic_Ryuu","steam_id":76561198182194918,"connected_time":134000000000,"state":"active","ping":74},{"user_id":377,"name":"American Steel","steam_id":76561198101116197,"connected_time":290000000000,"state":"active","ping":126}]},{"server_id":405,"name":"Uncletopia | Dallas | 4 | Community","name_short":"dal-4","host":"dal-1.us.uncletopia.com","port":27045,"enabled":true,"region":"us-central","cc":"us","latitude":32.779167,"longitude":-96.80889,"reserved":0,"last_update":"0001-01-01T00:00:00Z","name_a2s":"Uncletopia | Dallas | 4 | Community","protocol":17,"map":"workshop/pl_badwater_pro_v12.ugc2142942074","folder":"tf","game":"Team Fortress","app_id":440,"player_count":0,"max_players":24,"Bots":0,"server_type":"Dedicated","server_os":"Linux","password":true,"vac":true,"version":"7961495","steam_id":85568392924515220,"keywords":["nocrits","nodmgspread","payload","uncletopia"],"game_id":440,"stv_port":27046,"stv_name":"Uncletopia | Dallas | 4 | Community | STV","players":null},{"server_id":5,"name":"Uncletopia | Frankfurt | 1 | All Maps","name_short":"frk-1","host":"frk-1.de.uncletopia.com","port":27015,"enabled":true,"region":"eu","cc":"de","latitude":50.110924,"longitude":8.682127,"reserved":0,"last_update":"0001-01-01T00:00:00Z","name_a2s":"Uncletopia | Frankfurt | 1 | All Maps","protocol":17,"map":"koth_highpass","folder":"tf","game":"Team Fortress","app_id":440,"player_count":0,"max_players":24,"Bots":0,"server_type":"Dedicated","server_os":"Linux","password":true,"vac":true,"version":"7961495","steam_id":85568392924469989,"keywords":["cp","nocrits","nodmgspread","uncletopia"],"game_id":440,"stv_port":27016,"stv_name":"Uncletopia | Frankfurt | 1 | All Maps | STV","players":null},{"server_id":110,"name":"Uncletopia | Frankfurt | 2 | All Maps","name_short":"frk-2","host":"frk-1.de.uncletopia.com","port":27025,"enabled":true,"region":"eu","cc":"de","latitude":50.110924,"longitude":8.682127,"reserved":0,"last_update":"0001-01-01T00:00:00Z","name_a2s":"Uncletopia | Frankfurt | 2 | All Maps","protocol":17,"map":"cp_dustbowl","folder":"tf","game":"Team Fortress","app_id":440,"player_count":0,"max_players":24,"Bots":0,"server_type":"Dedicated","server_os":"Linux","password":true,"vac":true,"version":"7961495","steam_id":85568392924469990,"keywords":["cp","nocrits","nodmgspread","uncletopia"],"game_id":440,"stv_port":27026,"stv_name":"Uncletopia | Frankfurt | 2 | All Maps | STV","players":null},{"server_id":308,"name":"Uncletopia | Frankfurt | 3 | All Maps","name_short":"frk-3","host":"frk-1.de.uncletopia.com","port":27035,"enabled":true,"region":"eu","cc":"de","latitude":50.110924,"longitude":8.682127,"reserved":0,"last_update":"0001-01-01T00:00:00Z","name_a2s":"Uncletopia | Frankfurt | 3 | All Maps","protocol":17,"map":"pl_barnblitz","folder":"tf","game":"Team Fortress","app_id":440,"player_count":0,"max_players":24,"Bots":0,"server_type":"Dedicated","server_os":"Linux","password":true,"vac":true,"version":"7961495","steam_id":85568392924504274,"keywords":["nocrits","nodmgspread","payload","uncletopia"],"game_id":440,"stv_port":27036,"stv_name":"Uncletopia | Frankfurt | 3 | All Maps | STV","players":null},{"server_id":309,"name":"Uncletopia | Frankfurt | 4 | All Maps","name_short":"frk-4","host":"frk-1.de.uncletopia.com","port":27045,"enabled":true,"region":"eu","cc":"de","latitude":50.110924,"longitude":8.682127,"reserved":0,"last_update":"0001-01-01T00:00:00Z","name_a2s":"Uncletopia | Frankfurt | 4 | All Maps","protocol":17,"map":"koth_highpass","folder":"tf","game":"Team Fortress","app_id":440,"player_count":0,"max_players":24,"Bots":0,"server_type":"Dedicated","server_os":"Linux","password":true,"vac":true,"version":"7961495","steam_id":85568392924504275,"keywords":["cp","nocrits","nodmgspread","uncletopia"],"game_id":440,"stv_port":27046,"stv_name":"Uncletopia | Frankfurt | 4 | All Maps | STV","players":null},{"server_id":310,"name":"Uncletopia | Frankfurt | 5 | All Maps","name_short":"frk-5","host":"frk-1.de.uncletopia.com","port":27055,"enabled":true,"region":"eu","cc":"de","latitude":50.110924,"longitude":8.682127,"reserved":0,"last_update":"0001-01-01T00:00:00Z","name_a2s":"Uncletopia | Frankfurt | 5 | All Maps","protocol":17,"map":"pl_badwater","folder":"tf","game":"Team Fortress","app_id":440,"player_count":0,"max_players":24,"Bots":0,"server_type":"Dedicated","server_os":"Linux","password":true,"vac":true,"version":"7961495","steam_id":85568392924504277,"keywords":["nocrits","nodmgspread","payload","uncletopia"],"game_id":440,"stv_port":27056,"stv_name":"Uncletopia | Frankfurt | 5 | All Maps | STV","players":null},{"server_id":311,"name":"Uncletopia | Frankfurt | 6 | All Maps","name_short":"frk-6","host":"frk-1.de.uncletopia.com","port":27065,"enabled":true,"region":"eu","cc":"de","latitude":50.110924,"longitude":8.682127,"reserved":0,"last_update":"0001-01-01T00:00:00Z","name_a2s":"Uncletopia | Frankfurt | 6 | All Maps","protocol":17,"map":"cp_altitude","folder":"tf","game":"Team Fortress","app_id":440,"player_count":0,"max_players":24,"Bots":0,"server_type":"Dedicated","server_os":"Linux","password":true,"vac":true,"version":"7961495","steam_id":85568392924504278,"keywords":["cp","nocrits","nodmgspread","uncletopia"],"game_id":440,"stv_port":27066,"stv_name":"Uncletopia | Frankfurt | 6 | All Maps | STV","players":null},{"server_id":23,"name":"Uncletopia | Frankfurt | 7 | Stopwatch","name_short":"frk-7","host":"frk-1.de.uncletopia.com","port":27075,"enabled":true,"region":"eu","cc":"de","latitude":50.110924,"longitude":8.682127,"reserved":0,"last_update":"0001-01-01T00:00:00Z","name_a2s":"Uncletopia | Frankfurt | 7 | Stopwatch","protocol":17,"map":"pl_frontier_final","folder":"tf","game":"Team Fortress","app_id":440,"player_count":0,"max_players":24,"Bots":0,"server_type":"Dedicated","server_os":"Linux","password":true,"vac":true,"version":"7961495","steam_id":85568392924742827,"keywords":["nocrits","nodmgspread","payload","uncletopia"],"game_id":440,"stv_port":27076,"stv_name":"Uncletopia | Frankfurt | 7 | Stopwatch | STV","players":null},{"server_id":24,"name":"Uncletopia | Frankfurt | 8 | Community","name_short":"frk-8","host":"frk-1.de.uncletopia.com","port":27085,"enabled":true,"region":"eu","cc":"de","latitude":50.110924,"longitude":8.682127,"reserved":0,"last_update":"0001-01-01T00:00:00Z","name_a2s":"Uncletopia | Frankfurt | 8 | Community","protocol":17,"map":"cp_mountainlab","folder":"tf","game":"Team Fortress","app_id":440,"player_count":0,"max_players":24,"Bots":0,"server_type":"Dedicated","server_os":"Linux","password":true,"vac":true,"version":"7961495","steam_id":85568392924742828,"keywords":["cp","nocrits","nodmgspread","uncletopia"],"game_id":440,"stv_port":27086,"stv_name":"Uncletopia | Frankfurt | 8 | Community | STV","players":null},{"server_id":202,"name":"Uncletopia | Hong Kong | 1 | All Maps","name_short":"hgk-1","host":"hgk-1.hk.uncletopia.com","port":27015,"enabled":true,"region":"asia","cc":"hk","latitude":22.302711,"longitude":114.177216,"reserved":0,"last_update":"0001-01-01T00:00:00Z","name_a2s":"Uncletopia | Hong Kong | 1 | All Maps","protocol":17,"map":"pl_badwater","folder":"tf","game":"Team Fortress","app_id":440,"player_count":24,"max_players":24,"Bots":0,"server_type":"Dedicated","server_os":"Linux","password":true,"vac":true,"version":"7961495","steam_id":85568392924494504,"keywords":["nocrits","nodmgspread","payload","uncletopia"],"game_id":440,"stv_port":27016,"stv_name":"Uncletopia | Hong Kong | 1 | All Maps | STV","players":[{"user_id":177,"name":"+","steam_id":76561198121311286,"connected_time":247000000000,"state":"active","ping":159},{"user_id":176,"name":"RAHHHHH!!!!!!!","steam_id":76561198324008555,"connected_time":274000000000,"state":"active","ping":64},{"user_id":137,"name":"Lu","steam_id":76561198320532821,"connected_time":2919000000000,"state":"active","ping":63},{"user_id":65,"name":"piston","steam_id":76561198992723983,"connected_time":8691000000000,"state":"active","ping":96},{"user_id":164,"name":"toadツ","steam_id":76561198082199290,"connected_time":1635000000000,"state":"active","ping":43},{"user_id":97,"name":"beet juice","steam_id":76561198055553140,"connected_time":6402000000000,"state":"active","ping":78},{"user_id":158,"name":"fred \\ need premium","steam_id":76561199496222946,"connected_time":2031000000000,"state":"active","ping":100},{"user_id":159,"name":"Alka","steam_id":76561198268872312,"connected_time":1984000000000,"state":"active","ping":71},{"user_id":160,"name":"Pillboi","steam_id":76561198011172886,"connected_time":1867000000000,"state":"active","ping":40},{"user_id":174,"name":"Dude Time","steam_id":76561198092991160,"connected_time":718000000000,"state":"active","ping":143},{"user_id":141,"name":"lerry","steam_id":76561199137927625,"connected_time":2804000000000,"state":"active","ping":99},{"user_id":162,"name":"Fish man F2P#save tf2","steam_id":76561199225977302,"connected_time":1816000000000,"state":"active","ping":155},{"user_id":172,"name":"miming","steam_id":76561198337154745,"connected_time":1063000000000,"state":"active","ping":135},{"user_id":165,"name":"karnolyth","steam_id":76561198965473654,"connected_time":1591000000000,"state":"active","ping":78},{"user_id":166,"name":"Fuging Fuged Fugation","steam_id":76561198444851822,"connected_time":1515000000000,"state":"active","ping":71},{"user_id":175,"name":"Dell Conagher","steam_id":76561198853001370,"connected_time":713000000000,"state":"active","ping":72},{"user_id":73,"name":"xPhid","steam_id":76561199080808930,"connected_time":8300000000000,"state":"active","ping":67},{"user_id":136,"name":"screaming sniper","steam_id":76561199085568674,"connected_time":3165000000000,"state":"active","ping":74},{"user_id":169,"name":"LIBERTY110","steam_id":76561199365952747,"connected_time":1306000000000,"state":"active","ping":100},{"user_id":107,"name":"Juan.","steam_id":76561199017347636,"connected_time":5490000000000,"state":"active","ping":44},{"user_id":171,"name":"sigmasoyboy","steam_id":76561198073947200,"connected_time":1071000000000,"state":"active","ping":86},{"user_id":178,"name":"noob pyro of all time","steam_id":76561198074339034,"connected_time":226000000000,"state":"active","ping":77},{"user_id":179,"name":"corpse_cadaver","steam_id":76561199225360457,"connected_time":43000000000,"state":"active","ping":86},{"user_id":122,"name":"avered (still sick)","steam_id":76561199480939609,"connected_time":3837000000000,"state":"active","ping":82}]},{"server_id":1,"name":"Uncletopia | Los Angeles | 1 | All Maps","name_short":"lax-1","host":"lax-1.us.uncletopia.com","port":27015,"enabled":true,"region":"us-west","cc":"us","latitude":33.94279,"longitude":-118.41004,"reserved":0,"last_update":"0001-01-01T00:00:00Z","name_a2s":"Uncletopia | Los Angeles | 1 | All Maps","protocol":17,"map":"cp_mercenarypark","folder":"tf","game":"Team Fortress","app_id":440,"player_count":22,"max_players":24,"Bots":0,"server_type":"Dedicated","server_os":"Linux","password":true,"vac":true,"version":"7961495","steam_id":85568392924469991,"keywords":["cp","nocrits","nodmgspread","uncletopia"],"game_id":440,"stv_port":27016,"stv_name":"Uncletopia | Los Angeles | 1 | All Maps | STV","players":[{"user_id":568,"name":"Saddam","steam_id":76561197985725267,"connected_time":271000000000,"state":"active","ping":88},{"user_id":549,"name":"Ricochet Pro","steam_id":76561198005328215,"connected_time":1594000000000,"state":"active","ping":68},{"user_id":476,"name":"Optimore","steam_id":76561198047662990,"connected_time":6744000000000,"state":"active","ping":43},{"user_id":572,"name":"1000 Ping","steam_id":76561198098330939,"connected_time":168000000000,"state":"active","ping":67},{"user_id":497,"name":"full of pilk","steam_id":76561198092716651,"connected_time":5398000000000,"state":"active","ping":75},{"user_id":571,"name":"Nato #ClashGG","steam_id":76561198161062837,"connected_time":185000000000,"state":"active","ping":54},{"user_id":554,"name":"gagobears","steam_id":76561198086008437,"connected_time":1453000000000,"state":"active","ping":75},{"user_id":556,"name":"walrooos","steam_id":76561198024521839,"connected_time":1233000000000,"state":"active","ping":38},{"user_id":502,"name":"Aibroc","steam_id":76561199164997748,"connected_time":5171000000000,"state":"active","ping":56},{"user_id":532,"name":"Fishandfish","steam_id":76561198298483804,"connected_time":2947000000000,"state":"active","ping":76},{"user_id":510,"name":"Buswolley","steam_id":76561197995205571,"connected_time":5024000000000,"state":"active","ping":55},{"user_id":550,"name":"C Sharp Minor","steam_id":76561199185191710,"connected_time":1585000000000,"state":"active","ping":114},{"user_id":573,"name":"Dealer","steam_id":76561198801450794,"connected_time":139000000000,"state":"active","ping":124},{"user_id":547,"name":"bcizzo","steam_id":76561197994399953,"connected_time":1655000000000,"state":"active","ping":66},{"user_id":558,"name":"Elbertson, Jeremy 37","steam_id":76561199117157198,"connected_time":1200000000000,"state":"active","ping":78},{"user_id":574,"name":"lasky","steam_id":76561198017030029,"connected_time":44000000000,"state":"active","ping":51},{"user_id":561,"name":"Squatter1","steam_id":76561198078987734,"connected_time":1147000000000,"state":"active","ping":75},{"user_id":512,"name":"Thunder","steam_id":76561198097721532,"connected_time":4932000000000,"state":"active","ping":52},{"user_id":565,"name":"Beanz :)","steam_id":76561199434233117,"connected_time":1022000000000,"state":"active","ping":72},{"user_id":566,"name":"ElectronX","steam_id":76561198116034988,"connected_time":1003000000000,"state":"active","ping":57},{"user_id":562,"name":"JustAnotherHuman","steam_id":76561199018122924,"connected_time":1117000000000,"state":"active","ping":91},{"user_id":563,"name":"SHANE","steam_id":76561198113500520,"connected_time":1114000000000,"state":"active","ping":68}]},{"server_id":112,"name":"Uncletopia | Los Angeles | 2 | All Maps","name_short":"lax-2","host":"lax-1.us.uncletopia.com","port":27025,"enabled":true,"region":"us-west","cc":"us","latitude":33.94279,"longitude":-118.41004,"reserved":0,"last_update":"0001-01-01T00:00:00Z","name_a2s":"Uncletopia | Los Angeles | 2 | All Maps","protocol":17,"map":"cp_dustbowl","folder":"tf","game":"Team Fortress","app_id":440,"player_count":23,"max_players":24,"Bots":0,"server_type":"Dedicated","server_os":"Linux","password":true,"vac":true,"version":"7961495","steam_id":85568392924469992,"keywords":["cp","nocrits","nodmgspread","uncletopia"],"game_id":440,"stv_port":27026,"stv_name":"Uncletopia | Los Angeles | 2 | All Maps | STV","players":[{"user_id":214,"name":"Rennsellaer","steam_id":76561198096207580,"connected_time":4271000000000,"state":"active","ping":51},{"user_id":240,"name":"Madz","steam_id":76561197980025933,"connected_time":2288000000000,"state":"active","ping":70},{"user_id":258,"name":"Mr. Enforce","steam_id":76561198362168020,"connected_time":393000000000,"state":"active","ping":105},{"user_id":254,"name":"sora","steam_id":76561198094256973,"connected_time":1227000000000,"state":"active","ping":68},{"user_id":184,"name":"kobold gaming","steam_id":76561198259650356,"connected_time":7974000000000,"state":"active","ping":73},{"user_id":259,"name":"ChoccyMiltank","steam_id":76561198981474284,"connected_time":363000000000,"state":"active","ping":49},{"user_id":216,"name":"Rocktra_","steam_id":76561198173272943,"connected_time":4180000000000,"state":"active","ping":71},{"user_id":260,"name":"lshleo","steam_id":76561198366975960,"connected_time":360000000000,"state":"active","ping":187},{"user_id":261,"name":"waggyaggy","steam_id":76561197998241407,"connected_time":358000000000,"state":"active","ping":45},{"user_id":246,"name":"Mr Gucci 1001","steam_id":76561199060368456,"connected_time":1747000000000,"state":"active","ping":67},{"user_id":203,"name":"HeroOfTime","steam_id":76561199096218001,"connected_time":5826000000000,"state":"active","ping":54},{"user_id":248,"name":"Talented","steam_id":76561198800259660,"connected_time":1717000000000,"state":"active","ping":119},{"user_id":247,"name":"Zana","steam_id":76561198075908156,"connected_time":1731000000000,"state":"active","ping":79},{"user_id":210,"name":"Soloman Gumball","steam_id":76561198171077434,"connected_time":4618000000000,"state":"active","ping":105},{"user_id":262,"name":"Spring Beans","steam_id":76561197978546259,"connected_time":337000000000,"state":"active","ping":69},{"user_id":253,"name":"HP LaserJet Pro Wireless Printe","steam_id":76561199064676814,"connected_time":1321000000000,"state":"active","ping":78},{"user_id":221,"name":"[ØWQJØ]chubacaalatake","steam_id":76561198136201697,"connected_time":3704000000000,"state":"active","ping":94},{"user_id":263,"name":"Jesus Epstein","steam_id":76561198203047891,"connected_time":333000000000,"state":"active","ping":49},{"user_id":257,"name":"Seshreb","steam_id":76561198846614634,"connected_time":724000000000,"state":"active","ping":67},{"user_id":237,"name":"weed lesbian","steam_id":76561198042263805,"connected_time":2743000000000,"state":"active","ping":86},{"user_id":265,"name":"ashwee","steam_id":76561198204926435,"connected_time":299000000000,"state":"active","ping":66},{"user_id":233,"name":"otwtomarsoffdabars(spacecore)","steam_id":76561199085974120,"connected_time":3211000000000,"state":"active","ping":115},{"user_id":242,"name":"Therapy Goth","steam_id":76561198048448497,"connected_time":2139000000000,"state":"active","ping":122}]},{"server_id":324,"name":"Uncletopia | Los Angeles | 3 | All Maps","name_short":"lax-3","host":"lax-1.us.uncletopia.com","port":27035,"enabled":true,"region":"us-west","cc":"us","latitude":33.94279,"longitude":-118.41004,"reserved":0,"last_update":"0001-01-01T00:00:00Z","name_a2s":"Uncletopia | Los Angeles | 3 | All Maps","protocol":17,"map":"pl_thundermountain","folder":"tf","game":"Team Fortress","app_id":440,"player_count":24,"max_players":24,"Bots":0,"server_type":"Dedicated","server_os":"Linux","password":true,"vac":true,"version":"7961495","steam_id":85568392924510198,"keywords":["nocrits","nodmgspread","payload","uncletopia"],"game_id":440,"stv_port":27036,"stv_name":"Uncletopia | Los Angeles | 3 | All Maps | STV","players":[{"user_id":230,"name":"fish","steam_id":76561198182052198,"connected_time":1817000000000,"state":"active","ping":119},{"user_id":246,"name":"THE man is EPIC","steam_id":76561198085410777,"connected_time":982000000000,"state":"active","ping":94},{"user_id":231,"name":"elder scrolls 6","steam_id":76561198113364714,"connected_time":1736000000000,"state":"active","ping":104},{"user_id":260,"name":"Cheesemunk615","steam_id":76561198894876439,"connected_time":553000000000,"state":"active","ping":72},{"user_id":266,"name":"Atrick07","steam_id":76561198381603908,"connected_time":194000000000,"state":"active","ping":57},{"user_id":234,"name":"Arrythmia","steam_id":76561198093748123,"connected_time":1587000000000,"state":"active","ping":75},{"user_id":235,"name":"Light Green","steam_id":76561199125221195,"connected_time":1545000000000,"state":"active","ping":51},{"user_id":171,"name":"MarioLuigi0404","steam_id":76561198252513650,"connected_time":6536000000000,"state":"active","ping":96},{"user_id":232,"name":"SyNing","steam_id":76561198213435803,"connected_time":1724000000000,"state":"active","ping":114},{"user_id":249,"name":"rat scalper #selling NFTs","steam_id":76561198075544930,"connected_time":880000000000,"state":"active","ping":79},{"user_id":213,"name":"5kPrime","steam_id":76561198039471915,"connected_time":2876000000000,"state":"active","ping":92},{"user_id":242,"name":"a_hooman","steam_id":76561198888917114,"connected_time":1099000000000,"state":"active","ping":49},{"user_id":263,"name":"tgirl swag","steam_id":76561198128164970,"connected_time":509000000000,"state":"active","ping":53},{"user_id":245,"name":"TacoMan4Life","steam_id":76561198832562728,"connected_time":1041000000000,"state":"active","ping":59},{"user_id":250,"name":"AceCorpse739744","steam_id":76561198371054684,"connected_time":827000000000,"state":"active","ping":86},{"user_id":254,"name":"Windows Vista Home Premium","steam_id":76561198043764863,"connected_time":788000000000,"state":"active","ping":58},{"user_id":248,"name":"Fireheart888","steam_id":76561198044555953,"connected_time":929000000000,"state":"active","ping":82},{"user_id":143,"name":"High quality products87345","steam_id":76561198206506481,"connected_time":8637000000000,"state":"active","ping":54},{"user_id":258,"name":"steve","steam_id":76561198299922978,"connected_time":770000000000,"state":"active","ping":74},{"user_id":255,"name":"Whisper!","steam_id":76561198119609795,"connected_time":786000000000,"state":"active","ping":61},{"user_id":256,"name":"sea fish","steam_id":76561198098714487,"connected_time":785000000000,"state":"active","ping":72},{"user_id":264,"name":"[☯] randomshagz*","steam_id":76561197968666646,"connected_time":505000000000,"state":"active","ping":62},{"user_id":257,"name":"fiend","steam_id":76561198122159645,"connected_time":780000000000,"state":"active","ping":60},{"user_id":265,"name":"No More What Ifs","steam_id":76561198410957728,"connected_time":497000000000,"state":"active","ping":106}]},{"server_id":25,"name":"Uncletopia | Los Angeles | 4 | Stopwatch","name_short":"lax-4","host":"lax-1.us.uncletopia.com","port":27045,"enabled":true,"region":"us-west","cc":"us","latitude":33.94279,"longitude":-118.41004,"reserved":0,"last_update":"0001-01-01T00:00:00Z","name_a2s":"Uncletopia | Los Angeles | 4 | Stopwatch","protocol":17,"map":"workshop/koth_product_final.ugc454272353","folder":"tf","game":"Team Fortress","app_id":440,"player_count":0,"max_players":24,"Bots":0,"server_type":"Dedicated","server_os":"Linux","password":true,"vac":true,"version":"7961495","steam_id":85568392924510199,"keywords":["cp","nocrits","nodmgspread","uncletopia"],"game_id":440,"stv_port":27046,"stv_name":"Uncletopia | Los Angeles | 4 | Stopwatch | STV","players":null},{"server_id":11,"name":"Uncletopia | London | 1 | All Maps","name_short":"lon-1","host":"lon-1.uk.uncletopia.com","port":27015,"enabled":true,"region":"eu","cc":"gb","latitude":51.509865,"longitude":-0.118092,"reserved":0,"last_update":"0001-01-01T00:00:00Z","name_a2s":"Uncletopia | London | 1 | All Maps","protocol":17,"map":"koth_highpass","folder":"tf","game":"Team Fortress","app_id":440,"player_count":0,"max_players":24,"Bots":0,"server_type":"Dedicated","server_os":"Linux","password":true,"vac":true,"version":"7961495","steam_id":85568392924367362,"keywords":["cp","nocrits","nodmgspread","uncletopia"],"game_id":440,"stv_port":27016,"stv_name":"Uncletopia | London | 1 | All Maps | STV","players":null},{"server_id":114,"name":"Uncletopia | London | 2 | All Maps","name_short":"lon-2","host":"lon-1.uk.uncletopia.com","port":27025,"enabled":true,"region":"eu","cc":"gb","latitude":51.509865,"longitude":-0.118092,"reserved":0,"last_update":"0001-01-01T00:00:00Z","name_a2s":"Uncletopia | London | 2 | All Maps","protocol":17,"map":"koth_viaduct","folder":"tf","game":"Team Fortress","app_id":440,"player_count":13,"max_players":24,"Bots":0,"server_type":"Dedicated","server_os":"Linux","password":true,"vac":true,"version":"7961495","steam_id":85568392924470941,"keywords":["cp","nocrits","nodmgspread","uncletopia"],"game_id":440,"stv_port":27026,"stv_name":"Uncletopia | London | 2 | All Maps | STV","players":[{"user_id":28,"name":"Qdarks","steam_id":76561198013391340,"connected_time":720000000000,"state":"active","ping":129},{"user_id":32,"name":"OceanMan","steam_id":76561198391833371,"connected_time":379000000000,"state":"active","ping":38},{"user_id":33,"name":"cokemilk","steam_id":76561198122814249,"connected_time":223000000000,"state":"active","ping":41},{"user_id":6,"name":"Worm","steam_id":76561198296497176,"connected_time":2588000000000,"state":"active","ping":42},{"user_id":7,"name":"Walle","steam_id":76561197995148937,"connected_time":2577000000000,"state":"active","ping":75},{"user_id":8,"name":"Hydroxianchaos","steam_id":76561198043786828,"connected_time":2573000000000,"state":"active","ping":122},{"user_id":22,"name":"Biały","steam_id":76561197996016988,"connected_time":1199000000000,"state":"active","ping":75},{"user_id":34,"name":"stepmaslo2010","steam_id":76561199259901868,"connected_time":149000000000,"state":"active","ping":106},{"user_id":24,"name":"Enigmus","steam_id":76561197994063627,"connected_time":1136000000000,"state":"active","ping":78},{"user_id":12,"name":"Zamorocian","steam_id":76561198076604017,"connected_time":2533000000000,"state":"active","ping":41},{"user_id":13,"name":"BONK","steam_id":76561199120275042,"connected_time":2509000000000,"state":"active","ping":66},{"user_id":14,"name":"yuno appreciator","steam_id":76561198083286511,"connected_time":2474000000000,"state":"active","ping":42},{"user_id":35,"name":"dirty rascal","steam_id":76561198000871038,"connected_time":23000000000,"state":"spawning","ping":42}]},{"server_id":320,"name":"Uncletopia | London | 3 | All Maps","name_short":"lon-3","host":"lon-1.uk.uncletopia.com","port":27035,"enabled":true,"region":"eu","cc":"gb","latitude":51.509865,"longitude":-0.118092,"reserved":0,"last_update":"0001-01-01T00:00:00Z","name_a2s":"Uncletopia | London | 3 | All Maps","protocol":17,"map":"cp_process_final","folder":"tf","game":"Team Fortress","app_id":440,"player_count":0,"max_players":24,"Bots":0,"server_type":"Dedicated","server_os":"Linux","password":true,"vac":true,"version":"7961495","steam_id":85568392924510192,"keywords":["cp","nocrits","nodmgspread","uncletopia"],"game_id":440,"stv_port":27036,"stv_name":"Uncletopia | London | 3 | All Maps | STV","players":null},{"server_id":321,"name":"Uncletopia | London | 4 | All Maps","name_short":"lon-4","host":"lon-1.uk.uncletopia.com","port":27045,"enabled":true,"region":"eu","cc":"gb","latitude":51.509865,"longitude":-0.118092,"reserved":0,"last_update":"0001-01-01T00:00:00Z","name_a2s":"Uncletopia | London | 4 | All Maps","protocol":17,"map":"koth_cascade","folder":"tf","game":"Team Fortress","app_id":440,"player_count":0,"max_players":24,"Bots":0,"server_type":"Dedicated","server_os":"Linux","password":true,"vac":true,"version":"7961495","steam_id":85568392924510193,"keywords":["cp","nocrits","nodmgspread","uncletopia"],"game_id":440,"stv_port":27046,"stv_name":"Uncletopia | London | 4 | All Maps | STV","players":null},{"server_id":21,"name":"Uncletopia | London | 5 | All Maps","name_short":"lon-5","host":"lon-1.uk.uncletopia.com","port":27055,"enabled":true,"region":"eu","cc":"gb","latitude":51.509865,"longitude":-0.118092,"reserved":0,"last_update":"0001-01-01T00:00:00Z","name_a2s":"Uncletopia | London | 5 | All Maps","protocol":17,"map":"koth_lakeside_final","folder":"tf","game":"Team Fortress","app_id":440,"player_count":0,"max_players":24,"Bots":0,"server_type":"Dedicated","server_os":"Linux","password":true,"vac":true,"version":"7961495","steam_id":85568392924742829,"keywords":["cp","nocrits","nodmgspread","uncletopia"],"game_id":440,"stv_port":27056,"stv_name":"Uncletopia | London | 5 | All Maps | STV","players":null},{"server_id":22,"name":"Uncletopia | London | 6 | All Maps","name_short":"lon-6","host":"lon-1.uk.uncletopia.com","port":27065,"enabled":true,"region":"eu","cc":"gb","latitude":51.509865,"longitude":-0.118092,"reserved":0,"last_update":"0001-01-01T00:00:00Z","name_a2s":"Uncletopia | London | 6 | All Maps","protocol":17,"map":"cp_dustbowl","folder":"tf","game":"Team Fortress","app_id":440,"player_count":0,"max_players":24,"Bots":0,"server_type":"Dedicated","server_os":"Linux","password":true,"vac":true,"version":"7961495","steam_id":85568392924742830,"keywords":["cp","nocrits","nodmgspread","uncletopia"],"game_id":440,"stv_port":27066,"stv_name":"Uncletopia | London | 6 | All Maps | STV","players":null},{"server_id":40,"name":"Uncletopia | London | 7 | Stopwatch","name_short":"lon-7","host":"lon-1.uk.uncletopia.com","port":27075,"enabled":true,"region":"eu","cc":"gb","latitude":51.509865,"longitude":-0.118092,"reserved":0,"last_update":"0001-01-01T00:00:00Z","name_a2s":"Uncletopia | London | 7 | Stopwatch","protocol":17,"map":"koth_lakeside_final","folder":"tf","game":"Team Fortress","app_id":440,"player_count":0,"max_players":24,"Bots":0,"server_type":"Dedicated","server_os":"Linux","password":true,"vac":true,"version":"7961495","steam_id":85568392924964314,"keywords":["cp","nocrits","nodmgspread","uncletopia"],"game_id":440,"stv_port":27076,"stv_name":"Uncletopia | London | 7 | Stopwatch | STV","players":null},{"server_id":41,"name":"Uncletopia | London | 8 | Community","name_short":"lon-8","host":"lon-1.uk.uncletopia.com","port":27085,"enabled":true,"region":"eu","cc":"gb","latitude":51.509865,"longitude":-0.118092,"reserved":0,"last_update":"0001-01-01T00:00:00Z","name_a2s":"Uncletopia | London | 8 | Community","protocol":17,"map":"cp_snakewater_final1","folder":"tf","game":"Team Fortress","app_id":440,"player_count":0,"max_players":24,"Bots":0,"server_type":"Dedicated","server_os":"Linux","password":true,"vac":true,"version":"7961495","steam_id":85568392924964315,"keywords":["cp","nocrits","nodmgspread","uncletopia"],"game_id":440,"stv_port":27086,"stv_name":"Uncletopia | London | 8 | Community | STV","players":null},{"server_id":300,"name":"Uncletopia | Montréal | 1 | One Thousand Uncles","name_short":"mtl-1","host":"mtl-1.ca.uncletopia.com","port":27015,"enabled":true,"region":"us-east","cc":"ca","latitude":45.50889,"longitude":-73.56167,"reserved":0,"last_update":"0001-01-01T00:00:00Z","name_a2s":"","protocol":0,"map":"","folder":"","game":"","app_id":0,"player_count":0,"max_players":0,"Bots":0,"server_type":"","server_os":"","password":false,"vac":false,"version":"","steam_id":0,"keywords":null,"game_id":0,"stv_port":0,"stv_name":"","players":null},{"server_id":301,"name":"Uncletopia | Montréal | 2 | One Thousand Uncles","name_short":"mtl-2","host":"mtl-1.ca.uncletopia.com","port":27025,"enabled":true,"region":"us-east","cc":"ca","latitude":45.50889,"longitude":-73.56167,"reserved":0,"last_update":"0001-01-01T00:00:00Z","name_a2s":"","protocol":0,"map":"","folder":"","game":"","app_id":0,"player_count":5,"max_players":0,"Bots":0,"server_type":"","server_os":"","password":false,"vac":false,"version":"","steam_id":0,"keywords":null,"game_id":0,"stv_port":0,"stv_name":"","players":[{"user_id":387,"name":"Sheo","steam_id":76561198142599906,"connected_time":1601000000000,"state":"active","ping":117},{"user_id":388,"name":"commando_2","steam_id":76561199503272290,"connected_time":1160000000000,"state":"active","ping":81},{"user_id":392,"name":"Orca","steam_id":76561198159063382,"connected_time":10000000000,"state":"active","ping":120},{"user_id":366,"name":"Artificial Unintelligence","steam_id":76561199056745987,"connected_time":5532000000000,"state":"active","ping":119},{"user_id":334,"name":"penis atomizer 9000 🏳️?","steam_id":76561198864841966,"connected_time":8559000000000,"state":"active","ping":106}]},{"server_id":302,"name":"Uncletopia | Montréal | 3 | One Thousand Uncles","name_short":"mtl-3","host":"mtl-1.ca.uncletopia.com","port":27035,"enabled":true,"region":"us-east","cc":"ca","latitude":45.50889,"longitude":-73.56167,"reserved":0,"last_update":"0001-01-01T00:00:00Z","name_a2s":"","protocol":0,"map":"","folder":"","game":"","app_id":0,"player_count":0,"max_players":0,"Bots":0,"server_type":"","server_os":"","password":false,"vac":false,"version":"","steam_id":0,"keywords":null,"game_id":0,"stv_port":0,"stv_name":"","players":null},{"server_id":13,"name":"Uncletopia | New York City | 1 | All Maps","name_short":"nyc-1","host":"nyc-1.us.uncletopia.com","port":27015,"enabled":true,"region":"us-east","cc":"us","latitude":40.73061,"longitude":-73.93524,"reserved":0,"last_update":"0001-01-01T00:00:00Z","name_a2s":"Uncletopia | New York City | 1 | All Maps","protocol":17,"map":"koth_harvest_final","folder":"tf","game":"Team Fortress","app_id":440,"player_count":21,"max_players":24,"Bots":0,"server_type":"Dedicated","server_os":"Linux","password":true,"vac":true,"version":"7961495","steam_id":85568392924469993,"keywords":["cp","nocrits","nodmgspread","uncletopia"],"game_id":440,"stv_port":27016,"stv_name":"Uncletopia | New York City | 1 | All Maps | STV","players":[{"user_id":966,"name":"sithreis","steam_id":76561198000564263,"connected_time":934000000000,"state":"active","ping":64},{"user_id":967,"name":"AlecTheNefarious","steam_id":76561198035291230,"connected_time":921000000000,"state":"active","ping":77},{"user_id":954,"name":"Panic Elko","steam_id":76561198005324380,"connected_time":2428000000000,"state":"active","ping":58},{"user_id":977,"name":"littlebudroobsterthegoat2011","steam_id":76561198028354983,"connected_time":600000000000,"state":"active","ping":78},{"user_id":943,"name":"TurboHossBoss","steam_id":76561198052457735,"connected_time":2762000000000,"state":"active","ping":84},{"user_id":969,"name":"brioche","steam_id":76561198111547419,"connected_time":825000000000,"state":"active","ping":67},{"user_id":978,"name":"DarkenedPolarity","steam_id":76561199073099596,"connected_time":573000000000,"state":"active","ping":80},{"user_id":938,"name":"Samrizo el Chorizo","steam_id":76561198009838162,"connected_time":2919000000000,"state":"active","ping":52},{"user_id":979,"name":"Mr. Beans","steam_id":76561198859924231,"connected_time":559000000000,"state":"active","ping":76},{"user_id":956,"name":"Believing Small","steam_id":76561198141976737,"connected_time":2418000000000,"state":"active","ping":66},{"user_id":964,"name":"¿Query?","steam_id":76561198072152200,"connected_time":966000000000,"state":"active","ping":35},{"user_id":957,"name":"Broden622","steam_id":76561198256017495,"connected_time":2367000000000,"state":"active","ping":50},{"user_id":971,"name":"lanoc","steam_id":76561198055415367,"connected_time":798000000000,"state":"active","ping":60},{"user_id":910,"name":"FloydianSystem (girl)","steam_id":76561198081987191,"connected_time":6063000000000,"state":"active","ping":84},{"user_id":986,"name":"Beepleton The 3rd","steam_id":76561198081466207,"connected_time":135000000000,"state":"active","ping":94},{"user_id":973,"name":"Hyggin","steam_id":76561198045388653,"connected_time":743000000000,"state":"active","ping":122},{"user_id":983,"name":"TheLonliestThelonius","steam_id":76561198097657243,"connected_time":427000000000,"state":"active","ping":75},{"user_id":974,"name":"Cxxrupt","steam_id":76561198343510062,"connected_time":730000000000,"state":"active","ping":144},{"user_id":934,"name":"♦♣Quadric♥♠","steam_id":76561198061003853,"connected_time":3582000000000,"state":"active","ping":48},{"user_id":919,"name":"Squimbus","steam_id":76561198200183638,"connected_time":5358000000000,"state":"active","ping":98},{"user_id":984,"name":"Bewty","steam_id":76561198146745998,"connected_time":422000000000,"state":"active","ping":71}]},{"server_id":14,"name":"Uncletopia | New York City | 2 | All Maps","name_short":"nyc-2","host":"nyc-1.us.uncletopia.com","port":27025,"enabled":true,"region":"us-east","cc":"us","latitude":40.73061,"longitude":-73.93524,"reserved":0,"last_update":"0001-01-01T00:00:00Z","name_a2s":"Uncletopia | New York City | 2 | All Maps","protocol":17,"map":"pl_enclosure_final","folder":"tf","game":"Team Fortress","app_id":440,"player_count":24,"max_players":24,"Bots":0,"server_type":"Dedicated","server_os":"Linux","password":true,"vac":true,"version":"7961495","steam_id":85568392924469994,"keywords":["nocrits","nodmgspread","payload","uncletopia"],"game_id":440,"stv_port":27026,"stv_name":"Uncletopia | New York City | 2 | All Maps | STV","players":[{"user_id":884,"name":"Dokkibai","steam_id":76561198355935693,"connected_time":1765000000000,"state":"active","ping":68},{"user_id":873,"name":"lliwwill1","steam_id":76561198116603193,"connected_time":2540000000000,"state":"active","ping":64},{"user_id":841,"name":"chiswola","steam_id":76561198046920142,"connected_time":6903000000000,"state":"active","ping":93},{"user_id":861,"name":"Lane","steam_id":76561197965828506,"connected_time":3661000000000,"state":"active","ping":59},{"user_id":830,"name":"CRAZY engineer","steam_id":76561198887937902,"connected_time":7912000000000,"state":"active","ping":54},{"user_id":904,"name":"Gustavocoste","steam_id":76561198233692404,"connected_time":648000000000,"state":"active","ping":164},{"user_id":887,"name":"Scum Knight | T.I.D.K.","steam_id":76561198282444763,"connected_time":1580000000000,"state":"active","ping":51},{"user_id":892,"name":"Pepsi™ BleakPanther","steam_id":76561198094154927,"connected_time":1346000000000,"state":"active","ping":38},{"user_id":885,"name":"Sqooky","steam_id":76561198838054669,"connected_time":1741000000000,"state":"active","ping":53},{"user_id":882,"name":"Typh","steam_id":76561198315344079,"connected_time":2046000000000,"state":"active","ping":73},{"user_id":909,"name":"Pyromania","steam_id":76561199000742298,"connected_time":300000000000,"state":"active","ping":45},{"user_id":901,"name":"ark","steam_id":76561198041066271,"connected_time":971000000000,"state":"active","ping":90},{"user_id":890,"name":"porotoman99","steam_id":76561198041005948,"connected_time":1463000000000,"state":"active","ping":85},{"user_id":905,"name":"MuchoBroke","steam_id":76561199389474207,"connected_time":625000000000,"state":"active","ping":117},{"user_id":911,"name":"pipikopf","steam_id":76561198064196489,"connected_time":59000000000,"state":"active","ping":84},{"user_id":758,"name":"Kerpal45","steam_id":76561198153340350,"connected_time":12654000000000,"state":"active","ping":88},{"user_id":894,"name":"Sgt. Pepper","steam_id":76561198063674627,"connected_time":1305000000000,"state":"active","ping":87},{"user_id":906,"name":"Bladestorm, Hydro enthusiast","steam_id":76561198094852944,"connected_time":545000000000,"state":"active","ping":81},{"user_id":897,"name":"ToastBag","steam_id":76561199221849528,"connected_time":1132000000000,"state":"active","ping":136},{"user_id":898,"name":"TF2C | fac -AA-","steam_id":76561198009818412,"connected_time":1115000000000,"state":"active","ping":88},{"user_id":908,"name":"Bee","steam_id":76561198074681324,"connected_time":352000000000,"state":"active","ping":47},{"user_id":859,"name":"Aristotle Voulton","steam_id":76561198100174923,"connected_time":3848000000000,"state":"active","ping":90},{"user_id":907,"name":"Dysentery.","steam_id":76561198982415497,"connected_time":501000000000,"state":"active","ping":122},{"user_id":903,"name":"UUUURT","steam_id":76561198047468140,"connected_time":805000000000,"state":"active","ping":67}]},{"server_id":15,"name":"Uncletopia | New York City | 3 | Stopwatch","name_short":"nyc-3","host":"nyc-1.us.uncletopia.com","port":27035,"enabled":true,"region":"us-east","cc":"us","latitude":40.73061,"longitude":-73.93524,"reserved":0,"last_update":"0001-01-01T00:00:00Z","name_a2s":"Uncletopia | New York City | 3 | Stopwatch","protocol":17,"map":"workshop/cp_reckoner_rc6.ugc674719999","folder":"tf","game":"Team Fortress","app_id":440,"player_count":0,"max_players":24,"Bots":0,"server_type":"Dedicated","server_os":"Linux","password":true,"vac":true,"version":"7961495","steam_id":85568392924742820,"keywords":["cp","nocrits","nodmgspread","uncletopia"],"game_id":440,"stv_port":27036,"stv_name":"Uncletopia | New York City | 3 | Stopwatch | STV","players":null},{"server_id":16,"name":"Uncletopia | New York City | 4 | Community","name_short":"nyc-4","host":"nyc-1.us.uncletopia.com","port":27045,"enabled":true,"region":"us-east","cc":"us","latitude":40.73061,"longitude":-73.93524,"reserved":0,"last_update":"0001-01-01T00:00:00Z","name_a2s":"Uncletopia | New York City | 4 | Community","protocol":17,"map":"workshop/pl_emerge_rc2.ugc888027758","folder":"tf","game":"Team Fortress","app_id":440,"player_count":0,"max_players":24,"Bots":0,"server_type":"Dedicated","server_os":"Linux","password":true,"vac":true,"version":"7961495","steam_id":85568392924742821,"keywords":["nocrits","nodmgspread","payload","uncletopia"],"game_id":440,"stv_port":27046,"stv_name":"Uncletopia | New York City | 4 | Community | STV","players":null},{"server_id":142,"name":"Uncletopia | São Paulo | 1 | All Maps","name_short":"sao-1","host":"sao-1.br.uncletopia.com","port":27015,"enabled":true,"region":"sa","cc":"br","latitude":-23.533773,"longitude":-46.62529,"reserved":0,"last_update":"0001-01-01T00:00:00Z","name_a2s":"Uncletopia | São Paulo | 1 | All Maps","protocol":17,"map":"koth_lakeside_final","folder":"tf","game":"Team Fortress","app_id":440,"player_count":1,"max_players":24,"Bots":0,"server_type":"Dedicated","server_os":"Linux","password":true,"vac":true,"version":"7961495","steam_id":85568392924469996,"keywords":["cp","nocrits","nodmgspread","uncletopia"],"game_id":440,"stv_port":27016,"stv_name":"Uncletopia | São Paulo | 1 | All Maps | STV","players":[{"user_id":38,"name":"a gay theory","steam_id":76561198935713646,"connected_time":124000000000,"state":"active","ping":94}]},{"server_id":143,"name":"Uncletopia | São Paulo | 2 | Community","name_short":"sao-2","host":"sao-2.br.uncletopia.com","port":27015,"enabled":true,"region":"sa","cc":"br","latitude":-23.533773,"longitude":-46.62529,"reserved":0,"last_update":"0001-01-01T00:00:00Z","name_a2s":"Uncletopia | São Paulo | 2 | Community","protocol":17,"map":"workshop/koth_slaughter_rc1.ugc1712845210","folder":"tf","game":"Team Fortress","app_id":440,"player_count":4,"max_players":24,"Bots":0,"server_type":"Dedicated","server_os":"Linux","password":true,"vac":true,"version":"7961495","steam_id":85568392924485349,"keywords":["cp","nocrits","nodmgspread","uncletopia"],"game_id":440,"stv_port":27016,"stv_name":"Uncletopia | São Paulo | 2 | Community | STV","players":[{"user_id":21,"name":"omrboo061","steam_id":76561199443653759,"connected_time":5945000000000,"state":"active","ping":80},{"user_id":22,"name":"fernandohll59","steam_id":76561199120728007,"connected_time":5931000000000,"state":"active","ping":133},{"user_id":23,"name":"CHABLAU","steam_id":76561198808436182,"connected_time":5926000000000,"state":"active","ping":129},{"user_id":24,"name":"Seleste","steam_id":76561199099945745,"connected_time":5922000000000,"state":"active","ping":83}]},{"server_id":7,"name":"Uncletopia | Seattle | 1 | All Maps","name_short":"sea-1","host":"sea-1.us.uncletopia.com","port":27015,"enabled":true,"region":"us-west","cc":"us","latitude":47.608013,"longitude":-122.33517,"reserved":0,"last_update":"0001-01-01T00:00:00Z","name_a2s":"Uncletopia | Seattle | 1 | All Maps","protocol":17,"map":"pl_barnblitz","folder":"tf","game":"Team Fortress","app_id":440,"player_count":24,"max_players":24,"Bots":0,"server_type":"Dedicated","server_os":"Linux","password":true,"vac":true,"version":"7961495","steam_id":85568392924469997,"keywords":["nocrits","nodmgspread","payload","uncletopia"],"game_id":440,"stv_port":27016,"stv_name":"Uncletopia | Seattle | 1 | All Maps | STV","players":[{"user_id":693,"name":"Sniff","steam_id":76561198010270922,"connected_time":5398000000000,"state":"active","ping":69},{"user_id":697,"name":"dearender the burger fan","steam_id":76561199427644498,"connected_time":5319000000000,"state":"active","ping":53},{"user_id":732,"name":"Arsonist Goose","steam_id":76561198147441830,"connected_time":1454000000000,"state":"active","ping":72},{"user_id":709,"name":"Ŧayeє.4.ⓤ","steam_id":76561198044176988,"connected_time":3867000000000,"state":"active","ping":98},{"user_id":735,"name":"Cam","steam_id":76561198285054047,"connected_time":1011000000000,"state":"active","ping":76},{"user_id":706,"name":"Grweb","steam_id":76561198316741856,"connected_time":4156000000000,"state":"active","ping":46},{"user_id":717,"name":"Mignyanne :3","steam_id":76561198048754056,"connected_time":3169000000000,"state":"active","ping":71},{"user_id":724,"name":"KellyKapoor","steam_id":76561198040828123,"connected_time":2251000000000,"state":"active","ping":50},{"user_id":710,"name":"DaddyGalaxy","steam_id":76561198139697796,"connected_time":3772000000000,"state":"active","ping":57},{"user_id":725,"name":"toasterturret5","steam_id":76561199406940732,"connected_time":2208000000000,"state":"active","ping":99},{"user_id":711,"name":"TheBeepMann","steam_id":76561198156230733,"connected_time":3761000000000,"state":"active","ping":83},{"user_id":648,"name":"Sweets","steam_id":76561198998446307,"connected_time":10392000000000,"state":"active","ping":69},{"user_id":731,"name":"Spam The Alien","steam_id":76561199122290968,"connected_time":1769000000000,"state":"active","ping":55},{"user_id":691,"name":"pjrock101","steam_id":76561198070616561,"connected_time":5465000000000,"state":"active","ping":52},{"user_id":703,"name":"remanedur","steam_id":76561198059459507,"connected_time":5152000000000,"state":"active","ping":123},{"user_id":707,"name":"Havi","steam_id":76561198197832829,"connected_time":4139000000000,"state":"active","ping":46},{"user_id":722,"name":"Dog","steam_id":76561198041841128,"connected_time":2567000000000,"state":"active","ping":77},{"user_id":730,"name":"spenca","steam_id":76561198025371154,"connected_time":1847000000000,"state":"active","ping":74},{"user_id":661,"name":"Gm_Sweet","steam_id":76561199445091548,"connected_time":8943000000000,"state":"active","ping":59},{"user_id":657,"name":"Petey0712","steam_id":76561199401008981,"connected_time":9779000000000,"state":"active","ping":56},{"user_id":720,"name":"Jeramosa","steam_id":76561198811000094,"connected_time":3064000000000,"state":"active","ping":88},{"user_id":665,"name":"TheUrgeWithin","steam_id":76561198033385972,"connected_time":8887000000000,"state":"active","ping":82},{"user_id":721,"name":"Daz","steam_id":76561198041431938,"connected_time":3061000000000,"state":"active","ping":55},{"user_id":733,"name":"Retroliar","steam_id":76561199004899484,"connected_time":1421000000000,"state":"active","ping":78}]},{"server_id":119,"name":"Uncletopia | Seattle | 2 | All Maps","name_short":"sea-2","host":"sea-1.us.uncletopia.com","port":27025,"enabled":true,"region":"us-west","cc":"us","latitude":47.608013,"longitude":-122.33517,"reserved":0,"last_update":"0001-01-01T00:00:00Z","name_a2s":"Uncletopia | Seattle | 2 | All Maps","protocol":17,"map":"pl_snowycoast","folder":"tf","game":"Team Fortress","app_id":440,"player_count":25,"max_players":24,"Bots":0,"server_type":"Dedicated","server_os":"Linux","password":true,"vac":true,"version":"7961495","steam_id":85568392924469998,"keywords":["nocrits","nodmgspread","payload","uncletopia"],"game_id":440,"stv_port":27026,"stv_name":"Uncletopia | Seattle | 2 | All Maps | STV","players":[{"user_id":438,"name":"Dextersbrain","steam_id":76561198011831579,"connected_time":1732000000000,"state":"active","ping":59},{"user_id":437,"name":"Big Inch","steam_id":76561198052513500,"connected_time":1948000000000,"state":"active","ping":100},{"user_id":410,"name":"Context","steam_id":76561197972634187,"connected_time":3846000000000,"state":"active","ping":49},{"user_id":443,"name":"bomb","steam_id":76561198086185831,"connected_time":1121000000000,"state":"active","ping":49},{"user_id":273,"name":"Mocha Josie","steam_id":76561198066452726,"connected_time":14430000000000,"state":"active","ping":68},{"user_id":427,"name":"Spicy Chicken","steam_id":76561198074209737,"connected_time":2778000000000,"state":"active","ping":90},{"user_id":417,"name":"Year Old Bong Water","steam_id":76561198323298672,"connected_time":3370000000000,"state":"active","ping":49},{"user_id":429,"name":"Batso","steam_id":76561198106589452,"connected_time":2432000000000,"state":"active","ping":84},{"user_id":439,"name":"Rayy","steam_id":76561198254521861,"connected_time":1465000000000,"state":"active","ping":75},{"user_id":414,"name":"the great bootyhole","steam_id":76561198073269122,"connected_time":3620000000000,"state":"active","ping":120},{"user_id":430,"name":"AvapXia","steam_id":76561198147476096,"connected_time":2419000000000,"state":"active","ping":51},{"user_id":440,"name":"NEBULA","steam_id":76561198086878595,"connected_time":1176000000000,"state":"active","ping":76},{"user_id":442,"name":"StayFrosty","steam_id":76561198343553078,"connected_time":1166000000000,"state":"active","ping":105},{"user_id":381,"name":"DroidFreak36","steam_id":76561198028681032,"connected_time":5366000000000,"state":"active","ping":102},{"user_id":428,"name":"Lily Thorn","steam_id":76561198305488625,"connected_time":2559000000000,"state":"active","ping":56},{"user_id":433,"name":"smart fella","steam_id":76561198064059721,"connected_time":2391000000000,"state":"active","ping":51},{"user_id":404,"name":"Elijah123","steam_id":76561199037648021,"connected_time":4235000000000,"state":"active","ping":120},{"user_id":441,"name":"LargeBigboy","steam_id":76561198089293265,"connected_time":1171000000000,"state":"active","ping":99},{"user_id":425,"name":"ShiningForce","steam_id":76561198026039048,"connected_time":2849000000000,"state":"active","ping":57},{"user_id":447,"name":"Λ=No.11","steam_id":76561198158649676,"connected_time":834000000000,"state":"active","ping":62},{"user_id":436,"name":"8080","steam_id":76561198212993755,"connected_time":2105000000000,"state":"active","ping":59},{"user_id":444,"name":"young peter","steam_id":76561198150382695,"connected_time":1056000000000,"state":"active","ping":74},{"user_id":446,"name":"Megatron G","steam_id":76561198168864083,"connected_time":944000000000,"state":"active","ping":46},{"user_id":397,"name":"Inflight","steam_id":76561198920049475,"connected_time":4698000000000,"state":"active","ping":103},{"user_id":448,"name":"jorts","steam_id":76561199041179985,"connected_time":617000000000,"state":"active","ping":59}]},{"server_id":406,"name":"Uncletopia | Seattle | 3 | Stopwatch","name_short":"sea-3","host":"sea-1.us.uncletopia.com","port":27035,"enabled":true,"region":"us-west","cc":"us","latitude":47.608013,"longitude":-122.33517,"reserved":0,"last_update":"0001-01-01T00:00:00Z","name_a2s":"Uncletopia | Seattle | 3 | Stopwatch","protocol":17,"map":"workshop/pl_summercoast_rc8e.ugc1761528829","folder":"tf","game":"Team Fortress","app_id":440,"player_count":0,"max_players":24,"Bots":0,"server_type":"Dedicated","server_os":"Linux","password":true,"vac":true,"version":"7961495","steam_id":85568392924515217,"keywords":["nocrits","nodmgspread","payload","uncletopia"],"game_id":440,"stv_port":27036,"stv_name":"Uncletopia | Seattle | 3 | Stopwatch | STV","players":null},{"server_id":17,"name":"Uncletopia | San Francisco | 1 | All Maps","name_short":"sfo-1","host":"sfo-1.us.uncletopia.com","port":27015,"enabled":true,"region":"us-west","cc":"us","latitude":37.77397,"longitude":-122.4313,"reserved":0,"last_update":"0001-01-01T00:00:00Z","name_a2s":"Uncletopia | San Francisco | 1 | All Maps","protocol":17,"map":"koth_viaduct","folder":"tf","game":"Team Fortress","app_id":440,"player_count":24,"max_players":24,"Bots":0,"server_type":"Dedicated","server_os":"Linux","password":true,"vac":true,"version":"7961495","steam_id":85568392924469999,"keywords":["cp","nocrits","nodmgspread","uncletopia"],"game_id":440,"stv_port":27016,"stv_name":"Uncletopia | San Francisco | 1 | All Maps | STV","players":[{"user_id":139,"name":"Cobruh Bubbles","steam_id":76561198134322282,"connected_time":896000000000,"state":"active","ping":74},{"user_id":147,"name":"Giorno Giovanna","steam_id":76561198044106874,"connected_time":221000000000,"state":"active","ping":64},{"user_id":149,"name":"xjlm","steam_id":76561198043497260,"connected_time":102000000000,"state":"active","ping":62},{"user_id":124,"name":"U ω U","steam_id":76561198118802562,"connected_time":3386000000000,"state":"active","ping":65},{"user_id":134,"name":"JayDuh","steam_id":76561198396293109,"connected_time":2783000000000,"state":"active","ping":103},{"user_id":144,"name":"Bobby Ray","steam_id":76561198044131188,"connected_time":765000000000,"state":"active","ping":74},{"user_id":75,"name":"Steejans","steam_id":76561198053211279,"connected_time":7108000000000,"state":"active","ping":70},{"user_id":121,"name":"naturia","steam_id":76561198092317849,"connected_time":3520000000000,"state":"active","ping":58},{"user_id":92,"name":"Lerp","steam_id":76561198045035297,"connected_time":5573000000000,"state":"active","ping":71},{"user_id":143,"name":"SERGEANT BRICK","steam_id":76561198067911436,"connected_time":785000000000,"state":"active","ping":70},{"user_id":132,"name":"Bottom Fragger","steam_id":76561198044071055,"connected_time":2853000000000,"state":"active","ping":86},{"user_id":138,"name":"Croxxans","steam_id":76561198853900757,"connected_time":926000000000,"state":"active","ping":90},{"user_id":152,"name":"yo mama","steam_id":76561198384866172,"connected_time":17000000000,"state":"active","ping":222},{"user_id":151,"name":"PBxJAY","steam_id":76561198402471788,"connected_time":69000000000,"state":"active","ping":72},{"user_id":141,"name":"Lugi","steam_id":76561198873757026,"connected_time":828000000000,"state":"active","ping":92},{"user_id":145,"name":"Soap","steam_id":76561197994893383,"connected_time":758000000000,"state":"active","ping":67},{"user_id":142,"name":"Sammich Slinger","steam_id":76561198007644532,"connected_time":815000000000,"state":"active","ping":108},{"user_id":148,"name":"Cheeps Kat","steam_id":76561198143688410,"connected_time":117000000000,"state":"active","ping":89},{"user_id":107,"name":"Pile of Spinach","steam_id":76561198043068841,"connected_time":4160000000000,"state":"active","ping":63},{"user_id":146,"name":"moonboy","steam_id":76561198172113657,"connected_time":692000000000,"state":"active","ping":136},{"user_id":128,"name":"cool beans","steam_id":76561198045758072,"connected_time":3281000000000,"state":"active","ping":48},{"user_id":129,"name":"K-2","steam_id":76561198322606535,"connected_time":3250000000000,"state":"active","ping":99},{"user_id":89,"name":"Quaalude","steam_id":76561198100177449,"connected_time":5786000000000,"state":"active","ping":76},{"user_id":137,"name":"flip","steam_id":76561198362928297,"connected_time":2598000000000,"state":"active","ping":45}]},{"server_id":18,"name":"Uncletopia | San Francisco | 2 | All Maps","name_short":"sfo-2","host":"sfo-1.us.uncletopia.com","port":27025,"enabled":true,"region":"us-west","cc":"us","latitude":37.77397,"longitude":-122.4313,"reserved":0,"last_update":"0001-01-01T00:00:00Z","name_a2s":"Uncletopia | San Francisco | 2 | All Maps","protocol":17,"map":"koth_harvest_final","folder":"tf","game":"Team Fortress","app_id":440,"player_count":24,"max_players":24,"Bots":0,"server_type":"Dedicated","server_os":"Linux","password":true,"vac":true,"version":"7961495","steam_id":85568392924470000,"keywords":["cp","nocrits","nodmgspread","uncletopia"],"game_id":440,"stv_port":27026,"stv_name":"Uncletopia | San Francisco | 2 | All Maps | STV","players":[{"user_id":110,"name":"ChickenKnight","steam_id":76561198244527526,"connected_time":724000000000,"state":"active","ping":79},{"user_id":111,"name":"self sufficient kitten","steam_id":76561197960592612,"connected_time":710000000000,"state":"active","ping":61},{"user_id":123,"name":"Killer Fish From San Diego","steam_id":76561199037594575,"connected_time":261000000000,"state":"active","ping":82},{"user_id":112,"name":"lightsword24","steam_id":76561198227552556,"connected_time":666000000000,"state":"active","ping":82},{"user_id":113,"name":"evil doer 1","steam_id":76561199502629768,"connected_time":624000000000,"state":"active","ping":60},{"user_id":122,"name":"Pacemaker","steam_id":76561198046865217,"connected_time":275000000000,"state":"active","ping":61},{"user_id":81,"name":"PwndaThePwner","steam_id":76561198086749693,"connected_time":3422000000000,"state":"active","ping":108},{"user_id":124,"name":"Workmanabs","steam_id":76561198069649266,"connected_time":221000000000,"state":"active","ping":59},{"user_id":125,"name":"Seriously Bruh","steam_id":76561198070408485,"connected_time":194000000000,"state":"active","ping":63},{"user_id":107,"name":"laxy","steam_id":76561198141469778,"connected_time":1136000000000,"state":"active","ping":122},{"user_id":117,"name":"Sterling Nano","steam_id":76561198048580088,"connected_time":441000000000,"state":"active","ping":62},{"user_id":105,"name":"Spread Joy, Not Hate","steam_id":76561198053117503,"connected_time":1711000000000,"state":"active","ping":90},{"user_id":118,"name":"moe","steam_id":76561198929586245,"connected_time":422000000000,"state":"active","ping":50},{"user_id":119,"name":"KevinKendrick","steam_id":76561198364706359,"connected_time":408000000000,"state":"active","ping":75},{"user_id":88,"name":"❤ Ashley ❤","steam_id":76561198056428303,"connected_time":2638000000000,"state":"active","ping":59},{"user_id":120,"name":"JavaScript Frappuccino","steam_id":76561198111620153,"connected_time":404000000000,"state":"active","ping":66},{"user_id":68,"name":"Crazy Hungarian","steam_id":76561198025498172,"connected_time":4552000000000,"state":"active","ping":77},{"user_id":126,"name":"SmallErection","steam_id":76561198071770147,"connected_time":186000000000,"state":"active","ping":80},{"user_id":83,"name":"Dongus","steam_id":76561197979056451,"connected_time":3362000000000,"state":"active","ping":72},{"user_id":127,"name":"PhaqSunished","steam_id":76561198089761822,"connected_time":178000000000,"state":"active","ping":63},{"user_id":128,"name":"Imabox","steam_id":76561199206177858,"connected_time":126000000000,"state":"active","ping":68},{"user_id":129,"name":"Thequirka","steam_id":76561198968058652,"connected_time":123000000000,"state":"active","ping":72},{"user_id":130,"name":"OutgoingBlur","steam_id":76561199087497070,"connected_time":112000000000,"state":"active","ping":68},{"user_id":79,"name":"ventus51701","steam_id":76561198207372741,"connected_time":3719000000000,"state":"active","ping":109}]},{"server_id":19,"name":"Uncletopia | San Francisco | 3 | Stopwatch","name_short":"sfo-3","host":"sfo-1.us.uncletopia.com","port":27035,"enabled":true,"region":"us-west","cc":"us","latitude":37.77397,"longitude":-122.4313,"reserved":0,"last_update":"0001-01-01T00:00:00Z","name_a2s":"Uncletopia | San Francisco | 3 | Stopwatch","protocol":17,"map":"workshop/koth_ramjam_rc1.ugc459778887","folder":"tf","game":"Team Fortress","app_id":440,"player_count":0,"max_players":24,"Bots":0,"server_type":"Dedicated","server_os":"Linux","password":true,"vac":true,"version":"7961495","steam_id":85568392924742824,"keywords":["cp","nocrits","nodmgspread","uncletopia"],"game_id":440,"stv_port":27036,"stv_name":"Uncletopia | San Francisco | 3 | Stopwatch | STV","players":null},{"server_id":20,"name":"Uncletopia | San Francisco | 4 | Community","name_short":"sfo-4","host":"sfo-1.us.uncletopia.com","port":27045,"enabled":true,"region":"us-west","cc":"us","latitude":37.77397,"longitude":-122.4313,"reserved":0,"last_update":"0001-01-01T00:00:00Z","name_a2s":"Uncletopia | San Francisco | 4 | Community","protocol":17,"map":"workshop/cp_caldera_rc3.ugc2834196889","folder":"tf","game":"Team Fortress","app_id":440,"player_count":0,"max_players":24,"Bots":0,"server_type":"Dedicated","server_os":"Linux","password":true,"vac":true,"version":"7961495","steam_id":85568392924742826,"keywords":["cp","nocrits","nodmgspread","uncletopia"],"game_id":440,"stv_port":27046,"stv_name":"Uncletopia | San Francisco | 4 | Community | STV","players":null},{"server_id":141,"name":"Uncletopia | Sydney | 1 | All Maps","name_short":"syd-1","host":"syd-1.au.uncletopia.com","port":27015,"enabled":true,"region":"au","cc":"au","latitude":-33.865143,"longitude":151.2099,"reserved":0,"last_update":"0001-01-01T00:00:00Z","name_a2s":"Uncletopia | Sydney | 1 | All Maps","protocol":17,"map":"pl_badwater","folder":"tf","game":"Team Fortress","app_id":440,"player_count":24,"max_players":24,"Bots":0,"server_type":"Dedicated","server_os":"Linux","password":true,"vac":true,"version":"7961495","steam_id":85568392924470001,"keywords":["nocrits","nodmgspread","payload","uncletopia"],"game_id":440,"stv_port":27016,"stv_name":"Uncletopia | Sydney | 1 | All Maps | STV","players":[{"user_id":139,"name":"Dr. D Snutts","steam_id":76561198049290016,"connected_time":2813000000000,"state":"active","ping":45},{"user_id":168,"name":"Penguinator5000","steam_id":76561198038183553,"connected_time":128000000000,"state":"active","ping":48},{"user_id":97,"name":"voxii","steam_id":76561198099698281,"connected_time":6702000000000,"state":"active","ping":69},{"user_id":167,"name":"no teles 4 u","steam_id":76561198018478297,"connected_time":678000000000,"state":"active","ping":71},{"user_id":130,"name":"lunstedtemila","steam_id":76561199000937599,"connected_time":3797000000000,"state":"active","ping":77},{"user_id":142,"name":"Fingernail","steam_id":76561199081137391,"connected_time":2804000000000,"state":"active","ping":45},{"user_id":151,"name":"Dog With Headphones","steam_id":76561198111076916,"connected_time":2739000000000,"state":"active","ping":65},{"user_id":143,"name":"elmaxo","steam_id":76561198122259040,"connected_time":2802000000000,"state":"active","ping":44},{"user_id":158,"name":"ChezMate","steam_id":76561198011571250,"connected_time":1242000000000,"state":"active","ping":53},{"user_id":155,"name":"Astro Samurai","steam_id":76561198328252260,"connected_time":1820000000000,"state":"active","ping":53},{"user_id":133,"name":"telmon","steam_id":76561198054751160,"connected_time":3409000000000,"state":"active","ping":53},{"user_id":161,"name":"Rizeo","steam_id":76561198147901488,"connected_time":1022000000000,"state":"active","ping":71},{"user_id":162,"name":"saturation","steam_id":76561199457046392,"connected_time":860000000000,"state":"active","ping":80},{"user_id":146,"name":"Cymboll","steam_id":76561198043584364,"connected_time":2770000000000,"state":"active","ping":33},{"user_id":103,"name":"Tofu","steam_id":76561198025637573,"connected_time":6690000000000,"state":"active","ping":38},{"user_id":135,"name":"ForgottenPizzaUncle","steam_id":76561198064337953,"connected_time":3384000000000,"state":"active","ping":139},{"user_id":71,"name":"Malphas","steam_id":76561198011425371,"connected_time":9824000000000,"state":"active","ping":55},{"user_id":147,"name":"yummyfraco0404","steam_id":76561198044522636,"connected_time":2770000000000,"state":"active","ping":41},{"user_id":159,"name":"Sentry Gun (EpicGuy4227)","steam_id":76561198094132328,"connected_time":1034000000000,"state":"active","ping":54},{"user_id":153,"name":"Batering","steam_id":76561198039849442,"connected_time":2509000000000,"state":"active","ping":55},{"user_id":150,"name":"Anthony Norman Albanese","steam_id":76561198137929060,"connected_time":2759000000000,"state":"active","ping":46},{"user_id":124,"name":"Mooty","steam_id":76561198301293435,"connected_time":4075000000000,"state":"active","ping":48},{"user_id":154,"name":"SUSHIMAN","steam_id":76561199089989428,"connected_time":2390000000000,"state":"active","ping":102},{"user_id":138,"name":"Cylinda","steam_id":76561198094041769,"connected_time":2816000000000,"state":"active","ping":32}]},{"server_id":123,"name":"Uncletopia | Sydney | 2 | All Maps","name_short":"syd-2","host":"syd-1.au.uncletopia.com","port":27025,"enabled":true,"region":"au","cc":"au","latitude":-33.865143,"longitude":151.2099,"reserved":0,"last_update":"0001-01-01T00:00:00Z","name_a2s":"Uncletopia | Sydney | 2 | All Maps","protocol":17,"map":"pl_swiftwater_final1","folder":"tf","game":"Team Fortress","app_id":440,"player_count":24,"max_players":24,"Bots":0,"server_type":"Dedicated","server_os":"Linux","password":true,"vac":true,"version":"7961495","steam_id":85568392924470002,"keywords":["nocrits","nodmgspread","payload","uncletopia"],"game_id":440,"stv_port":27026,"stv_name":"Uncletopia | Sydney | 2 | All Maps | STV","players":[{"user_id":47,"name":"Sover blw.tf","steam_id":76561198136347837,"connected_time":273000000000,"state":"active","ping":130},{"user_id":48,"name":"P. Ness","steam_id":76561198037664265,"connected_time":217000000000,"state":"active","ping":63},{"user_id":10,"name":"uber builder","steam_id":76561199214859141,"connected_time":3037000000000,"state":"active","ping":146},{"user_id":11,"name":"Gravitas","steam_id":76561198061391894,"connected_time":3005000000000,"state":"active","ping":80},{"user_id":45,"name":"Leo Lyon Zagami","steam_id":76561198043942970,"connected_time":600000000000,"state":"active","ping":72},{"user_id":49,"name":"tf2 dung eater","steam_id":76561198274740718,"connected_time":207000000000,"state":"active","ping":60},{"user_id":21,"name":"SIRROM12 (SIRR)","steam_id":76561198116738329,"connected_time":1539000000000,"state":"active","ping":63},{"user_id":18,"name":"Vaconcovat","steam_id":76561198024284041,"connected_time":2301000000000,"state":"active","ping":64},{"user_id":19,"name":"Centrelink","steam_id":76561198988128327,"connected_time":2161000000000,"state":"active","ping":48},{"user_id":22,"name":"TimTam","steam_id":76561198158862578,"connected_time":1533000000000,"state":"active","ping":59},{"user_id":23,"name":"piratespy22","steam_id":76561198042198744,"connected_time":1523000000000,"state":"active","ping":44},{"user_id":34,"name":"Granolarama","steam_id":76561198059129270,"connected_time":1068000000000,"state":"active","ping":63},{"user_id":35,"name":"Brud","steam_id":76561198123542239,"connected_time":1063000000000,"state":"active","ping":44},{"user_id":30,"name":"slim","steam_id":76561198110359053,"connected_time":1213000000000,"state":"active","ping":69},{"user_id":27,"name":"boob","steam_id":76561198090373450,"connected_time":1321000000000,"state":"active","ping":66},{"user_id":32,"name":"Goofy Guy","steam_id":76561199226306425,"connected_time":1136000000000,"state":"active","ping":72},{"user_id":44,"name":"mada","steam_id":76561199436707447,"connected_time":672000000000,"state":"active","ping":45},{"user_id":33,"name":"Fire_Dragon1","steam_id":76561198978045930,"connected_time":1127000000000,"state":"active","ping":55},{"user_id":46,"name":"Galileo","steam_id":76561198120768942,"connected_time":546000000000,"state":"active","ping":75},{"user_id":40,"name":"Toastie","steam_id":76561197990059475,"connected_time":875000000000,"state":"active","ping":45},{"user_id":39,"name":"Scopic","steam_id":76561199236845261,"connected_time":970000000000,"state":"active","ping":70},{"user_id":41,"name":"twitch.tv/naisuwu1273","steam_id":76561199467540344,"connected_time":771000000000,"state":"active","ping":49},{"user_id":42,"name":"john fitzgerald kennedy","steam_id":76561198998542066,"connected_time":766000000000,"state":"active","ping":60},{"user_id":43,"name":"Mikey","steam_id":76561198438203131,"connected_time":747000000000,"state":"active","ping":60}]},{"server_id":395,"name":"Uncletopia | Sydney | 3 | All Maps","name_short":"syd-3","host":"syd-1.au.uncletopia.com","port":27035,"enabled":true,"region":"au","cc":"au","latitude":-33.865143,"longitude":151.2099,"reserved":0,"last_update":"0001-01-01T00:00:00Z","name_a2s":"Uncletopia | Sydney | 3 | All Maps","protocol":17,"map":"pl_barnblitz","folder":"tf","game":"Team Fortress","app_id":440,"player_count":0,"max_players":24,"Bots":0,"server_type":"Dedicated","server_os":"Linux","password":true,"vac":true,"version":"7961495","steam_id":85568392925194467,"keywords":["nocrits","nodmgspread","payload","uncletopia"],"game_id":440,"stv_port":27036,"stv_name":"Uncletopia | Sydney | 3 | All Maps | STV","players":null},{"server_id":396,"name":"Uncletopia | Sydney | 4 | All Maps","name_short":"syd-4","host":"syd-1.au.uncletopia.com","port":27045,"enabled":true,"region":"au","cc":"au","latitude":-33.865143,"longitude":151.2099,"reserved":0,"last_update":"0001-01-01T00:00:00Z","name_a2s":"Uncletopia | Sydney | 4 | All Maps","protocol":17,"map":"pl_pier","folder":"tf","game":"Team Fortress","app_id":440,"player_count":0,"max_players":24,"Bots":0,"server_type":"Dedicated","server_os":"Linux","password":true,"vac":true,"version":"7961495","steam_id":85568392925397958,"keywords":["nocrits","nodmgspread","payload","uncletopia"],"game_id":440,"stv_port":27046,"stv_name":"Uncletopia | Sydney | 4 | All Maps | STV","players":null},{"server_id":58,"name":"Uncletopia | Sydney | 5 | Stopwatch","name_short":"syd-5","host":"syd-1.au.uncletopia.com","port":27055,"enabled":true,"region":"au","cc":"au","latitude":-33.865143,"longitude":151.2099,"reserved":0,"last_update":"0001-01-01T00:00:00Z","name_a2s":"Uncletopia | Sydney | 5 | Stopwatch","protocol":17,"map":"cp_metalworks","folder":"tf","game":"Team Fortress","app_id":440,"player_count":0,"max_players":24,"Bots":0,"server_type":"Dedicated","server_os":"Linux","password":true,"vac":true,"version":"7961495","steam_id":85568392925397959,"keywords":["cp","nocrits","nodmgspread","uncletopia"],"game_id":440,"stv_port":27056,"stv_name":"Uncletopia | Sydney | 5 | Stopwatch | STV","players":null},{"server_id":59,"name":"Uncletopia | Sydney | 6 | Community","name_short":"syd-6","host":"syd-1.au.uncletopia.com","port":27065,"enabled":true,"region":"au","cc":"au","latitude":-33.865143,"longitude":151.2099,"reserved":0,"last_update":"0001-01-01T00:00:00Z","name_a2s":"Uncletopia | Sydney | 6 | Community","protocol":17,"map":"workshop/pl_shoreleave_rc2.ugc1238849347","folder":"tf","game":"Team Fortress","app_id":440,"player_count":0,"max_players":24,"Bots":0,"server_type":"Dedicated","server_os":"Linux","password":true,"vac":true,"version":"7961495","steam_id":85568392925397960,"keywords":["nocrits","nodmgspread","payload","uncletopia"],"game_id":440,"stv_port":27066,"stv_name":"Uncletopia | Sydney | 6 | Community | STV","players":null},{"server_id":49,"name":"Uncletopia | Warsaw | 1 | One Thousand Uncles","name_short":"waw-1","host":"waw-1.pl.uncletopia.com","port":27015,"enabled":true,"region":"eu","cc":"pl","latitude":52.2297,"longitude":21.017532,"reserved":0,"last_update":"0001-01-01T00:00:00Z","name_a2s":"Uncletopia | Warsaw | 1 | One Thousand Uncles","protocol":17,"map":"koth_highpass","folder":"tf","game":"Team Fortress","app_id":440,"player_count":0,"max_players":32,"Bots":0,"server_type":"Dedicated","server_os":"Linux","password":true,"vac":true,"version":"7961495","steam_id":85568392925397850,"keywords":["alltalk","cp","danepve","increased_maxplayers","nocrits","norespawntime","uncletopia"],"game_id":440,"stv_port":0,"stv_name":"","players":null},{"server_id":50,"name":"Uncletopia | Warsaw | 2 | One Thousand Uncles","name_short":"waw-2","host":"waw-1.pl.uncletopia.com","port":27025,"enabled":true,"region":"eu","cc":"pl","latitude":52.2297,"longitude":21.017532,"reserved":0,"last_update":"0001-01-01T00:00:00Z","name_a2s":"Uncletopia | Warsaw | 2 | One Thousand Uncles","protocol":17,"map":"pl_goldrush","folder":"tf","game":"Team Fortress","app_id":440,"player_count":0,"max_players":32,"Bots":0,"server_type":"Dedicated","server_os":"Linux","password":true,"vac":true,"version":"7961495","steam_id":85568392925397851,"keywords":["alltalk","danepve","increased_maxplayers","nocrits","norespawntime","payload","uncletopia"],"game_id":440,"stv_port":0,"stv_name":"","players":null},{"server_id":51,"name":"Uncletopia | Warsaw | 3 | All Maps","name_short":"waw-3","host":"waw-1.pl.uncletopia.com","port":27035,"enabled":true,"region":"eu","cc":"pl","latitude":52.2297,"longitude":21.017532,"reserved":0,"last_update":"0001-01-01T00:00:00Z","name_a2s":"Uncletopia | Warsaw | 3 | All Maps","protocol":17,"map":"plr_pipeline","folder":"tf","game":"Team Fortress","app_id":440,"player_count":0,"max_players":24,"Bots":0,"server_type":"Dedicated","server_os":"Linux","password":true,"vac":true,"version":"7961495","steam_id":85568392925397852,"keywords":["nocrits","nodmgspread","payload","uncletopia"],"game_id":440,"stv_port":27036,"stv_name":"Uncletopia | Warsaw | 3 | All Maps | STV","players":null},{"server_id":52,"name":"Uncletopia | Warsaw | 4 | All Maps","name_short":"waw-4","host":"waw-1.pl.uncletopia.com","port":27045,"enabled":true,"region":"eu","cc":"pl","latitude":52.2297,"longitude":21.017532,"reserved":0,"last_update":"0001-01-01T00:00:00Z","name_a2s":"Uncletopia | Warsaw | 4 | All Maps","protocol":17,"map":"cp_coldfront","folder":"tf","game":"Team Fortress","app_id":440,"player_count":0,"max_players":24,"Bots":0,"server_type":"Dedicated","server_os":"Linux","password":true,"vac":true,"version":"7961495","steam_id":85568392925397853,"keywords":["cp","nocrits","nodmgspread","uncletopia"],"game_id":440,"stv_port":27046,"stv_name":"Uncletopia | Warsaw | 4 | All Maps | STV","players":null},{"server_id":53,"name":"Uncletopia | Warsaw | 5 | Stopwatch","name_short":"waw-5","host":"waw-1.pl.uncletopia.com","port":27055,"enabled":true,"region":"eu","cc":"pl","latitude":52.2297,"longitude":21.017532,"reserved":0,"last_update":"0001-01-01T00:00:00Z","name_a2s":"Uncletopia | Warsaw | 5 | Stopwatch","protocol":17,"map":"workshop/koth_bagel_rc6.ugc2514036946","folder":"tf","game":"Team Fortress","app_id":440,"player_count":0,"max_players":24,"Bots":0,"server_type":"Dedicated","server_os":"Linux","password":true,"vac":true,"version":"7961495","steam_id":85568392925397854,"keywords":["cp","nocrits","nodmgspread","uncletopia"],"game_id":440,"stv_port":27056,"stv_name":"Uncletopia | Warsaw | 5 | Stopwatch | STV","players":null},{"server_id":54,"name":"Uncletopia | Warsaw | 6 | Community","name_short":"waw-6","host":"waw-1.pl.uncletopia.com","port":27065,"enabled":true,"region":"eu","cc":"pl","latitude":52.2297,"longitude":21.017532,"reserved":0,"last_update":"0001-01-01T00:00:00Z","name_a2s":"Uncletopia | Warsaw | 6 | Community","protocol":17,"map":"workshop/pl_badwater_pro_v12.ugc2142942074","folder":"tf","game":"Team Fortress","app_id":440,"player_count":0,"max_players":24,"Bots":0,"server_type":"Dedicated","server_os":"Linux","password":true,"vac":true,"version":"7961495","steam_id":85568392925397856,"keywords":["nocrits","nodmgspread","payload","uncletopia"],"game_id":440,"stv_port":27066,"stv_name":"Uncletopia | Warsaw | 6 | Community | STV","players":null}]}