{"status":true,"message":"","result":[{"server_id":9,"name":"Uncletopia | Atlanta | 1 | All Maps","name_short":"atl-1","host":"atl-1.us.uncletopia.com","port":27015,"enabled":true,"region":"us-east","cc":"us","latitude":33.753746,"longitude":-84.38633,"reserved":0,"last_update":"0001-01-01T00:00:00Z","name_a2s":"Uncletopia | Atlanta | 1 | All Maps","protocol":17,"map":"koth_viaduct","folder":"tf","game":"Team Fortress","app_id":440,"player_count":0,"max_players":24,"Bots":0,"server_type":"Dedicated","server_os":"Linux","password":true,"vac":true,"version":"7882260","steam_id":85568392924469982,"keywords":["cp","nocrits","nodmgspread","uncletopia"],"game_id":440,"stv_port":27016,"stv_name":"Uncletopia | Atlanta | 1 | All Maps | STV","players":null},{"server_id":104,"name":"Uncletopia | Atlanta | 2 | All Maps","name_short":"atl-2","host":"atl-1.us.uncletopia.com","port":27025,"enabled":true,"region":"us-east","cc":"us","latitude":33.753746,"longitude":-84.38633,"reserved":0,"last_update":"0001-01-01T00:00:00Z","name_a2s":"Uncletopia | Atlanta | 2 | All Maps","protocol":17,"map":"cp_process_final","folder":"tf","game":"Team Fortress","app_id":440,"player_count":0,"max_players":24,"Bots":0,"server_type":"Dedicated","server_os":"Linux","password":true,"vac":true,"version":"7882260","steam_id":85568392924469983,"keywords":["cp","nocrits","nodmgspread","uncletopia"],"game_id":440,"stv_port":27026,"stv_name":"Uncletopia | Atlanta | 2 | All Maps | STV","players":null},{"server_id":400,"name":"Uncletopia | Atlanta | 3 | Community","name_short":"atl-3","host":"atl-1.us.uncletopia.com","port":27035,"enabled":true,"region":"us-east","cc":"us","latitude":33.753746,"longitude":-84.38633,"reserved":0,"last_update":"0001-01-01T00:00:00Z","name_a2s":"Uncletopia | Atlanta | 3 | Community","protocol":17,"map":"cp_sunshine","folder":"tf","game":"Team Fortress","app_id":440,"player_count":0,"max_players":24,"Bots":0,"server_type":"Dedicated","server_os":"Linux","password":true,"vac":true,"version":"7882260","steam_id":85568392924515187,"keywords":["cp","nocrits","nodmgspread","uncletopia"],"game_id":440,"stv_port":27036,"stv_name":"Uncletopia | Atlanta | 3 | Community | STV","players":null},{"server_id":401,"name":"Uncletopia | Atlanta | 4 | No Payload","name_short":"atl-4","host":"atl-1.us.uncletopia.com","port":27045,"enabled":true,"region":"us-east","cc":"us","latitude":33.753746,"longitude":-84.38633,"reserved":0,"last_update":"0001-01-01T00:00:00Z","name_a2s":"","protocol":0,"map":"","folder":"","game":"","app_id":0,"player_count":0,"max_players":0,"Bots":0,"server_type":"","server_os":"","password":false,"vac":false,"version":"","steam_id":0,"keywords":null,"game_id":0,"stv_port":0,"stv_name":"","players":null},{"server_id":2,"name":"Uncletopia | Chicago | 1 | All Maps","name_short":"chi-1","host":"chi-1.us.uncletopia.com","port":27015,"enabled":true,"region":"us-central","cc":"us","latitude":41.881832,"longitude":-87.62318,"reserved":0,"last_update":"0001-01-01T00:00:00Z","name_a2s":"Uncletopia | Chicago | 1 | All Maps","protocol":17,"map":"pl_snowycoast","folder":"tf","game":"Team Fortress","app_id":440,"player_count":0,"max_players":24,"Bots":0,"server_type":"Dedicated","server_os":"Linux","password":true,"vac":true,"version":"7882260","steam_id":85568392924469984,"keywords":["nocrits","nodmgspread","payload","uncletopia"],"game_id":440,"stv_port":27016,"stv_name":"Uncletopia | Chicago | 1 | All Maps | STV","players":null},{"server_id":106,"name":"Uncletopia | Chicago | 2 | All Maps","name_short":"chi-2","host":"chi-1.us.uncletopia.com","port":27025,"enabled":true,"region":"us-central","cc":"us","latitude":41.881832,"longitude":-87.62318,"reserved":0,"last_update":"0001-01-01T00:00:00Z","name_a2s":"Uncletopia | Chicago | 2 | All Maps","protocol":17,"map":"pl_upward","folder":"tf","game":"Team Fortress","app_id":440,"player_count":21,"max_players":24,"Bots":0,"server_type":"Dedicated","server_os":"Linux","password":true,"vac":true,"version":"7882260","steam_id":85568392924469985,"keywords":["nocrits","nodmgspread","payload","uncletopia"],"game_id":440,"stv_port":27026,"stv_name":"Uncletopia | Chicago | 2 | All Maps | STV","players":[{"user_id":1070,"name":"VIEGO CORLEONE","steam_id":76561198273568117,"connected_time":5925000000000,"state":"active","ping":70},{"user_id":1122,"name":"tony hawk","steam_id":76561198172050802,"connected_time":2134000000000,"state":"active","ping":105},{"user_id":1135,"name":"Stupid","steam_id":76561198127348089,"connected_time":406000000000,"state":"active","ping":60},{"user_id":1124,"name":"lanzer","steam_id":76561198049983016,"connected_time":2094000000000,"state":"active","ping":181},{"user_id":1121,"name":"meownt evewest :3","steam_id":76561198017686306,"connected_time":2135000000000,"state":"active","ping":154},{"user_id":1078,"name":"yo homie! *cool vinyl scratch*","steam_id":76561198929646112,"connected_time":5589000000000,"state":"active","ping":67},{"user_id":1131,"name":"godsdoctor","steam_id":76561198055010413,"connected_time":954000000000,"state":"active","ping":113},{"user_id":1139,"name":"dzcreeper","steam_id":76561198072250723,"connected_time":211000000000,"state":"active","ping":75},{"user_id":1126,"name":"bouncyballs.com","steam_id":76561198236166288,"connected_time":1592000000000,"state":"active","ping":68},{"user_id":1134,"name":"Edyron","steam_id":76561198015051461,"connected_time":514000000000,"state":"active","ping":153},{"user_id":1142,"name":"Thiscookieman","steam_id":76561199012117130,"connected_time":10000000000,"state":"spawning","ping":140},{"user_id":1098,"name":"BugsAreMyWorstEnemy","steam_id":76561199440395505,"connected_time":3902000000000,"state":"active","ping":67},{"user_id":1127,"name":"starvin marvin","steam_id":76561198347286009,"connected_time":1092000000000,"state":"active","ping":78},{"user_id":1140,"name":"DinoGoof","steam_id":76561198998427283,"connected_time":195000000000,"state":"active","ping":70},{"user_id":1138,"name":"It's Over!","steam_id":76561198104086771,"connected_time":322000000000,"state":"active","ping":101},{"user_id":1087,"name":"SpecialForce19","steam_id":76561198120974644,"connected_time":4750000000000,"state":"active","ping":77},{"user_id":1128,"name":"earth","steam_id":76561199440801844,"connected_time":1083000000000,"state":"active","ping":46},{"user_id":1099,"name":"Ignatius J. Reilly","steam_id":76561198066958868,"connected_time":3879000000000,"state":"active","ping":64},{"user_id":1115,"name":"rice white","steam_id":76561198320732910,"connected_time":2773000000000,"state":"active","ping":74},{"user_id":1093,"name":"chiperino","steam_id":76561198121413721,"connected_time":4646000000000,"state":"active","ping":93},{"user_id":1095,"name":"Zolt","steam_id":76561198085085457,"connected_time":4634000000000,"state":"active","ping":104}]},{"server_id":402,"name":"Uncletopia | Chicago | 3 | All Maps","name_short":"chi-3","host":"chi-1.us.uncletopia.com","port":27035,"enabled":true,"region":"us-central","cc":"us","latitude":41.881832,"longitude":-87.62318,"reserved":0,"last_update":"0001-01-01T00:00:00Z","name_a2s":"Uncletopia | Chicago | 3 | All Maps","protocol":17,"map":"cp_process_final","folder":"tf","game":"Team Fortress","app_id":440,"player_count":22,"max_players":24,"Bots":0,"server_type":"Dedicated","server_os":"Linux","password":true,"vac":true,"version":"7882260","steam_id":85568392924515191,"keywords":["cp","nocrits","nodmgspread","uncletopia"],"game_id":440,"stv_port":27036,"stv_name":"Uncletopia | Chicago | 3 | All Maps | STV","players":[{"user_id":1269,"name":"High Medic","steam_id":76561198082405984,"connected_time":1780000000000,"state":"active","ping":62},{"user_id":1274,"name":"HK‚Ñ¢","steam_id":76561198196793415,"connected_time":1552000000000,"state":"active","ping":104},{"user_id":1267,"name":"josh","steam_id":76561198077902438,"connected_time":1904000000000,"state":"active","ping":75},{"user_id":1280,"name":"Derp","steam_id":76561198273609992,"connected_time":1399000000000,"state":"active","ping":36},{"user_id":1223,"name":"duke dennis","steam_id":76561198026054565,"connected_time":4149000000000,"state":"active","ping":68},{"user_id":1245,"name":"I will pocket lowscoring player","steam_id":76561199228751836,"connected_time":3240000000000,"state":"active","ping":78},{"user_id":1264,"name":"Damonj17","steam_id":76561198062964879,"connected_time":2540000000000,"state":"active","ping":45},{"user_id":1228,"name":"Translucent","steam_id":76561199212057076,"connected_time":4128000000000,"state":"active","ping":94},{"user_id":1284,"name":"larguu","steam_id":76561197994336210,"connected_time":244000000000,"state":"active","ping":55},{"user_id":1226,"name":"Petunia","steam_id":76561198043326285,"connected_time":4139000000000,"state":"active","ping":57},{"user_id":1229,"name":"starlight","steam_id":76561198068966052,"connected_time":4122000000000,"state":"active","ping":59},{"user_id":1260,"name":"c9","steam_id":76561198136642793,"connected_time":2921000000000,"state":"active","ping":66},{"user_id":1285,"name":"ZodiacThundaga","steam_id":76561199025117814,"connected_time":236000000000,"state":"active","ping":78},{"user_id":1240,"name":"Drachma","steam_id":76561198007310514,"connected_time":3516000000000,"state":"active","ping":53},{"user_id":1282,"name":"Dr. Chad Feelgood","steam_id":76561198454077219,"connected_time":624000000000,"state":"active","ping":53},{"user_id":1234,"name":"oomper","steam_id":76561199189982701,"connected_time":3839000000000,"state":"active","ping":57},{"user_id":1259,"name":"LVL","steam_id":76561198334403617,"connected_time":2932000000000,"state":"active","ping":50},{"user_id":1286,"name":"crunchy obama","steam_id":76561198044485217,"connected_time":21000000000,"state":"active","ping":98},{"user_id":1273,"name":"Salda√±a","steam_id":76561198214473001,"connected_time":1655000000000,"state":"active","ping":90},{"user_id":1263,"name":"Alecto","steam_id":76561198042476864,"connected_time":2721000000000,"state":"active","ping":45},{"user_id":1281,"name":"JonBoy","steam_id":76561198082052480,"connected_time":1355000000000,"state":"active","ping":109},{"user_id":1258,"name":"SLICK PAPI #IMDADDYASF","steam_id":76561198144766439,"connected_time":3015000000000,"state":"active","ping":44}]},{"server_id":403,"name":"Uncletopia | Chicago | 4 | All Maps","name_short":"chi-4","host":"chi-1.us.uncletopia.com","port":27045,"enabled":true,"region":"us-central","cc":"us","latitude":41.881832,"longitude":-87.62318,"reserved":0,"last_update":"0001-01-01T00:00:00Z","name_a2s":"Uncletopia | Chicago | 4 | All Maps","protocol":17,"map":"pl_snowycoast","folder":"tf","game":"Team Fortress","app_id":440,"player_count":0,"max_players":24,"Bots":0,"server_type":"Dedicated","server_os":"Linux","password":true,"vac":true,"version":"7882260","steam_id":85568392924515193,"keywords":["nocrits","nodmgspread","payload","uncletopia"],"game_id":440,"stv_port":27046,"stv_name":"Uncletopia | Chicago | 4 | All Maps | STV","players":null},{"server_id":36,"name":"Uncletopia | Chicago | 5 | All Maps","name_short":"chi-5","host":"chi-2.us.uncletopia.com","port":27015,"enabled":true,"region":"us-central","cc":"us","latitude":41.881832,"longitude":-87.62318,"reserved":0,"last_update":"0001-01-01T00:00:00Z","name_a2s":"Uncletopia | Chicago | 5 | All Maps","protocol":17,"map":"cp_mountainlab","folder":"tf","game":"Team Fortress","app_id":440,"player_count":0,"max_players":24,"Bots":0,"server_type":"Dedicated","server_os":"Linux","password":true,"vac":true,"version":"7882260","steam_id":85568392924866362,"keywords":["cp","nocrits","nodmgspread","uncletopia"],"game_id":440,"stv_port":27016,"stv_name":"Uncletopia | Chicago | 5 | All Maps | STV","players":null},{"server_id":37,"name":"Uncletopia | Chicago | 6 | All Maps","name_short":"chi-6","host":"chi-2.us.uncletopia.com","port":27025,"enabled":true,"region":"us-central","cc":"us","latitude":41.881832,"longitude":-87.62318,"reserved":0,"last_update":"0001-01-01T00:00:00Z","name_a2s":"Uncletopia | Chicago | 6 | All Maps","protocol":17,"map":"pl_snowycoast","folder":"tf","game":"Team Fortress","app_id":440,"player_count":0,"max_players":24,"Bots":0,"server_type":"Dedicated","server_os":"Linux","password":true,"vac":true,"version":"7882260","steam_id":85568392924866363,"keywords":["nocrits","nodmgspread","payload","uncletopia"],"game_id":440,"stv_port":27026,"stv_name":"Uncletopia | Chicago | 6 | All Maps | STV","players":null},{"server_id":38,"name":"Uncletopia | Chicago | 7 | Stopwatch Beta","name_short":"chi-7","host":"chi-2.us.uncletopia.com","port":27035,"enabled":true,"region":"us-central","cc":"us","latitude":41.881832,"longitude":-87.62318,"reserved":0,"last_update":"0001-01-01T00:00:00Z","name_a2s":"Uncletopia | Chicago | 7 | Stopwatch Beta","protocol":17,"map":"pl_swiftwater_final1","folder":"tf","game":"Team Fortress","app_id":440,"player_count":0,"max_players":24,"Bots":0,"server_type":"Dedicated","server_os":"Linux","password":true,"vac":true,"version":"7882260","steam_id":85568392924866364,"keywords":["nocrits","nodmgspread","payload","uncletopia"],"game_id":440,"stv_port":27036,"stv_name":"Uncletopia | Chicago | 7 | Stopwatch Beta | STV","players":null},{"server_id":39,"name":"Uncletopia | Chicago | 8 | Community","name_short":"chi-8","host":"chi-2.us.uncletopia.com","port":27045,"enabled":true,"region":"us-central","cc":"us","latitude":41.881832,"longitude":-87.62318,"reserved":0,"last_update":"0001-01-01T00:00:00Z","name_a2s":"Uncletopia | Chicago | 8 | Community","protocol":17,"map":"workshop/pl_divulgence_b4b.ugc2884808746","folder":"tf","game":"Team Fortress","app_id":440,"player_count":0,"max_players":24,"Bots":0,"server_type":"Dedicated","server_os":"Linux","password":true,"vac":true,"version":"7882260","steam_id":85568392924866365,"keywords":["nocrits","nodmgspread","payload","uncletopia"],"game_id":440,"stv_port":27046,"stv_name":"Uncletopia | Chicago | 8 | Community | STV","players":null},{"server_id":8,"name":"Uncletopia | Dallas | 1 | All Maps","name_short":"dal-1","host":"dal-1.us.uncletopia.com","port":27015,"enabled":true,"region":"us-central","cc":"us","latitude":32.779167,"longitude":-96.80889,"reserved":0,"last_update":"0001-01-01T00:00:00Z","name_a2s":"Uncletopia | Dallas | 1 | All Maps","protocol":17,"map":"koth_highpass","folder":"tf","game":"Team Fortress","app_id":440,"player_count":0,"max_players":24,"Bots":0,"server_type":"Dedicated","server_os":"Linux","password":true,"vac":true,"version":"7882260","steam_id":85568392924469986,"keywords":["cp","nocrits","nodmgspread","uncletopia"],"game_id":440,"stv_port":27016,"stv_name":"Uncletopia | Dallas | 1 | All Maps | STV","players":null},{"server_id":108,"name":"Uncletopia | Dallas | 2 | All Maps","name_short":"dal-2","host":"dal-1.us.uncletopia.com","port":27025,"enabled":true,"region":"us-central","cc":"us","latitude":32.779167,"longitude":-96.80889,"reserved":0,"last_update":"0001-01-01T00:00:00Z","name_a2s":"Uncletopia | Dallas | 2 | All Maps","protocol":17,"map":"cp_metalworks","folder":"tf","game":"Team Fortress","app_id":440,"player_count":11,"max_players":24,"Bots":0,"server_type":"Dedicated","server_os":"Linux","password":true,"vac":true,"version":"7882260","steam_id":85568392924469988,"keywords":["cp","nocrits","nodmgspread","uncletopia"],"game_id":440,"stv_port":27026,"stv_name":"Uncletopia | Dallas | 2 | All Maps | STV","players":[{"user_id":599,"name":"murph","steam_id":76561197973805634,"connected_time":5272000000000,"state":"active","ping":95},{"user_id":679,"name":"Tokey","steam_id":76561198825943127,"connected_time":11000000000,"state":"active","ping":45},{"user_id":673,"name":"iuli","steam_id":76561198193780770,"connected_time":683000000000,"state":"spawning","ping":394},{"user_id":626,"name":"slurdydurdy","steam_id":76561198101494591,"connected_time":3785000000000,"state":"spawning","ping":80},{"user_id":661,"name":"‚òπ","steam_id":76561198804763186,"connected_time":1617000000000,"state":"active","ping":313},{"user_id":655,"name":"minty","steam_id":76561198062821894,"connected_time":2005000000000,"state":"spawning","ping":60},{"user_id":676,"name":"Detective X „ÉÑ","steam_id":76561198191880906,"connected_time":539000000000,"state":"active","ping":64},{"user_id":678,"name":"Engiqueer","steam_id":76561198214080773,"connected_time":219000000000,"state":"spawning","ping":79},{"user_id":664,"name":"moopmop","steam_id":76561198065224965,"connected_time":1486000000000,"state":"active","ping":80},{"user_id":665,"name":"(1)Kenji","steam_id":76561198219072892,"connected_time":1453000000000,"state":"active","ping":67},{"user_id":639,"name":"Kenji","steam_id":76561198089630547,"connected_time":3202000000000,"state":"active","ping":73}]},{"server_id":5,"name":"Uncletopia | Frankfurt | 1 | All Maps","name_short":"frk-1","host":"frk-1.de.uncletopia.com","port":27015,"enabled":true,"region":"eu","cc":"de","latitude":50.110924,"longitude":8.682127,"reserved":0,"last_update":"0001-01-01T00:00:00Z","name_a2s":"Uncletopia | Frankfurt | 1 | All Maps","protocol":17,"map":"pl_borneo","folder":"tf","game":"Team Fortress","app_id":440,"player_count":24,"max_players":24,"Bots":0,"server_type":"Dedicated","server_os":"Linux","password":true,"vac":true,"version":"7882260","steam_id":85568392924469989,"keywords":["nocrits","nodmgspread","payload","uncletopia"],"game_id":440,"stv_port":27016,"stv_name":"Uncletopia | Frankfurt | 1 | All Maps | STV","players":[{"user_id":87,"name":"lulu","steam_id":76561199147764133,"connected_time":2140000000000,"state":"active","ping":66},{"user_id":107,"name":"B.batt","steam_id":76561198998684199,"connected_time":169000000000,"state":"active","ping":117},{"user_id":94,"name":"Kwetch","steam_id":76561199405413425,"connected_time":1455000000000,"state":"active","ping":97},{"user_id":98,"name":"own","steam_id":76561197972447260,"connected_time":1206000000000,"state":"active","ping":54},{"user_id":105,"name":"VolcanicArts","steam_id":76561198063453246,"connected_time":753000000000,"state":"active","ping":71},{"user_id":104,"name":"gexfan3165","steam_id":76561199459414738,"connected_time":838000000000,"state":"active","ping":65},{"user_id":10,"name":"Espa√±aa","steam_id":76561198879587832,"connected_time":6655000000000,"state":"active","ping":85},{"user_id":109,"name":"WHUSSKEY","steam_id":76561198137827441,"connected_time":47000000000,"state":"active","ping":72},{"user_id":75,"name":"True-Aloy78","steam_id":76561199051286139,"connected_time":3099000000000,"state":"active","ping":64},{"user_id":108,"name":"Flint","steam_id":76561197995920776,"connected_time":95000000000,"state":"active","ping":44},{"user_id":90,"name":"Leibeigener","steam_id":76561199275478305,"connected_time":2011000000000,"state":"active","ping":39},{"user_id":106,"name":"Flash","steam_id":76561198067379855,"connected_time":335000000000,"state":"active","ping":57},{"user_id":82,"name":"Zeta","steam_id":76561198101917105,"connected_time":2387000000000,"state":"active","ping":144},{"user_id":62,"name":"WALTER WHITE","steam_id":76561199147666336,"connected_time":4537000000000,"state":"active","ping":64},{"user_id":72,"name":"Ross from F.R.I.E.N.D.S.","steam_id":76561198008511665,"connected_time":3114000000000,"state":"active","ping":59},{"user_id":83,"name":"ramirez","steam_id":76561198117060048,"connected_time":2291000000000,"state":"active","ping":52},{"user_id":99,"name":"Maxmen","steam_id":76561198188541510,"connected_time":1199000000000,"state":"active","ping":133},{"user_id":93,"name":"chemoman","steam_id":76561198820463450,"connected_time":1531000000000,"state":"active","ping":82},{"user_id":24,"name":"Eidolon","steam_id":76561198043919565,"connected_time":6226000000000,"state":"active","ping":83},{"user_id":101,"name":"FJADL","steam_id":76561198237008214,"connected_time":1179000000000,"state":"active","ping":59},{"user_id":63,"name":"hol horse","steam_id":76561199235435358,"connected_time":4490000000000,"state":"active","ping":82},{"user_id":110,"name":"iIMOFIi","steam_id":76561199000483925,"connected_time":16000000000,"state":"spawning","ping":149},{"user_id":58,"name":"Dzan50","steam_id":76561198059758591,"connected_time":4642000000000,"state":"active","ping":106},{"user_id":97,"name":"E","steam_id":76561198414106145,"connected_time":1227000000000,"state":"active","ping":85}]},{"server_id":110,"name":"Uncletopia | Frankfurt | 2 | All Maps","name_short":"frk-2","host":"frk-1.de.uncletopia.com","port":27025,"enabled":true,"region":"eu","cc":"de","latitude":50.110924,"longitude":8.682127,"reserved":0,"last_update":"0001-01-01T00:00:00Z","name_a2s":"Uncletopia | Frankfurt | 2 | All Maps","protocol":17,"map":"cp_mountainlab","folder":"tf","game":"Team Fortress","app_id":440,"player_count":0,"max_players":24,"Bots":0,"server_type":"Dedicated","server_os":"Linux","password":true,"vac":true,"version":"7882260","steam_id":85568392924469990,"keywords":["cp","nocrits","nodmgspread","uncletopia"],"game_id":440,"stv_port":27026,"stv_name":"Uncletopia | Frankfurt | 2 | All Maps | STV","players":null},{"server_id":308,"name":"Uncletopia | Frankfurt | 3 | All Maps","name_short":"frk-3","host":"frk-1.de.uncletopia.com","port":27035,"enabled":true,"region":"eu","cc":"de","latitude":50.110924,"longitude":8.682127,"reserved":0,"last_update":"0001-01-01T00:00:00Z","name_a2s":"Uncletopia | Frankfurt | 3 | All Maps","protocol":17,"map":"pl_snowycoast","folder":"tf","game":"Team Fortress","app_id":440,"player_count":7,"max_players":24,"Bots":0,"server_type":"Dedicated","server_os":"Linux","password":true,"vac":true,"version":"7882260","steam_id":85568392924504274,"keywords":["nocrits","nodmgspread","payload","uncletopia"],"game_id":440,"stv_port":27036,"stv_name":"Uncletopia | Frankfurt | 3 | All Maps | STV","players":[{"user_id":6,"name":"sunshine (he/him)","steam_id":76561198084597975,"connected_time":1402000000000,"state":"active","ping":61},{"user_id":7,"name":"Yugoooii","steam_id":76561199426989328,"connected_time":1219000000000,"state":"active","ping":67},{"user_id":8,"name":"magicznynikt560","steam_id":76561199111248065,"connected_time":1189000000000,"state":"active","ping":81},{"user_id":11,"name":"Double_binks","steam_id":76561199438485598,"connected_time":458000000000,"state":"active","ping":56},{"user_id":20,"name":"Kapitan Polska","steam_id":76561197968069413,"connected_time":92000000000,"state":"active","ping":60},{"user_id":21,"name":"beanie_snail","steam_id":76561199111476299,"connected_time":89000000000,"state":"active","ping":354},{"user_id":22,"name":"Aztek","steam_id":76561197980496357,"connected_time":31000000000,"state":"active","ping":46}]},{"server_id":309,"name":"Uncletopia | Frankfurt | 4 | All Maps","name_short":"frk-4","host":"frk-1.de.uncletopia.com","port":27045,"enabled":true,"region":"eu","cc":"de","latitude":50.110924,"longitude":8.682127,"reserved":0,"last_update":"0001-01-01T00:00:00Z","name_a2s":"Uncletopia | Frankfurt | 4 | All Maps","protocol":17,"map":"pl_pier","folder":"tf","game":"Team Fortress","app_id":440,"player_count":0,"max_players":24,"Bots":0,"server_type":"Dedicated","server_os":"Linux","password":true,"vac":true,"version":"7882260","steam_id":85568392924504275,"keywords":["nocrits","nodmgspread","payload","uncletopia"],"game_id":440,"stv_port":27046,"stv_name":"Uncletopia | Frankfurt | 4 | All Maps | STV","players":null},{"server_id":310,"name":"Uncletopia | Frankfurt | 5 | All Maps","name_short":"frk-5","host":"frk-1.de.uncletopia.com","port":27055,"enabled":true,"region":"eu","cc":"de","latitude":50.110924,"longitude":8.682127,"reserved":0,"last_update":"0001-01-01T00:00:00Z","name_a2s":"Uncletopia | Frankfurt | 5 | All Maps","protocol":17,"map":"cp_snakewater_final1","folder":"tf","game":"Team Fortress","app_id":440,"player_count":0,"max_players":24,"Bots":0,"server_type":"Dedicated","server_os":"Linux","password":true,"vac":true,"version":"7882260","steam_id":85568392924504277,"keywords":["cp","nocrits","nodmgspread","uncletopia"],"game_id":440,"stv_port":27056,"stv_name":"Uncletopia | Frankfurt | 5 | All Maps | STV","players":null},{"server_id":311,"name":"Uncletopia | Frankfurt | 6 | All Maps","name_short":"frk-6","host":"frk-1.de.uncletopia.com","port":27065,"enabled":true,"region":"eu","cc":"de","latitude":50.110924,"longitude":8.682127,"reserved":0,"last_update":"0001-01-01T00:00:00Z","name_a2s":"Uncletopia | Frankfurt | 6 | All Maps","protocol":17,"map":"koth_cascade","folder":"tf","game":"Team Fortress","app_id":440,"player_count":0,"max_players":24,"Bots":0,"server_type":"Dedicated","server_os":"Linux","password":true,"vac":true,"version":"7882260","steam_id":85568392924504278,"keywords":["cp","nocrits","nodmgspread","uncletopia"],"game_id":440,"stv_port":27066,"stv_name":"Uncletopia | Frankfurt | 6 | All Maps | STV","players":null},{"server_id":23,"name":"Uncletopia | Frankfurt | 7 | Stopwatch Beta","name_short":"frk-7","host":"frk-1.de.uncletopia.com","port":27075,"enabled":true,"region":"eu","cc":"de","latitude":50.110924,"longitude":8.682127,"reserved":0,"last_update":"0001-01-01T00:00:00Z","name_a2s":"Uncletopia | Frankfurt | 7 | Stopwatch Beta","protocol":17,"map":"cp_gullywash_final1","folder":"tf","game":"Team Fortress","app_id":440,"player_count":0,"max_players":24,"Bots":0,"server_type":"Dedicated","server_os":"Linux","password":true,"vac":true,"version":"7882260","steam_id":85568392924742827,"keywords":["cp","nocrits","nodmgspread","uncletopia"],"game_id":440,"stv_port":27076,"stv_name":"Uncletopia | Frankfurt | 7 | Stopwatch Beta | STV","players":null},{"server_id":24,"name":"Uncletopia | Frankfurt | 8 | Community","name_short":"frk-8","host":"frk-1.de.uncletopia.com","port":27085,"enabled":true,"region":"eu","cc":"de","latitude":50.110924,"longitude":8.682127,"reserved":0,"last_update":"0001-01-01T00:00:00Z","name_a2s":"Uncletopia | Frankfurt | 8 | Community","protocol":17,"map":"koth_cascade","folder":"tf","game":"Team Fortress","app_id":440,"player_count":0,"max_players":24,"Bots":0,"server_type":"Dedicated","server_os":"Linux","password":true,"vac":true,"version":"7882260","steam_id":85568392924742828,"keywords":["cp","nocrits","nodmgspread","uncletopia"],"game_id":440,"stv_port":27086,"stv_name":"Uncletopia | Frankfurt | 8 | Community | STV","players":null},{"server_id":202,"name":"Uncletopia | Hong Kong | 1 | All Maps","name_short":"hgk-1","host":"hgk-1.hk.uncletopia.com","port":27015,"enabled":true,"region":"asia","cc":"hk","latitude":22.302711,"longitude":114.177216,"reserved":0,"last_update":"0001-01-01T00:00:00Z","name_a2s":"Uncletopia | Hong Kong | 1 | All Maps","protocol":17,"map":"pl_frontier_final","folder":"tf","game":"Team Fortress","app_id":440,"player_count":23,"max_players":24,"Bots":0,"server_type":"Dedicated","server_os":"Linux","password":true,"vac":true,"version":"7882260","steam_id":85568392924494504,"keywords":["nocrits","nodmgspread","payload","uncletopia"],"game_id":440,"stv_port":27016,"stv_name":"Uncletopia | Hong Kong | 1 | All Maps | STV","players":[{"user_id":311,"name":"i am a F2P and my aim is shit","steam_id":76561199475974790,"connected_time":2091000000000,"state":"active","ping":80},{"user_id":305,"name":"cellum95","steam_id":76561198172146871,"connected_time":2881000000000,"state":"active","ping":77},{"user_id":261,"name":"Â∏ï","steam_id":76561198439343999,"connected_time":8909000000000,"state":"active","ping":99},{"user_id":336,"name":"Vortex Swagger","steam_id":76561198833527091,"connected_time":120000000000,"state":"active","ping":82},{"user_id":335,"name":"ObscuroLucem","steam_id":76561198875037943,"connected_time":147000000000,"state":"active","ping":87},{"user_id":328,"name":"Crazywayne","steam_id":76561198056504010,"connected_time":600000000000,"state":"active","ping":75},{"user_id":307,"name":"AmaiGai(?)","steam_id":76561199122491157,"connected_time":2737000000000,"state":"active","ping":135},{"user_id":297,"name":"Samoyed","steam_id":76561198299150410,"connected_time":3937000000000,"state":"active","ping":107},{"user_id":333,"name":"NootNoot","steam_id":76561199122109977,"connected_time":168000000000,"state":"active","ping":121},{"user_id":332,"name":"Shotty 2 Hotty","steam_id":76561199174449723,"connected_time":382000000000,"state":"active","ping":122},{"user_id":174,"name":"Stupid B","steam_id":76561198131423270,"connected_time":17051000000000,"state":"active","ping":121},{"user_id":308,"name":"cstr","steam_id":76561198125946388,"connected_time":2693000000000,"state":"active","ping":99},{"user_id":331,"name":"MongGoyo63","steam_id":76561198349540834,"connected_time":566000000000,"state":"active","ping":72},{"user_id":322,"name":"ok i pull up","steam_id":76561198164297839,"connected_time":1500000000000,"state":"active","ping":75},{"user_id":324,"name":"sierra","steam_id":76561197969873415,"connected_time":1299000000000,"state":"active","ping":97},{"user_id":327,"name":"KimvyKinsley","steam_id":76561198859745304,"connected_time":726000000000,"state":"active","ping":83},{"user_id":309,"name":"Dumbo","steam_id":76561197998844815,"connected_time":2480000000000,"state":"active","ping":53},{"user_id":312,"name":"Hay","steam_id":76561199438952901,"connected_time":2091000000000,"state":"active","ping":51},{"user_id":268,"name":"mutwo","steam_id":76561198077043500,"connected_time":7498000000000,"state":"active","ping":80},{"user_id":315,"name":"urotsuki with da doobie","steam_id":76561198074339034,"connected_time":1890000000000,"state":"active","ping":77},{"user_id":291,"name":"p1st0n","steam_id":76561198992723983,"connected_time":4077000000000,"state":"active","ping":91},{"user_id":244,"name":"Milf (The fan O'Milk)","steam_id":76561198213031155,"connected_time":10089000000000,"state":"active","ping":96},{"user_id":329,"name":"Chomer","steam_id":76561199034546642,"connected_time":600000000000,"state":"active","ping":105}]},{"server_id":1,"name":"Uncletopia | Los Angeles | 1 | All Maps","name_short":"lax-1","host":"lax-1.us.uncletopia.com","port":27015,"enabled":true,"region":"us-west","cc":"us","latitude":33.94279,"longitude":-118.41004,"reserved":0,"last_update":"0001-01-01T00:00:00Z","name_a2s":"Uncletopia | Los Angeles | 1 | All Maps","protocol":17,"map":"cp_mountainlab","folder":"tf","game":"Team Fortress","app_id":440,"player_count":0,"max_players":24,"Bots":0,"server_type":"Dedicated","server_os":"Linux","password":true,"vac":true,"version":"7882260","steam_id":85568392924469991,"keywords":["cp","nocrits","nodmgspread","uncletopia"],"game_id":440,"stv_port":27016,"stv_name":"Uncletopia | Los Angeles | 1 | All Maps | STV","players":null},{"server_id":112,"name":"Uncletopia | Los Angeles | 2 | All Maps","name_short":"lax-2","host":"lax-1.us.uncletopia.com","port":27025,"enabled":true,"region":"us-west","cc":"us","latitude":33.94279,"longitude":-118.41004,"reserved":0,"last_update":"0001-01-01T00:00:00Z","name_a2s":"Uncletopia | Los Angeles | 2 | All Maps","protocol":17,"map":"koth_highpass","folder":"tf","game":"Team Fortress","app_id":440,"player_count":0,"max_players":24,"Bots":0,"server_type":"Dedicated","server_os":"Linux","password":true,"vac":true,"version":"7882260","steam_id":85568392924469992,"keywords":["cp","nocrits","nodmgspread","uncletopia"],"game_id":440,"stv_port":27026,"stv_name":"Uncletopia | Los Angeles | 2 | All Maps | STV","players":null},{"server_id":324,"name":"Uncletopia | Los Angeles | 3 | All Maps","name_short":"lax-3","host":"lax-1.us.uncletopia.com","port":27035,"enabled":true,"region":"us-west","cc":"us","latitude":33.94279,"longitude":-118.41004,"reserved":0,"last_update":"0001-01-01T00:00:00Z","name_a2s":"Uncletopia | Los Angeles | 3 | All Maps","protocol":17,"map":"pl_pier","folder":"tf","game":"Team Fortress","app_id":440,"player_count":0,"max_players":24,"Bots":0,"server_type":"Dedicated","server_os":"Linux","password":true,"vac":true,"version":"7882260","steam_id":85568392924510198,"keywords":["nocrits","nodmgspread","payload","uncletopia"],"game_id":440,"stv_port":27036,"stv_name":"Uncletopia | Los Angeles | 3 | All Maps | STV","players":null},{"server_id":25,"name":"Uncletopia | Los Angeles | 4 | Stopwatch Beta","name_short":"lax-4","host":"lax-1.us.uncletopia.com","port":27045,"enabled":true,"region":"us-west","cc":"us","latitude":33.94279,"longitude":-118.41004,"reserved":0,"last_update":"0001-01-01T00:00:00Z","name_a2s":"Uncletopia | Los Angeles | 4 | Stopwatch Beta","protocol":17,"map":"workshop/pl_badwater_pro_v12.ugc2142942074","folder":"tf","game":"Team Fortress","app_id":440,"player_count":0,"max_players":24,"Bots":0,"server_type":"Dedicated","server_os":"Linux","password":true,"vac":true,"version":"7882260","steam_id":85568392924510199,"keywords":["nocrits","nodmgspread","payload","uncletopia"],"game_id":440,"stv_port":27046,"stv_name":"Uncletopia | Los Angeles | 4 | Stopwatch Beta | STV","players":null},{"server_id":11,"name":"Uncletopia | London | 1 | All Maps","name_short":"lon-1","host":"lon-1.uk.uncletopia.com","port":27015,"enabled":true,"region":"eu","cc":"gb","latitude":51.509865,"longitude":-0.118092,"reserved":0,"last_update":"0001-01-01T00:00:00Z","name_a2s":"Uncletopia | London | 1 | All Maps","protocol":17,"map":"pl_frontier_final","folder":"tf","game":"Team Fortress","app_id":440,"player_count":24,"max_players":24,"Bots":0,"server_type":"Dedicated","server_os":"Linux","password":true,"vac":true,"version":"7882260","steam_id":85568392924367362,"keywords":["nocrits","nodmgspread","payload","uncletopia"],"game_id":440,"stv_port":27016,"stv_name":"Uncletopia | London | 1 | All Maps | STV","players":[{"user_id":92,"name":"B O R F","steam_id":76561197962461333,"connected_time":2143000000000,"state":"active","ping":57},{"user_id":5,"name":"Xenometan","steam_id":76561198208408392,"connected_time":11342000000000,"state":"active","ping":118},{"user_id":113,"name":"Smokio","steam_id":76561198069650580,"connected_time":898000000000,"state":"active","ping":75},{"user_id":115,"name":"Yeets3er","steam_id":76561199137127757,"connected_time":448000000000,"state":"active","ping":59},{"user_id":114,"name":"Bunny","steam_id":76561198284766141,"connected_time":467000000000,"state":"active","ping":45},{"user_id":116,"name":"Rizziologist","steam_id":76561198089003514,"connected_time":436000000000,"state":"active","ping":56},{"user_id":89,"name":"Lucky B.üèÜ","steam_id":76561198077571162,"connected_time":2844000000000,"state":"active","ping":54},{"user_id":66,"name":"maxx","steam_id":76561198260625229,"connected_time":5359000000000,"state":"active","ping":79},{"user_id":121,"name":"doopsuiker","steam_id":76561198025916703,"connected_time":283000000000,"state":"active","ping":88},{"user_id":112,"name":"7-Zip","steam_id":76561198099726966,"connected_time":902000000000,"state":"active","ping":107},{"user_id":91,"name":"Itai","steam_id":76561198804555329,"connected_time":2616000000000,"state":"active","ping":114},{"user_id":99,"name":"Bottle O' Scrumpy","steam_id":76561199244250562,"connected_time":1970000000000,"state":"active","ping":81},{"user_id":84,"name":"[waffles]","steam_id":76561198951206047,"connected_time":3098000000000,"state":"active","ping":91},{"user_id":107,"name":"Jam","steam_id":76561198090409013,"connected_time":1457000000000,"state":"active","ping":85},{"user_id":111,"name":"Foly","steam_id":76561198379383694,"connected_time":1005000000000,"state":"active","ping":65},{"user_id":74,"name":"Eltriuqs","steam_id":76561198225771588,"connected_time":4331000000000,"state":"active","ping":116},{"user_id":97,"name":"[ Removed by Reddit ]","steam_id":76561198043953503,"connected_time":2049000000000,"state":"active","ping":76},{"user_id":122,"name":"‚ú†snupdoguuV_02‚ò™","steam_id":76561198375885833,"connected_time":281000000000,"state":"active","ping":89},{"user_id":101,"name":"Asa Mitaka","steam_id":76561198361723475,"connected_time":1920000000000,"state":"active","ping":66},{"user_id":118,"name":"jimmy bob","steam_id":76561198319583692,"connected_time":376000000000,"state":"active","ping":58},{"user_id":125,"name":"kallerannar","steam_id":76561199095701143,"connected_time":248000000000,"state":"active","ping":84},{"user_id":120,"name":"Vectillion","steam_id":76561198074292454,"connected_time":365000000000,"state":"active","ping":68},{"user_id":123,"name":"Krad #R0BL0XAIM","steam_id":76561198991661832,"connected_time":281000000000,"state":"active","ping":106},{"user_id":124,"name":"Lessoz","steam_id":76561199211572036,"connected_time":278000000000,"state":"active","ping":88}]},{"server_id":114,"name":"Uncletopia | London | 2 | All Maps","name_short":"lon-2","host":"lon-1.uk.uncletopia.com","port":27025,"enabled":true,"region":"eu","cc":"gb","latitude":51.509865,"longitude":-0.118092,"reserved":0,"last_update":"0001-01-01T00:00:00Z","name_a2s":"Uncletopia | London | 2 | All Maps","protocol":17,"map":"pl_badwater","folder":"tf","game":"Team Fortress","app_id":440,"player_count":23,"max_players":24,"Bots":0,"server_type":"Dedicated","server_os":"Linux","password":true,"vac":true,"version":"7882260","steam_id":85568392924470941,"keywords":["nocrits","nodmgspread","payload","uncletopia"],"game_id":440,"stv_port":27026,"stv_name":"Uncletopia | London | 2 | All Maps | STV","players":[{"user_id":4,"name":"One Hop Dis Time *BWRAB*","steam_id":76561198146081601,"connected_time":5120000000000,"state":"active","ping":55},{"user_id":74,"name":"lol","steam_id":76561198104438656,"connected_time":384000000000,"state":"active","ping":74},{"user_id":67,"name":".::[SerafeTTiN]::.","steam_id":76561198009471724,"connected_time":809000000000,"state":"active","ping":95},{"user_id":7,"name":"nemelex","steam_id":76561198958005865,"connected_time":4436000000000,"state":"active","ping":58},{"user_id":68,"name":"ultralow","steam_id":76561197982127154,"connected_time":796000000000,"state":"active","ping":59},{"user_id":43,"name":"Destinys","steam_id":76561198056132894,"connected_time":1374000000000,"state":"active","ping":69},{"user_id":59,"name":"mindas","steam_id":76561198056839438,"connected_time":1068000000000,"state":"active","ping":68},{"user_id":29,"name":"quickfast","steam_id":76561199438900919,"connected_time":1957000000000,"state":"active","ping":42},{"user_id":53,"name":"burgz","steam_id":76561198109955787,"connected_time":1160000000000,"state":"active","ping":45},{"user_id":15,"name":"Lokei","steam_id":76561198248557120,"connected_time":2764000000000,"state":"active","ping":90},{"user_id":22,"name":"SK4RD3S","steam_id":76561198058724777,"connected_time":2522000000000,"state":"active","ping":75},{"user_id":65,"name":"Laysketchup","steam_id":76561198798891390,"connected_time":867000000000,"state":"active","ping":56},{"user_id":20,"name":"Lotto","steam_id":76561198012295174,"connected_time":2584000000000,"state":"active","ping":105},{"user_id":44,"name":"Neimon","steam_id":76561198343485710,"connected_time":1348000000000,"state":"active","ping":117},{"user_id":25,"name":"[BL] Grelamass","steam_id":76561199372198864,"connected_time":2206000000000,"state":"active","ping":74},{"user_id":54,"name":"Lyell","steam_id":76561198350329389,"connected_time":1159000000000,"state":"active","ping":78},{"user_id":57,"name":"Sulatejuusto","steam_id":76561198063971856,"connected_time":1123000000000,"state":"active","ping":90},{"user_id":48,"name":"Hann√º","steam_id":76561197969886128,"connected_time":1260000000000,"state":"active","ping":53},{"user_id":50,"name":"MAGik","steam_id":76561198085793729,"connected_time":1226000000000,"state":"active","ping":85},{"user_id":72,"name":"justify","steam_id":76561199227541378,"connected_time":649000000000,"state":"active","ping":151},{"user_id":60,"name":"Mega Saturn","steam_id":76561198024750500,"connected_time":1044000000000,"state":"active","ping":81},{"user_id":73,"name":"panakid","steam_id":76561198364121077,"connected_time":479000000000,"state":"active","ping":103},{"user_id":75,"name":"ikeaworst","steam_id":76561198936990378,"connected_time":379000000000,"state":"active","ping":61}]},{"server_id":320,"name":"Uncletopia | London | 3 | All Maps","name_short":"lon-3","host":"lon-1.uk.uncletopia.com","port":27035,"enabled":true,"region":"eu","cc":"gb","latitude":51.509865,"longitude":-0.118092,"reserved":0,"last_update":"0001-01-01T00:00:00Z","name_a2s":"Uncletopia | London | 3 | All Maps","protocol":17,"map":"pl_badwater","folder":"tf","game":"Team Fortress","app_id":440,"player_count":24,"max_players":24,"Bots":0,"server_type":"Dedicated","server_os":"Linux","password":true,"vac":true,"version":"7882260","steam_id":85568392924510192,"keywords":["nocrits","nodmgspread","payload","uncletopia"],"game_id":440,"stv_port":27036,"stv_name":"Uncletopia | London | 3 | All Maps | STV","players":[{"user_id":172,"name":"phos","steam_id":76561198173383621,"connected_time":1992000000000,"state":"active","ping":64},{"user_id":150,"name":"LOBZIK","steam_id":76561198114830120,"connected_time":3473000000000,"state":"active","ping":79},{"user_id":186,"name":"Skittles","steam_id":76561198024077569,"connected_time":1546000000000,"state":"active","ping":56},{"user_id":187,"name":"Ampiong99","steam_id":76561199245197481,"connected_time":1526000000000,"state":"active","ping":55},{"user_id":193,"name":"kyuta","steam_id":76561198382281653,"connected_time":778000000000,"state":"active","ping":84},{"user_id":68,"name":"Cars","steam_id":76561198173329977,"connected_time":10877000000000,"state":"active","ping":48},{"user_id":195,"name":"vekk","steam_id":76561198214848887,"connected_time":679000000000,"state":"active","ping":68},{"user_id":196,"name":"MajorKlebstoff","steam_id":76561198035489363,"connected_time":654000000000,"state":"active","ping":60},{"user_id":152,"name":"–ë–æ–µ–≤–æ–π –∫–æ–º–∞—Ä","steam_id":76561198796564094,"connected_time":3327000000000,"state":"active","ping":92},{"user_id":177,"name":"eva.","steam_id":76561198054474684,"connected_time":1854000000000,"state":"active","ping":86},{"user_id":182,"name":"Watermelon","steam_id":76561198078349914,"connected_time":1713000000000,"state":"active","ping":46},{"user_id":189,"name":"Hoff","steam_id":76561198138540938,"connected_time":1464000000000,"state":"active","ping":76},{"user_id":183,"name":"Envy","steam_id":76561198132723219,"connected_time":1707000000000,"state":"active","ping":105},{"user_id":190,"name":"true","steam_id":76561198031145243,"connected_time":1236000000000,"state":"active","ping":75},{"user_id":200,"name":"heykikidom","steam_id":76561198267574417,"connected_time":330000000000,"state":"active","ping":105},{"user_id":201,"name":"Ohad","steam_id":76561198067989324,"connected_time":326000000000,"state":"active","ping":106},{"user_id":184,"name":"TheWerelizard","steam_id":76561198060638325,"connected_time":1680000000000,"state":"active","ping":48},{"user_id":170,"name":"Sammy","steam_id":76561197977379410,"connected_time":2315000000000,"state":"active","ping":95},{"user_id":198,"name":"gagalak","steam_id":76561198089979108,"connected_time":620000000000,"state":"active","ping":105},{"user_id":158,"name":"Le p√®re Volca","steam_id":76561198235814492,"connected_time":2639000000000,"state":"active","ping":97},{"user_id":153,"name":"BastLover","steam_id":76561198247062724,"connected_time":3294000000000,"state":"active","ping":63},{"user_id":185,"name":"Nugget","steam_id":76561198338916407,"connected_time":1654000000000,"state":"active","ping":75},{"user_id":156,"name":"ok","steam_id":76561198052575567,"connected_time":2760000000000,"state":"active","ping":90},{"user_id":197,"name":"St√ºmpy","steam_id":76561198255904077,"connected_time":647000000000,"state":"active","ping":73}]},{"server_id":321,"name":"Uncletopia | London | 4 | All Maps","name_short":"lon-4","host":"lon-1.uk.uncletopia.com","port":27045,"enabled":true,"region":"eu","cc":"gb","latitude":51.509865,"longitude":-0.118092,"reserved":0,"last_update":"0001-01-01T00:00:00Z","name_a2s":"Uncletopia | London | 4 | All Maps","protocol":17,"map":"pl_upward","folder":"tf","game":"Team Fortress","app_id":440,"player_count":0,"max_players":24,"Bots":0,"server_type":"Dedicated","server_os":"Linux","password":true,"vac":true,"version":"7882260","steam_id":85568392924510193,"keywords":["nocrits","nodmgspread","payload","uncletopia"],"game_id":440,"stv_port":27046,"stv_name":"Uncletopia | London | 4 | All Maps | STV","players":null},{"server_id":21,"name":"Uncletopia | London | 5 | All Maps","name_short":"lon-5","host":"lon-1.uk.uncletopia.com","port":27055,"enabled":true,"region":"eu","cc":"gb","latitude":51.509865,"longitude":-0.118092,"reserved":0,"last_update":"0001-01-01T00:00:00Z","name_a2s":"Uncletopia | London | 5 | All Maps","protocol":17,"map":"pl_frontier_final","folder":"tf","game":"Team Fortress","app_id":440,"player_count":0,"max_players":24,"Bots":0,"server_type":"Dedicated","server_os":"Linux","password":true,"vac":true,"version":"7882260","steam_id":85568392924742829,"keywords":["nocrits","nodmgspread","payload","uncletopia"],"game_id":440,"stv_port":27056,"stv_name":"Uncletopia | London | 5 | All Maps | STV","players":null},{"server_id":22,"name":"Uncletopia | London | 6 | All Maps","name_short":"lon-6","host":"lon-1.uk.uncletopia.com","port":27065,"enabled":true,"region":"eu","cc":"gb","latitude":51.509865,"longitude":-0.118092,"reserved":0,"last_update":"0001-01-01T00:00:00Z","name_a2s":"Uncletopia | London | 6 | All Maps","protocol":17,"map":"pl_swiftwater_final1","folder":"tf","game":"Team Fortress","app_id":440,"player_count":24,"max_players":24,"Bots":0,"server_type":"Dedicated","server_os":"Linux","password":true,"vac":true,"version":"7882260","steam_id":85568392924742830,"keywords":["nocrits","nodmgspread","payload","uncletopia"],"game_id":440,"stv_port":27066,"stv_name":"Uncletopia | London | 6 | All Maps | STV","players":[{"user_id":238,"name":"Cumgus","steam_id":76561198058492107,"connected_time":8000000000,"state":"active","ping":80},{"user_id":186,"name":"modavak","steam_id":76561198946290908,"connected_time":4832000000000,"state":"active","ping":103},{"user_id":200,"name":"Lord","steam_id":76561198241305816,"connected_time":3392000000000,"state":"active","ping":124},{"user_id":233,"name":"Pinochet","steam_id":76561198194042394,"connected_time":676000000000,"state":"active","ping":156},{"user_id":217,"name":"John Noob","steam_id":76561197999170026,"connected_time":1997000000000,"state":"active","ping":83},{"user_id":122,"name":"SpyCrab  Erik Twice","steam_id":76561198009710309,"connected_time":8606000000000,"state":"active","ping":62},{"user_id":231,"name":"Mal","steam_id":76561198262337669,"connected_time":838000000000,"state":"active","ping":66},{"user_id":232,"name":"saul goodmen","steam_id":76561199395002401,"connected_time":760000000000,"state":"active","ping":183},{"user_id":213,"name":"Spamton G Spamton","steam_id":76561198916276543,"connected_time":2547000000000,"state":"active","ping":48},{"user_id":230,"name":"dumdum","steam_id":76561198069430083,"connected_time":1177000000000,"state":"active","ping":85},{"user_id":209,"name":"AwterSix","steam_id":76561198042561678,"connected_time":2754000000000,"state":"active","ping":63},{"user_id":189,"name":"Dat Bisexual Scout","steam_id":76561198965998351,"connected_time":4131000000000,"state":"active","ping":92},{"user_id":143,"name":"elliot","steam_id":76561198055010039,"connected_time":7523000000000,"state":"active","ping":75},{"user_id":234,"name":"Muli","steam_id":76561198001270460,"connected_time":663000000000,"state":"active","ping":74},{"user_id":224,"name":"BAPELIS","steam_id":76561198139157427,"connected_time":1432000000000,"state":"active","ping":104},{"user_id":225,"name":"|not|dan|the|epic|gamer|","steam_id":76561198278561932,"connected_time":1429000000000,"state":"active","ping":105},{"user_id":226,"name":"Gorzel","steam_id":76561198828273330,"connected_time":1428000000000,"state":"active","ping":85},{"user_id":227,"name":"Tevinell81","steam_id":76561198340658904,"connected_time":1370000000000,"state":"active","ping":111},{"user_id":218,"name":"znunney","steam_id":76561199438501613,"connected_time":1971000000000,"state":"active","ping":60},{"user_id":201,"name":"ZaneMago","steam_id":76561198305019050,"connected_time":3272000000000,"state":"active","ping":81},{"user_id":220,"name":"Penis Contortionist","steam_id":76561198073663784,"connected_time":1925000000000,"state":"active","ping":40},{"user_id":229,"name":"ShitNozzle7","steam_id":76561198878466398,"connected_time":1352000000000,"state":"active","ping":118},{"user_id":117,"name":"Yanniki","steam_id":76561197986058110,"connected_time":8990000000000,"state":"active","ping":65},{"user_id":236,"name":"Emma","steam_id":76561198076724979,"connected_time":65000000000,"state":"active","ping":73}]},{"server_id":40,"name":"Uncletopia | London | 7 | No Payload","name_short":"lon-7","host":"lon-1.uk.uncletopia.com","port":27075,"enabled":true,"region":"eu","cc":"gb","latitude":51.509865,"longitude":-0.118092,"reserved":0,"last_update":"0001-01-01T00:00:00Z","name_a2s":"Uncletopia | London | 7 | No Payload","protocol":17,"map":"koth_harvest_final","folder":"tf","game":"Team Fortress","app_id":440,"player_count":24,"max_players":24,"Bots":0,"server_type":"Dedicated","server_os":"Linux","password":true,"vac":true,"version":"7882260","steam_id":85568392924964314,"keywords":["cp","nocrits","nodmgspread","uncletopia"],"game_id":440,"stv_port":27076,"stv_name":"Uncletopia | London | 7 | No Payload | STV","players":[{"user_id":186,"name":"wororororororm","steam_id":76561199389655224,"connected_time":1029000000000,"state":"active","ping":85},{"user_id":209,"name":"Lloyder","steam_id":76561198099718482,"connected_time":135000000000,"state":"active","ping":70},{"user_id":188,"name":"Oph","steam_id":76561199473424810,"connected_time":966000000000,"state":"active","ping":63},{"user_id":190,"name":"eepy man","steam_id":76561199001657140,"connected_time":895000000000,"state":"active","ping":125},{"user_id":207,"name":"Sex Man TF2","steam_id":76561198798657045,"connected_time":183000000000,"state":"active","ping":71},{"user_id":21,"name":"Nyhde","steam_id":76561198012771416,"connected_time":10997000000000,"state":"active","ping":104},{"user_id":191,"name":"Prole","steam_id":76561198049837199,"connected_time":876000000000,"state":"active","ping":143},{"user_id":193,"name":"MrBanana","steam_id":76561198116021623,"connected_time":695000000000,"state":"active","ping":60},{"user_id":201,"name":"ix_0s","steam_id":76561198299635246,"connected_time":453000000000,"state":"active","ping":61},{"user_id":206,"name":"Smacks","steam_id":76561198799133346,"connected_time":369000000000,"state":"active","ping":73},{"user_id":197,"name":"Syd","steam_id":76561198020515027,"connected_time":591000000000,"state":"active","ping":77},{"user_id":183,"name":"Spinyapickle","steam_id":76561198086653667,"connected_time":1161000000000,"state":"active","ping":58},{"user_id":198,"name":"Pepsiduck Gaming","steam_id":76561199020348765,"connected_time":576000000000,"state":"active","ping":59},{"user_id":199,"name":"Virgil","steam_id":76561198248786778,"connected_time":555000000000,"state":"active","ping":119},{"user_id":172,"name":"Ecin","steam_id":76561198816655769,"connected_time":2114000000000,"state":"active","ping":57},{"user_id":165,"name":"slifer the executive producer","steam_id":76561198322087870,"connected_time":2737000000000,"state":"active","ping":114},{"user_id":179,"name":"Saint","steam_id":76561198003296382,"connected_time":1425000000000,"state":"active","ping":72},{"user_id":202,"name":"I own the penis scooter","steam_id":76561198173218318,"connected_time":450000000000,"state":"active","ping":45},{"user_id":136,"name":"peter griffin be like","steam_id":76561198149476240,"connected_time":3971000000000,"state":"active","ping":87},{"user_id":151,"name":"literallyjasonx","steam_id":76561198835895387,"connected_time":3253000000000,"state":"active","ping":70},{"user_id":210,"name":"Mephistopheles","steam_id":76561199033390312,"connected_time":125000000000,"state":"active","ping":125},{"user_id":204,"name":"Extravagator","steam_id":76561198415539125,"connected_time":417000000000,"state":"active","ping":81},{"user_id":211,"name":"Guh???","steam_id":76561198388750592,"connected_time":84000000000,"state":"active","ping":69},{"user_id":108,"name":"Ash","steam_id":76561198148738525,"connected_time":5037000000000,"state":"active","ping":117}]},{"server_id":41,"name":"Uncletopia | London | 8 | Community","name_short":"lon-8","host":"lon-1.uk.uncletopia.com","port":27085,"enabled":true,"region":"eu","cc":"gb","latitude":51.509865,"longitude":-0.118092,"reserved":0,"last_update":"0001-01-01T00:00:00Z","name_a2s":"Uncletopia | London | 8 | Community","protocol":17,"map":"pl_swiftwater_final1","folder":"tf","game":"Team Fortress","app_id":440,"player_count":8,"max_players":24,"Bots":0,"server_type":"Dedicated","server_os":"Linux","password":true,"vac":true,"version":"7882260","steam_id":85568392924964315,"keywords":["nocrits","nodmgspread","payload","uncletopia"],"game_id":440,"stv_port":27086,"stv_name":"Uncletopia | London | 8 | Community | STV","players":[{"user_id":10,"name":"Melon wizard","steam_id":76561198455781892,"connected_time":786000000000,"state":"active","ping":63},{"user_id":4,"name":"Rabiot420","steam_id":76561199072230477,"connected_time":2005000000000,"state":"active","ping":46},{"user_id":5,"name":"Doctor racism (OFFICIAL)","steam_id":76561199196316280,"connected_time":1694000000000,"state":"active","ping":87},{"user_id":6,"name":"Average meme enjoyer","steam_id":76561199087566663,"connected_time":1479000000000,"state":"active","ping":95},{"user_id":15,"name":"‚òÜMiNTERRRRR‚òÜ","steam_id":76561198799866156,"connected_time":346000000000,"state":"active","ping":110},{"user_id":16,"name":"‡∂ûbominasus 2137  #SaveTF2","steam_id":76561198030062981,"connected_time":220000000000,"state":"active","ping":76},{"user_id":14,"name":"1 toke 4 mars bars","steam_id":76561198056460000,"connected_time":441000000000,"state":"active","ping":46},{"user_id":17,"name":"I Don't Know","steam_id":76561198841011430,"connected_time":116000000000,"state":"active","ping":78}]},{"server_id":300,"name":"Uncletopia | Montr√©al | 1 | All Maps","name_short":"mtl-1","host":"mtl-1.ca.uncletopia.com","port":27015,"enabled":true,"region":"us-east","cc":"ca","latitude":45.50889,"longitude":-73.56167,"reserved":0,"last_update":"0001-01-01T00:00:00Z","name_a2s":"Uncletopia | Montr√©al | 1 | All Maps","protocol":17,"map":"pl_snowycoast","folder":"tf","game":"Team Fortress","app_id":440,"player_count":0,"max_players":24,"Bots":0,"server_type":"Dedicated","server_os":"Linux","password":true,"vac":true,"version":"7882260","steam_id":85568392924500087,"keywords":["nocrits","nodmgspread","payload","uncletopia"],"game_id":440,"stv_port":27016,"stv_name":"Uncletopia | Montr√©al | 1 | All Maps | STV","players":null},{"server_id":301,"name":"Uncletopia | Montr√©al | 2 | All Maps","name_short":"mtl-2","host":"mtl-1.ca.uncletopia.com","port":27025,"enabled":true,"region":"us-east","cc":"ca","latitude":45.50889,"longitude":-73.56167,"reserved":0,"last_update":"0001-01-01T00:00:00Z","name_a2s":"Uncletopia | Montr√©al | 2 | All Maps","protocol":17,"map":"cp_sunshine","folder":"tf","game":"Team Fortress","app_id":440,"player_count":0,"max_players":24,"Bots":0,"server_type":"Dedicated","server_os":"Linux","password":true,"vac":true,"version":"7882260","steam_id":85568392924500088,"keywords":["cp","nocrits","nodmgspread","uncletopia"],"game_id":440,"stv_port":27026,"stv_name":"Uncletopia | Montr√©al | 2 | All Maps | STV","players":null},{"server_id":302,"name":"Uncletopia | Montr√©al | 3 | All Maps","name_short":"mtl-3","host":"mtl-1.ca.uncletopia.com","port":27035,"enabled":true,"region":"us-east","cc":"ca","latitude":45.50889,"longitude":-73.56167,"reserved":0,"last_update":"0001-01-01T00:00:00Z","name_a2s":"Uncletopia | Montr√©al | 3 | All Maps","protocol":17,"map":"pl_borneo","folder":"tf","game":"Team Fortress","app_id":440,"player_count":0,"max_players":24,"Bots":0,"server_type":"Dedicated","server_os":"Linux","password":true,"vac":true,"version":"7882260","steam_id":85568392924500089,"keywords":["nocrits","nodmgspread","payload","uncletopia"],"game_id":440,"stv_port":27036,"stv_name":"Uncletopia | Montr√©al | 3 | All Maps | STV","players":null},{"server_id":303,"name":"Uncletopia | Montr√©al | 4 | No Payload","name_short":"mtl-4","host":"mtl-1.ca.uncletopia.com","port":27045,"enabled":true,"region":"us-east","cc":"ca","latitude":45.50889,"longitude":-73.56167,"reserved":0,"last_update":"0001-01-01T00:00:00Z","name_a2s":"Uncletopia | Montr√©al | 4 | No Payload","protocol":17,"map":"cp_altitude","folder":"tf","game":"Team Fortress","app_id":440,"player_count":0,"max_players":24,"Bots":0,"server_type":"Dedicated","server_os":"Linux","password":true,"vac":true,"version":"7882260","steam_id":85568392924500090,"keywords":["cp","nocrits","nodmgspread","uncletopia"],"game_id":440,"stv_port":27046,"stv_name":"Uncletopia | Montr√©al | 4 | No Payload | STV","players":null},{"server_id":13,"name":"Uncletopia | New York City | 1 | All Maps","name_short":"nyc-1","host":"nyc-1.us.uncletopia.com","port":27015,"enabled":true,"region":"us-east","cc":"us","latitude":40.73061,"longitude":-73.93524,"reserved":0,"last_update":"0001-01-01T00:00:00Z","name_a2s":"Uncletopia | New York City | 1 | All Maps","protocol":17,"map":"pl_borneo","folder":"tf","game":"Team Fortress","app_id":440,"player_count":0,"max_players":24,"Bots":0,"server_type":"Dedicated","server_os":"Linux","password":true,"vac":true,"version":"7882260","steam_id":85568392924469993,"keywords":["nocrits","nodmgspread","payload","uncletopia"],"game_id":440,"stv_port":27016,"stv_name":"Uncletopia | New York City | 1 | All Maps | STV","players":null},{"server_id":14,"name":"Uncletopia | New York City | 2 | All Maps","name_short":"nyc-2","host":"nyc-1.us.uncletopia.com","port":27025,"enabled":true,"region":"us-east","cc":"us","latitude":40.73061,"longitude":-73.93524,"reserved":0,"last_update":"0001-01-01T00:00:00Z","name_a2s":"Uncletopia | New York City | 2 | All Maps","protocol":17,"map":"pl_upward","folder":"tf","game":"Team Fortress","app_id":440,"player_count":0,"max_players":24,"Bots":0,"server_type":"Dedicated","server_os":"Linux","password":true,"vac":true,"version":"7882260","steam_id":85568392924469994,"keywords":["nocrits","nodmgspread","payload","uncletopia"],"game_id":440,"stv_port":27026,"stv_name":"Uncletopia | New York City | 2 | All Maps | STV","players":null},{"server_id":15,"name":"Uncletopia | New York City | 3 | Stopwatch Beta","name_short":"nyc-3","host":"nyc-1.us.uncletopia.com","port":27035,"enabled":true,"region":"us-east","cc":"us","latitude":40.73061,"longitude":-73.93524,"reserved":0,"last_update":"0001-01-01T00:00:00Z","name_a2s":"Uncletopia | New York City | 3 | Stopwatch Beta","protocol":17,"map":"koth_lakeside_final","folder":"tf","game":"Team Fortress","app_id":440,"player_count":0,"max_players":24,"Bots":0,"server_type":"Dedicated","server_os":"Linux","password":true,"vac":true,"version":"7882260","steam_id":85568392924742820,"keywords":["cp","nocrits","nodmgspread","uncletopia"],"game_id":440,"stv_port":27036,"stv_name":"Uncletopia | New York City | 3 | Stopwatch Beta | STV","players":null},{"server_id":16,"name":"Uncletopia | New York City | 4 | Community","name_short":"nyc-4","host":"nyc-1.us.uncletopia.com","port":27045,"enabled":true,"region":"us-east","cc":"us","latitude":40.73061,"longitude":-73.93524,"reserved":0,"last_update":"0001-01-01T00:00:00Z","name_a2s":"Uncletopia | New York City | 4 | Community","protocol":17,"map":"pl_badwater","folder":"tf","game":"Team Fortress","app_id":440,"player_count":0,"max_players":24,"Bots":0,"server_type":"Dedicated","server_os":"Linux","password":true,"vac":true,"version":"7882260","steam_id":85568392924742821,"keywords":["nocrits","nodmgspread","payload","uncletopia"],"game_id":440,"stv_port":27046,"stv_name":"Uncletopia | New York City | 4 | Community | STV","players":null},{"server_id":142,"name":"Uncletopia | S√£o Paulo | 1 | All Maps","name_short":"sao-1","host":"sao-1.br.uncletopia.com","port":27015,"enabled":true,"region":"sa","cc":"br","latitude":-23.533773,"longitude":-46.62529,"reserved":0,"last_update":"0001-01-01T00:00:00Z","name_a2s":"Uncletopia | S√£o Paulo | 1 | All Maps","protocol":17,"map":"pl_pier","folder":"tf","game":"Team Fortress","app_id":440,"player_count":0,"max_players":24,"Bots":0,"server_type":"Dedicated","server_os":"Linux","password":true,"vac":true,"version":"7882260","steam_id":85568392924469996,"keywords":["nocrits","nodmgspread","payload","uncletopia"],"game_id":440,"stv_port":27016,"stv_name":"Uncletopia | S√£o Paulo | 1 | All Maps | STV","players":null},{"server_id":143,"name":"Uncletopia | S√£o Paulo | 2 | All Maps","name_short":"sao-2","host":"sao-2.br.uncletopia.com","port":27015,"enabled":true,"region":"sa","cc":"br","latitude":-23.533773,"longitude":-46.62529,"reserved":0,"last_update":"0001-01-01T00:00:00Z","name_a2s":"Uncletopia | S√£o Paulo | 2 | All Maps","protocol":17,"map":"pl_pier","folder":"tf","game":"Team Fortress","app_id":440,"player_count":0,"max_players":24,"Bots":0,"server_type":"Dedicated","server_os":"Linux","password":true,"vac":true,"version":"7882260","steam_id":85568392924485349,"keywords":["nocrits","nodmgspread","payload","uncletopia"],"game_id":440,"stv_port":27016,"stv_name":"Uncletopia | S√£o Paulo | 2 | All Maps | STV","players":null},{"server_id":7,"name":"Uncletopia | Seattle | 1 | All Maps","name_short":"sea-1","host":"sea-1.us.uncletopia.com","port":27015,"enabled":true,"region":"us-west","cc":"us","latitude":47.608013,"longitude":-122.33517,"reserved":0,"last_update":"0001-01-01T00:00:00Z","name_a2s":"Uncletopia | Seattle | 1 | All Maps","protocol":17,"map":"pl_snowycoast","folder":"tf","game":"Team Fortress","app_id":440,"player_count":17,"max_players":24,"Bots":0,"server_type":"Dedicated","server_os":"Linux","password":true,"vac":true,"version":"7882260","steam_id":85568392924469997,"keywords":["nocrits","nodmgspread","payload","uncletopia"],"game_id":440,"stv_port":27016,"stv_name":"Uncletopia | Seattle | 1 | All Maps | STV","players":[{"user_id":862,"name":"HellaCopter","steam_id":76561198062313698,"connected_time":2163000000000,"state":"active","ping":46},{"user_id":876,"name":"Gildedire","steam_id":76561198063959574,"connected_time":448000000000,"state":"active","ping":129},{"user_id":875,"name":"Stoney Goblin","steam_id":76561198141215376,"connected_time":466000000000,"state":"active","ping":116},{"user_id":874,"name":"Acto","steam_id":76561198043025164,"connected_time":477000000000,"state":"active","ping":55},{"user_id":877,"name":"SAD MOSCOVIA","steam_id":76561198101081520,"connected_time":401000000000,"state":"active","ping":70},{"user_id":879,"name":"The idiot sponge man","steam_id":76561198831912024,"connected_time":128000000000,"state":"active","ping":107},{"user_id":859,"name":"STENDO_CLIP","steam_id":76561198059570167,"connected_time":2306000000000,"state":"active","ping":162},{"user_id":880,"name":"Mr.Frundles","steam_id":76561198134559026,"connected_time":87000000000,"state":"active","ping":57},{"user_id":850,"name":"Lord Hater","steam_id":76561199158148782,"connected_time":3348000000000,"state":"active","ping":47},{"user_id":855,"name":"Shnakes","steam_id":76561198201649518,"connected_time":2352000000000,"state":"active","ping":89},{"user_id":839,"name":"Disc0","steam_id":76561198067337267,"connected_time":4996000000000,"state":"active","ping":46},{"user_id":863,"name":"Floaty","steam_id":76561198100029503,"connected_time":2161000000000,"state":"active","ping":59},{"user_id":869,"name":"Paul on the chain with the V cu","steam_id":76561198070300902,"connected_time":1732000000000,"state":"active","ping":74},{"user_id":841,"name":"johnny karate","steam_id":76561198165847261,"connected_time":4851000000000,"state":"active","ping":45},{"user_id":833,"name":"Sniff","steam_id":76561198010270922,"connected_time":6224000000000,"state":"active","ping":39},{"user_id":872,"name":"You","steam_id":76561198048071088,"connected_time":1397000000000,"state":"active","ping":60},{"user_id":868,"name":"StealthyZeroTwo","steam_id":76561198942692649,"connected_time":1875000000000,"state":"active","ping":113}]},{"server_id":119,"name":"Uncletopia | Seattle | 2 | All Maps","name_short":"sea-2","host":"sea-1.us.uncletopia.com","port":27025,"enabled":true,"region":"us-west","cc":"us","latitude":47.608013,"longitude":-122.33517,"reserved":0,"last_update":"0001-01-01T00:00:00Z","name_a2s":"Uncletopia | Seattle | 2 | All Maps","protocol":17,"map":"koth_cascade","folder":"tf","game":"Team Fortress","app_id":440,"player_count":0,"max_players":24,"Bots":0,"server_type":"Dedicated","server_os":"Linux","password":true,"vac":true,"version":"7882260","steam_id":85568392924469998,"keywords":["cp","nocrits","nodmgspread","uncletopia"],"game_id":440,"stv_port":27026,"stv_name":"Uncletopia | Seattle | 2 | All Maps | STV","players":null},{"server_id":406,"name":"Uncletopia | Seattle | 3 | Stopwatch Beta","name_short":"sea-3","host":"sea-1.us.uncletopia.com","port":27035,"enabled":true,"region":"us-west","cc":"us","latitude":47.608013,"longitude":-122.33517,"reserved":0,"last_update":"0001-01-01T00:00:00Z","name_a2s":"Uncletopia | Seattle | 3 | Stopwatch Beta","protocol":17,"map":"pl_swiftwater_final1","folder":"tf","game":"Team Fortress","app_id":440,"player_count":0,"max_players":24,"Bots":0,"server_type":"Dedicated","server_os":"Linux","password":true,"vac":true,"version":"7882260","steam_id":85568392924515217,"keywords":["nocrits","nodmgspread","payload","uncletopia"],"game_id":440,"stv_port":27036,"stv_name":"Uncletopia | Seattle | 3 | Stopwatch Beta | STV","players":null},{"server_id":17,"name":"Uncletopia | San Francisco | 1 | All Maps","name_short":"sfo-1","host":"sfo-1.us.uncletopia.com","port":27015,"enabled":true,"region":"us-west","cc":"us","latitude":37.77397,"longitude":-122.4313,"reserved":0,"last_update":"0001-01-01T00:00:00Z","name_a2s":"Uncletopia | San Francisco | 1 | All Maps","protocol":17,"map":"pl_upward","folder":"tf","game":"Team Fortress","app_id":440,"player_count":20,"max_players":24,"Bots":0,"server_type":"Dedicated","server_os":"Linux","password":true,"vac":true,"version":"7882260","steam_id":85568392924469999,"keywords":["nocrits","nodmgspread","payload","uncletopia"],"game_id":440,"stv_port":27016,"stv_name":"Uncletopia | San Francisco | 1 | All Maps | STV","players":[{"user_id":386,"name":"Stiffy Magnum","steam_id":76561198000036722,"connected_time":469000000000,"state":"active","ping":85},{"user_id":341,"name":"Jax","steam_id":76561198251160282,"connected_time":3151000000000,"state":"active","ping":63},{"user_id":338,"name":"A_Un1t_0","steam_id":76561197966223353,"connected_time":3343000000000,"state":"active","ping":59},{"user_id":371,"name":"Foomky","steam_id":76561198131241932,"connected_time":1393000000000,"state":"active","ping":59},{"user_id":391,"name":"ChozoBitch","steam_id":76561198165425448,"connected_time":51000000000,"state":"active","ping":61},{"user_id":357,"name":"jackin626","steam_id":76561198269277735,"connected_time":2295000000000,"state":"active","ping":63},{"user_id":333,"name":"BasedBoozer","steam_id":76561198086382694,"connected_time":4318000000000,"state":"active","ping":84},{"user_id":373,"name":"glock in my rawry :3","steam_id":76561198084885479,"connected_time":1339000000000,"state":"active","ping":76},{"user_id":343,"name":"iggybones (girl with balls)","steam_id":76561198101610291,"connected_time":3116000000000,"state":"active","ping":57},{"user_id":374,"name":"Bthakiller","steam_id":76561198802498347,"connected_time":1330000000000,"state":"active","ping":122},{"user_id":370,"name":"SpongeBucket","steam_id":76561198393553085,"connected_time":1629000000000,"state":"active","ping":65},{"user_id":250,"name":"Giorno Giovanna","steam_id":76561198044106874,"connected_time":11162000000000,"state":"active","ping":64},{"user_id":375,"name":"Poppet","steam_id":76561198012301951,"connected_time":1311000000000,"state":"active","ping":109},{"user_id":376,"name":"scuffadoodle","steam_id":76561198882160239,"connected_time":1309000000000,"state":"active","ping":86},{"user_id":379,"name":"poophead64","steam_id":76561198195052854,"connected_time":945000000000,"state":"active","ping":70},{"user_id":380,"name":"korkskrou","steam_id":76561198422156430,"connected_time":878000000000,"state":"active","ping":63},{"user_id":390,"name":"[TC] Lag","steam_id":76561198983494186,"connected_time":85000000000,"state":"active","ping":122},{"user_id":382,"name":"Helloppl65","steam_id":76561198272420658,"connected_time":737000000000,"state":"active","ping":71},{"user_id":368,"name":"Starkiller","steam_id":76561198101643120,"connected_time":1783000000000,"state":"active","ping":88},{"user_id":383,"name":"Sou1Eater7","steam_id":76561198011330131,"connected_time":678000000000,"state":"active","ping":102}]},{"server_id":18,"name":"Uncletopia | San Francisco | 2 | All Maps","name_short":"sfo-2","host":"sfo-1.us.uncletopia.com","port":27025,"enabled":true,"region":"us-west","cc":"us","latitude":37.77397,"longitude":-122.4313,"reserved":0,"last_update":"0001-01-01T00:00:00Z","name_a2s":"Uncletopia | San Francisco | 2 | All Maps","protocol":17,"map":"koth_highpass","folder":"tf","game":"Team Fortress","app_id":440,"player_count":0,"max_players":24,"Bots":0,"server_type":"Dedicated","server_os":"Linux","password":true,"vac":true,"version":"7882260","steam_id":85568392924470000,"keywords":["cp","nocrits","nodmgspread","uncletopia"],"game_id":440,"stv_port":27026,"stv_name":"Uncletopia | San Francisco | 2 | All Maps | STV","players":null},{"server_id":19,"name":"Uncletopia | San Francisco | 3 | Stopwatch Beta","name_short":"sfo-3","host":"sfo-1.us.uncletopia.com","port":27035,"enabled":true,"region":"us-west","cc":"us","latitude":37.77397,"longitude":-122.4313,"reserved":0,"last_update":"0001-01-01T00:00:00Z","name_a2s":"Uncletopia | San Francisco | 3 | Stopwatch Beta","protocol":17,"map":"pl_frontier_final","folder":"tf","game":"Team Fortress","app_id":440,"player_count":0,"max_players":24,"Bots":0,"server_type":"Dedicated","server_os":"Linux","password":true,"vac":true,"version":"7882260","steam_id":85568392924742824,"keywords":["nocrits","nodmgspread","payload","uncletopia"],"game_id":440,"stv_port":27036,"stv_name":"Uncletopia | San Francisco | 3 | Stopwatch Beta | STV","players":null},{"server_id":20,"name":"Uncletopia | San Francisco | 4 | Community","name_short":"sfo-4","host":"sfo-1.us.uncletopia.com","port":27045,"enabled":true,"region":"us-west","cc":"us","latitude":37.77397,"longitude":-122.4313,"reserved":0,"last_update":"0001-01-01T00:00:00Z","name_a2s":"Uncletopia | San Francisco | 4 | Community","protocol":17,"map":"workshop/koth_slaughter_rc1.ugc1712845210","folder":"tf","game":"Team Fortress","app_id":440,"player_count":0,"max_players":24,"Bots":0,"server_type":"Dedicated","server_os":"Linux","password":true,"vac":true,"version":"7882260","steam_id":85568392924742826,"keywords":["cp","nocrits","nodmgspread","uncletopia"],"game_id":440,"stv_port":27046,"stv_name":"Uncletopia | San Francisco | 4 | Community | STV","players":null},{"server_id":141,"name":"Uncletopia | Sydney | 1 | All Maps","name_short":"syd-1","host":"syd-1.au.uncletopia.com","port":27015,"enabled":true,"region":"au","cc":"au","latitude":-33.865143,"longitude":151.2099,"reserved":0,"last_update":"0001-01-01T00:00:00Z","name_a2s":"Uncletopia | Sydney | 1 | All Maps","protocol":17,"map":"plr_nightfall_final","folder":"tf","game":"Team Fortress","app_id":440,"player_count":24,"max_players":24,"Bots":0,"server_type":"Dedicated","server_os":"Linux","password":true,"vac":true,"version":"7882260","steam_id":85568392924470001,"keywords":["nocrits","nodmgspread","payload","uncletopia"],"game_id":440,"stv_port":27016,"stv_name":"Uncletopia | Sydney | 1 | All Maps | STV","players":[{"user_id":303,"name":"DropBearWarrior","steam_id":76561198352774039,"connected_time":330000000000,"state":"active","ping":70},{"user_id":248,"name":"Jodelk√∂nig Franzl Lang","steam_id":76561198007667830,"connected_time":4007000000000,"state":"active","ping":53},{"user_id":297,"name":"‚ô• BILL!!! ‚ô•","steam_id":76561198066726621,"connected_time":1174000000000,"state":"active","ping":49},{"user_id":295,"name":"Tees","steam_id":76561199174602317,"connected_time":1243000000000,"state":"active","ping":51},{"user_id":293,"name":"bumbling idiot","steam_id":76561198127848228,"connected_time":1617000000000,"state":"active","ping":69},{"user_id":289,"name":"Conical Depression","steam_id":76561198164266178,"connected_time":1736000000000,"state":"active","ping":43},{"user_id":300,"name":"Wesley Gorilla","steam_id":76561198006943216,"connected_time":804000000000,"state":"active","ping":74},{"user_id":240,"name":"Killing","steam_id":76561198107392931,"connected_time":4502000000000,"state":"active","ping":67},{"user_id":277,"name":"misato???","steam_id":76561199099744527,"connected_time":2441000000000,"state":"active","ping":45},{"user_id":288,"name":"Italotron","steam_id":76561199081848498,"connected_time":1888000000000,"state":"active","ping":60},{"user_id":298,"name":"Grantymunk","steam_id":76561198051439179,"connected_time":931000000000,"state":"active","ping":70},{"user_id":251,"name":"Destroy Lonely","steam_id":76561198183714687,"connected_time":3937000000000,"state":"active","ping":43},{"user_id":272,"name":"Marrow","steam_id":76561198123605344,"connected_time":2679000000000,"state":"active","ping":72},{"user_id":305,"name":"Snipan Milat","steam_id":76561198001544539,"connected_time":169000000000,"state":"active","ping":68},{"user_id":260,"name":"bread","steam_id":76561199405764106,"connected_time":3485000000000,"state":"active","ping":44},{"user_id":255,"name":"Milker","steam_id":76561197969370286,"connected_time":3720000000000,"state":"active","ping":69},{"user_id":294,"name":"Doctor Vinnie Boombotz","steam_id":76561198062311556,"connected_time":1427000000000,"state":"active","ping":55},{"user_id":302,"name":"thrax","steam_id":76561197992385270,"connected_time":383000000000,"state":"active","ping":55},{"user_id":301,"name":"Xenovide","steam_id":76561198248261030,"connected_time":749000000000,"state":"active","ping":154},{"user_id":242,"name":"clotpole","steam_id":76561198951093608,"connected_time":4438000000000,"state":"active","ping":64},{"user_id":245,"name":"kiby*","steam_id":76561198197824065,"connected_time":4184000000000,"state":"active","ping":70},{"user_id":274,"name":"AshaAnime","steam_id":76561199237432540,"connected_time":2662000000000,"state":"active","ping":179},{"user_id":306,"name":"FreeBeers","steam_id":76561198095448607,"connected_time":168000000000,"state":"active","ping":74},{"user_id":287,"name":"—è –Ω–µ –≥–æ–≤–æ—Ä—é –ø–æ-—Ä—É\ufffd","steam_id":76561199062450903,"connected_time":1948000000000,"state":"active","ping":65}]},{"server_id":123,"name":"Uncletopia | Sydney | 2 | All Maps","name_short":"syd-2","host":"syd-1.au.uncletopia.com","port":27025,"enabled":true,"region":"au","cc":"au","latitude":-33.865143,"longitude":151.2099,"reserved":0,"last_update":"0001-01-01T00:00:00Z","name_a2s":"Uncletopia | Sydney | 2 | All Maps","protocol":17,"map":"pl_pier","folder":"tf","game":"Team Fortress","app_id":440,"player_count":9,"max_players":24,"Bots":0,"server_type":"Dedicated","server_os":"Linux","password":true,"vac":true,"version":"7882260","steam_id":85568392924470002,"keywords":["nocrits","nodmgspread","payload","uncletopia"],"game_id":440,"stv_port":27026,"stv_name":"Uncletopia | Sydney | 2 | All Maps | STV","players":[{"user_id":431,"name":"Aiden","steam_id":76561198969837243,"connected_time":1006000000000,"state":"active","ping":109},{"user_id":432,"name":"eiei000ejei.com","steam_id":76561199275387863,"connected_time":990000000000,"state":"active","ping":119},{"user_id":433,"name":"L.S.S","steam_id":76561199133089157,"connected_time":986000000000,"state":"active","ping":125},{"user_id":434,"name":"miyamoto is daddy","steam_id":76561199483818230,"connected_time":880000000000,"state":"active","ping":91},{"user_id":436,"name":"Don't Touch My Fries!","steam_id":76561198337147897,"connected_time":486000000000,"state":"active","ping":75},{"user_id":440,"name":"Blondie","steam_id":76561198046977058,"connected_time":136000000000,"state":"active","ping":64},{"user_id":438,"name":"zingers","steam_id":76561198205666957,"connected_time":379000000000,"state":"active","ping":91},{"user_id":441,"name":"sju","steam_id":76561199484831234,"connected_time":130000000000,"state":"active","ping":134},{"user_id":442,"name":"Just Wam","steam_id":76561198025584563,"connected_time":43000000000,"state":"active","ping":90}]},{"server_id":395,"name":"Uncletopia | Sydney | 3 | All Maps","name_short":"syd-3","host":"syd-1.au.uncletopia.com","port":27035,"enabled":true,"region":"au","cc":"au","latitude":-33.865143,"longitude":151.2099,"reserved":0,"last_update":"0001-01-01T00:00:00Z","name_a2s":"Uncletopia | Sydney | 3 | All Maps","protocol":17,"map":"koth_viaduct","folder":"tf","game":"Team Fortress","app_id":440,"player_count":0,"max_players":24,"Bots":0,"server_type":"Dedicated","server_os":"Linux","password":true,"vac":true,"version":"7882260","steam_id":85568392925194467,"keywords":["cp","nocrits","nodmgspread","uncletopia"],"game_id":440,"stv_port":27036,"stv_name":"Uncletopia | Sydney | 3 | All Maps | STV","players":null},{"server_id":396,"name":"Uncletopia | Sydney | 4 | All Maps","name_short":"syd-4","host":"syd-1.au.uncletopia.com","port":27045,"enabled":true,"region":"au","cc":"au","latitude":-33.865143,"longitude":151.2099,"reserved":0,"last_update":"0001-01-01T00:00:00Z","name_a2s":"Uncletopia | Sydney | 4 | All Maps","protocol":17,"map":"koth_highpass","folder":"tf","game":"Team Fortress","app_id":440,"player_count":0,"max_players":24,"Bots":0,"server_type":"Dedicated","server_os":"Linux","password":true,"vac":true,"version":"7882260","steam_id":85568392925397958,"keywords":["cp","nocrits","nodmgspread","uncletopia"],"game_id":440,"stv_port":27046,"stv_name":"Uncletopia | Sydney | 4 | All Maps | STV","players":null},{"server_id":58,"name":"Uncletopia | Sydney | 5 | Stopwatch Beta","name_short":"syd-5","host":"syd-1.au.uncletopia.com","port":27055,"enabled":true,"region":"au","cc":"au","latitude":-33.865143,"longitude":151.2099,"reserved":0,"last_update":"0001-01-01T00:00:00Z","name_a2s":"Uncletopia | Sydney | 5 | Stopwatch Beta","protocol":17,"map":"koth_highpass","folder":"tf","game":"Team Fortress","app_id":440,"player_count":0,"max_players":24,"Bots":0,"server_type":"Dedicated","server_os":"Linux","password":true,"vac":true,"version":"7882260","steam_id":85568392925397959,"keywords":["cp","nocrits","nodmgspread","uncletopia"],"game_id":440,"stv_port":27056,"stv_name":"Uncletopia | Sydney | 5 | Stopwatch Beta | STV","players":null},{"server_id":59,"name":"Uncletopia | Sydney | 6 | Community","name_short":"syd-6","host":"syd-1.au.uncletopia.com","port":27065,"enabled":true,"region":"au","cc":"au","latitude":-33.865143,"longitude":151.2099,"reserved":0,"last_update":"0001-01-01T00:00:00Z","name_a2s":"Uncletopia | Sydney | 6 | Community","protocol":17,"map":"workshop/koth_product_final.ugc454272353","folder":"tf","game":"Team Fortress","app_id":440,"player_count":0,"max_players":24,"Bots":0,"server_type":"Dedicated","server_os":"Linux","password":true,"vac":true,"version":"7882260","steam_id":85568392925397960,"keywords":["cp","nocrits","nodmgspread","uncletopia"],"game_id":440,"stv_port":27066,"stv_name":"Uncletopia | Sydney | 6 | Community | STV","players":null},{"server_id":49,"name":"Uncletopia | Warsaw | 1 | All Maps","name_short":"waw-1","host":"waw-1.pl.uncletopia.com","port":27015,"enabled":true,"region":"eu","cc":"pl","latitude":52.2297,"longitude":21.017532,"reserved":0,"last_update":"0001-01-01T00:00:00Z","name_a2s":"","protocol":0,"map":"","folder":"","game":"","app_id":0,"player_count":0,"max_players":0,"Bots":0,"server_type":"","server_os":"","password":false,"vac":false,"version":"","steam_id":0,"keywords":null,"game_id":0,"stv_port":0,"stv_name":"","players":null},{"server_id":50,"name":"Uncletopia | Warsaw | 2 | All Maps","name_short":"waw-2","host":"waw-1.pl.uncletopia.com","port":27025,"enabled":true,"region":"eu","cc":"pl","latitude":52.2297,"longitude":21.017532,"reserved":0,"last_update":"0001-01-01T00:00:00Z","name_a2s":"Uncletopia | Warsaw | 2 | All Maps","protocol":17,"map":"pl_upward","folder":"tf","game":"Team Fortress","app_id":440,"player_count":0,"max_players":24,"Bots":0,"server_type":"Dedicated","server_os":"Linux","password":true,"vac":true,"version":"7882260","steam_id":85568392925397851,"keywords":["nocrits","nodmgspread","payload","uncletopia"],"game_id":440,"stv_port":27026,"stv_name":"Uncletopia | Warsaw | 2 | All Maps | STV","players":null},{"server_id":51,"name":"Uncletopia | Warsaw | 3 | All Maps","name_short":"waw-3","host":"waw-1.pl.uncletopia.com","port":27035,"enabled":true,"region":"eu","cc":"pl","latitude":52.2297,"longitude":21.017532,"reserved":0,"last_update":"0001-01-01T00:00:00Z","name_a2s":"Uncletopia | Warsaw | 3 | All Maps","protocol":17,"map":"koth_viaduct","folder":"tf","game":"Team Fortress","app_id":440,"player_count":0,"max_players":24,"Bots":0,"server_type":"Dedicated","server_os":"Linux","password":true,"vac":true,"version":"7882260","steam_id":85568392925397852,"keywords":["cp","nocrits","nodmgspread","uncletopia"],"game_id":440,"stv_port":27036,"stv_name":"Uncletopia | Warsaw | 3 | All Maps | STV","players":null},{"server_id":52,"name":"Uncletopia | Warsaw | 4 | All Maps","name_short":"waw-4","host":"waw-1.pl.uncletopia.com","port":27045,"enabled":true,"region":"eu","cc":"pl","latitude":52.2297,"longitude":21.017532,"reserved":0,"last_update":"0001-01-01T00:00:00Z","name_a2s":"Uncletopia | Warsaw | 4 | All Maps","protocol":17,"map":"koth_highpass","folder":"tf","game":"Team Fortress","app_id":440,"player_count":0,"max_players":24,"Bots":0,"server_type":"Dedicated","server_os":"Linux","password":true,"vac":true,"version":"7882260","steam_id":85568392925397853,"keywords":["cp","nocrits","nodmgspread","uncletopia"],"game_id":440,"stv_port":27046,"stv_name":"Uncletopia | Warsaw | 4 | All Maps | STV","players":null},{"server_id":53,"name":"Uncletopia | Warsaw | 5 | Stopwatch Beta","name_short":"waw-5","host":"waw-1.pl.uncletopia.com","port":27055,"enabled":true,"region":"eu","cc":"pl","latitude":52.2297,"longitude":21.017532,"reserved":0,"last_update":"0001-01-01T00:00:00Z","name_a2s":"Uncletopia | Warsaw | 5 | Stopwatch Beta","protocol":17,"map":"cp_mountainlab","folder":"tf","game":"Team Fortress","app_id":440,"player_count":0,"max_players":24,"Bots":0,"server_type":"Dedicated","server_os":"Linux","password":true,"vac":true,"version":"7882260","steam_id":85568392925397854,"keywords":["cp","nocrits","nodmgspread","uncletopia"],"game_id":440,"stv_port":27056,"stv_name":"Uncletopia | Warsaw | 5 | Stopwatch Beta | STV","players":null},{"server_id":54,"name":"Uncletopia | Warsaw | 6 | Community","name_short":"waw-6","host":"waw-1.pl.uncletopia.com","port":27065,"enabled":true,"region":"eu","cc":"pl","latitude":52.2297,"longitude":21.017532,"reserved":0,"last_update":"0001-01-01T00:00:00Z","name_a2s":"Uncletopia | Warsaw | 6 | Community","protocol":17,"map":"koth_viaduct","folder":"tf","game":"Team Fortress","app_id":440,"player_count":0,"max_players":24,"Bots":0,"server_type":"Dedicated","server_os":"Linux","password":true,"vac":true,"version":"7882260","steam_id":85568392925397856,"keywords":["cp","nocrits","nodmgspread","uncletopia"],"game_id":440,"stv_port":27066,"stv_name":"Uncletopia | Warsaw | 6 | Community | STV","players":null}]}