{"status":true,"message":"","result":[{"server_id":9,"name":"Uncletopia | Atlanta | 1 | All Maps","name_short":"atl-1","host":"atl-1.us.uncletopia.com","port":27015,"enabled":true,"region":"us-east","cc":"us","latitude":33.753746,"longitude":-84.38633,"reserved":0,"last_update":"0001-01-01T00:00:00Z","name_a2s":"Uncletopia | Atlanta | 1 | All Maps","protocol":17,"map":"koth_cascade","folder":"tf","game":"Team Fortress","app_id":440,"player_count":0,"max_players":24,"Bots":0,"server_type":"Dedicated","server_os":"Linux","password":true,"vac":true,"version":"7757534","steam_id":85568392924469982,"keywords":["cp","nocrits","nodmgspread","uncletopia"],"game_id":440,"stv_port":27016,"stv_name":"Uncletopia | Atlanta | 1 | All Maps | STV","players":null},{"server_id":104,"name":"Uncletopia | Atlanta | 2 | All Maps","name_short":"atl-2","host":"atl-1.us.uncletopia.com","port":27025,"enabled":true,"region":"us-east","cc":"us","latitude":33.753746,"longitude":-84.38633,"reserved":0,"last_update":"0001-01-01T00:00:00Z","name_a2s":"Uncletopia | Atlanta | 2 | All Maps","protocol":17,"map":"koth_highpass","folder":"tf","game":"Team Fortress","app_id":440,"player_count":0,"max_players":24,"Bots":0,"server_type":"Dedicated","server_os":"Linux","password":true,"vac":true,"version":"7757534","steam_id":85568392924469983,"keywords":["cp","nocrits","nodmgspread","uncletopia"],"game_id":440,"stv_port":27026,"stv_name":"Uncletopia | Atlanta | 2 | All Maps | STV","players":null},{"server_id":400,"name":"Uncletopia | Atlanta | 3 | Community","name_short":"atl-3","host":"atl-1.us.uncletopia.com","port":27035,"enabled":true,"region":"us-east","cc":"us","latitude":33.753746,"longitude":-84.38633,"reserved":0,"last_update":"0001-01-01T00:00:00Z","name_a2s":"Uncletopia | Atlanta | 3 | Community","protocol":17,"map":"cp_snakewater_final1","folder":"tf","game":"Team Fortress","app_id":440,"player_count":0,"max_players":24,"Bots":0,"server_type":"Dedicated","server_os":"Linux","password":true,"vac":true,"version":"7757534","steam_id":85568392924515187,"keywords":["cp","nocrits","nodmgspread","uncletopia"],"game_id":440,"stv_port":27036,"stv_name":"Uncletopia | Atlanta | 3 | Community | STV","players":null},{"server_id":401,"name":"Uncletopia | Atlanta | 4 | No Payload","name_short":"atl-4","host":"atl-1.us.uncletopia.com","port":27045,"enabled":true,"region":"us-east","cc":"us","latitude":33.753746,"longitude":-84.38633,"reserved":0,"last_update":"0001-01-01T00:00:00Z","name_a2s":"","protocol":0,"map":"","folder":"","game":"","app_id":0,"player_count":0,"max_players":0,"Bots":0,"server_type":"","server_os":"","password":false,"vac":false,"version":"","steam_id":0,"keywords":null,"game_id":0,"stv_port":0,"stv_name":"","players":null},{"server_id":2,"name":"Uncletopia | Chicago | 1 | All Maps","name_short":"chi-1","host":"chi-1.us.uncletopia.com","port":27015,"enabled":true,"region":"us-central","cc":"us","latitude":41.881832,"longitude":-87.62318,"reserved":0,"last_update":"0001-01-01T00:00:00Z","name_a2s":"Uncletopia | Chicago | 1 | All Maps","protocol":17,"map":"cp_dustbowl","folder":"tf","game":"Team Fortress","app_id":440,"player_count":24,"max_players":24,"Bots":0,"server_type":"Dedicated","server_os":"Linux","password":true,"vac":true,"version":"7757534","steam_id":85568392924469984,"keywords":["cp","nocrits","nodmgspread","uncletopia"],"game_id":440,"stv_port":27016,"stv_name":"Uncletopia | Chicago | 1 | All Maps | STV","players":[{"user_id":124,"name":"Alpharius","steam_id":76561198044479864,"connected_time":696000000000,"state":"active","ping":84},{"user_id":101,"name":"medome","steam_id":76561198399990744,"connected_time":2880000000000,"state":"active","ping":123},{"user_id":99,"name":"dreamweaver_","steam_id":76561199183127644,"connected_time":3277000000000,"state":"active","ping":139},{"user_id":130,"name":"Enad11","steam_id":76561198256263282,"connected_time":87000000000,"state":"active","ping":59},{"user_id":68,"name":"metalfan666","steam_id":76561198386344068,"connected_time":5534000000000,"state":"active","ping":72},{"user_id":128,"name":"FishcakeBomber","steam_id":76561198079417209,"connected_time":129000000000,"state":"active","ping":85},{"user_id":129,"name":"Hulkster","steam_id":76561198278156353,"connected_time":103000000000,"state":"active","ping":117},{"user_id":123,"name":"STEVE","steam_id":76561198099451468,"connected_time":717000000000,"state":"active","ping":59},{"user_id":81,"name":"Howard Hamlin","steam_id":76561198881039861,"connected_time":4286000000000,"state":"active","ping":45},{"user_id":107,"name":"Eviscerator","steam_id":76561197980073637,"connected_time":2801000000000,"state":"active","ping":68},{"user_id":131,"name":"BasedUser22","steam_id":76561199429505155,"connected_time":64000000000,"state":"spawning","ping":99},{"user_id":125,"name":"BLACK RANGER","steam_id":76561198117825609,"connected_time":621000000000,"state":"active","ping":68},{"user_id":122,"name":"Observer","steam_id":76561198220720512,"connected_time":728000000000,"state":"active","ping":56},{"user_id":111,"name":"Damonj17","steam_id":76561198062964879,"connected_time":2044000000000,"state":"active","ping":46},{"user_id":84,"name":"ShitsandGiggles‚Ñ¢","steam_id":76561198058708019,"connected_time":4036000000000,"state":"active","ping":55},{"user_id":110,"name":"Poppet","steam_id":76561198012301951,"connected_time":2548000000000,"state":"active","ping":52},{"user_id":132,"name":"soda drink","steam_id":76561198092422065,"connected_time":36000000000,"state":"active","ping":85},{"user_id":80,"name":"Karl Wheezer","steam_id":76561198848722936,"connected_time":4572000000000,"state":"active","ping":99},{"user_id":106,"name":"Disqordant","steam_id":76561198052514978,"connected_time":2814000000000,"state":"active","ping":61},{"user_id":108,"name":"Cooksandcleans‚Ñ¢","steam_id":76561198049696128,"connected_time":2783000000000,"state":"active","ping":73},{"user_id":88,"name":"The Foolish Samurai","steam_id":76561198094494945,"connected_time":4028000000000,"state":"active","ping":108},{"user_id":117,"name":"Windy Writer","steam_id":76561198048217633,"connected_time":1757000000000,"state":"active","ping":52},{"user_id":127,"name":"goober","steam_id":76561199014881883,"connected_time":450000000000,"state":"active","ping":64},{"user_id":126,"name":"CousinCarL","steam_id":76561198028421250,"connected_time":553000000000,"state":"active","ping":68}]},{"server_id":106,"name":"Uncletopia | Chicago | 2 | All Maps","name_short":"chi-2","host":"chi-1.us.uncletopia.com","port":27025,"enabled":true,"region":"us-central","cc":"us","latitude":41.881832,"longitude":-87.62318,"reserved":0,"last_update":"0001-01-01T00:00:00Z","name_a2s":"Uncletopia | Chicago | 2 | All Maps","protocol":17,"map":"cp_dustbowl","folder":"tf","game":"Team Fortress","app_id":440,"player_count":24,"max_players":24,"Bots":0,"server_type":"Dedicated","server_os":"Linux","password":true,"vac":true,"version":"7757534","steam_id":85568392924469985,"keywords":["cp","nocrits","nodmgspread","uncletopia"],"game_id":440,"stv_port":27026,"stv_name":"Uncletopia | Chicago | 2 | All Maps | STV","players":[{"user_id":14,"name":"Sputnuts","steam_id":76561198236857310,"connected_time":2455000000000,"state":"active","ping":55},{"user_id":55,"name":"Dr.BendyBones","steam_id":76561198048846641,"connected_time":851000000000,"state":"active","ping":66},{"user_id":21,"name":"fyg","steam_id":76561198027610614,"connected_time":2071000000000,"state":"active","ping":52},{"user_id":24,"name":"White Mage","steam_id":76561198046944395,"connected_time":1823000000000,"state":"active","ping":85},{"user_id":47,"name":"StarTube","steam_id":76561199122946418,"connected_time":1305000000000,"state":"active","ping":141},{"user_id":23,"name":"stigma","steam_id":76561197960315263,"connected_time":1932000000000,"state":"active","ping":71},{"user_id":53,"name":"GKEmperor","steam_id":76561197995187011,"connected_time":1018000000000,"state":"active","ping":66},{"user_id":32,"name":"Snow‚òÜ","steam_id":76561198031290573,"connected_time":1671000000000,"state":"active","ping":59},{"user_id":58,"name":"Coup de Grass","steam_id":76561198011643226,"connected_time":140000000000,"state":"active","ping":54},{"user_id":36,"name":"MADHEAD347","steam_id":76561199475145723,"connected_time":1641000000000,"state":"active","ping":101},{"user_id":29,"name":"shake","steam_id":76561199064204750,"connected_time":1692000000000,"state":"active","ping":79},{"user_id":30,"name":"no.","steam_id":76561198988350454,"connected_time":1688000000000,"state":"active","ping":159},{"user_id":60,"name":"TikoTF2","steam_id":76561199066864469,"connected_time":25000000000,"state":"active","ping":55},{"user_id":34,"name":"The Gremlin","steam_id":76561198419066993,"connected_time":1667000000000,"state":"active","ping":112},{"user_id":38,"name":"Lock","steam_id":76561198090427424,"connected_time":1584000000000,"state":"active","ping":75},{"user_id":37,"name":"Breadboy","steam_id":76561199092359175,"connected_time":1627000000000,"state":"active","ping":79},{"user_id":39,"name":"Alaska","steam_id":76561198062026641,"connected_time":1516000000000,"state":"active","ping":133},{"user_id":56,"name":"creeeeeee","steam_id":76561198392539722,"connected_time":818000000000,"state":"active","ping":77},{"user_id":57,"name":"Albatross","steam_id":76561198418345205,"connected_time":789000000000,"state":"active","ping":96},{"user_id":48,"name":"Starsh1pTroop3r","steam_id":76561198937944790,"connected_time":1305000000000,"state":"active","ping":81},{"user_id":61,"name":"Hotdog Goblin","steam_id":76561198004133638,"connected_time":25000000000,"state":"spawning","ping":98},{"user_id":51,"name":"Ryder","steam_id":76561198138540527,"connected_time":1114000000000,"state":"active","ping":76},{"user_id":52,"name":"BoBo","steam_id":76561198146246491,"connected_time":1057000000000,"state":"active","ping":75},{"user_id":54,"name":"Drewey","steam_id":76561199258609863,"connected_time":1003000000000,"state":"active","ping":59}]},{"server_id":402,"name":"Uncletopia | Chicago | 3 | All Maps","name_short":"chi-3","host":"chi-1.us.uncletopia.com","port":27035,"enabled":true,"region":"us-central","cc":"us","latitude":41.881832,"longitude":-87.62318,"reserved":0,"last_update":"0001-01-01T00:00:00Z","name_a2s":"Uncletopia | Chicago | 3 | All Maps","protocol":17,"map":"pl_upward","folder":"tf","game":"Team Fortress","app_id":440,"player_count":0,"max_players":24,"Bots":0,"server_type":"Dedicated","server_os":"Linux","password":true,"vac":true,"version":"7757534","steam_id":85568392924515191,"keywords":["nocrits","nodmgspread","payload","uncletopia"],"game_id":440,"stv_port":27036,"stv_name":"Uncletopia | Chicago | 3 | All Maps | STV","players":null},{"server_id":403,"name":"Uncletopia | Chicago | 4 | All Maps","name_short":"chi-4","host":"chi-1.us.uncletopia.com","port":27045,"enabled":true,"region":"us-central","cc":"us","latitude":41.881832,"longitude":-87.62318,"reserved":0,"last_update":"0001-01-01T00:00:00Z","name_a2s":"Uncletopia | Chicago | 4 | All Maps","protocol":17,"map":"koth_lakeside_final","folder":"tf","game":"Team Fortress","app_id":440,"player_count":0,"max_players":24,"Bots":0,"server_type":"Dedicated","server_os":"Linux","password":true,"vac":true,"version":"7757534","steam_id":85568392924515193,"keywords":["cp","nocrits","nodmgspread","uncletopia"],"game_id":440,"stv_port":27046,"stv_name":"Uncletopia | Chicago | 4 | All Maps | STV","players":null},{"server_id":36,"name":"Uncletopia | Chicago | 5 | All Maps","name_short":"chi-5","host":"chi-2.us.uncletopia.com","port":27015,"enabled":true,"region":"us-central","cc":"us","latitude":41.881832,"longitude":-87.62318,"reserved":0,"last_update":"0001-01-01T00:00:00Z","name_a2s":"Uncletopia | Chicago | 5 | All Maps","protocol":17,"map":"koth_cascade","folder":"tf","game":"Team Fortress","app_id":440,"player_count":0,"max_players":24,"Bots":0,"server_type":"Dedicated","server_os":"Linux","password":true,"vac":true,"version":"7757534","steam_id":85568392924866362,"keywords":["cp","nocrits","nodmgspread","uncletopia"],"game_id":440,"stv_port":27016,"stv_name":"Uncletopia | Chicago | 5 | All Maps | STV","players":null},{"server_id":37,"name":"Uncletopia | Chicago | 6 | All Maps","name_short":"chi-6","host":"chi-2.us.uncletopia.com","port":27025,"enabled":true,"region":"us-central","cc":"us","latitude":41.881832,"longitude":-87.62318,"reserved":0,"last_update":"0001-01-01T00:00:00Z","name_a2s":"Uncletopia | Chicago | 6 | All Maps","protocol":17,"map":"pl_borneo","folder":"tf","game":"Team Fortress","app_id":440,"player_count":0,"max_players":24,"Bots":0,"server_type":"Dedicated","server_os":"Linux","password":true,"vac":true,"version":"7757534","steam_id":85568392924866363,"keywords":["nocrits","nodmgspread","payload","uncletopia"],"game_id":440,"stv_port":27026,"stv_name":"Uncletopia | Chicago | 6 | All Maps | STV","players":null},{"server_id":38,"name":"Uncletopia | Chicago | 7 | Stopwatch Beta","name_short":"chi-7","host":"chi-2.us.uncletopia.com","port":27035,"enabled":true,"region":"us-central","cc":"us","latitude":41.881832,"longitude":-87.62318,"reserved":0,"last_update":"0001-01-01T00:00:00Z","name_a2s":"Uncletopia | Chicago | 7 | Stopwatch Beta","protocol":17,"map":"pl_barnblitz","folder":"tf","game":"Team Fortress","app_id":440,"player_count":0,"max_players":24,"Bots":0,"server_type":"Dedicated","server_os":"Linux","password":true,"vac":true,"version":"7757534","steam_id":85568392924866364,"keywords":["nocrits","nodmgspread","payload","uncletopia"],"game_id":440,"stv_port":27036,"stv_name":"Uncletopia | Chicago | 7 | Stopwatch Beta | STV","players":null},{"server_id":39,"name":"Uncletopia | Chicago | 8 | Community","name_short":"chi-8","host":"chi-2.us.uncletopia.com","port":27045,"enabled":true,"region":"us-central","cc":"us","latitude":41.881832,"longitude":-87.62318,"reserved":0,"last_update":"0001-01-01T00:00:00Z","name_a2s":"Uncletopia | Chicago | 8 | Community","protocol":17,"map":"koth_cascade","folder":"tf","game":"Team Fortress","app_id":440,"player_count":0,"max_players":24,"Bots":0,"server_type":"Dedicated","server_os":"Linux","password":true,"vac":true,"version":"7757534","steam_id":85568392924866365,"keywords":["cp","nocrits","nodmgspread","uncletopia"],"game_id":440,"stv_port":27046,"stv_name":"Uncletopia | Chicago | 8 | Community | STV","players":null},{"server_id":8,"name":"Uncletopia | Dallas | 1 | All Maps","name_short":"dal-1","host":"dal-1.us.uncletopia.com","port":27015,"enabled":true,"region":"us-central","cc":"us","latitude":32.779167,"longitude":-96.80889,"reserved":0,"last_update":"0001-01-01T00:00:00Z","name_a2s":"Uncletopia | Dallas | 1 | All Maps","protocol":17,"map":"pl_pier","folder":"tf","game":"Team Fortress","app_id":440,"player_count":24,"max_players":24,"Bots":0,"server_type":"Dedicated","server_os":"Linux","password":true,"vac":true,"version":"7757534","steam_id":85568392924469986,"keywords":["nocrits","nodmgspread","payload","uncletopia"],"game_id":440,"stv_port":27016,"stv_name":"Uncletopia | Dallas | 1 | All Maps | STV","players":[{"user_id":100,"name":"kris the deer","steam_id":76561198170928310,"connected_time":3470000000000,"state":"active","ping":86},{"user_id":120,"name":"tocka","steam_id":76561198106917662,"connected_time":1628000000000,"state":"active","ping":90},{"user_id":93,"name":"plele","steam_id":76561198021224745,"connected_time":4384000000000,"state":"active","ping":75},{"user_id":135,"name":"{Arp} √êesider","steam_id":76561198046754508,"connected_time":190000000000,"state":"active","ping":94},{"user_id":123,"name":"the trollining","steam_id":76561199160884713,"connected_time":851000000000,"state":"active","ping":81},{"user_id":113,"name":"The Horselords and Animal Gods","steam_id":76561197975094050,"connected_time":2206000000000,"state":"active","ping":81},{"user_id":80,"name":"chikin.sauce","steam_id":76561198042464635,"connected_time":5229000000000,"state":"active","ping":59},{"user_id":127,"name":"Romo","steam_id":76561198243101572,"connected_time":723000000000,"state":"active","ping":78},{"user_id":52,"name":"Tripp Da Mystic","steam_id":76561198200871045,"connected_time":6879000000000,"state":"active","ping":57},{"user_id":132,"name":"Nikki","steam_id":76561199069832535,"connected_time":467000000000,"state":"active","ping":97},{"user_id":89,"name":"King Col","steam_id":76561198033384990,"connected_time":4794000000000,"state":"active","ping":75},{"user_id":130,"name":"McSnapperDapple","steam_id":76561199163296508,"connected_time":521000000000,"state":"active","ping":67},{"user_id":131,"name":"StormyBoyo","steam_id":76561198273482774,"connected_time":496000000000,"state":"active","ping":104},{"user_id":118,"name":"A Literal Fucking Rat","steam_id":76561198178872429,"connected_time":1899000000000,"state":"active","ping":56},{"user_id":122,"name":"BTS | Bumbler","steam_id":76561198048895038,"connected_time":969000000000,"state":"active","ping":59},{"user_id":111,"name":"Bastee1021","steam_id":76561199456141163,"connected_time":2740000000000,"state":"active","ping":99},{"user_id":126,"name":"Capitan Shyguy","steam_id":76561199224215610,"connected_time":788000000000,"state":"active","ping":90},{"user_id":94,"name":"cinibo","steam_id":76561198139802458,"connected_time":4331000000000,"state":"active","ping":92},{"user_id":84,"name":"shawty say i smell","steam_id":76561198059560324,"connected_time":5078000000000,"state":"active","ping":91},{"user_id":103,"name":"Antiant","steam_id":76561198085951366,"connected_time":3317000000000,"state":"active","ping":63},{"user_id":96,"name":"Wacks","steam_id":76561198079476100,"connected_time":3983000000000,"state":"active","ping":89},{"user_id":99,"name":"Tyler\u0026Fingers","steam_id":76561198085154485,"connected_time":3481000000000,"state":"active","ping":84},{"user_id":117,"name":"Also UbeR","steam_id":76561198166926843,"connected_time":1955000000000,"state":"active","ping":89},{"user_id":134,"name":"GlazingDonut","steam_id":76561198847420641,"connected_time":233000000000,"state":"active","ping":67}]},{"server_id":108,"name":"Uncletopia | Dallas | 2 | All Maps","name_short":"dal-2","host":"dal-1.us.uncletopia.com","port":27025,"enabled":true,"region":"us-central","cc":"us","latitude":32.779167,"longitude":-96.80889,"reserved":0,"last_update":"0001-01-01T00:00:00Z","name_a2s":"Uncletopia | Dallas | 2 | All Maps","protocol":17,"map":"pl_upward","folder":"tf","game":"Team Fortress","app_id":440,"player_count":2,"max_players":24,"Bots":0,"server_type":"Dedicated","server_os":"Linux","password":true,"vac":true,"version":"7757534","steam_id":85568392924469988,"keywords":["nocrits","nodmgspread","payload","uncletopia"],"game_id":440,"stv_port":27026,"stv_name":"Uncletopia | Dallas | 2 | All Maps | STV","players":[{"user_id":7,"name":"Optical","steam_id":76561198135777733,"connected_time":218000000000,"state":"active","ping":56},{"user_id":8,"name":"i¬¥m actually naked #savetf2","steam_id":76561198100768221,"connected_time":85000000000,"state":"active","ping":74}]},{"server_id":5,"name":"Uncletopia | Frankfurt | 1 | All Maps","name_short":"frk-1","host":"frk-1.de.uncletopia.com","port":27015,"enabled":true,"region":"eu","cc":"de","latitude":50.110924,"longitude":8.682127,"reserved":0,"last_update":"0001-01-01T00:00:00Z","name_a2s":"Uncletopia | Frankfurt | 1 | All Maps","protocol":17,"map":"cp_dustbowl","folder":"tf","game":"Team Fortress","app_id":440,"player_count":0,"max_players":24,"Bots":0,"server_type":"Dedicated","server_os":"Linux","password":true,"vac":true,"version":"7757534","steam_id":85568392924469989,"keywords":["cp","nocrits","nodmgspread","uncletopia"],"game_id":440,"stv_port":27016,"stv_name":"Uncletopia | Frankfurt | 1 | All Maps | STV","players":null},{"server_id":110,"name":"Uncletopia | Frankfurt | 2 | All Maps","name_short":"frk-2","host":"frk-1.de.uncletopia.com","port":27025,"enabled":true,"region":"eu","cc":"de","latitude":50.110924,"longitude":8.682127,"reserved":0,"last_update":"0001-01-01T00:00:00Z","name_a2s":"Uncletopia | Frankfurt | 2 | All Maps","protocol":17,"map":"koth_viaduct","folder":"tf","game":"Team Fortress","app_id":440,"player_count":0,"max_players":24,"Bots":0,"server_type":"Dedicated","server_os":"Linux","password":true,"vac":true,"version":"7757534","steam_id":85568392924469990,"keywords":["cp","nocrits","nodmgspread","uncletopia"],"game_id":440,"stv_port":27026,"stv_name":"Uncletopia | Frankfurt | 2 | All Maps | STV","players":null},{"server_id":308,"name":"Uncletopia | Frankfurt | 3 | All Maps","name_short":"frk-3","host":"frk-1.de.uncletopia.com","port":27035,"enabled":true,"region":"eu","cc":"de","latitude":50.110924,"longitude":8.682127,"reserved":0,"last_update":"0001-01-01T00:00:00Z","name_a2s":"Uncletopia | Frankfurt | 3 | All Maps","protocol":17,"map":"cp_mountainlab","folder":"tf","game":"Team Fortress","app_id":440,"player_count":0,"max_players":24,"Bots":0,"server_type":"Dedicated","server_os":"Linux","password":true,"vac":true,"version":"7757534","steam_id":85568392924504274,"keywords":["cp","nocrits","nodmgspread","uncletopia"],"game_id":440,"stv_port":27036,"stv_name":"Uncletopia | Frankfurt | 3 | All Maps | STV","players":null},{"server_id":309,"name":"Uncletopia | Frankfurt | 4 | All Maps","name_short":"frk-4","host":"frk-1.de.uncletopia.com","port":27045,"enabled":true,"region":"eu","cc":"de","latitude":50.110924,"longitude":8.682127,"reserved":0,"last_update":"0001-01-01T00:00:00Z","name_a2s":"Uncletopia | Frankfurt | 4 | All Maps","protocol":17,"map":"koth_viaduct","folder":"tf","game":"Team Fortress","app_id":440,"player_count":0,"max_players":24,"Bots":0,"server_type":"Dedicated","server_os":"Linux","password":true,"vac":true,"version":"7757534","steam_id":85568392924504275,"keywords":["cp","nocrits","nodmgspread","uncletopia"],"game_id":440,"stv_port":27046,"stv_name":"Uncletopia | Frankfurt | 4 | All Maps | STV","players":null},{"server_id":310,"name":"Uncletopia | Frankfurt | 5 | All Maps","name_short":"frk-5","host":"frk-1.de.uncletopia.com","port":27055,"enabled":true,"region":"eu","cc":"de","latitude":50.110924,"longitude":8.682127,"reserved":0,"last_update":"0001-01-01T00:00:00Z","name_a2s":"Uncletopia | Frankfurt | 5 | All Maps","protocol":17,"map":"pl_pier","folder":"tf","game":"Team Fortress","app_id":440,"player_count":24,"max_players":24,"Bots":0,"server_type":"Dedicated","server_os":"Linux","password":true,"vac":true,"version":"7757534","steam_id":85568392924504277,"keywords":["nocrits","nodmgspread","payload","uncletopia"],"game_id":440,"stv_port":27056,"stv_name":"Uncletopia | Frankfurt | 5 | All Maps | STV","players":[{"user_id":79,"name":"Takuri","steam_id":76561197961294806,"connected_time":2596000000000,"state":"active","ping":55},{"user_id":57,"name":"OreHaX","steam_id":76561198272166623,"connected_time":4175000000000,"state":"active","ping":70},{"user_id":100,"name":"Setchii","steam_id":76561198051390082,"connected_time":1476000000000,"state":"active","ping":58},{"user_id":41,"name":"s","steam_id":76561198257383813,"connected_time":5026000000000,"state":"active","ping":47},{"user_id":82,"name":"Pek","steam_id":76561198110417995,"connected_time":2517000000000,"state":"active","ping":106},{"user_id":114,"name":"Cave Johnson","steam_id":76561198366456565,"connected_time":96000000000,"state":"active","ping":62},{"user_id":104,"name":"kbbq","steam_id":76561198346638308,"connected_time":1153000000000,"state":"active","ping":132},{"user_id":109,"name":"Chemically Dead","steam_id":76561199475507686,"connected_time":750000000000,"state":"active","ping":158},{"user_id":118,"name":"Neimon","steam_id":76561198343485710,"connected_time":75000000000,"state":"active","ping":122},{"user_id":120,"name":"heyjohn14","steam_id":76561198840831773,"connected_time":56000000000,"state":"active","ping":81},{"user_id":117,"name":"Jughead","steam_id":76561198000355410,"connected_time":80000000000,"state":"active","ping":60},{"user_id":96,"name":"I jazzed myself","steam_id":76561198203016603,"connected_time":1703000000000,"state":"active","ping":76},{"user_id":116,"name":"Yelowchy","steam_id":76561198199416121,"connected_time":85000000000,"state":"active","ping":60},{"user_id":121,"name":"anders McFlanders","steam_id":76561198022811995,"connected_time":38000000000,"state":"active","ping":60},{"user_id":62,"name":"Mr.Cobretti","steam_id":76561198089905715,"connected_time":3885000000000,"state":"active","ping":77},{"user_id":102,"name":"modavak","steam_id":76561198946290908,"connected_time":1234000000000,"state":"active","ping":78},{"user_id":110,"name":"Mr.Happy","steam_id":76561198009646650,"connected_time":475000000000,"state":"active","ping":102},{"user_id":103,"name":".::[SerafeTTiN]::.","steam_id":76561198009471724,"connected_time":1162000000000,"state":"active","ping":89},{"user_id":38,"name":"METhOphetamine","steam_id":76561198068216224,"connected_time":5160000000000,"state":"active","ping":45},{"user_id":94,"name":"Ixion","steam_id":76561198041660675,"connected_time":1849000000000,"state":"active","ping":75},{"user_id":51,"name":"Back scatter fan #1 (its good)","steam_id":76561199013512580,"connected_time":4442000000000,"state":"active","ping":71},{"user_id":97,"name":"SocialistBacon","steam_id":76561198055872267,"connected_time":1685000000000,"state":"active","ping":72},{"user_id":115,"name":"Nugget","steam_id":76561198338916407,"connected_time":95000000000,"state":"active","ping":77}]},{"server_id":311,"name":"Uncletopia | Frankfurt | 6 | All Maps","name_short":"frk-6","host":"frk-1.de.uncletopia.com","port":27065,"enabled":true,"region":"eu","cc":"de","latitude":50.110924,"longitude":8.682127,"reserved":0,"last_update":"0001-01-01T00:00:00Z","name_a2s":"Uncletopia | Frankfurt | 6 | All Maps","protocol":17,"map":"cp_mercenarypark","folder":"tf","game":"Team Fortress","app_id":440,"player_count":24,"max_players":24,"Bots":0,"server_type":"Dedicated","server_os":"Linux","password":true,"vac":true,"version":"7757534","steam_id":85568392924504278,"keywords":["cp","nocrits","nodmgspread","uncletopia"],"game_id":440,"stv_port":27066,"stv_name":"Uncletopia | Frankfurt | 6 | All Maps | STV","players":[{"user_id":311,"name":"Amiable","steam_id":76561198111462976,"connected_time":2174000000000,"state":"active","ping":85},{"user_id":317,"name":"W√ºstenfuchs","steam_id":76561198453885708,"connected_time":1477000000000,"state":"active","ping":64},{"user_id":333,"name":"Cr8ror","steam_id":76561198157318724,"connected_time":404000000000,"state":"active","ping":149},{"user_id":232,"name":"Soyboy","steam_id":76561198053885716,"connected_time":5376000000000,"state":"active","ping":84},{"user_id":339,"name":"PanPatrik","steam_id":76561198293331527,"connected_time":326000000000,"state":"active","ping":58},{"user_id":286,"name":"Cheers Mate!","steam_id":76561198265192382,"connected_time":2929000000000,"state":"active","ping":59},{"user_id":343,"name":"CAMON ENGELAND","steam_id":76561198054301125,"connected_time":246000000000,"state":"active","ping":93},{"user_id":332,"name":"Shenanigan","steam_id":76561199155477588,"connected_time":430000000000,"state":"active","ping":53},{"user_id":303,"name":"rwota","steam_id":76561198385769722,"connected_time":2417000000000,"state":"active","ping":110},{"user_id":334,"name":"Nipa5000","steam_id":76561199027332005,"connected_time":385000000000,"state":"active","ping":80},{"user_id":269,"name":"Choirboy (He/Hymn)","steam_id":76561198183949987,"connected_time":3476000000000,"state":"active","ping":67},{"user_id":335,"name":"Chris","steam_id":76561198018626828,"connected_time":381000000000,"state":"active","ping":69},{"user_id":336,"name":"Making Coffee","steam_id":76561198138281039,"connected_time":377000000000,"state":"active","ping":63},{"user_id":264,"name":"cool grandpa","steam_id":76561198388750592,"connected_time":3723000000000,"state":"active","ping":70},{"user_id":314,"name":"DarkFloy","steam_id":76561198070650206,"connected_time":1819000000000,"state":"active","ping":81},{"user_id":328,"name":"tf2 is doomed","steam_id":76561198282952165,"connected_time":655000000000,"state":"active","ping":77},{"user_id":337,"name":"PissLauncher","steam_id":76561199478358886,"connected_time":345000000000,"state":"active","ping":72},{"user_id":289,"name":"Cagnus Marlsen","steam_id":76561198077859721,"connected_time":2901000000000,"state":"active","ping":58},{"user_id":344,"name":"howabe","steam_id":76561197996486818,"connected_time":216000000000,"state":"active","ping":52},{"user_id":340,"name":"FeminineAtom [LOS]","steam_id":76561198311208470,"connected_time":324000000000,"state":"active","ping":51},{"user_id":293,"name":"Brezak","steam_id":76561198967550414,"connected_time":2793000000000,"state":"active","ping":54},{"user_id":342,"name":"marf","steam_id":76561198014828037,"connected_time":292000000000,"state":"active","ping":73},{"user_id":347,"name":"King_Nothing","steam_id":76561198313701436,"connected_time":30000000000,"state":"active","ping":80},{"user_id":330,"name":"luis_rodrigues","steam_id":76561198012768802,"connected_time":550000000000,"state":"active","ping":92}]},{"server_id":23,"name":"Uncletopia | Frankfurt | 7 | Stopwatch Beta","name_short":"frk-7","host":"frk-1.de.uncletopia.com","port":27075,"enabled":true,"region":"eu","cc":"de","latitude":50.110924,"longitude":8.682127,"reserved":0,"last_update":"0001-01-01T00:00:00Z","name_a2s":"Uncletopia | Frankfurt | 7 | Stopwatch Beta","protocol":17,"map":"workshop/koth_ashville_final.ugc2130459942","folder":"tf","game":"Team Fortress","app_id":440,"player_count":0,"max_players":24,"Bots":0,"server_type":"Dedicated","server_os":"Linux","password":true,"vac":true,"version":"7757534","steam_id":85568392924742827,"keywords":["cp","nocrits","nodmgspread","uncletopia"],"game_id":440,"stv_port":27076,"stv_name":"Uncletopia | Frankfurt | 7 | Stopwatch Beta | STV","players":null},{"server_id":24,"name":"Uncletopia | Frankfurt | 8 | Community","name_short":"frk-8","host":"frk-1.de.uncletopia.com","port":27085,"enabled":true,"region":"eu","cc":"de","latitude":50.110924,"longitude":8.682127,"reserved":0,"last_update":"0001-01-01T00:00:00Z","name_a2s":"Uncletopia | Frankfurt | 8 | Community","protocol":17,"map":"koth_lakeside_final","folder":"tf","game":"Team Fortress","app_id":440,"player_count":0,"max_players":24,"Bots":0,"server_type":"Dedicated","server_os":"Linux","password":true,"vac":true,"version":"7757534","steam_id":85568392924742828,"keywords":["cp","nocrits","nodmgspread","uncletopia"],"game_id":440,"stv_port":27086,"stv_name":"Uncletopia | Frankfurt | 8 | Community | STV","players":null},{"server_id":202,"name":"Uncletopia | Hong Kong | 1 | All Maps","name_short":"hgk-1","host":"hgk-1.hk.uncletopia.com","port":27015,"enabled":true,"region":"asia","cc":"hk","latitude":22.302711,"longitude":114.177216,"reserved":0,"last_update":"0001-01-01T00:00:00Z","name_a2s":"Uncletopia | Hong Kong | 1 | All Maps","protocol":17,"map":"pl_borneo","folder":"tf","game":"Team Fortress","app_id":440,"player_count":13,"max_players":24,"Bots":0,"server_type":"Dedicated","server_os":"Linux","password":true,"vac":true,"version":"7757534","steam_id":85568392924494504,"keywords":["nocrits","nodmgspread","payload","uncletopia"],"game_id":440,"stv_port":27016,"stv_name":"Uncletopia | Hong Kong | 1 | All Maps | STV","players":[{"user_id":354,"name":"www77531","steam_id":76561198251038432,"connected_time":940000000000,"state":"active","ping":45},{"user_id":269,"name":"tiden2000","steam_id":76561198092969425,"connected_time":6696000000000,"state":"active","ping":112},{"user_id":364,"name":"sukai","steam_id":76561198092449612,"connected_time":91000000000,"state":"active","ping":44},{"user_id":356,"name":"amogus","steam_id":76561198094982152,"connected_time":822000000000,"state":"active","ping":118},{"user_id":365,"name":"AmaiToxic","steam_id":76561199122491157,"connected_time":79000000000,"state":"active","ping":128},{"user_id":363,"name":"Lavendurple ‚ôê","steam_id":76561198027069534,"connected_time":165000000000,"state":"active","ping":106},{"user_id":315,"name":"Ïø†ÌÇ§","steam_id":76561197997220367,"connected_time":3825000000000,"state":"active","ping":53},{"user_id":326,"name":"dax.","steam_id":76561198321885643,"connected_time":3183000000000,"state":"active","ping":40},{"user_id":338,"name":"SandMann","steam_id":76561198884765747,"connected_time":2134000000000,"state":"active","ping":131},{"user_id":312,"name":"SICSIN","steam_id":76561198083923462,"connected_time":4238000000000,"state":"active","ping":77},{"user_id":308,"name":"....","steam_id":76561198064846352,"connected_time":4583000000000,"state":"active","ping":72},{"user_id":347,"name":"KimvyKinsley","steam_id":76561198859745304,"connected_time":1366000000000,"state":"active","ping":99},{"user_id":304,"name":"brizzard","steam_id":76561198048438653,"connected_time":4657000000000,"state":"active","ping":47}]},{"server_id":1,"name":"Uncletopia | Los Angeles | 1 | All Maps","name_short":"lax-1","host":"lax-1.us.uncletopia.com","port":27015,"enabled":true,"region":"us-west","cc":"us","latitude":33.94279,"longitude":-118.41004,"reserved":0,"last_update":"0001-01-01T00:00:00Z","name_a2s":"Uncletopia | Los Angeles | 1 | All Maps","protocol":17,"map":"koth_lakeside_final","folder":"tf","game":"Team Fortress","app_id":440,"player_count":0,"max_players":24,"Bots":0,"server_type":"Dedicated","server_os":"Linux","password":true,"vac":true,"version":"7757534","steam_id":85568392924469991,"keywords":["cp","nocrits","nodmgspread","uncletopia"],"game_id":440,"stv_port":27016,"stv_name":"Uncletopia | Los Angeles | 1 | All Maps | STV","players":null},{"server_id":112,"name":"Uncletopia | Los Angeles | 2 | All Maps","name_short":"lax-2","host":"lax-1.us.uncletopia.com","port":27025,"enabled":true,"region":"us-west","cc":"us","latitude":33.94279,"longitude":-118.41004,"reserved":0,"last_update":"0001-01-01T00:00:00Z","name_a2s":"Uncletopia | Los Angeles | 2 | All Maps","protocol":17,"map":"pl_badwater","folder":"tf","game":"Team Fortress","app_id":440,"player_count":0,"max_players":24,"Bots":0,"server_type":"Dedicated","server_os":"Linux","password":true,"vac":true,"version":"7757534","steam_id":85568392924469992,"keywords":["nocrits","nodmgspread","payload","uncletopia"],"game_id":440,"stv_port":27026,"stv_name":"Uncletopia | Los Angeles | 2 | All Maps | STV","players":null},{"server_id":324,"name":"Uncletopia | Los Angeles | 3 | All Maps","name_short":"lax-3","host":"lax-1.us.uncletopia.com","port":27035,"enabled":true,"region":"us-west","cc":"us","latitude":33.94279,"longitude":-118.41004,"reserved":0,"last_update":"0001-01-01T00:00:00Z","name_a2s":"Uncletopia | Los Angeles | 3 | All Maps","protocol":17,"map":"pl_barnblitz","folder":"tf","game":"Team Fortress","app_id":440,"player_count":0,"max_players":24,"Bots":0,"server_type":"Dedicated","server_os":"Linux","password":true,"vac":true,"version":"7757534","steam_id":85568392924510198,"keywords":["nocrits","nodmgspread","payload","uncletopia"],"game_id":440,"stv_port":27036,"stv_name":"Uncletopia | Los Angeles | 3 | All Maps | STV","players":null},{"server_id":25,"name":"Uncletopia | Los Angeles | 4 | Stopwatch Beta","name_short":"lax-4","host":"lax-1.us.uncletopia.com","port":27045,"enabled":true,"region":"us-west","cc":"us","latitude":33.94279,"longitude":-118.41004,"reserved":0,"last_update":"0001-01-01T00:00:00Z","name_a2s":"Uncletopia | Los Angeles | 4 | Stopwatch Beta","protocol":17,"map":"pl_swiftwater_final1","folder":"tf","game":"Team Fortress","app_id":440,"player_count":0,"max_players":24,"Bots":0,"server_type":"Dedicated","server_os":"Linux","password":true,"vac":true,"version":"7757534","steam_id":85568392924510199,"keywords":["nocrits","nodmgspread","payload","uncletopia"],"game_id":440,"stv_port":27046,"stv_name":"Uncletopia | Los Angeles | 4 | Stopwatch Beta | STV","players":null},{"server_id":11,"name":"Uncletopia | London | 1 | All Maps","name_short":"lon-1","host":"lon-1.uk.uncletopia.com","port":27015,"enabled":true,"region":"eu","cc":"gb","latitude":51.509865,"longitude":-0.118092,"reserved":0,"last_update":"0001-01-01T00:00:00Z","name_a2s":"Uncletopia | London | 1 | All Maps","protocol":17,"map":"pl_borneo","folder":"tf","game":"Team Fortress","app_id":440,"player_count":24,"max_players":24,"Bots":0,"server_type":"Dedicated","server_os":"Linux","password":true,"vac":true,"version":"7757534","steam_id":85568392924367362,"keywords":["nocrits","nodmgspread","payload","uncletopia"],"game_id":440,"stv_port":27016,"stv_name":"Uncletopia | London | 1 | All Maps | STV","players":[{"user_id":373,"name":"RiX","steam_id":76561197969053733,"connected_time":1779000000000,"state":"active","ping":61},{"user_id":347,"name":"Neo Kojiro","steam_id":76561198000967076,"connected_time":3894000000000,"state":"active","ping":127},{"user_id":356,"name":"Silverstorm","steam_id":76561198118175267,"connected_time":3373000000000,"state":"active","ping":65},{"user_id":380,"name":"Purplenoogie","steam_id":76561198081872160,"connected_time":763000000000,"state":"active","ping":44},{"user_id":376,"name":"Cookies and Bakies","steam_id":76561198017442928,"connected_time":1444000000000,"state":"active","ping":65},{"user_id":384,"name":"cosmetical","steam_id":76561198444036574,"connected_time":369000000000,"state":"active","ping":60},{"user_id":306,"name":"Yuzu","steam_id":76561198121694613,"connected_time":6819000000000,"state":"active","ping":50},{"user_id":370,"name":"Teleporter (jessie)","steam_id":76561198063093802,"connected_time":2015000000000,"state":"active","ping":45},{"user_id":271,"name":"ü•ë Avocado ü•ë HM","steam_id":76561199007231261,"connected_time":8779000000000,"state":"active","ping":67},{"user_id":344,"name":"Mozza","steam_id":76561198035915570,"connected_time":4088000000000,"state":"active","ping":75},{"user_id":367,"name":"[Mg] Z√© P√©qu√©no","steam_id":76561198000927489,"connected_time":2033000000000,"state":"active","ping":68},{"user_id":368,"name":"MasterAmongRust","steam_id":76561198010160233,"connected_time":2028000000000,"state":"active","ping":167},{"user_id":295,"name":"Little Gremlin","steam_id":76561199017872113,"connected_time":6942000000000,"state":"active","ping":60},{"user_id":357,"name":"Joejee","steam_id":76561199122423976,"connected_time":3193000000000,"state":"active","ping":63},{"user_id":381,"name":"Mighty Truck-sama","steam_id":76561198826861582,"connected_time":451000000000,"state":"active","ping":61},{"user_id":385,"name":"NLSAM","steam_id":76561199111154916,"connected_time":363000000000,"state":"active","ping":64},{"user_id":379,"name":"Potat Master |Potato Industries","steam_id":76561199112380553,"connected_time":1013000000000,"state":"active","ping":77},{"user_id":333,"name":"nudjura","steam_id":76561198281986139,"connected_time":4350000000000,"state":"active","ping":35},{"user_id":382,"name":"Uselss Joe","steam_id":76561198275853629,"connected_time":381000000000,"state":"active","ping":59},{"user_id":383,"name":"lettuce at 58p","steam_id":76561199401283123,"connected_time":371000000000,"state":"active","ping":52},{"user_id":375,"name":"Greenmaker","steam_id":76561198060466591,"connected_time":1485000000000,"state":"active","ping":90},{"user_id":232,"name":"Hell Striker","steam_id":76561199023875942,"connected_time":11395000000000,"state":"active","ping":103},{"user_id":369,"name":"wake me up before you go-go","steam_id":76561198179324075,"connected_time":2025000000000,"state":"active","ping":61},{"user_id":372,"name":"Myrmodion","steam_id":76561198054746247,"connected_time":1934000000000,"state":"active","ping":71}]},{"server_id":114,"name":"Uncletopia | London | 2 | All Maps","name_short":"lon-2","host":"lon-1.uk.uncletopia.com","port":27025,"enabled":true,"region":"eu","cc":"gb","latitude":51.509865,"longitude":-0.118092,"reserved":0,"last_update":"0001-01-01T00:00:00Z","name_a2s":"Uncletopia | London | 2 | All Maps","protocol":17,"map":"koth_viaduct","folder":"tf","game":"Team Fortress","app_id":440,"player_count":0,"max_players":24,"Bots":0,"server_type":"Dedicated","server_os":"Linux","password":true,"vac":true,"version":"7757534","steam_id":85568392924470941,"keywords":["cp","nocrits","nodmgspread","uncletopia"],"game_id":440,"stv_port":27026,"stv_name":"Uncletopia | London | 2 | All Maps | STV","players":null},{"server_id":320,"name":"Uncletopia | London | 3 | All Maps","name_short":"lon-3","host":"lon-1.uk.uncletopia.com","port":27035,"enabled":true,"region":"eu","cc":"gb","latitude":51.509865,"longitude":-0.118092,"reserved":0,"last_update":"0001-01-01T00:00:00Z","name_a2s":"Uncletopia | London | 3 | All Maps","protocol":17,"map":"cp_process_final","folder":"tf","game":"Team Fortress","app_id":440,"player_count":24,"max_players":24,"Bots":0,"server_type":"Dedicated","server_os":"Linux","password":true,"vac":true,"version":"7757534","steam_id":85568392924510192,"keywords":["cp","nocrits","nodmgspread","uncletopia"],"game_id":440,"stv_port":27036,"stv_name":"Uncletopia | London | 3 | All Maps | STV","players":[{"user_id":125,"name":"Constant K","steam_id":76561198037276390,"connected_time":5783000000000,"state":"active","ping":57},{"user_id":175,"name":"sm0ke","steam_id":76561198198977226,"connected_time":1127000000000,"state":"active","ping":75},{"user_id":178,"name":"Solymr ibn Wali Barad","steam_id":76561198044008976,"connected_time":915000000000,"state":"active","ping":62},{"user_id":179,"name":"i have severe 2fort brainrot","steam_id":76561198159100379,"connected_time":895000000000,"state":"active","ping":68},{"user_id":180,"name":"SODA!!!!!!!","steam_id":76561198107362485,"connected_time":882000000000,"state":"active","ping":106},{"user_id":168,"name":"Flare","steam_id":76561198039098320,"connected_time":2144000000000,"state":"active","ping":49},{"user_id":181,"name":"BROOMSTER","steam_id":76561198344833818,"connected_time":880000000000,"state":"active","ping":64},{"user_id":68,"name":"Sakari","steam_id":76561197997811299,"connected_time":11382000000000,"state":"active","ping":60},{"user_id":171,"name":"‚ô• Aura ‚òÖ","steam_id":76561198066258544,"connected_time":1921000000000,"state":"active","ping":62},{"user_id":172,"name":"Akane","steam_id":76561197990407312,"connected_time":1775000000000,"state":"active","ping":75},{"user_id":138,"name":"GHOST RIDER/HEAT PUSHER","steam_id":76561198049405872,"connected_time":4540000000000,"state":"active","ping":47},{"user_id":108,"name":"DrunkHungarian","steam_id":76561198853346540,"connected_time":7576000000000,"state":"active","ping":60},{"user_id":174,"name":"Lag","steam_id":76561198159360376,"connected_time":1441000000000,"state":"active","ping":53},{"user_id":176,"name":"X45Y","steam_id":76561198112534025,"connected_time":925000000000,"state":"active","ping":48},{"user_id":184,"name":"BOB","steam_id":76561198797287684,"connected_time":531000000000,"state":"active","ping":54},{"user_id":150,"name":"whimsy.","steam_id":76561198878171763,"connected_time":3133000000000,"state":"active","ping":47},{"user_id":177,"name":"KAZAM | Tervez","steam_id":76561198045459068,"connected_time":921000000000,"state":"active","ping":84},{"user_id":169,"name":"Leahbun (she/her)","steam_id":76561198171311125,"connected_time":2047000000000,"state":"active","ping":141},{"user_id":173,"name":"y'all","steam_id":76561198106049954,"connected_time":1766000000000,"state":"active","ping":73},{"user_id":143,"name":"The Evil","steam_id":76561198005342133,"connected_time":4080000000000,"state":"active","ping":43},{"user_id":182,"name":"Neutral Milf Hotel","steam_id":76561198169969898,"connected_time":806000000000,"state":"active","ping":55},{"user_id":183,"name":"Puh","steam_id":76561198144888879,"connected_time":656000000000,"state":"active","ping":71},{"user_id":170,"name":"Minimi","steam_id":76561198873850443,"connected_time":2030000000000,"state":"active","ping":47},{"user_id":185,"name":"TheBeanDude","steam_id":76561198887308622,"connected_time":204000000000,"state":"active","ping":77}]},{"server_id":321,"name":"Uncletopia | London | 4 | All Maps","name_short":"lon-4","host":"lon-1.uk.uncletopia.com","port":27045,"enabled":true,"region":"eu","cc":"gb","latitude":51.509865,"longitude":-0.118092,"reserved":0,"last_update":"0001-01-01T00:00:00Z","name_a2s":"Uncletopia | London | 4 | All Maps","protocol":17,"map":"cp_altitude","folder":"tf","game":"Team Fortress","app_id":440,"player_count":0,"max_players":24,"Bots":0,"server_type":"Dedicated","server_os":"Linux","password":true,"vac":true,"version":"7757534","steam_id":85568392924510193,"keywords":["cp","nocrits","nodmgspread","uncletopia"],"game_id":440,"stv_port":27046,"stv_name":"Uncletopia | London | 4 | All Maps | STV","players":null},{"server_id":21,"name":"Uncletopia | London | 5 | All Maps","name_short":"lon-5","host":"lon-1.uk.uncletopia.com","port":27055,"enabled":true,"region":"eu","cc":"gb","latitude":51.509865,"longitude":-0.118092,"reserved":0,"last_update":"0001-01-01T00:00:00Z","name_a2s":"Uncletopia | London | 5 | All Maps","protocol":17,"map":"ctf_2fort","folder":"tf","game":"Team Fortress","app_id":440,"player_count":24,"max_players":24,"Bots":0,"server_type":"Dedicated","server_os":"Linux","password":true,"vac":true,"version":"7757534","steam_id":85568392924742829,"keywords":["ctf","nocrits","nodmgspread","uncletopia"],"game_id":440,"stv_port":27056,"stv_name":"Uncletopia | London | 5 | All Maps | STV","players":[{"user_id":174,"name":"kubasirus","steam_id":76561198216313280,"connected_time":1661000000000,"state":"active","ping":77},{"user_id":205,"name":"Sinny","steam_id":76561197999598422,"connected_time":47000000000,"state":"active","ping":79},{"user_id":100,"name":"...","steam_id":76561198969234594,"connected_time":7517000000000,"state":"active","ping":77},{"user_id":167,"name":"KRAZY.FRONG.1939","steam_id":76561198875472890,"connected_time":1899000000000,"state":"active","ping":76},{"user_id":191,"name":"Rocopherus","steam_id":76561198045010551,"connected_time":647000000000,"state":"active","ping":54},{"user_id":196,"name":"goktwoxd","steam_id":76561198065114415,"connected_time":334000000000,"state":"active","ping":75},{"user_id":111,"name":"Fruit","steam_id":76561198346687933,"connected_time":6643000000000,"state":"active","ping":55},{"user_id":152,"name":"69epicman69","steam_id":76561199147530011,"connected_time":3775000000000,"state":"active","ping":70},{"user_id":203,"name":"Sippie","steam_id":76561198130393388,"connected_time":98000000000,"state":"active","ping":60},{"user_id":189,"name":"kornetov.vitalya","steam_id":76561199286034833,"connected_time":697000000000,"state":"active","ping":99},{"user_id":192,"name":"F","steam_id":76561199149462792,"connected_time":639000000000,"state":"active","ping":60},{"user_id":168,"name":"Mike Doe","steam_id":76561198331251922,"connected_time":1874000000000,"state":"active","ping":61},{"user_id":197,"name":"Gwishin","steam_id":76561198257158275,"connected_time":331000000000,"state":"active","ping":149},{"user_id":199,"name":"Fatalek","steam_id":76561198139931697,"connected_time":276000000000,"state":"active","ping":86},{"user_id":206,"name":"404 bomb","steam_id":76561198115755832,"connected_time":7000000000,"state":"spawning","ping":102},{"user_id":105,"name":"Solarflame","steam_id":76561198158780844,"connected_time":7383000000000,"state":"active","ping":90},{"user_id":179,"name":"TheFirstGlueBender","steam_id":76561199387319886,"connected_time":1411000000000,"state":"active","ping":45},{"user_id":169,"name":"Mr. Mundy","steam_id":76561198132008918,"connected_time":1870000000000,"state":"active","ping":87},{"user_id":190,"name":"coffee","steam_id":76561198382387303,"connected_time":693000000000,"state":"active","ping":90},{"user_id":185,"name":"S√§yu","steam_id":76561199275368237,"connected_time":987000000000,"state":"active","ping":87},{"user_id":194,"name":"engineer drip","steam_id":76561198991032570,"connected_time":559000000000,"state":"active","ping":87},{"user_id":180,"name":"bayzoes","steam_id":76561198117472639,"connected_time":1394000000000,"state":"active","ping":40},{"user_id":187,"name":"chocolate flavoured femboy","steam_id":76561198819353867,"connected_time":786000000000,"state":"active","ping":36},{"user_id":201,"name":"zek","steam_id":76561198862763731,"connected_time":252000000000,"state":"active","ping":62}]},{"server_id":22,"name":"Uncletopia | London | 6 | All Maps","name_short":"lon-6","host":"lon-1.uk.uncletopia.com","port":27065,"enabled":true,"region":"eu","cc":"gb","latitude":51.509865,"longitude":-0.118092,"reserved":0,"last_update":"0001-01-01T00:00:00Z","name_a2s":"Uncletopia | London | 6 | All Maps","protocol":17,"map":"cp_mountainlab","folder":"tf","game":"Team Fortress","app_id":440,"player_count":0,"max_players":24,"Bots":0,"server_type":"Dedicated","server_os":"Linux","password":true,"vac":true,"version":"7757534","steam_id":85568392924742830,"keywords":["cp","nocrits","nodmgspread","uncletopia"],"game_id":440,"stv_port":27066,"stv_name":"Uncletopia | London | 6 | All Maps | STV","players":null},{"server_id":40,"name":"Uncletopia | London | 7 | No Payload","name_short":"lon-7","host":"lon-1.uk.uncletopia.com","port":27075,"enabled":true,"region":"eu","cc":"gb","latitude":51.509865,"longitude":-0.118092,"reserved":0,"last_update":"0001-01-01T00:00:00Z","name_a2s":"Uncletopia | London | 7 | No Payload","protocol":17,"map":"plr_nightfall_final","folder":"tf","game":"Team Fortress","app_id":440,"player_count":0,"max_players":24,"Bots":0,"server_type":"Dedicated","server_os":"Linux","password":true,"vac":true,"version":"7757534","steam_id":85568392924964314,"keywords":["nocrits","nodmgspread","payload","uncletopia"],"game_id":440,"stv_port":27076,"stv_name":"Uncletopia | London | 7 | No Payload | STV","players":null},{"server_id":41,"name":"Uncletopia | London | 8 | Community","name_short":"lon-8","host":"lon-1.uk.uncletopia.com","port":27085,"enabled":true,"region":"eu","cc":"gb","latitude":51.509865,"longitude":-0.118092,"reserved":0,"last_update":"0001-01-01T00:00:00Z","name_a2s":"Uncletopia | London | 8 | Community","protocol":17,"map":"pl_barnblitz","folder":"tf","game":"Team Fortress","app_id":440,"player_count":0,"max_players":24,"Bots":0,"server_type":"Dedicated","server_os":"Linux","password":true,"vac":true,"version":"7757534","steam_id":85568392924964315,"keywords":["nocrits","nodmgspread","payload","uncletopia"],"game_id":440,"stv_port":27086,"stv_name":"Uncletopia | London | 8 | Community | STV","players":null},{"server_id":300,"name":"Uncletopia | Montr√©al | 1 | All Maps","name_short":"mtl-1","host":"mtl-1.ca.uncletopia.com","port":27015,"enabled":true,"region":"us-east","cc":"ca","latitude":45.50889,"longitude":-73.56167,"reserved":0,"last_update":"0001-01-01T00:00:00Z","name_a2s":"Uncletopia | Montr√©al | 1 | All Maps","protocol":17,"map":"pl_upward","folder":"tf","game":"Team Fortress","app_id":440,"player_count":0,"max_players":24,"Bots":0,"server_type":"Dedicated","server_os":"Linux","password":true,"vac":true,"version":"7757534","steam_id":85568392924500087,"keywords":["nocrits","nodmgspread","payload","uncletopia"],"game_id":440,"stv_port":27016,"stv_name":"Uncletopia | Montr√©al | 1 | All Maps | STV","players":null},{"server_id":301,"name":"Uncletopia | Montr√©al | 2 | All Maps","name_short":"mtl-2","host":"mtl-1.ca.uncletopia.com","port":27025,"enabled":true,"region":"us-east","cc":"ca","latitude":45.50889,"longitude":-73.56167,"reserved":0,"last_update":"0001-01-01T00:00:00Z","name_a2s":"Uncletopia | Montr√©al | 2 | All Maps","protocol":17,"map":"pl_snowycoast","folder":"tf","game":"Team Fortress","app_id":440,"player_count":0,"max_players":24,"Bots":0,"server_type":"Dedicated","server_os":"Linux","password":true,"vac":true,"version":"7757534","steam_id":85568392924500088,"keywords":["nocrits","nodmgspread","payload","uncletopia"],"game_id":440,"stv_port":27026,"stv_name":"Uncletopia | Montr√©al | 2 | All Maps | STV","players":null},{"server_id":302,"name":"Uncletopia | Montr√©al | 3 | All Maps","name_short":"mtl-3","host":"mtl-1.ca.uncletopia.com","port":27035,"enabled":true,"region":"us-east","cc":"ca","latitude":45.50889,"longitude":-73.56167,"reserved":0,"last_update":"0001-01-01T00:00:00Z","name_a2s":"Uncletopia | Montr√©al | 3 | All Maps","protocol":17,"map":"pl_swiftwater_final1","folder":"tf","game":"Team Fortress","app_id":440,"player_count":0,"max_players":24,"Bots":0,"server_type":"Dedicated","server_os":"Linux","password":true,"vac":true,"version":"7757534","steam_id":85568392924500089,"keywords":["nocrits","nodmgspread","payload","uncletopia"],"game_id":440,"stv_port":27036,"stv_name":"Uncletopia | Montr√©al | 3 | All Maps | STV","players":null},{"server_id":303,"name":"Uncletopia | Montr√©al | 4 | No Payload","name_short":"mtl-4","host":"mtl-1.ca.uncletopia.com","port":27045,"enabled":true,"region":"us-east","cc":"ca","latitude":45.50889,"longitude":-73.56167,"reserved":0,"last_update":"0001-01-01T00:00:00Z","name_a2s":"Uncletopia | Montr√©al | 4 | No Payload","protocol":17,"map":"pl_pier","folder":"tf","game":"Team Fortress","app_id":440,"player_count":0,"max_players":24,"Bots":0,"server_type":"Dedicated","server_os":"Linux","password":true,"vac":true,"version":"7757534","steam_id":85568392924500090,"keywords":["nocrits","nodmgspread","payload","uncletopia"],"game_id":440,"stv_port":27046,"stv_name":"Uncletopia | Montr√©al | 4 | No Payload | STV","players":null},{"server_id":13,"name":"Uncletopia | New York City | 1 | All Maps","name_short":"nyc-1","host":"nyc-1.us.uncletopia.com","port":27015,"enabled":true,"region":"us-east","cc":"us","latitude":40.73061,"longitude":-73.93524,"reserved":0,"last_update":"0001-01-01T00:00:00Z","name_a2s":"Uncletopia | New York City | 1 | All Maps","protocol":17,"map":"koth_viaduct","folder":"tf","game":"Team Fortress","app_id":440,"player_count":0,"max_players":24,"Bots":0,"server_type":"Dedicated","server_os":"Linux","password":true,"vac":true,"version":"7757534","steam_id":85568392924469993,"keywords":["cp","nocrits","nodmgspread","uncletopia"],"game_id":440,"stv_port":27016,"stv_name":"Uncletopia | New York City | 1 | All Maps | STV","players":null},{"server_id":14,"name":"Uncletopia | New York City | 2 | All Maps","name_short":"nyc-2","host":"nyc-1.us.uncletopia.com","port":27025,"enabled":true,"region":"us-east","cc":"us","latitude":40.73061,"longitude":-73.93524,"reserved":0,"last_update":"0001-01-01T00:00:00Z","name_a2s":"Uncletopia | New York City | 2 | All Maps","protocol":17,"map":"pl_badwater","folder":"tf","game":"Team Fortress","app_id":440,"player_count":0,"max_players":24,"Bots":0,"server_type":"Dedicated","server_os":"Linux","password":true,"vac":true,"version":"7757534","steam_id":85568392924469994,"keywords":["nocrits","nodmgspread","payload","uncletopia"],"game_id":440,"stv_port":27026,"stv_name":"Uncletopia | New York City | 2 | All Maps | STV","players":null},{"server_id":15,"name":"Uncletopia | New York City | 3 | Stopwatch Beta","name_short":"nyc-3","host":"nyc-1.us.uncletopia.com","port":27035,"enabled":true,"region":"us-east","cc":"us","latitude":40.73061,"longitude":-73.93524,"reserved":0,"last_update":"0001-01-01T00:00:00Z","name_a2s":"Uncletopia | New York City | 3 | Stopwatch Beta","protocol":17,"map":"workshop/koth_ashville_final.ugc2130459942","folder":"tf","game":"Team Fortress","app_id":440,"player_count":0,"max_players":24,"Bots":0,"server_type":"Dedicated","server_os":"Linux","password":true,"vac":true,"version":"7757534","steam_id":85568392924742820,"keywords":["cp","nocrits","nodmgspread","uncletopia"],"game_id":440,"stv_port":27036,"stv_name":"Uncletopia | New York City | 3 | Stopwatch Beta | STV","players":null},{"server_id":16,"name":"Uncletopia | New York City | 4 | Community","name_short":"nyc-4","host":"nyc-1.us.uncletopia.com","port":27045,"enabled":true,"region":"us-east","cc":"us","latitude":40.73061,"longitude":-73.93524,"reserved":0,"last_update":"0001-01-01T00:00:00Z","name_a2s":"Uncletopia | New York City | 4 | Community","protocol":17,"map":"pl_swiftwater_final1","folder":"tf","game":"Team Fortress","app_id":440,"player_count":0,"max_players":24,"Bots":0,"server_type":"Dedicated","server_os":"Linux","password":true,"vac":true,"version":"7757534","steam_id":85568392924742821,"keywords":["nocrits","nodmgspread","payload","uncletopia"],"game_id":440,"stv_port":27046,"stv_name":"Uncletopia | New York City | 4 | Community | STV","players":null},{"server_id":142,"name":"Uncletopia | S√£o Paulo | 1 | All Maps","name_short":"sao-1","host":"sao-1.br.uncletopia.com","port":27015,"enabled":true,"region":"sa","cc":"br","latitude":-23.533773,"longitude":-46.62529,"reserved":0,"last_update":"0001-01-01T00:00:00Z","name_a2s":"Uncletopia | S√£o Paulo | 1 | All Maps","protocol":17,"map":"koth_lakeside_final","folder":"tf","game":"Team Fortress","app_id":440,"player_count":0,"max_players":24,"Bots":0,"server_type":"Dedicated","server_os":"Linux","password":true,"vac":true,"version":"7757534","steam_id":85568392924469996,"keywords":["cp","nocrits","nodmgspread","uncletopia"],"game_id":440,"stv_port":27016,"stv_name":"Uncletopia | S√£o Paulo | 1 | All Maps | STV","players":null},{"server_id":143,"name":"Uncletopia | S√£o Paulo | 2 | All Maps","name_short":"sao-2","host":"sao-2.br.uncletopia.com","port":27015,"enabled":true,"region":"sa","cc":"br","latitude":-23.533773,"longitude":-46.62529,"reserved":0,"last_update":"0001-01-01T00:00:00Z","name_a2s":"Uncletopia | S√£o Paulo | 2 | All Maps","protocol":17,"map":"pl_borneo","folder":"tf","game":"Team Fortress","app_id":440,"player_count":0,"max_players":24,"Bots":0,"server_type":"Dedicated","server_os":"Linux","password":true,"vac":true,"version":"7757534","steam_id":85568392924485349,"keywords":["nocrits","nodmgspread","payload","uncletopia"],"game_id":440,"stv_port":27016,"stv_name":"Uncletopia | S√£o Paulo | 2 | All Maps | STV","players":null},{"server_id":7,"name":"Uncletopia | Seattle | 1 | All Maps","name_short":"sea-1","host":"sea-1.us.uncletopia.com","port":27015,"enabled":true,"region":"us-west","cc":"us","latitude":47.608013,"longitude":-122.33517,"reserved":0,"last_update":"0001-01-01T00:00:00Z","name_a2s":"Uncletopia | Seattle | 1 | All Maps","protocol":17,"map":"koth_lakeside_final","folder":"tf","game":"Team Fortress","app_id":440,"player_count":0,"max_players":24,"Bots":0,"server_type":"Dedicated","server_os":"Linux","password":true,"vac":true,"version":"7757534","steam_id":85568392924469997,"keywords":["cp","nocrits","nodmgspread","uncletopia"],"game_id":440,"stv_port":27016,"stv_name":"Uncletopia | Seattle | 1 | All Maps | STV","players":null},{"server_id":119,"name":"Uncletopia | Seattle | 2 | All Maps","name_short":"sea-2","host":"sea-1.us.uncletopia.com","port":27025,"enabled":true,"region":"us-west","cc":"us","latitude":47.608013,"longitude":-122.33517,"reserved":0,"last_update":"0001-01-01T00:00:00Z","name_a2s":"Uncletopia | Seattle | 2 | All Maps","protocol":17,"map":"pl_badwater","folder":"tf","game":"Team Fortress","app_id":440,"player_count":0,"max_players":24,"Bots":0,"server_type":"Dedicated","server_os":"Linux","password":true,"vac":true,"version":"7757534","steam_id":85568392924469998,"keywords":["nocrits","nodmgspread","payload","uncletopia"],"game_id":440,"stv_port":27026,"stv_name":"Uncletopia | Seattle | 2 | All Maps | STV","players":null},{"server_id":406,"name":"Uncletopia | Seattle | 3 | Stopwatch Beta","name_short":"sea-3","host":"sea-1.us.uncletopia.com","port":27035,"enabled":true,"region":"us-west","cc":"us","latitude":47.608013,"longitude":-122.33517,"reserved":0,"last_update":"0001-01-01T00:00:00Z","name_a2s":"Uncletopia | Seattle | 3 | Stopwatch Beta","protocol":17,"map":"cp_dustbowl","folder":"tf","game":"Team Fortress","app_id":440,"player_count":0,"max_players":24,"Bots":0,"server_type":"Dedicated","server_os":"Linux","password":true,"vac":true,"version":"7757534","steam_id":85568392924515217,"keywords":["cp","nocrits","nodmgspread","uncletopia"],"game_id":440,"stv_port":27036,"stv_name":"Uncletopia | Seattle | 3 | Stopwatch Beta | STV","players":null},{"server_id":17,"name":"Uncletopia | San Francisco | 1 | All Maps","name_short":"sfo-1","host":"sfo-1.us.uncletopia.com","port":27015,"enabled":true,"region":"us-west","cc":"us","latitude":37.77397,"longitude":-122.4313,"reserved":0,"last_update":"0001-01-01T00:00:00Z","name_a2s":"Uncletopia | San Francisco | 1 | All Maps","protocol":17,"map":"cp_process_final","folder":"tf","game":"Team Fortress","app_id":440,"player_count":0,"max_players":24,"Bots":0,"server_type":"Dedicated","server_os":"Linux","password":true,"vac":true,"version":"7757534","steam_id":85568392924469999,"keywords":["cp","nocrits","nodmgspread","uncletopia"],"game_id":440,"stv_port":27016,"stv_name":"Uncletopia | San Francisco | 1 | All Maps | STV","players":null},{"server_id":18,"name":"Uncletopia | San Francisco | 2 | All Maps","name_short":"sfo-2","host":"sfo-1.us.uncletopia.com","port":27025,"enabled":true,"region":"us-west","cc":"us","latitude":37.77397,"longitude":-122.4313,"reserved":0,"last_update":"0001-01-01T00:00:00Z","name_a2s":"Uncletopia | San Francisco | 2 | All Maps","protocol":17,"map":"koth_highpass","folder":"tf","game":"Team Fortress","app_id":440,"player_count":0,"max_players":24,"Bots":0,"server_type":"Dedicated","server_os":"Linux","password":true,"vac":true,"version":"7757534","steam_id":85568392924470000,"keywords":["cp","nocrits","nodmgspread","uncletopia"],"game_id":440,"stv_port":27026,"stv_name":"Uncletopia | San Francisco | 2 | All Maps | STV","players":null},{"server_id":19,"name":"Uncletopia | San Francisco | 3 | Stopwatch Beta","name_short":"sfo-3","host":"sfo-1.us.uncletopia.com","port":27035,"enabled":true,"region":"us-west","cc":"us","latitude":37.77397,"longitude":-122.4313,"reserved":0,"last_update":"0001-01-01T00:00:00Z","name_a2s":"Uncletopia | San Francisco | 3 | Stopwatch Beta","protocol":17,"map":"koth_lakeside_final","folder":"tf","game":"Team Fortress","app_id":440,"player_count":0,"max_players":24,"Bots":0,"server_type":"Dedicated","server_os":"Linux","password":true,"vac":true,"version":"7757534","steam_id":85568392924742824,"keywords":["cp","nocrits","nodmgspread","uncletopia"],"game_id":440,"stv_port":27036,"stv_name":"Uncletopia | San Francisco | 3 | Stopwatch Beta | STV","players":null},{"server_id":20,"name":"Uncletopia | San Francisco | 4 | Community","name_short":"sfo-4","host":"sfo-1.us.uncletopia.com","port":27045,"enabled":true,"region":"us-west","cc":"us","latitude":37.77397,"longitude":-122.4313,"reserved":0,"last_update":"0001-01-01T00:00:00Z","name_a2s":"Uncletopia | San Francisco | 4 | Community","protocol":17,"map":"cp_altitude","folder":"tf","game":"Team Fortress","app_id":440,"player_count":0,"max_players":24,"Bots":0,"server_type":"Dedicated","server_os":"Linux","password":true,"vac":true,"version":"7757534","steam_id":85568392924742826,"keywords":["cp","nocrits","nodmgspread","uncletopia"],"game_id":440,"stv_port":27046,"stv_name":"Uncletopia | San Francisco | 4 | Community | STV","players":null},{"server_id":141,"name":"Uncletopia | Sydney | 1 | All Maps","name_short":"syd-1","host":"syd-1.au.uncletopia.com","port":27015,"enabled":true,"region":"au","cc":"au","latitude":-33.865143,"longitude":151.2099,"reserved":0,"last_update":"0001-01-01T00:00:00Z","name_a2s":"Uncletopia | Sydney | 1 | All Maps","protocol":17,"map":"pl_frontier_final","folder":"tf","game":"Team Fortress","app_id":440,"player_count":0,"max_players":24,"Bots":0,"server_type":"Dedicated","server_os":"Linux","password":true,"vac":true,"version":"7757534","steam_id":85568392924470001,"keywords":["nocrits","nodmgspread","payload","uncletopia"],"game_id":440,"stv_port":27016,"stv_name":"Uncletopia | Sydney | 1 | All Maps | STV","players":null},{"server_id":123,"name":"Uncletopia | Sydney | 2 | All Maps","name_short":"syd-2","host":"syd-1.au.uncletopia.com","port":27025,"enabled":true,"region":"au","cc":"au","latitude":-33.865143,"longitude":151.2099,"reserved":0,"last_update":"0001-01-01T00:00:00Z","name_a2s":"Uncletopia | Sydney | 2 | All Maps","protocol":17,"map":"cp_process_final","folder":"tf","game":"Team Fortress","app_id":440,"player_count":0,"max_players":24,"Bots":0,"server_type":"Dedicated","server_os":"Linux","password":true,"vac":true,"version":"7757534","steam_id":85568392924470002,"keywords":["cp","nocrits","nodmgspread","uncletopia"],"game_id":440,"stv_port":27026,"stv_name":"Uncletopia | Sydney | 2 | All Maps | STV","players":null},{"server_id":395,"name":"Uncletopia | Sydney | 3 | All Maps","name_short":"syd-3","host":"syd-1.au.uncletopia.com","port":27035,"enabled":true,"region":"au","cc":"au","latitude":-33.865143,"longitude":151.2099,"reserved":0,"last_update":"0001-01-01T00:00:00Z","name_a2s":"Uncletopia | Sydney | 3 | All Maps","protocol":17,"map":"pl_barnblitz","folder":"tf","game":"Team Fortress","app_id":440,"player_count":11,"max_players":24,"Bots":0,"server_type":"Dedicated","server_os":"Linux","password":true,"vac":true,"version":"7757534","steam_id":85568392925194467,"keywords":["nocrits","nodmgspread","payload","uncletopia"],"game_id":440,"stv_port":27036,"stv_name":"Uncletopia | Sydney | 3 | All Maps | STV","players":[{"user_id":300,"name":"dora the explorer Û∞Å®  Û∞Çò","steam_id":76561199150844383,"connected_time":195000000000,"state":"active","ping":59},{"user_id":273,"name":"nobody888","steam_id":76561198076010290,"connected_time":3189000000000,"state":"active","ping":71},{"user_id":299,"name":"‚òÖLarimore‚òÖ","steam_id":76561198258279528,"connected_time":340000000000,"state":"active","ping":258},{"user_id":301,"name":"Reedy","steam_id":76561198155994395,"connected_time":65000000000,"state":"active","ping":63},{"user_id":295,"name":"OmegaJay","steam_id":76561198069070596,"connected_time":931000000000,"state":"active","ping":55},{"user_id":271,"name":"Scunt","steam_id":76561199262196710,"connected_time":3387000000000,"state":"active","ping":40},{"user_id":279,"name":"Pokelock","steam_id":76561198160389063,"connected_time":2320000000000,"state":"active","ping":111},{"user_id":278,"name":"Pew pew pew!","steam_id":76561198004120277,"connected_time":2511000000000,"state":"active","ping":43},{"user_id":292,"name":"authentic chef","steam_id":76561199244230794,"connected_time":1242000000000,"state":"active","ping":45},{"user_id":283,"name":"Frog Friend","steam_id":76561198054505772,"connected_time":2202000000000,"state":"active","ping":62},{"user_id":291,"name":"Traveller","steam_id":76561199161637215,"connected_time":1363000000000,"state":"active","ping":89}]},{"server_id":396,"name":"Uncletopia | Sydney | 4 | All Maps","name_short":"syd-4","host":"syd-1.au.uncletopia.com","port":27045,"enabled":true,"region":"au","cc":"au","latitude":-33.865143,"longitude":151.2099,"reserved":0,"last_update":"0001-01-01T00:00:00Z","name_a2s":"Uncletopia | Sydney | 4 | All Maps","protocol":17,"map":"cp_altitude","folder":"tf","game":"Team Fortress","app_id":440,"player_count":0,"max_players":24,"Bots":0,"server_type":"Dedicated","server_os":"Linux","password":true,"vac":true,"version":"7757534","steam_id":85568392925397958,"keywords":["cp","nocrits","nodmgspread","uncletopia"],"game_id":440,"stv_port":27046,"stv_name":"Uncletopia | Sydney | 4 | All Maps | STV","players":null},{"server_id":58,"name":"Uncletopia | Sydney | 5 | Stopwatch Beta","name_short":"syd-5","host":"syd-1.au.uncletopia.com","port":27055,"enabled":true,"region":"au","cc":"au","latitude":-33.865143,"longitude":151.2099,"reserved":0,"last_update":"0001-01-01T00:00:00Z","name_a2s":"Uncletopia | Sydney | 5 | Stopwatch Beta","protocol":17,"map":"workshop/koth_ashville_final.ugc2130459942","folder":"tf","game":"Team Fortress","app_id":440,"player_count":0,"max_players":24,"Bots":0,"server_type":"Dedicated","server_os":"Linux","password":true,"vac":true,"version":"7757534","steam_id":85568392925397959,"keywords":["cp","nocrits","nodmgspread","uncletopia"],"game_id":440,"stv_port":27056,"stv_name":"Uncletopia | Sydney | 5 | Stopwatch Beta | STV","players":null},{"server_id":59,"name":"Uncletopia | Sydney | 6 | Community","name_short":"syd-6","host":"syd-1.au.uncletopia.com","port":27065,"enabled":true,"region":"au","cc":"au","latitude":-33.865143,"longitude":151.2099,"reserved":0,"last_update":"0001-01-01T00:00:00Z","name_a2s":"Uncletopia | Sydney | 6 | Community","protocol":17,"map":"workshop/pl_badwater_pro_v12.ugc2142942074","folder":"tf","game":"Team Fortress","app_id":440,"player_count":0,"max_players":24,"Bots":0,"server_type":"Dedicated","server_os":"Linux","password":true,"vac":true,"version":"7757534","steam_id":85568392925397960,"keywords":["nocrits","nodmgspread","payload","uncletopia"],"game_id":440,"stv_port":27066,"stv_name":"Uncletopia | Sydney | 6 | Community | STV","players":null},{"server_id":49,"name":"Uncletopia | Warsaw | 1 | All Maps","name_short":"waw-1","host":"waw-1.pl.uncletopia.com","port":27015,"enabled":true,"region":"eu","cc":"pl","latitude":52.2297,"longitude":21.017532,"reserved":0,"last_update":"0001-01-01T00:00:00Z","name_a2s":"","protocol":0,"map":"","folder":"","game":"","app_id":0,"player_count":0,"max_players":0,"Bots":0,"server_type":"","server_os":"","password":false,"vac":false,"version":"","steam_id":0,"keywords":null,"game_id":0,"stv_port":0,"stv_name":"","players":null},{"server_id":50,"name":"Uncletopia | Warsaw | 2 | All Maps","name_short":"waw-2","host":"waw-1.pl.uncletopia.com","port":27025,"enabled":true,"region":"eu","cc":"pl","latitude":52.2297,"longitude":21.017532,"reserved":0,"last_update":"0001-01-01T00:00:00Z","name_a2s":"Uncletopia | Warsaw | 2 | All Maps","protocol":17,"map":"koth_viaduct","folder":"tf","game":"Team Fortress","app_id":440,"player_count":0,"max_players":24,"Bots":0,"server_type":"Dedicated","server_os":"Linux","password":true,"vac":true,"version":"7757534","steam_id":85568392925397851,"keywords":["cp","nocrits","nodmgspread","uncletopia"],"game_id":440,"stv_port":27026,"stv_name":"Uncletopia | Warsaw | 2 | All Maps | STV","players":null},{"server_id":51,"name":"Uncletopia | Warsaw | 3 | All Maps","name_short":"waw-3","host":"waw-1.pl.uncletopia.com","port":27035,"enabled":true,"region":"eu","cc":"pl","latitude":52.2297,"longitude":21.017532,"reserved":0,"last_update":"0001-01-01T00:00:00Z","name_a2s":"Uncletopia | Warsaw | 3 | All Maps","protocol":17,"map":"pl_badwater","folder":"tf","game":"Team Fortress","app_id":440,"player_count":0,"max_players":24,"Bots":0,"server_type":"Dedicated","server_os":"Linux","password":true,"vac":true,"version":"7757534","steam_id":85568392925397852,"keywords":["nocrits","nodmgspread","payload","uncletopia"],"game_id":440,"stv_port":27036,"stv_name":"Uncletopia | Warsaw | 3 | All Maps | STV","players":null},{"server_id":52,"name":"Uncletopia | Warsaw | 4 | All Maps","name_short":"waw-4","host":"waw-1.pl.uncletopia.com","port":27045,"enabled":true,"region":"eu","cc":"pl","latitude":52.2297,"longitude":21.017532,"reserved":0,"last_update":"0001-01-01T00:00:00Z","name_a2s":"Uncletopia | Warsaw | 4 | All Maps","protocol":17,"map":"koth_lakeside_final","folder":"tf","game":"Team Fortress","app_id":440,"player_count":0,"max_players":24,"Bots":0,"server_type":"Dedicated","server_os":"Linux","password":true,"vac":true,"version":"7757534","steam_id":85568392925397853,"keywords":["cp","nocrits","nodmgspread","uncletopia"],"game_id":440,"stv_port":27046,"stv_name":"Uncletopia | Warsaw | 4 | All Maps | STV","players":null},{"server_id":53,"name":"Uncletopia | Warsaw | 5 | Stopwatch Beta","name_short":"waw-5","host":"waw-1.pl.uncletopia.com","port":27055,"enabled":true,"region":"eu","cc":"pl","latitude":52.2297,"longitude":21.017532,"reserved":0,"last_update":"0001-01-01T00:00:00Z","name_a2s":"Uncletopia | Warsaw | 5 | Stopwatch Beta","protocol":17,"map":"pl_borneo","folder":"tf","game":"Team Fortress","app_id":440,"player_count":0,"max_players":24,"Bots":0,"server_type":"Dedicated","server_os":"Linux","password":true,"vac":true,"version":"7757534","steam_id":85568392925397854,"keywords":["nocrits","nodmgspread","payload","uncletopia"],"game_id":440,"stv_port":27056,"stv_name":"Uncletopia | Warsaw | 5 | Stopwatch Beta | STV","players":null},{"server_id":54,"name":"Uncletopia | Warsaw | 6 | Community","name_short":"waw-6","host":"waw-1.pl.uncletopia.com","port":27065,"enabled":true,"region":"eu","cc":"pl","latitude":52.2297,"longitude":21.017532,"reserved":0,"last_update":"0001-01-01T00:00:00Z","name_a2s":"Uncletopia | Warsaw | 6 | Community","protocol":17,"map":"koth_lakeside_final","folder":"tf","game":"Team Fortress","app_id":440,"player_count":0,"max_players":24,"Bots":0,"server_type":"Dedicated","server_os":"Linux","password":true,"vac":true,"version":"7757534","steam_id":85568392925397856,"keywords":["cp","nocrits","nodmgspread","uncletopia"],"game_id":440,"stv_port":27066,"stv_name":"Uncletopia | Warsaw | 6 | Community | STV","players":null}]}