{"status":true,"message":"","result":[{"server_id":9,"name":"Uncletopia | Atlanta | 1 | All Maps","name_short":"atl-1","host":"atl-1.us.uncletopia.com","port":27015,"enabled":true,"region":"us-east","cc":"us","latitude":33.753746,"longitude":-84.38633,"reserved":0,"last_update":"0001-01-01T00:00:00Z","name_a2s":"Uncletopia | Atlanta | 1 | All Maps","protocol":17,"map":"koth_harvest_final","folder":"tf","game":"Team Fortress","app_id":440,"player_count":24,"max_players":24,"Bots":0,"server_type":"Dedicated","server_os":"Linux","password":true,"vac":true,"version":"7961495","steam_id":85568392924469982,"keywords":["cp","nocrits","nodmgspread","uncletopia"],"game_id":440,"stv_port":27016,"stv_name":"Uncletopia | Atlanta | 1 | All Maps | STV","players":null},{"server_id":104,"name":"Uncletopia | Atlanta | 2 | All Maps","name_short":"atl-2","host":"atl-1.us.uncletopia.com","port":27025,"enabled":true,"region":"us-east","cc":"us","latitude":33.753746,"longitude":-84.38633,"reserved":0,"last_update":"0001-01-01T00:00:00Z","name_a2s":"Uncletopia | Atlanta | 2 | All Maps","protocol":17,"map":"cp_dustbowl","folder":"tf","game":"Team Fortress","app_id":440,"player_count":24,"max_players":24,"Bots":0,"server_type":"Dedicated","server_os":"Linux","password":true,"vac":true,"version":"7961495","steam_id":85568392924469983,"keywords":["cp","nocrits","nodmgspread","uncletopia"],"game_id":440,"stv_port":27026,"stv_name":"Uncletopia | Atlanta | 2 | All Maps | STV","players":null},{"server_id":400,"name":"Uncletopia | Atlanta | 3 | Stopwatch","name_short":"atl-3","host":"atl-1.us.uncletopia.com","port":27035,"enabled":true,"region":"us-east","cc":"us","latitude":33.753746,"longitude":-84.38633,"reserved":0,"last_update":"0001-01-01T00:00:00Z","name_a2s":"Uncletopia | Atlanta | 3 | Stopwatch","protocol":17,"map":"koth_clearcut_b15","folder":"tf","game":"Team Fortress","app_id":440,"player_count":6,"max_players":24,"Bots":0,"server_type":"Dedicated","server_os":"Linux","password":true,"vac":true,"version":"7961495","steam_id":85568392924515187,"keywords":["cp","nocrits","nodmgspread","uncletopia"],"game_id":440,"stv_port":27036,"stv_name":"Uncletopia | Atlanta | 3 | Stopwatch | STV","players":null},{"server_id":401,"name":"Uncletopia | Atlanta | 4 | Community","name_short":"atl-4","host":"atl-1.us.uncletopia.com","port":27045,"enabled":true,"region":"us-east","cc":"us","latitude":33.753746,"longitude":-84.38633,"reserved":0,"last_update":"0001-01-01T00:00:00Z","name_a2s":"Uncletopia | Atlanta | 4 | Community","protocol":17,"map":"koth_kemptown_rc1","folder":"tf","game":"Team Fortress","app_id":440,"player_count":0,"max_players":24,"Bots":0,"server_type":"Dedicated","server_os":"Linux","password":true,"vac":true,"version":"7961495","steam_id":85568392924515188,"keywords":["cp","nocrits","nodmgspread","uncletopia"],"game_id":440,"stv_port":27046,"stv_name":"Uncletopia | Atlanta | 4 | Community | STV","players":null},{"server_id":2,"name":"Uncletopia | Chicago | 1 | All Maps","name_short":"chi-1","host":"chi-1.us.uncletopia.com","port":27015,"enabled":true,"region":"us-central","cc":"us","latitude":41.881832,"longitude":-87.62318,"reserved":0,"last_update":"0001-01-01T00:00:00Z","name_a2s":"Uncletopia | Chicago | 1 | All Maps","protocol":17,"map":"pl_pier","folder":"tf","game":"Team Fortress","app_id":440,"player_count":24,"max_players":24,"Bots":0,"server_type":"Dedicated","server_os":"Linux","password":true,"vac":true,"version":"7961495","steam_id":85568392924469984,"keywords":["nocrits","nodmgspread","payload","uncletopia"],"game_id":440,"stv_port":27016,"stv_name":"Uncletopia | Chicago | 1 | All Maps | STV","players":[{"user_id":584,"name":"scaring the hoes","steam_id":76561198332519926,"connected_time":5094000000000,"state":"active","ping":84},{"user_id":632,"name":"TheOneZoot","steam_id":76561198121944243,"connected_time":655000000000,"state":"active","ping":75},{"user_id":618,"name":"Snom","steam_id":76561198333827920,"connected_time":2406000000000,"state":"active","ping":99},{"user_id":627,"name":"pinky","steam_id":76561199109784776,"connected_time":1085000000000,"state":"active","ping":54},{"user_id":601,"name":"fish  ‚óè","steam_id":76561198999217575,"connected_time":3895000000000,"state":"active","ping":69},{"user_id":635,"name":"songcreator","steam_id":76561198076822464,"connected_time":598000000000,"state":"active","ping":50},{"user_id":585,"name":"Minus 8","steam_id":76561198812090491,"connected_time":5091000000000,"state":"active","ping":169},{"user_id":614,"name":"MoneyGames87","steam_id":76561198181043841,"connected_time":3168000000000,"state":"active","ping":63},{"user_id":638,"name":"Prsm","steam_id":76561198053344995,"connected_time":113000000000,"state":"active","ping":54},{"user_id":633,"name":"manbearswineflu","steam_id":76561198083945137,"connected_time":630000000000,"state":"active","ping":58},{"user_id":634,"name":"QuakAtack","steam_id":76561198870770157,"connected_time":619000000000,"state":"active","ping":81},{"user_id":629,"name":"Undertime Slopper","steam_id":76561198396789061,"connected_time":1020000000000,"state":"active","ping":77},{"user_id":637,"name":"Jeiyo","steam_id":76561199070161957,"connected_time":539000000000,"state":"active","ping":82},{"user_id":602,"name":"Ojen","steam_id":76561197998414482,"connected_time":3880000000000,"state":"active","ping":68},{"user_id":623,"name":"froggie","steam_id":76561198367737362,"connected_time":1962000000000,"state":"active","ping":61},{"user_id":620,"name":"Halibard","steam_id":76561198011239659,"connected_time":2400000000000,"state":"active","ping":69},{"user_id":628,"name":"Spy Gaming","steam_id":76561198453295613,"connected_time":1085000000000,"state":"active","ping":120},{"user_id":639,"name":"Astoriae!","steam_id":76561199090168858,"connected_time":72000000000,"state":"active","ping":66},{"user_id":624,"name":"Suspicious Doggo","steam_id":76561198871853577,"connected_time":1385000000000,"state":"active","ping":99},{"user_id":636,"name":"DatPomeroyGuy","steam_id":76561198150591168,"connected_time":596000000000,"state":"active","ping":67},{"user_id":617,"name":"purpla","steam_id":76561198119549161,"connected_time":3087000000000,"state":"active","ping":79},{"user_id":596,"name":"Mug Moment Gaming","steam_id":76561198233098136,"connected_time":4606000000000,"state":"active","ping":55},{"user_id":598,"name":"emily","steam_id":76561198051872256,"connected_time":4528000000000,"state":"active","ping":65},{"user_id":626,"name":"King's Disease","steam_id":76561198076639682,"connected_time":1245000000000,"state":"active","ping":75}]},{"server_id":106,"name":"Uncletopia | Chicago | 2 | All Maps","name_short":"chi-2","host":"chi-1.us.uncletopia.com","port":27025,"enabled":true,"region":"us-central","cc":"us","latitude":41.881832,"longitude":-87.62318,"reserved":0,"last_update":"0001-01-01T00:00:00Z","name_a2s":"Uncletopia | Chicago | 2 | All Maps","protocol":17,"map":"cp_gorge","folder":"tf","game":"Team Fortress","app_id":440,"player_count":24,"max_players":24,"Bots":0,"server_type":"Dedicated","server_os":"Linux","password":true,"vac":true,"version":"7961495","steam_id":85568392924469985,"keywords":["cp","nocrits","nodmgspread","uncletopia"],"game_id":440,"stv_port":27026,"stv_name":"Uncletopia | Chicago | 2 | All Maps | STV","players":[{"user_id":578,"name":"¬øskitt1eS?","steam_id":76561198330093211,"connected_time":243000000000,"state":"active","ping":59},{"user_id":551,"name":"uzr","steam_id":76561198799343084,"connected_time":1157000000000,"state":"active","ping":106},{"user_id":583,"name":"Hertz","steam_id":76561198310927351,"connected_time":129000000000,"state":"active","ping":145},{"user_id":585,"name":"wait","steam_id":76561198127149121,"connected_time":46000000000,"state":"active","ping":84},{"user_id":563,"name":"nickname 123","steam_id":76561198080234033,"connected_time":298000000000,"state":"active","ping":57},{"user_id":552,"name":"macironi and chesse","steam_id":76561199098060805,"connected_time":1134000000000,"state":"active","ping":55},{"user_id":521,"name":"Aspxts","steam_id":76561199125254746,"connected_time":2640000000000,"state":"active","ping":57},{"user_id":545,"name":"Zigadox","steam_id":76561198079813479,"connected_time":1453000000000,"state":"active","ping":92},{"user_id":575,"name":"TheSnipersHat","steam_id":76561198057684066,"connected_time":287000000000,"state":"active","ping":72},{"user_id":529,"name":"VerrucktMedic","steam_id":76561198093144226,"connected_time":2354000000000,"state":"active","ping":82},{"user_id":557,"name":"Open Mailbox","steam_id":76561198051933580,"connected_time":906000000000,"state":"active","ping":91},{"user_id":576,"name":"bobbymcbobington","steam_id":76561199089411172,"connected_time":252000000000,"state":"active","ping":113},{"user_id":577,"name":"Engineer","steam_id":76561199138738952,"connected_time":248000000000,"state":"active","ping":78},{"user_id":513,"name":"Dr_Cecil","steam_id":76561198873862113,"connected_time":3190000000000,"state":"active","ping":100},{"user_id":584,"name":"pipebombrater","steam_id":76561199029030831,"connected_time":111000000000,"state":"active","ping":78},{"user_id":554,"name":"cozy","steam_id":76561199044037628,"connected_time":1112000000000,"state":"active","ping":87},{"user_id":547,"name":"blessingsgranted","steam_id":76561199078437838,"connected_time":1224000000000,"state":"active","ping":81},{"user_id":546,"name":"Six Piece Chicken McNobody","steam_id":76561198129848222,"connected_time":1339000000000,"state":"active","ping":67},{"user_id":525,"name":"3/4'' x 18'' industrial pipe","steam_id":76561198094042613,"connected_time":2581000000000,"state":"active","ping":71},{"user_id":579,"name":"Flashtasm","steam_id":76561198026635660,"connected_time":221000000000,"state":"active","ping":67},{"user_id":582,"name":"Slippin' Jimmy","steam_id":76561198324749126,"connected_time":196000000000,"state":"active","ping":76},{"user_id":581,"name":"Goose","steam_id":76561198245716618,"connected_time":203000000000,"state":"active","ping":88},{"user_id":548,"name":"thepokeyen","steam_id":76561198236847572,"connected_time":1210000000000,"state":"active","ping":67},{"user_id":559,"name":"—ÇU–≤","steam_id":76561199229726499,"connected_time":795000000000,"state":"active","ping":99}]},{"server_id":402,"name":"Uncletopia | Chicago | 3 | All Maps","name_short":"chi-3","host":"chi-1.us.uncletopia.com","port":27035,"enabled":true,"region":"us-central","cc":"us","latitude":41.881832,"longitude":-87.62318,"reserved":0,"last_update":"0001-01-01T00:00:00Z","name_a2s":"Uncletopia | Chicago | 3 | All Maps","protocol":17,"map":"plr_bananabay","folder":"tf","game":"Team Fortress","app_id":440,"player_count":24,"max_players":24,"Bots":0,"server_type":"Dedicated","server_os":"Linux","password":true,"vac":true,"version":"7961495","steam_id":85568392924515191,"keywords":["nocrits","nodmgspread","payload","uncletopia"],"game_id":440,"stv_port":27036,"stv_name":"Uncletopia | Chicago | 3 | All Maps | STV","players":[{"user_id":266,"name":"CREE","steam_id":76561198392539722,"connected_time":2498000000000,"state":"active","ping":80},{"user_id":260,"name":"freyjaaaaaaaaaaaaaaaaaaaaaa","steam_id":76561198249206656,"connected_time":2875000000000,"state":"active","ping":59},{"user_id":302,"name":"Jesse","steam_id":76561198157305426,"connected_time":907000000000,"state":"active","ping":60},{"user_id":280,"name":"Flower Goat","steam_id":76561198096572920,"connected_time":1741000000000,"state":"active","ping":70},{"user_id":310,"name":"JetZ","steam_id":76561199122488957,"connected_time":182000000000,"state":"active","ping":61},{"user_id":274,"name":"thecal","steam_id":76561198307893384,"connected_time":1894000000000,"state":"active","ping":51},{"user_id":307,"name":"banana bay enthusiast","steam_id":76561198124791670,"connected_time":786000000000,"state":"active","ping":53},{"user_id":312,"name":"eryn üó∫","steam_id":76561198004433070,"connected_time":157000000000,"state":"active","ping":74},{"user_id":269,"name":"Wiggee","steam_id":76561197972792989,"connected_time":2294000000000,"state":"active","ping":70},{"user_id":309,"name":"vegicide","steam_id":76561198239286750,"connected_time":468000000000,"state":"active","ping":61},{"user_id":308,"name":"Sentry Gun Main Man","steam_id":76561198327938247,"connected_time":492000000000,"state":"active","ping":85},{"user_id":278,"name":"Kiradias777","steam_id":76561198067176309,"connected_time":1769000000000,"state":"active","ping":57},{"user_id":313,"name":"Phos","steam_id":76561198122339506,"connected_time":121000000000,"state":"active","ping":75},{"user_id":305,"name":"Dick Grimes","steam_id":76561198157414556,"connected_time":836000000000,"state":"active","ping":86},{"user_id":314,"name":"The Legendary Dappergrade","steam_id":76561198004238822,"connected_time":114000000000,"state":"active","ping":58},{"user_id":293,"name":"I KABOOM 4 MILFS","steam_id":76561198057076267,"connected_time":1519000000000,"state":"active","ping":78},{"user_id":315,"name":"majorbobfunction","steam_id":76561198042464632,"connected_time":106000000000,"state":"active","ping":43},{"user_id":285,"name":"Meerkat","steam_id":76561199245435539,"connected_time":1644000000000,"state":"active","ping":96},{"user_id":286,"name":"Frito","steam_id":76561199230930921,"connected_time":1633000000000,"state":"active","ping":75},{"user_id":316,"name":"turnip","steam_id":76561197999375941,"connected_time":101000000000,"state":"active","ping":78},{"user_id":317,"name":"/\\/Mr. Phoenix/\\/","steam_id":76561198258944941,"connected_time":78000000000,"state":"active","ping":76},{"user_id":304,"name":"Walt","steam_id":76561198964107245,"connected_time":876000000000,"state":"active","ping":101},{"user_id":290,"name":"AMistake","steam_id":76561199379196708,"connected_time":1593000000000,"state":"active","ping":59},{"user_id":292,"name":"Allah-lover","steam_id":76561198076768673,"connected_time":1585000000000,"state":"active","ping":58}]},{"server_id":403,"name":"Uncletopia | Chicago | 4 | All Maps","name_short":"chi-4","host":"chi-1.us.uncletopia.com","port":27045,"enabled":true,"region":"us-central","cc":"us","latitude":41.881832,"longitude":-87.62318,"reserved":0,"last_update":"0001-01-01T00:00:00Z","name_a2s":"Uncletopia | Chicago | 4 | All Maps","protocol":17,"map":"pl_barnblitz","folder":"tf","game":"Team Fortress","app_id":440,"player_count":25,"max_players":24,"Bots":0,"server_type":"Dedicated","server_os":"Linux","password":true,"vac":true,"version":"7961495","steam_id":85568392924515193,"keywords":["nocrits","nodmgspread","payload","uncletopia"],"game_id":440,"stv_port":27046,"stv_name":"Uncletopia | Chicago | 4 | All Maps | STV","players":[{"user_id":496,"name":"Thrackzog","steam_id":76561198183203745,"connected_time":2067000000000,"state":"active","ping":56},{"user_id":511,"name":"K_ylo","steam_id":76561198401421253,"connected_time":206000000000,"state":"active","ping":84},{"user_id":486,"name":"Shwal","steam_id":76561198138840448,"connected_time":2990000000000,"state":"active","ping":76},{"user_id":478,"name":"liquid bread","steam_id":76561198012441419,"connected_time":3497000000000,"state":"active","ping":61},{"user_id":508,"name":"GreekGoat_Coffee","steam_id":76561198129331088,"connected_time":760000000000,"state":"active","ping":46},{"user_id":488,"name":"Vruk","steam_id":76561198116930332,"connected_time":2978000000000,"state":"active","ping":91},{"user_id":489,"name":"Bobby Ray","steam_id":76561198044131188,"connected_time":2978000000000,"state":"active","ping":75},{"user_id":468,"name":"Hello World","steam_id":76561199093925982,"connected_time":4428000000000,"state":"active","ping":95},{"user_id":449,"name":"Nodspine","steam_id":76561198253579994,"connected_time":5919000000000,"state":"active","ping":125},{"user_id":492,"name":"Javaris Jamar Javarison-Lamar","steam_id":76561197974907012,"connected_time":2637000000000,"state":"active","ping":75},{"user_id":497,"name":"Elbow Joint","steam_id":76561198072149974,"connected_time":1818000000000,"state":"active","ping":83},{"user_id":512,"name":"cdn :3","steam_id":76561198862735659,"connected_time":82000000000,"state":"active","ping":63},{"user_id":505,"name":"twix","steam_id":76561198040912048,"connected_time":1195000000000,"state":"active","ping":49},{"user_id":498,"name":"soof","steam_id":76561198043762955,"connected_time":1556000000000,"state":"active","ping":61},{"user_id":503,"name":"Kimba","steam_id":76561199092078325,"connected_time":1218000000000,"state":"active","ping":87},{"user_id":491,"name":"crulorys","steam_id":76561198070794764,"connected_time":2952000000000,"state":"active","ping":104},{"user_id":493,"name":"Menthol Cop","steam_id":76561198179817985,"connected_time":2484000000000,"state":"active","ping":82},{"user_id":504,"name":"EpicNGamerz","steam_id":76561198304292582,"connected_time":1216000000000,"state":"active","ping":116},{"user_id":507,"name":"Osteo-Oligarch","steam_id":76561198164731896,"connected_time":931000000000,"state":"active","ping":75},{"user_id":426,"name":"chesterwnimitz","steam_id":76561198062664377,"connected_time":7190000000000,"state":"active","ping":81},{"user_id":481,"name":"medic enthusiast","steam_id":76561198323031964,"connected_time":3232000000000,"state":"active","ping":75},{"user_id":509,"name":"Pyromanixc","steam_id":76561197994829596,"connected_time":663000000000,"state":"active","ping":73},{"user_id":450,"name":"Epicmullen","steam_id":76561198259850795,"connected_time":5829000000000,"state":"active","ping":91},{"user_id":454,"name":"Gobl1n","steam_id":76561198808610991,"connected_time":5620000000000,"state":"active","ping":79},{"user_id":516,"name":"girlbosspriella","steam_id":76561199025846154,"connected_time":4000000000,"state":"spawning","ping":203}]},{"server_id":36,"name":"Uncletopia | Chicago | 5 | All Maps","name_short":"chi-5","host":"chi-2.us.uncletopia.com","port":27015,"enabled":true,"region":"us-central","cc":"us","latitude":41.881832,"longitude":-87.62318,"reserved":0,"last_update":"0001-01-01T00:00:00Z","name_a2s":"Uncletopia | Chicago | 5 | All Maps","protocol":17,"map":"pl_borneo","folder":"tf","game":"Team Fortress","app_id":440,"player_count":24,"max_players":24,"Bots":0,"server_type":"Dedicated","server_os":"Linux","password":true,"vac":true,"version":"7961495","steam_id":85568392924866362,"keywords":["nocrits","nodmgspread","payload","uncletopia"],"game_id":440,"stv_port":27016,"stv_name":"Uncletopia | Chicago | 5 | All Maps | STV","players":[{"user_id":397,"name":"Tockbird","steam_id":76561199437964594,"connected_time":1842000000000,"state":"active","ping":113},{"user_id":408,"name":"lukamine","steam_id":76561198166827208,"connected_time":1314000000000,"state":"active","ping":99},{"user_id":413,"name":"FOOL","steam_id":76561198370866973,"connected_time":993000000000,"state":"active","ping":117},{"user_id":401,"name":"iluvtopoo","steam_id":76561198843522498,"connected_time":1649000000000,"state":"active","ping":105},{"user_id":400,"name":"Pal","steam_id":76561198079657093,"connected_time":1655000000000,"state":"active","ping":65},{"user_id":423,"name":"I am the pinnacle of funny","steam_id":76561198306393090,"connected_time":123000000000,"state":"active","ping":47},{"user_id":414,"name":"FatSweatyBlackMan","steam_id":76561199020244051,"connected_time":945000000000,"state":"active","ping":100},{"user_id":419,"name":"Diesel","steam_id":76561198369469019,"connected_time":866000000000,"state":"active","ping":117},{"user_id":406,"name":"-W3E- grim10465","steam_id":76561198045698581,"connected_time":1511000000000,"state":"active","ping":48},{"user_id":424,"name":"Jaguar lft/ring","steam_id":76561197971152439,"connected_time":121000000000,"state":"active","ping":62},{"user_id":417,"name":"muck","steam_id":76561198120437909,"connected_time":925000000000,"state":"active","ping":61},{"user_id":405,"name":"T1K","steam_id":76561198305576116,"connected_time":1566000000000,"state":"active","ping":227},{"user_id":389,"name":"Puke Skyfucker","steam_id":76561198012846213,"connected_time":2499000000000,"state":"active","ping":75},{"user_id":410,"name":"Spoogler","steam_id":76561199005867778,"connected_time":1244000000000,"state":"active","ping":70},{"user_id":422,"name":"jolo","steam_id":76561198042831480,"connected_time":519000000000,"state":"active","ping":72},{"user_id":391,"name":"OverPowered64","steam_id":76561198291027287,"connected_time":2437000000000,"state":"active","ping":79},{"user_id":304,"name":"Evie","steam_id":76561198004001828,"connected_time":7376000000000,"state":"active","ping":54},{"user_id":407,"name":"BrickDiggity","steam_id":76561198297548684,"connected_time":1509000000000,"state":"active","ping":92},{"user_id":305,"name":"Poorly Drawn Bees","steam_id":76561197996763330,"connected_time":7369000000000,"state":"active","ping":89},{"user_id":384,"name":"ƒ†1 ‚ô¶ Synth","steam_id":76561198058660228,"connected_time":2674000000000,"state":"active","ping":59},{"user_id":420,"name":"Tibalt Nyahuma","steam_id":76561198034779431,"connected_time":810000000000,"state":"active","ping":75},{"user_id":411,"name":"harrison.avenue","steam_id":76561198037288988,"connected_time":1190000000000,"state":"active","ping":91},{"user_id":421,"name":"Drapph","steam_id":76561199384213314,"connected_time":544000000000,"state":"active","ping":69},{"user_id":345,"name":"Breach","steam_id":76561198045060392,"connected_time":5335000000000,"state":"active","ping":46}]},{"server_id":37,"name":"Uncletopia | Chicago | 6 | All Maps","name_short":"chi-6","host":"chi-2.us.uncletopia.com","port":27025,"enabled":true,"region":"us-central","cc":"us","latitude":41.881832,"longitude":-87.62318,"reserved":0,"last_update":"0001-01-01T00:00:00Z","name_a2s":"Uncletopia | Chicago | 6 | All Maps","protocol":17,"map":"pl_upward","folder":"tf","game":"Team Fortress","app_id":440,"player_count":24,"max_players":24,"Bots":0,"server_type":"Dedicated","server_os":"Linux","password":true,"vac":true,"version":"7961495","steam_id":85568392924866363,"keywords":["nocrits","nodmgspread","payload","uncletopia"],"game_id":440,"stv_port":27026,"stv_name":"Uncletopia | Chicago | 6 | All Maps | STV","players":[{"user_id":216,"name":"brawndo luvr","steam_id":76561198202436474,"connected_time":432000000000,"state":"active","ping":61},{"user_id":82,"name":"Jasper‚Ñ¢","steam_id":76561198260018463,"connected_time":5427000000000,"state":"active","ping":74},{"user_id":193,"name":"Q47","steam_id":76561198087128341,"connected_time":904000000000,"state":"active","ping":149},{"user_id":90,"name":"Danmar33","steam_id":76561198056453091,"connected_time":5146000000000,"state":"active","ping":59},{"user_id":153,"name":"Nightman","steam_id":76561198089513762,"connected_time":2484000000000,"state":"active","ping":87},{"user_id":102,"name":"Adam (Cursed Confetti Creature)","steam_id":76561198317690197,"connected_time":4990000000000,"state":"active","ping":40},{"user_id":211,"name":"Uncle Majic the Hip Hop Magicia","steam_id":76561198107924303,"connected_time":709000000000,"state":"active","ping":58},{"user_id":168,"name":"flange nut","steam_id":76561198207881077,"connected_time":2060000000000,"state":"active","ping":84},{"user_id":184,"name":"Madeline","steam_id":76561198002123006,"connected_time":1727000000000,"state":"active","ping":81},{"user_id":98,"name":"Induce Salt","steam_id":76561198116645978,"connected_time":5038000000000,"state":"active","ping":58},{"user_id":212,"name":"Spicy Chicken","steam_id":76561198074209737,"connected_time":678000000000,"state":"active","ping":64},{"user_id":192,"name":"xFactr","steam_id":76561198129007422,"connected_time":911000000000,"state":"active","ping":58},{"user_id":126,"name":"Hemiphix","steam_id":76561198329316429,"connected_time":3486000000000,"state":"active","ping":72},{"user_id":185,"name":"guy","steam_id":76561198079925551,"connected_time":1718000000000,"state":"active","ping":75},{"user_id":194,"name":"ÈáåËäã - Tarooo","steam_id":76561198392986348,"connected_time":902000000000,"state":"active","ping":91},{"user_id":219,"name":"BigNugs","steam_id":76561198056402610,"connected_time":157000000000,"state":"active","ping":71},{"user_id":214,"name":"Sanuary","steam_id":76561198075597588,"connected_time":573000000000,"state":"active","ping":60},{"user_id":196,"name":"LordOfTheNoobs","steam_id":76561197962697523,"connected_time":893000000000,"state":"active","ping":65},{"user_id":199,"name":"Definitely J.P. Morgan","steam_id":76561199122376235,"connected_time":873000000000,"state":"active","ping":67},{"user_id":200,"name":"boe jiden","steam_id":76561198041048289,"connected_time":869000000000,"state":"active","ping":70},{"user_id":201,"name":"flwrgrl","steam_id":76561198815644949,"connected_time":856000000000,"state":"active","ping":61},{"user_id":43,"name":"menonamed","steam_id":76561198199564382,"connected_time":7932000000000,"state":"active","ping":70},{"user_id":218,"name":"Der Krieger105","steam_id":76561197978384609,"connected_time":348000000000,"state":"active","ping":88},{"user_id":213,"name":"DroidFreak36","steam_id":76561198028681032,"connected_time":622000000000,"state":"active","ping":63}]},{"server_id":38,"name":"Uncletopia | Chicago | 7 | Stopwatch","name_short":"chi-7","host":"chi-2.us.uncletopia.com","port":27035,"enabled":true,"region":"us-central","cc":"us","latitude":41.881832,"longitude":-87.62318,"reserved":0,"last_update":"0001-01-01T00:00:00Z","name_a2s":"Uncletopia | Chicago | 7 | Stopwatch","protocol":17,"map":"cp_process_final","folder":"tf","game":"Team Fortress","app_id":440,"player_count":19,"max_players":24,"Bots":0,"server_type":"Dedicated","server_os":"Linux","password":true,"vac":true,"version":"7961495","steam_id":85568392924866364,"keywords":["cp","nocrits","nodmgspread","uncletopia"],"game_id":440,"stv_port":27036,"stv_name":"Uncletopia | Chicago | 7 | Stopwatch | STV","players":[{"user_id":644,"name":"Chris Hansen, Kell of Kells","steam_id":76561198986775156,"connected_time":612000000000,"state":"active","ping":88},{"user_id":596,"name":"BiggTerpBoiNugg","steam_id":76561198133741491,"connected_time":2302000000000,"state":"active","ping":83},{"user_id":652,"name":"NateDawg","steam_id":76561198085336835,"connected_time":66000000000,"state":"active","ping":96},{"user_id":653,"name":"Stalfos","steam_id":76561198126719745,"connected_time":50000000000,"state":"active","ping":84},{"user_id":597,"name":"Amazingamerhawk","steam_id":76561199064935924,"connected_time":2283000000000,"state":"active","ping":70},{"user_id":640,"name":"cornshot","steam_id":76561198043496387,"connected_time":702000000000,"state":"active","ping":108},{"user_id":630,"name":"MAY CHAOS TAKE THE WORLD","steam_id":76561198180484659,"connected_time":1282000000000,"state":"active","ping":73},{"user_id":641,"name":"totoro","steam_id":76561198210420871,"connected_time":695000000000,"state":"active","ping":45},{"user_id":614,"name":"trentLMAO","steam_id":76561198124674779,"connected_time":2002000000000,"state":"active","ping":77},{"user_id":626,"name":"ZBaldTop","steam_id":76561199396318132,"connected_time":1646000000000,"state":"active","ping":52},{"user_id":458,"name":"uhhh","steam_id":76561198894548454,"connected_time":10661000000000,"state":"active","ping":58},{"user_id":606,"name":"drwwby","steam_id":76561198067741339,"connected_time":2078000000000,"state":"active","ping":46},{"user_id":587,"name":"James","steam_id":76561198081313916,"connected_time":2607000000000,"state":"active","ping":71},{"user_id":643,"name":"‚òπ","steam_id":76561198804763186,"connected_time":674000000000,"state":"active","ping":63},{"user_id":645,"name":"moe","steam_id":76561198929586245,"connected_time":560000000000,"state":"active","ping":103},{"user_id":627,"name":"2L84U","steam_id":76561198079176017,"connected_time":1437000000000,"state":"active","ping":91},{"user_id":646,"name":"npc energy","steam_id":76561198035342207,"connected_time":527000000000,"state":"active","ping":43},{"user_id":647,"name":"Henry Pissinger","steam_id":76561198021757341,"connected_time":524000000000,"state":"active","ping":65},{"user_id":650,"name":"Raincloud802","steam_id":76561198150280896,"connected_time":436000000000,"state":"active","ping":65}]},{"server_id":39,"name":"Uncletopia | Chicago | 8 | Community","name_short":"chi-8","host":"chi-2.us.uncletopia.com","port":27045,"enabled":true,"region":"us-central","cc":"us","latitude":41.881832,"longitude":-87.62318,"reserved":0,"last_update":"0001-01-01T00:00:00Z","name_a2s":"Uncletopia | Chicago | 8 | Community","protocol":17,"map":"workshop/pl_shoreleave_rc2.ugc1238849347","folder":"tf","game":"Team Fortress","app_id":440,"player_count":23,"max_players":24,"Bots":0,"server_type":"Dedicated","server_os":"Linux","password":true,"vac":true,"version":"7961495","steam_id":85568392924866365,"keywords":["nocrits","nodmgspread","payload","uncletopia"],"game_id":440,"stv_port":27046,"stv_name":"Uncletopia | Chicago | 8 | Community | STV","players":[{"user_id":119,"name":"[„èà] Britsilov","steam_id":76561199170203468,"connected_time":3707000000000,"state":"active","ping":74},{"user_id":164,"name":"this stupid thing","steam_id":76561199197497757,"connected_time":1173000000000,"state":"active","ping":60},{"user_id":155,"name":"henry","steam_id":76561198313364985,"connected_time":1342000000000,"state":"active","ping":79},{"user_id":172,"name":"Uncle Done","steam_id":76561198218558897,"connected_time":838000000000,"state":"active","ping":155},{"user_id":168,"name":"TheGrassMan (He/Him)","steam_id":76561198118984048,"connected_time":960000000000,"state":"active","ping":57},{"user_id":170,"name":"t.tv/FamilyGuyFunnyMoments277","steam_id":76561198416047580,"connected_time":908000000000,"state":"active","ping":61},{"user_id":173,"name":"green bean","steam_id":76561198113099204,"connected_time":754000000000,"state":"active","ping":90},{"user_id":165,"name":"kicks","steam_id":76561199228854923,"connected_time":1123000000000,"state":"active","ping":68},{"user_id":175,"name":"Eoka Gaming","steam_id":76561198315596929,"connected_time":708000000000,"state":"active","ping":47},{"user_id":144,"name":"Pandamonium","steam_id":76561198057725524,"connected_time":1877000000000,"state":"active","ping":151},{"user_id":181,"name":"Erumbitarbo","steam_id":76561198204568491,"connected_time":118000000000,"state":"active","ping":75},{"user_id":152,"name":"Nammu","steam_id":76561198067778161,"connected_time":1517000000000,"state":"active","ping":64},{"user_id":176,"name":"Kick Down Door 6:00AM TUCK‚òÉRO","steam_id":76561197976146738,"connected_time":683000000000,"state":"active","ping":86},{"user_id":146,"name":"Yeoman","steam_id":76561198049472346,"connected_time":1811000000000,"state":"active","ping":93},{"user_id":126,"name":"SuperEnderGuy","steam_id":76561198352732164,"connected_time":3225000000000,"state":"active","ping":110},{"user_id":130,"name":"I keep it halal bro","steam_id":76561198076163949,"connected_time":2965000000000,"state":"active","ping":62},{"user_id":147,"name":"Cheese","steam_id":76561198100810604,"connected_time":1794000000000,"state":"active","ping":117},{"user_id":178,"name":"zaku","steam_id":76561199227854899,"connected_time":654000000000,"state":"active","ping":88},{"user_id":161,"name":"shadow wizard money gang","steam_id":76561198348717996,"connected_time":1280000000000,"state":"active","ping":82},{"user_id":179,"name":"prototype money","steam_id":76561198116767286,"connected_time":654000000000,"state":"active","ping":51},{"user_id":163,"name":"Bluray","steam_id":76561198200410486,"connected_time":1263000000000,"state":"active","ping":51},{"user_id":153,"name":"Minus-Abinus","steam_id":76561199080630632,"connected_time":1506000000000,"state":"active","ping":98},{"user_id":180,"name":"Horizon","steam_id":76561198088957930,"connected_time":654000000000,"state":"active","ping":62}]},{"server_id":8,"name":"Uncletopia | Dallas | 1 | All Maps","name_short":"dal-1","host":"dal-1.us.uncletopia.com","port":27015,"enabled":true,"region":"us-central","cc":"us","latitude":32.779167,"longitude":-96.80889,"reserved":0,"last_update":"0001-01-01T00:00:00Z","name_a2s":"Uncletopia | Dallas | 1 | All Maps","protocol":17,"map":"pl_upward","folder":"tf","game":"Team Fortress","app_id":440,"player_count":24,"max_players":24,"Bots":0,"server_type":"Dedicated","server_os":"Linux","password":true,"vac":true,"version":"7961495","steam_id":85568392924469986,"keywords":["nocrits","nodmgspread","payload","uncletopia"],"game_id":440,"stv_port":27016,"stv_name":"Uncletopia | Dallas | 1 | All Maps | STV","players":[{"user_id":744,"name":"Kaiju","steam_id":76561198035703156,"connected_time":3591000000000,"state":"active","ping":48},{"user_id":773,"name":"A Fruit","steam_id":76561198951830050,"connected_time":1018000000000,"state":"active","ping":45},{"user_id":780,"name":"MRFLIPFLOPPY","steam_id":76561198268942128,"connected_time":591000000000,"state":"active","ping":114},{"user_id":770,"name":"PTR","steam_id":76561198237253772,"connected_time":1110000000000,"state":"active","ping":48},{"user_id":652,"name":"THRONGLER","steam_id":76561198198563466,"connected_time":11716000000000,"state":"active","ping":39},{"user_id":775,"name":"BaconWizard4","steam_id":76561198384591745,"connected_time":1006000000000,"state":"active","ping":86},{"user_id":824,"name":"Siev","steam_id":76561198000518937,"connected_time":167000000000,"state":"active","ping":67},{"user_id":741,"name":"Ballista","steam_id":76561197983182562,"connected_time":4093000000000,"state":"active","ping":60},{"user_id":749,"name":"radicalPolio","steam_id":76561197961561855,"connected_time":2555000000000,"state":"active","ping":46},{"user_id":753,"name":"Pasta","steam_id":76561198358320222,"connected_time":2513000000000,"state":"active","ping":91},{"user_id":778,"name":"Jamie","steam_id":76561198058840477,"connected_time":685000000000,"state":"active","ping":121},{"user_id":760,"name":"Kiso ÁÅ´","steam_id":76561198141026844,"connected_time":2120000000000,"state":"active","ping":121},{"user_id":731,"name":"barker bill","steam_id":76561198018451994,"connected_time":4924000000000,"state":"active","ping":62},{"user_id":725,"name":"CeLeb144","steam_id":76561199089907740,"connected_time":5629000000000,"state":"active","ping":82},{"user_id":748,"name":"Thanks!","steam_id":76561198025198791,"connected_time":2558000000000,"state":"active","ping":44},{"user_id":761,"name":"shalankawanak","steam_id":76561198987719376,"connected_time":2115000000000,"state":"active","ping":76},{"user_id":764,"name":"Mally","steam_id":76561198025013765,"connected_time":1515000000000,"state":"active","ping":92},{"user_id":677,"name":"gyat","steam_id":76561198043684960,"connected_time":9727000000000,"state":"active","ping":45},{"user_id":732,"name":"Gigacheat","steam_id":76561198862843572,"connected_time":4447000000000,"state":"active","ping":89},{"user_id":745,"name":"penzfan","steam_id":76561198230422640,"connected_time":3447000000000,"state":"active","ping":67},{"user_id":767,"name":"Rearranging furniture","steam_id":76561199054971009,"connected_time":1447000000000,"state":"active","ping":50},{"user_id":765,"name":"firefly","steam_id":76561198151308698,"connected_time":1510000000000,"state":"active","ping":50},{"user_id":650,"name":"OwningTundra2","steam_id":76561198936893224,"connected_time":11733000000000,"state":"active","ping":62},{"user_id":752,"name":"lfty","steam_id":76561198283841707,"connected_time":2541000000000,"state":"active","ping":95}]},{"server_id":108,"name":"Uncletopia | Dallas | 2 | All Maps","name_short":"dal-2","host":"dal-1.us.uncletopia.com","port":27025,"enabled":true,"region":"us-central","cc":"us","latitude":32.779167,"longitude":-96.80889,"reserved":0,"last_update":"0001-01-01T00:00:00Z","name_a2s":"Uncletopia | Dallas | 2 | All Maps","protocol":17,"map":"pl_borneo","folder":"tf","game":"Team Fortress","app_id":440,"player_count":20,"max_players":24,"Bots":0,"server_type":"Dedicated","server_os":"Linux","password":true,"vac":true,"version":"7961495","steam_id":85568392924469988,"keywords":["nocrits","nodmgspread","payload","uncletopia"],"game_id":440,"stv_port":27026,"stv_name":"Uncletopia | Dallas | 2 | All Maps | STV","players":[{"user_id":282,"name":"GLG.Liz","steam_id":76561198021957956,"connected_time":3405000000000,"state":"active","ping":38},{"user_id":325,"name":"Major Woody","steam_id":76561198835541533,"connected_time":1185000000000,"state":"active","ping":59},{"user_id":323,"name":"TheAilingSword","steam_id":76561198250350844,"connected_time":1377000000000,"state":"active","ping":50},{"user_id":334,"name":"minecraft","steam_id":76561198104345201,"connected_time":627000000000,"state":"active","ping":63},{"user_id":338,"name":"chaffy","steam_id":76561198021754567,"connected_time":390000000000,"state":"active","ping":59},{"user_id":341,"name":"Necronoxide","steam_id":76561197997856321,"connected_time":37000000000,"state":"active","ping":88},{"user_id":340,"name":"engiqueer69","steam_id":76561199153261850,"connected_time":153000000000,"state":"active","ping":104},{"user_id":318,"name":"skegeton","steam_id":76561198095581099,"connected_time":1635000000000,"state":"active","ping":59},{"user_id":339,"name":"your local forecast","steam_id":76561198042243083,"connected_time":354000000000,"state":"active","ping":74},{"user_id":269,"name":"i love men","steam_id":76561199026721822,"connected_time":5046000000000,"state":"active","ping":90},{"user_id":303,"name":"Searot","steam_id":76561198070800170,"connected_time":2471000000000,"state":"active","ping":58},{"user_id":304,"name":"Chubbles","steam_id":76561198237619472,"connected_time":2434000000000,"state":"active","ping":94},{"user_id":331,"name":"Rue","steam_id":76561198013135993,"connected_time":838000000000,"state":"active","ping":74},{"user_id":287,"name":"AudaCD","steam_id":76561198202775853,"connected_time":3152000000000,"state":"active","ping":57},{"user_id":299,"name":"Hitori Gotou","steam_id":76561199067734053,"connected_time":2595000000000,"state":"active","ping":91},{"user_id":319,"name":"CDRW Enjoyer","steam_id":76561198119393205,"connected_time":1573000000000,"state":"active","ping":51},{"user_id":326,"name":"rice white","steam_id":76561198320732910,"connected_time":1156000000000,"state":"active","ping":90},{"user_id":281,"name":"Manic","steam_id":76561198128149670,"connected_time":3489000000000,"state":"active","ping":42},{"user_id":296,"name":"yes daddy","steam_id":76561198166100997,"connected_time":2856000000000,"state":"active","ping":71},{"user_id":337,"name":"silly jester","steam_id":76561198079609974,"connected_time":526000000000,"state":"active","ping":86}]},{"server_id":404,"name":"Uncletopia | Dallas | 3 | All Maps","name_short":"dal-3","host":"dal-1.us.uncletopia.com","port":27035,"enabled":true,"region":"us-central","cc":"us","latitude":32.779167,"longitude":-96.80889,"reserved":0,"last_update":"0001-01-01T00:00:00Z","name_a2s":"Uncletopia | Dallas | 3 | All Maps","protocol":17,"map":"cp_sunshine","folder":"tf","game":"Team Fortress","app_id":440,"player_count":24,"max_players":24,"Bots":0,"server_type":"Dedicated","server_os":"Linux","password":true,"vac":true,"version":"7961495","steam_id":85568392924515219,"keywords":["cp","nocrits","nodmgspread","uncletopia"],"game_id":440,"stv_port":27036,"stv_name":"Uncletopia | Dallas | 3 | All Maps | STV","players":[{"user_id":481,"name":"Science Pants","steam_id":76561198050013796,"connected_time":1672000000000,"state":"active","ping":99},{"user_id":482,"name":"Requx","steam_id":76561198068566461,"connected_time":1449000000000,"state":"active","ping":77},{"user_id":512,"name":"two-bit Thief","steam_id":76561199202681534,"connected_time":398000000000,"state":"active","ping":85},{"user_id":511,"name":"Bush.exe","steam_id":76561198124385307,"connected_time":537000000000,"state":"active","ping":89},{"user_id":486,"name":"Kneft","steam_id":76561199027993248,"connected_time":1151000000000,"state":"active","ping":59},{"user_id":487,"name":"lucks","steam_id":76561198362253931,"connected_time":1147000000000,"state":"active","ping":55},{"user_id":489,"name":"Snow","steam_id":76561198151556270,"connected_time":1047000000000,"state":"active","ping":74},{"user_id":490,"name":"TheeDopeGamer","steam_id":76561198086907573,"connected_time":1031000000000,"state":"active","ping":45},{"user_id":494,"name":"Thotman","steam_id":76561198173576435,"connected_time":936000000000,"state":"active","ping":79},{"user_id":499,"name":"Human Unit Never Killed","steam_id":76561198086608978,"connected_time":799000000000,"state":"active","ping":93},{"user_id":510,"name":"Noob of Noobs","steam_id":76561198195791766,"connected_time":577000000000,"state":"active","ping":116},{"user_id":496,"name":"Mr.HumanSoup","steam_id":76561198799202879,"connected_time":879000000000,"state":"active","ping":93},{"user_id":497,"name":"joe mama","steam_id":76561198083561382,"connected_time":825000000000,"state":"active","ping":90},{"user_id":498,"name":"KennytheHedgehog","steam_id":76561198094607721,"connected_time":820000000000,"state":"active","ping":59},{"user_id":507,"name":"HoneyOTU","steam_id":76561198200366607,"connected_time":719000000000,"state":"active","ping":106},{"user_id":501,"name":"Legit_Jaxer","steam_id":76561198172234053,"connected_time":783000000000,"state":"active","ping":113},{"user_id":502,"name":"Two","steam_id":76561198207078715,"connected_time":753000000000,"state":"active","ping":105},{"user_id":503,"name":"Evaporated_373k","steam_id":76561199435266743,"connected_time":747000000000,"state":"active","ping":65},{"user_id":504,"name":"[Sc.B.V.G] Eagley Beagley Eagle","steam_id":76561198166730618,"connected_time":746000000000,"state":"active","ping":92},{"user_id":505,"name":"Raz","steam_id":76561198002426150,"connected_time":745000000000,"state":"active","ping":47},{"user_id":445,"name":"jxh300","steam_id":76561199196579894,"connected_time":4748000000000,"state":"active","ping":100},{"user_id":506,"name":"stub","steam_id":76561199060788308,"connected_time":738000000000,"state":"active","ping":87},{"user_id":508,"name":"Some_Arse","steam_id":76561198039095394,"connected_time":717000000000,"state":"active","ping":86},{"user_id":509,"name":"Floppy Disk Wizard","steam_id":76561198015154311,"connected_time":702000000000,"state":"active","ping":68}]},{"server_id":405,"name":"Uncletopia | Dallas | 4 | Community","name_short":"dal-4","host":"dal-1.us.uncletopia.com","port":27045,"enabled":true,"region":"us-central","cc":"us","latitude":32.779167,"longitude":-96.80889,"reserved":0,"last_update":"0001-01-01T00:00:00Z","name_a2s":"Uncletopia | Dallas | 4 | Community","protocol":17,"map":"workshop/cp_croissant_final.ugc458840209","folder":"tf","game":"Team Fortress","app_id":440,"player_count":19,"max_players":24,"Bots":0,"server_type":"Dedicated","server_os":"Linux","password":true,"vac":true,"version":"7961495","steam_id":85568392924515220,"keywords":["cp","nocrits","nodmgspread","uncletopia"],"game_id":440,"stv_port":27046,"stv_name":"Uncletopia | Dallas | 4 | Community | STV","players":[{"user_id":76,"name":"dogwater","steam_id":76561199416942289,"connected_time":3422000000000,"state":"active","ping":70},{"user_id":79,"name":"Boingo","steam_id":76561199086931535,"connected_time":3023000000000,"state":"active","ping":56},{"user_id":108,"name":"patam :)","steam_id":76561199139871691,"connected_time":740000000000,"state":"active","ping":80},{"user_id":113,"name":"Shrebbie","steam_id":76561198875230824,"connected_time":263000000000,"state":"active","ping":79},{"user_id":80,"name":"Wolf","steam_id":76561198272611033,"connected_time":2966000000000,"state":"active","ping":62},{"user_id":81,"name":"Kaiser_will","steam_id":76561198198680293,"connected_time":2949000000000,"state":"active","ping":66},{"user_id":114,"name":"Groundlaser49","steam_id":76561198259288290,"connected_time":143000000000,"state":"active","ping":85},{"user_id":97,"name":"Bardarian","steam_id":76561198133170128,"connected_time":2004000000000,"state":"active","ping":93},{"user_id":52,"name":"Ockulus","steam_id":76561199069638460,"connected_time":4629000000000,"state":"active","ping":86},{"user_id":110,"name":"I am a mooshroom","steam_id":76561198104198295,"connected_time":541000000000,"state":"active","ping":64},{"user_id":111,"name":"RectalExam","steam_id":76561197970502312,"connected_time":536000000000,"state":"active","ping":72},{"user_id":101,"name":"bitchtiddes","steam_id":76561199008352469,"connected_time":1984000000000,"state":"active","ping":41},{"user_id":75,"name":"marshmallowdragon999","steam_id":76561199129773712,"connected_time":3691000000000,"state":"active","ping":76},{"user_id":102,"name":"moomin","steam_id":76561198336244269,"connected_time":1980000000000,"state":"active","ping":115},{"user_id":103,"name":"FaZe hyazzZzzzZzzzZ","steam_id":76561199100342013,"connected_time":1969000000000,"state":"active","ping":73},{"user_id":89,"name":"I GOT LAID AT SHEN YUN 2023","steam_id":76561198844003641,"connected_time":2450000000000,"state":"active","ping":93},{"user_id":90,"name":"leonardo doujinshi","steam_id":76561198025810326,"connected_time":2414000000000,"state":"active","ping":55},{"user_id":105,"name":"Boomerang_Monkey","steam_id":76561198849970999,"connected_time":1383000000000,"state":"active","ping":40},{"user_id":107,"name":"memusdeletus625","steam_id":76561199480399193,"connected_time":757000000000,"state":"active","ping":111}]},{"server_id":5,"name":"Uncletopia | Frankfurt | 1 | All Maps","name_short":"frk-1","host":"frk-1.de.uncletopia.com","port":27015,"enabled":true,"region":"eu","cc":"de","latitude":50.110924,"longitude":8.682127,"reserved":0,"last_update":"0001-01-01T00:00:00Z","name_a2s":"Uncletopia | Frankfurt | 1 | All Maps","protocol":17,"map":"ctf_2fort","folder":"tf","game":"Team Fortress","app_id":440,"player_count":0,"max_players":24,"Bots":0,"server_type":"Dedicated","server_os":"Linux","password":true,"vac":true,"version":"7961495","steam_id":85568392924469989,"keywords":["ctf","nocrits","nodmgspread","uncletopia"],"game_id":440,"stv_port":27016,"stv_name":"Uncletopia | Frankfurt | 1 | All Maps | STV","players":null},{"server_id":110,"name":"Uncletopia | Frankfurt | 2 | All Maps","name_short":"frk-2","host":"frk-1.de.uncletopia.com","port":27025,"enabled":true,"region":"eu","cc":"de","latitude":50.110924,"longitude":8.682127,"reserved":0,"last_update":"0001-01-01T00:00:00Z","name_a2s":"Uncletopia | Frankfurt | 2 | All Maps","protocol":17,"map":"cp_altitude","folder":"tf","game":"Team Fortress","app_id":440,"player_count":0,"max_players":24,"Bots":0,"server_type":"Dedicated","server_os":"Linux","password":true,"vac":true,"version":"7961495","steam_id":85568392924469990,"keywords":["cp","nocrits","nodmgspread","uncletopia"],"game_id":440,"stv_port":27026,"stv_name":"Uncletopia | Frankfurt | 2 | All Maps | STV","players":null},{"server_id":308,"name":"Uncletopia | Frankfurt | 3 | All Maps","name_short":"frk-3","host":"frk-1.de.uncletopia.com","port":27035,"enabled":true,"region":"eu","cc":"de","latitude":50.110924,"longitude":8.682127,"reserved":0,"last_update":"0001-01-01T00:00:00Z","name_a2s":"Uncletopia | Frankfurt | 3 | All Maps","protocol":17,"map":"koth_cascade","folder":"tf","game":"Team Fortress","app_id":440,"player_count":0,"max_players":24,"Bots":0,"server_type":"Dedicated","server_os":"Linux","password":true,"vac":true,"version":"7961495","steam_id":85568392924504274,"keywords":["cp","nocrits","nodmgspread","uncletopia"],"game_id":440,"stv_port":27036,"stv_name":"Uncletopia | Frankfurt | 3 | All Maps | STV","players":null},{"server_id":309,"name":"Uncletopia | Frankfurt | 4 | All Maps","name_short":"frk-4","host":"frk-1.de.uncletopia.com","port":27045,"enabled":true,"region":"eu","cc":"de","latitude":50.110924,"longitude":8.682127,"reserved":0,"last_update":"0001-01-01T00:00:00Z","name_a2s":"Uncletopia | Frankfurt | 4 | All Maps","protocol":17,"map":"koth_highpass","folder":"tf","game":"Team Fortress","app_id":440,"player_count":0,"max_players":24,"Bots":0,"server_type":"Dedicated","server_os":"Linux","password":true,"vac":true,"version":"7961495","steam_id":85568392924504275,"keywords":["cp","nocrits","nodmgspread","uncletopia"],"game_id":440,"stv_port":27046,"stv_name":"Uncletopia | Frankfurt | 4 | All Maps | STV","players":null},{"server_id":310,"name":"Uncletopia | Frankfurt | 5 | All Maps","name_short":"frk-5","host":"frk-1.de.uncletopia.com","port":27055,"enabled":true,"region":"eu","cc":"de","latitude":50.110924,"longitude":8.682127,"reserved":0,"last_update":"0001-01-01T00:00:00Z","name_a2s":"Uncletopia | Frankfurt | 5 | All Maps","protocol":17,"map":"cp_metalworks","folder":"tf","game":"Team Fortress","app_id":440,"player_count":0,"max_players":24,"Bots":0,"server_type":"Dedicated","server_os":"Linux","password":true,"vac":true,"version":"7961495","steam_id":85568392924504277,"keywords":["cp","nocrits","nodmgspread","uncletopia"],"game_id":440,"stv_port":27056,"stv_name":"Uncletopia | Frankfurt | 5 | All Maps | STV","players":null},{"server_id":311,"name":"Uncletopia | Frankfurt | 6 | All Maps","name_short":"frk-6","host":"frk-1.de.uncletopia.com","port":27065,"enabled":true,"region":"eu","cc":"de","latitude":50.110924,"longitude":8.682127,"reserved":0,"last_update":"0001-01-01T00:00:00Z","name_a2s":"Uncletopia | Frankfurt | 6 | All Maps","protocol":17,"map":"koth_viaduct","folder":"tf","game":"Team Fortress","app_id":440,"player_count":0,"max_players":24,"Bots":0,"server_type":"Dedicated","server_os":"Linux","password":true,"vac":true,"version":"7961495","steam_id":85568392924504278,"keywords":["cp","nocrits","nodmgspread","uncletopia"],"game_id":440,"stv_port":27066,"stv_name":"Uncletopia | Frankfurt | 6 | All Maps | STV","players":null},{"server_id":23,"name":"Uncletopia | Frankfurt | 7 | Stopwatch","name_short":"frk-7","host":"frk-1.de.uncletopia.com","port":27075,"enabled":true,"region":"eu","cc":"de","latitude":50.110924,"longitude":8.682127,"reserved":0,"last_update":"0001-01-01T00:00:00Z","name_a2s":"Uncletopia | Frankfurt | 7 | Stopwatch","protocol":17,"map":"pl_frontier_final","folder":"tf","game":"Team Fortress","app_id":440,"player_count":0,"max_players":24,"Bots":0,"server_type":"Dedicated","server_os":"Linux","password":true,"vac":true,"version":"7961495","steam_id":85568392924742827,"keywords":["nocrits","nodmgspread","payload","uncletopia"],"game_id":440,"stv_port":27076,"stv_name":"Uncletopia | Frankfurt | 7 | Stopwatch | STV","players":null},{"server_id":24,"name":"Uncletopia | Frankfurt | 8 | Community","name_short":"frk-8","host":"frk-1.de.uncletopia.com","port":27085,"enabled":true,"region":"eu","cc":"de","latitude":50.110924,"longitude":8.682127,"reserved":0,"last_update":"0001-01-01T00:00:00Z","name_a2s":"Uncletopia | Frankfurt | 8 | Community","protocol":17,"map":"workshop/koth_bagel_rc6.ugc2514036946","folder":"tf","game":"Team Fortress","app_id":440,"player_count":0,"max_players":24,"Bots":0,"server_type":"Dedicated","server_os":"Linux","password":true,"vac":true,"version":"7961495","steam_id":85568392924742828,"keywords":["cp","nocrits","nodmgspread","uncletopia"],"game_id":440,"stv_port":27086,"stv_name":"Uncletopia | Frankfurt | 8 | Community | STV","players":null},{"server_id":202,"name":"Uncletopia | Hong Kong | 1 | All Maps","name_short":"hgk-1","host":"hgk-1.hk.uncletopia.com","port":27015,"enabled":true,"region":"asia","cc":"hk","latitude":22.302711,"longitude":114.177216,"reserved":0,"last_update":"0001-01-01T00:00:00Z","name_a2s":"Uncletopia | Hong Kong | 1 | All Maps","protocol":17,"map":"pl_frontier_final","folder":"tf","game":"Team Fortress","app_id":440,"player_count":0,"max_players":24,"Bots":0,"server_type":"Dedicated","server_os":"Linux","password":true,"vac":true,"version":"7961495","steam_id":85568392924494504,"keywords":["nocrits","nodmgspread","payload","uncletopia"],"game_id":440,"stv_port":27016,"stv_name":"Uncletopia | Hong Kong | 1 | All Maps | STV","players":null},{"server_id":1,"name":"Uncletopia | Los Angeles | 1 | All Maps","name_short":"lax-1","host":"lax-1.us.uncletopia.com","port":27015,"enabled":true,"region":"us-west","cc":"us","latitude":33.94279,"longitude":-118.41004,"reserved":0,"last_update":"0001-01-01T00:00:00Z","name_a2s":"Uncletopia | Los Angeles | 1 | All Maps","protocol":17,"map":"pl_borneo","folder":"tf","game":"Team Fortress","app_id":440,"player_count":23,"max_players":24,"Bots":0,"server_type":"Dedicated","server_os":"Linux","password":true,"vac":true,"version":"7961495","steam_id":85568392924469991,"keywords":["nocrits","nodmgspread","payload","uncletopia"],"game_id":440,"stv_port":27016,"stv_name":"Uncletopia | Los Angeles | 1 | All Maps | STV","players":[{"user_id":235,"name":"‚ú™VincY -iwnl-","steam_id":76561198162395555,"connected_time":24000000000,"state":"active","ping":59},{"user_id":199,"name":"Alchemist","steam_id":76561198094238189,"connected_time":3944000000000,"state":"active","ping":56},{"user_id":179,"name":"B class hero","steam_id":76561198066091050,"connected_time":4887000000000,"state":"active","ping":77},{"user_id":204,"name":"Seshreb","steam_id":76561198846614634,"connected_time":3632000000000,"state":"active","ping":63},{"user_id":156,"name":"The Horny","steam_id":76561198863639459,"connected_time":7226000000000,"state":"spawning","ping":69},{"user_id":191,"name":"Addii","steam_id":76561199088297605,"connected_time":4251000000000,"state":"active","ping":99},{"user_id":220,"name":"sleepytuna12","steam_id":76561199258347093,"connected_time":1804000000000,"state":"active","ping":45},{"user_id":105,"name":"T√ºCold","steam_id":76561198111278197,"connected_time":10245000000000,"state":"active","ping":60},{"user_id":233,"name":"Action-Flash","steam_id":76561198042438122,"connected_time":359000000000,"state":"active","ping":127},{"user_id":236,"name":"CrazyKermitRubes","steam_id":76561198009065204,"connected_time":14000000000,"state":"active","ping":94},{"user_id":178,"name":"lol","steam_id":76561198026491738,"connected_time":4990000000000,"state":"active","ping":52},{"user_id":212,"name":"EAG","steam_id":76561199087837632,"connected_time":2351000000000,"state":"active","ping":97},{"user_id":225,"name":"Space","steam_id":76561198064027935,"connected_time":1006000000000,"state":"active","ping":55},{"user_id":237,"name":"raya","steam_id":76561198051504581,"connected_time":10000000000,"state":"spawning","ping":71},{"user_id":213,"name":"Igrium","steam_id":76561198119549811,"connected_time":2349000000000,"state":"active","ping":60},{"user_id":218,"name":"M_Zuy","steam_id":76561199005898955,"connected_time":2159000000000,"state":"active","ping":57},{"user_id":216,"name":"RadioRave","steam_id":76561198240837534,"connected_time":2215000000000,"state":"active","ping":53},{"user_id":229,"name":"kx","steam_id":76561198088952425,"connected_time":822000000000,"state":"active","ping":57},{"user_id":222,"name":"‚§£RASCAL","steam_id":76561198269038647,"connected_time":1637000000000,"state":"active","ping":134},{"user_id":223,"name":"xD","steam_id":76561198149683030,"connected_time":1395000000000,"state":"active","ping":61},{"user_id":224,"name":"Pacemaker","steam_id":76561198046865217,"connected_time":1229000000000,"state":"active","ping":43},{"user_id":217,"name":"Hindmost","steam_id":76561199081837220,"connected_time":2180000000000,"state":"active","ping":95},{"user_id":202,"name":"1 Worst Steve Fox","steam_id":76561198263405297,"connected_time":3779000000000,"state":"spawning","ping":254}]},{"server_id":112,"name":"Uncletopia | Los Angeles | 2 | All Maps","name_short":"lax-2","host":"lax-1.us.uncletopia.com","port":27025,"enabled":true,"region":"us-west","cc":"us","latitude":33.94279,"longitude":-118.41004,"reserved":0,"last_update":"0001-01-01T00:00:00Z","name_a2s":"Uncletopia | Los Angeles | 2 | All Maps","protocol":17,"map":"pl_upward","folder":"tf","game":"Team Fortress","app_id":440,"player_count":24,"max_players":24,"Bots":0,"server_type":"Dedicated","server_os":"Linux","password":true,"vac":true,"version":"7961495","steam_id":85568392924469992,"keywords":["nocrits","nodmgspread","payload","uncletopia"],"game_id":440,"stv_port":27026,"stv_name":"Uncletopia | Los Angeles | 2 | All Maps | STV","players":[{"user_id":72,"name":"‚ô•ur :3 medic gf‚ô• (51ref/hr)","steam_id":76561198816778484,"connected_time":1418000000000,"state":"active","ping":124},{"user_id":44,"name":"Super Saiyan Bear","steam_id":76561198063118280,"connected_time":3334000000000,"state":"active","ping":57},{"user_id":57,"name":"Ska Skorpion","steam_id":76561198141005806,"connected_time":1897000000000,"state":"active","ping":105},{"user_id":38,"name":"S O U N D W A V E","steam_id":76561198093417449,"connected_time":4747000000000,"state":"active","ping":40},{"user_id":92,"name":"mn","steam_id":76561198042357436,"connected_time":268000000000,"state":"active","ping":60},{"user_id":93,"name":"fire","steam_id":76561198044354279,"connected_time":229000000000,"state":"active","ping":45},{"user_id":69,"name":"Applegorn","steam_id":76561198062283490,"connected_time":1472000000000,"state":"active","ping":54},{"user_id":42,"name":"The_Duck_Watching_You","steam_id":76561199363112232,"connected_time":3897000000000,"state":"active","ping":60},{"user_id":54,"name":"Jelly Head 98","steam_id":76561198342074188,"connected_time":2060000000000,"state":"active","ping":165},{"user_id":63,"name":"FunnyGoomba","steam_id":76561198279865229,"connected_time":1740000000000,"state":"active","ping":87},{"user_id":84,"name":"YOU ARE MO#########ER??","steam_id":76561198978781762,"connected_time":949000000000,"state":"active","ping":55},{"user_id":65,"name":"King","steam_id":76561199021156805,"connected_time":1672000000000,"state":"active","ping":87},{"user_id":89,"name":"oh god i'm gonna CHUM","steam_id":76561198019210187,"connected_time":737000000000,"state":"active","ping":89},{"user_id":60,"name":"Lambchop","steam_id":76561198043900363,"connected_time":1783000000000,"state":"active","ping":74},{"user_id":61,"name":"Mapachito Lindo","steam_id":76561198031359995,"connected_time":1765000000000,"state":"active","ping":75},{"user_id":91,"name":"Coffeemelon","steam_id":76561198285891257,"connected_time":644000000000,"state":"active","ping":72},{"user_id":90,"name":"Dreamzapp","steam_id":76561199084936632,"connected_time":728000000000,"state":"active","ping":69},{"user_id":87,"name":"spawnermike","steam_id":76561199089556099,"connected_time":775000000000,"state":"active","ping":92},{"user_id":95,"name":"Soviet Potato","steam_id":76561198068546113,"connected_time":118000000000,"state":"active","ping":60},{"user_id":94,"name":"Synergy","steam_id":76561198098630198,"connected_time":189000000000,"state":"active","ping":75},{"user_id":86,"name":"Firehound","steam_id":76561198005512706,"connected_time":826000000000,"state":"active","ping":94},{"user_id":79,"name":"Ridley","steam_id":76561198002145507,"connected_time":1301000000000,"state":"active","ping":128},{"user_id":85,"name":"The_Legend","steam_id":76561198894535386,"connected_time":912000000000,"state":"active","ping":96},{"user_id":81,"name":"Serene Salamander","steam_id":76561198001094770,"connected_time":1269000000000,"state":"active","ping":63}]},{"server_id":324,"name":"Uncletopia | Los Angeles | 3 | All Maps","name_short":"lax-3","host":"lax-1.us.uncletopia.com","port":27035,"enabled":true,"region":"us-west","cc":"us","latitude":33.94279,"longitude":-118.41004,"reserved":0,"last_update":"0001-01-01T00:00:00Z","name_a2s":"Uncletopia | Los Angeles | 3 | All Maps","protocol":17,"map":"cp_sunshine","folder":"tf","game":"Team Fortress","app_id":440,"player_count":21,"max_players":24,"Bots":0,"server_type":"Dedicated","server_os":"Linux","password":true,"vac":true,"version":"7961495","steam_id":85568392924510198,"keywords":["cp","nocrits","nodmgspread","uncletopia"],"game_id":440,"stv_port":27036,"stv_name":"Uncletopia | Los Angeles | 3 | All Maps | STV","players":[{"user_id":40,"name":"BallBreaker","steam_id":76561198237263498,"connected_time":7870000000000,"state":"active","ping":110},{"user_id":156,"name":"Ac","steam_id":76561197966822642,"connected_time":629000000000,"state":"active","ping":30},{"user_id":166,"name":"Gobb","steam_id":76561198028907283,"connected_time":45000000000,"state":"spawning","ping":46},{"user_id":158,"name":"Spread Joy, Not Hate","steam_id":76561198053117503,"connected_time":192000000000,"state":"active","ping":94},{"user_id":159,"name":"Agent BSoD","steam_id":76561198050346368,"connected_time":184000000000,"state":"active","ping":74},{"user_id":160,"name":"poopweed24","steam_id":76561198338739253,"connected_time":179000000000,"state":"active","ping":47},{"user_id":137,"name":"yowhatupitk","steam_id":76561199224530901,"connected_time":1915000000000,"state":"active","ping":83},{"user_id":105,"name":"‚ù§ Ashley ‚ù§","steam_id":76561198056428303,"connected_time":3256000000000,"state":"active","ping":45},{"user_id":161,"name":"Sunshine On Me","steam_id":76561198042570322,"connected_time":168000000000,"state":"active","ping":103},{"user_id":162,"name":"2Fort Cactus","steam_id":76561199273395913,"connected_time":129000000000,"state":"active","ping":79},{"user_id":129,"name":"Seanvich","steam_id":76561198065805500,"connected_time":2093000000000,"state":"active","ping":97},{"user_id":138,"name":"Rollo","steam_id":76561198064812108,"connected_time":1886000000000,"state":"active","ping":78},{"user_id":163,"name":"JDizzle","steam_id":76561199122696841,"connected_time":112000000000,"state":"active","ping":68},{"user_id":149,"name":"Lysander Crow","steam_id":76561198214659356,"connected_time":738000000000,"state":"active","ping":67},{"user_id":150,"name":"XwX","steam_id":76561197990770063,"connected_time":719000000000,"state":"active","ping":129},{"user_id":164,"name":"dAiLyGrInD","steam_id":76561198163531915,"connected_time":72000000000,"state":"active","ping":93},{"user_id":106,"name":"Big Blue","steam_id":76561198084930108,"connected_time":3178000000000,"state":"active","ping":60},{"user_id":165,"name":"George Washington","steam_id":76561198033828615,"connected_time":68000000000,"state":"active","ping":59},{"user_id":167,"name":"self sufficient kitten","steam_id":76561197960592612,"connected_time":37000000000,"state":"active","ping":69},{"user_id":120,"name":"Bad Dragon quality assurance","steam_id":76561198065662025,"connected_time":2533000000000,"state":"active","ping":58},{"user_id":153,"name":"Chamomile Tea","steam_id":76561198037889481,"connected_time":704000000000,"state":"active","ping":43}]},{"server_id":25,"name":"Uncletopia | Los Angeles | 4 | Stopwatch","name_short":"lax-4","host":"lax-1.us.uncletopia.com","port":27045,"enabled":true,"region":"us-west","cc":"us","latitude":33.94279,"longitude":-118.41004,"reserved":0,"last_update":"0001-01-01T00:00:00Z","name_a2s":"Uncletopia | Los Angeles | 4 | Stopwatch","protocol":17,"map":"workshop/pl_summercoast_rc8e.ugc1761528829","folder":"tf","game":"Team Fortress","app_id":440,"player_count":0,"max_players":24,"Bots":0,"server_type":"Dedicated","server_os":"Linux","password":true,"vac":true,"version":"7961495","steam_id":85568392924510199,"keywords":["nocrits","nodmgspread","payload","uncletopia"],"game_id":440,"stv_port":27046,"stv_name":"Uncletopia | Los Angeles | 4 | Stopwatch | STV","players":null},{"server_id":11,"name":"Uncletopia | London | 1 | All Maps","name_short":"lon-1","host":"lon-1.uk.uncletopia.com","port":27015,"enabled":true,"region":"eu","cc":"gb","latitude":51.509865,"longitude":-0.118092,"reserved":0,"last_update":"0001-01-01T00:00:00Z","name_a2s":"Uncletopia | London | 1 | All Maps","protocol":17,"map":"pl_snowycoast","folder":"tf","game":"Team Fortress","app_id":440,"player_count":21,"max_players":24,"Bots":0,"server_type":"Dedicated","server_os":"Linux","password":true,"vac":true,"version":"7961495","steam_id":85568392924367362,"keywords":["nocrits","nodmgspread","payload","uncletopia"],"game_id":440,"stv_port":27016,"stv_name":"Uncletopia | London | 1 | All Maps | STV","players":[{"user_id":1018,"name":"=NRDY=","steam_id":76561198323074537,"connected_time":12000000000,"state":"active","ping":170},{"user_id":995,"name":"Nox Equites","steam_id":76561198115438449,"connected_time":1547000000000,"state":"active","ping":84},{"user_id":1013,"name":"gl0nk","steam_id":76561198374594236,"connected_time":169000000000,"state":"active","ping":148},{"user_id":1011,"name":"SuperBob103","steam_id":76561199175360012,"connected_time":364000000000,"state":"active","ping":45},{"user_id":963,"name":"Kai","steam_id":76561198800004578,"connected_time":3586000000000,"state":"active","ping":49},{"user_id":1014,"name":"jonbob","steam_id":76561197963506620,"connected_time":104000000000,"state":"active","ping":54},{"user_id":985,"name":"noseb","steam_id":76561199480942903,"connected_time":1857000000000,"state":"active","ping":75},{"user_id":1008,"name":"Gay Floppa","steam_id":76561198043320311,"connected_time":526000000000,"state":"active","ping":200},{"user_id":1015,"name":"Arkainiel Silver","steam_id":76561198188302519,"connected_time":85000000000,"state":"active","ping":58},{"user_id":1016,"name":"CORGI.EXE","steam_id":76561198077093432,"connected_time":60000000000,"state":"active","ping":119},{"user_id":976,"name":"Draco","steam_id":76561198031226933,"connected_time":2821000000000,"state":"active","ping":46},{"user_id":993,"name":"Lewylow","steam_id":76561198005425686,"connected_time":1660000000000,"state":"active","ping":47},{"user_id":1001,"name":"‚ô•Medical student‚ô•","steam_id":76561199119401415,"connected_time":1177000000000,"state":"active","ping":123},{"user_id":1017,"name":"peruna","steam_id":76561198000721196,"connected_time":58000000000,"state":"active","ping":86},{"user_id":999,"name":"7Tales","steam_id":76561198121572869,"connected_time":1428000000000,"state":"active","ping":45},{"user_id":974,"name":"xamin","steam_id":76561198092077991,"connected_time":2995000000000,"state":"active","ping":57},{"user_id":874,"name":"gay people in my computer","steam_id":76561198380456265,"connected_time":10234000000000,"state":"active","ping":64},{"user_id":936,"name":"Ran33","steam_id":76561197991474499,"connected_time":5833000000000,"state":"active","ping":90},{"user_id":986,"name":"SuntanPikachu","steam_id":76561198121242476,"connected_time":1840000000000,"state":"active","ping":53},{"user_id":979,"name":"Morno","steam_id":76561198028519110,"connected_time":2733000000000,"state":"active","ping":48},{"user_id":980,"name":"Vix The Vulpix","steam_id":76561198292181452,"connected_time":2687000000000,"state":"active","ping":149}]},{"server_id":114,"name":"Uncletopia | London | 2 | All Maps","name_short":"lon-2","host":"lon-1.uk.uncletopia.com","port":27025,"enabled":true,"region":"eu","cc":"gb","latitude":51.509865,"longitude":-0.118092,"reserved":0,"last_update":"0001-01-01T00:00:00Z","name_a2s":"Uncletopia | London | 2 | All Maps","protocol":17,"map":"cp_mountainlab","folder":"tf","game":"Team Fortress","app_id":440,"player_count":0,"max_players":24,"Bots":0,"server_type":"Dedicated","server_os":"Linux","password":true,"vac":true,"version":"7961495","steam_id":85568392924470941,"keywords":["cp","nocrits","nodmgspread","uncletopia"],"game_id":440,"stv_port":27026,"stv_name":"Uncletopia | London | 2 | All Maps | STV","players":null},{"server_id":320,"name":"Uncletopia | London | 3 | All Maps","name_short":"lon-3","host":"lon-1.uk.uncletopia.com","port":27035,"enabled":true,"region":"eu","cc":"gb","latitude":51.509865,"longitude":-0.118092,"reserved":0,"last_update":"0001-01-01T00:00:00Z","name_a2s":"Uncletopia | London | 3 | All Maps","protocol":17,"map":"koth_lakeside_final","folder":"tf","game":"Team Fortress","app_id":440,"player_count":0,"max_players":24,"Bots":0,"server_type":"Dedicated","server_os":"Linux","password":true,"vac":true,"version":"7961495","steam_id":85568392924510192,"keywords":["cp","nocrits","nodmgspread","uncletopia"],"game_id":440,"stv_port":27036,"stv_name":"Uncletopia | London | 3 | All Maps | STV","players":null},{"server_id":321,"name":"Uncletopia | London | 4 | All Maps","name_short":"lon-4","host":"lon-1.uk.uncletopia.com","port":27045,"enabled":true,"region":"eu","cc":"gb","latitude":51.509865,"longitude":-0.118092,"reserved":0,"last_update":"0001-01-01T00:00:00Z","name_a2s":"Uncletopia | London | 4 | All Maps","protocol":17,"map":"pl_borneo","folder":"tf","game":"Team Fortress","app_id":440,"player_count":0,"max_players":24,"Bots":0,"server_type":"Dedicated","server_os":"Linux","password":true,"vac":true,"version":"7961495","steam_id":85568392924510193,"keywords":["nocrits","nodmgspread","payload","uncletopia"],"game_id":440,"stv_port":27046,"stv_name":"Uncletopia | London | 4 | All Maps | STV","players":null},{"server_id":21,"name":"Uncletopia | London | 5 | All Maps","name_short":"lon-5","host":"lon-1.uk.uncletopia.com","port":27055,"enabled":true,"region":"eu","cc":"gb","latitude":51.509865,"longitude":-0.118092,"reserved":0,"last_update":"0001-01-01T00:00:00Z","name_a2s":"Uncletopia | London | 5 | All Maps","protocol":17,"map":"cp_process_final","folder":"tf","game":"Team Fortress","app_id":440,"player_count":0,"max_players":24,"Bots":0,"server_type":"Dedicated","server_os":"Linux","password":true,"vac":true,"version":"7961495","steam_id":85568392924742829,"keywords":["cp","nocrits","nodmgspread","uncletopia"],"game_id":440,"stv_port":27056,"stv_name":"Uncletopia | London | 5 | All Maps | STV","players":null},{"server_id":22,"name":"Uncletopia | London | 6 | All Maps","name_short":"lon-6","host":"lon-1.uk.uncletopia.com","port":27065,"enabled":true,"region":"eu","cc":"gb","latitude":51.509865,"longitude":-0.118092,"reserved":0,"last_update":"0001-01-01T00:00:00Z","name_a2s":"Uncletopia | London | 6 | All Maps","protocol":17,"map":"cp_snakewater_final1","folder":"tf","game":"Team Fortress","app_id":440,"player_count":0,"max_players":24,"Bots":0,"server_type":"Dedicated","server_os":"Linux","password":true,"vac":true,"version":"7961495","steam_id":85568392924742830,"keywords":["cp","nocrits","nodmgspread","uncletopia"],"game_id":440,"stv_port":27066,"stv_name":"Uncletopia | London | 6 | All Maps | STV","players":null},{"server_id":40,"name":"Uncletopia | London | 7 | Stopwatch","name_short":"lon-7","host":"lon-1.uk.uncletopia.com","port":27075,"enabled":true,"region":"eu","cc":"gb","latitude":51.509865,"longitude":-0.118092,"reserved":0,"last_update":"0001-01-01T00:00:00Z","name_a2s":"Uncletopia | London | 7 | Stopwatch","protocol":17,"map":"cp_process_final","folder":"tf","game":"Team Fortress","app_id":440,"player_count":0,"max_players":24,"Bots":0,"server_type":"Dedicated","server_os":"Linux","password":true,"vac":true,"version":"7961495","steam_id":85568392924964314,"keywords":["cp","nocrits","nodmgspread","uncletopia"],"game_id":440,"stv_port":27076,"stv_name":"Uncletopia | London | 7 | Stopwatch | STV","players":null},{"server_id":41,"name":"Uncletopia | London | 8 | Community","name_short":"lon-8","host":"lon-1.uk.uncletopia.com","port":27085,"enabled":true,"region":"eu","cc":"gb","latitude":51.509865,"longitude":-0.118092,"reserved":0,"last_update":"0001-01-01T00:00:00Z","name_a2s":"Uncletopia | London | 8 | Community","protocol":17,"map":"workshop/koth_bagel_rc6.ugc2514036946","folder":"tf","game":"Team Fortress","app_id":440,"player_count":0,"max_players":24,"Bots":0,"server_type":"Dedicated","server_os":"Linux","password":true,"vac":true,"version":"7961495","steam_id":85568392924964315,"keywords":["cp","nocrits","nodmgspread","uncletopia"],"game_id":440,"stv_port":27086,"stv_name":"Uncletopia | London | 8 | Community | STV","players":null},{"server_id":300,"name":"Uncletopia | Montr√©al | 1 | All Maps","name_short":"mtl-1","host":"mtl-1.ca.uncletopia.com","port":27015,"enabled":true,"region":"us-east","cc":"ca","latitude":45.50889,"longitude":-73.56167,"reserved":0,"last_update":"0001-01-01T00:00:00Z","name_a2s":"","protocol":0,"map":"","folder":"","game":"","app_id":0,"player_count":2,"max_players":0,"Bots":0,"server_type":"","server_os":"","password":false,"vac":false,"version":"","steam_id":0,"keywords":null,"game_id":0,"stv_port":0,"stv_name":"","players":[{"user_id":15,"name":"CaptinBrown","steam_id":76561198127709638,"connected_time":669000000000,"state":"active","ping":68},{"user_id":19,"name":"bajablink","steam_id":76561198262044080,"connected_time":29000000000,"state":"active","ping":86}]},{"server_id":301,"name":"Uncletopia | Montr√©al | 2 | One Thousand Uncles","name_short":"mtl-2","host":"mtl-1.ca.uncletopia.com","port":27025,"enabled":true,"region":"us-east","cc":"ca","latitude":45.50889,"longitude":-73.56167,"reserved":0,"last_update":"0001-01-01T00:00:00Z","name_a2s":"","protocol":0,"map":"","folder":"","game":"","app_id":0,"player_count":14,"max_players":0,"Bots":0,"server_type":"","server_os":"","password":false,"vac":false,"version":"","steam_id":0,"keywords":null,"game_id":0,"stv_port":0,"stv_name":"","players":[{"user_id":2,"name":"groot","steam_id":76561198057999536,"connected_time":5443000000000,"state":"active","ping":96},{"user_id":313,"name":"‡∏∏","steam_id":76561198084134025,"connected_time":3225000000000,"state":"active","ping":73},{"user_id":482,"name":"Chili","steam_id":76561198042942046,"connected_time":1714000000000,"state":"active","ping":86},{"user_id":512,"name":"Avenging Spirit","steam_id":76561198119572121,"connected_time":1316000000000,"state":"active","ping":54},{"user_id":101,"name":"undsha","steam_id":76561198171335530,"connected_time":4767000000000,"state":"active","ping":77},{"user_id":483,"name":"HentacleTentai","steam_id":76561198128090776,"connected_time":1691000000000,"state":"active","ping":315},{"user_id":40,"name":"pringle","steam_id":76561198830026220,"connected_time":5324000000000,"state":"active","ping":56},{"user_id":41,"name":"doomed","steam_id":76561198340512594,"connected_time":5321000000000,"state":"active","ping":57},{"user_id":513,"name":"KeaganExtremeGaming","steam_id":76561198129176102,"connected_time":1314000000000,"state":"active","ping":101},{"user_id":143,"name":"Anon","steam_id":76561198109740776,"connected_time":4504000000000,"state":"active","ping":129},{"user_id":484,"name":"Unnamed Extra","steam_id":76561198818211536,"connected_time":1678000000000,"state":"active","ping":144},{"user_id":215,"name":"Stevelonk","steam_id":76561198088224665,"connected_time":3973000000000,"state":"active","ping":62},{"user_id":291,"name":"Cornmac","steam_id":76561198104780569,"connected_time":3528000000000,"state":"active","ping":142},{"user_id":521,"name":"Dr. Professor PJ, Ph.D","steam_id":76561198004429398,"connected_time":737000000000,"state":"active","ping":69}]},{"server_id":13,"name":"Uncletopia | New York City | 1 | All Maps","name_short":"nyc-1","host":"nyc-1.us.uncletopia.com","port":27015,"enabled":true,"region":"us-east","cc":"us","latitude":40.73061,"longitude":-73.93524,"reserved":0,"last_update":"0001-01-01T00:00:00Z","name_a2s":"Uncletopia | New York City | 1 | All Maps","protocol":17,"map":"pl_swiftwater_final1","folder":"tf","game":"Team Fortress","app_id":440,"player_count":24,"max_players":24,"Bots":0,"server_type":"Dedicated","server_os":"Linux","password":true,"vac":true,"version":"7961495","steam_id":85568392924469993,"keywords":["nocrits","nodmgspread","payload","uncletopia"],"game_id":440,"stv_port":27016,"stv_name":"Uncletopia | New York City | 1 | All Maps | STV","players":[{"user_id":568,"name":"CRAZY engineer","steam_id":76561198887937902,"connected_time":10227000000000,"state":"active","ping":50},{"user_id":690,"name":"gIBBY","steam_id":76561198080099598,"connected_time":157000000000,"state":"active","ping":44},{"user_id":678,"name":"rum ham","steam_id":76561198041882328,"connected_time":1043000000000,"state":"active","ping":52},{"user_id":572,"name":"SpongedSocks","steam_id":76561198374009086,"connected_time":9964000000000,"state":"active","ping":54},{"user_id":689,"name":"saurhead","steam_id":76561198132937722,"connected_time":176000000000,"state":"active","ping":45},{"user_id":674,"name":"Maryam","steam_id":76561198128969186,"connected_time":1355000000000,"state":"active","ping":57},{"user_id":647,"name":"NightEmerald","steam_id":76561198878856805,"connected_time":3066000000000,"state":"active","ping":45},{"user_id":538,"name":"ZionicZenko","steam_id":76561199164212693,"connected_time":11774000000000,"state":"active","ping":73},{"user_id":643,"name":"Jimi Hendrix","steam_id":76561198827071531,"connected_time":3385000000000,"state":"active","ping":72},{"user_id":630,"name":"oppenheimer style","steam_id":76561198026664629,"connected_time":4371000000000,"state":"active","ping":54},{"user_id":654,"name":"Rumble","steam_id":76561199170926322,"connected_time":2750000000000,"state":"active","ping":73},{"user_id":659,"name":"Meh","steam_id":76561198078187920,"connected_time":2160000000000,"state":"active","ping":93},{"user_id":642,"name":"Forehead","steam_id":76561198124151399,"connected_time":3391000000000,"state":"active","ping":49},{"user_id":686,"name":"Dr. House","steam_id":76561198052910702,"connected_time":365000000000,"state":"active","ping":59},{"user_id":623,"name":"Bulk","steam_id":76561199009814535,"connected_time":5135000000000,"state":"active","ping":61},{"user_id":661,"name":"ndvr","steam_id":76561199379200102,"connected_time":2138000000000,"state":"active","ping":52},{"user_id":669,"name":"Xx_gam3rberg_xX","steam_id":76561199035781025,"connected_time":1573000000000,"state":"active","ping":84},{"user_id":680,"name":"Great","steam_id":76561198895516433,"connected_time":723000000000,"state":"active","ping":68},{"user_id":675,"name":"thugger bill (he/him)","steam_id":76561198366299848,"connected_time":1326000000000,"state":"active","ping":65},{"user_id":676,"name":"Stealthguy724","steam_id":76561198195961430,"connected_time":1312000000000,"state":"active","ping":73},{"user_id":679,"name":"I shovel mayonnaise in mouth","steam_id":76561199123118241,"connected_time":972000000000,"state":"active","ping":129},{"user_id":688,"name":"patdine","steam_id":76561198060865671,"connected_time":189000000000,"state":"active","ping":63},{"user_id":651,"name":"Pigeon Hunter","steam_id":76561198102176850,"connected_time":2953000000000,"state":"active","ping":76},{"user_id":672,"name":"Spiral Mountain","steam_id":76561198058683715,"connected_time":1401000000000,"state":"active","ping":74}]},{"server_id":14,"name":"Uncletopia | New York City | 2 | All Maps","name_short":"nyc-2","host":"nyc-1.us.uncletopia.com","port":27025,"enabled":true,"region":"us-east","cc":"us","latitude":40.73061,"longitude":-73.93524,"reserved":0,"last_update":"0001-01-01T00:00:00Z","name_a2s":"Uncletopia | New York City | 2 | All Maps","protocol":17,"map":"cp_dustbowl","folder":"tf","game":"Team Fortress","app_id":440,"player_count":23,"max_players":24,"Bots":0,"server_type":"Dedicated","server_os":"Linux","password":true,"vac":true,"version":"7961495","steam_id":85568392924469994,"keywords":["cp","nocrits","nodmgspread","uncletopia"],"game_id":440,"stv_port":27026,"stv_name":"Uncletopia | New York City | 2 | All Maps | STV","players":[{"user_id":361,"name":"googa","steam_id":76561198133130452,"connected_time":3542000000000,"state":"active","ping":46},{"user_id":385,"name":"A Puppy","steam_id":76561198828184456,"connected_time":2443000000000,"state":"active","ping":50},{"user_id":394,"name":"WHO WANTS IT","steam_id":76561198079493217,"connected_time":1587000000000,"state":"active","ping":61},{"user_id":411,"name":"WinningMushroom","steam_id":76561199009490179,"connected_time":384000000000,"state":"active","ping":90},{"user_id":362,"name":"De","steam_id":76561198206728044,"connected_time":3534000000000,"state":"active","ping":75},{"user_id":372,"name":"Egg","steam_id":76561198028157625,"connected_time":3210000000000,"state":"active","ping":100},{"user_id":389,"name":"Psionara","steam_id":76561198211684263,"connected_time":2093000000000,"state":"active","ping":94},{"user_id":388,"name":"space man","steam_id":76561198066333670,"connected_time":2113000000000,"state":"active","ping":56},{"user_id":373,"name":"Terror-Billy #SaveTF2","steam_id":76561198328141870,"connected_time":3165000000000,"state":"active","ping":79},{"user_id":375,"name":"Gentoo Linux Gaming","steam_id":76561197999657118,"connected_time":2916000000000,"state":"active","ping":70},{"user_id":407,"name":"lwyr","steam_id":76561198007982579,"connected_time":974000000000,"state":"active","ping":45},{"user_id":405,"name":"Big McThankies From McSpankies","steam_id":76561198020516880,"connected_time":1046000000000,"state":"active","ping":100},{"user_id":412,"name":"Satan-2","steam_id":76561199231742764,"connected_time":370000000000,"state":"active","ping":54},{"user_id":408,"name":"eevee gaming","steam_id":76561198163993775,"connected_time":955000000000,"state":"active","ping":72},{"user_id":413,"name":"Green Mario","steam_id":76561198922644496,"connected_time":345000000000,"state":"active","ping":87},{"user_id":396,"name":"murderous deer","steam_id":76561198350832152,"connected_time":1519000000000,"state":"active","ping":52},{"user_id":395,"name":"QWERTY","steam_id":76561198211430420,"connected_time":1532000000000,"state":"active","ping":84},{"user_id":400,"name":"peace dog","steam_id":76561198267988522,"connected_time":1493000000000,"state":"active","ping":69},{"user_id":374,"name":"Bigsumoslammer","steam_id":76561198044505076,"connected_time":3130000000000,"state":"active","ping":35},{"user_id":397,"name":"Capzlockz3","steam_id":76561198310863739,"connected_time":1513000000000,"state":"active","ping":49},{"user_id":399,"name":"linklol262","steam_id":76561198305620134,"connected_time":1495000000000,"state":"active","ping":80},{"user_id":409,"name":"tiananmensquare1989","steam_id":76561199076837870,"connected_time":606000000000,"state":"active","ping":87},{"user_id":403,"name":"hashmap","steam_id":76561198043794014,"connected_time":1389000000000,"state":"active","ping":65}]},{"server_id":15,"name":"Uncletopia | New York City | 3 | Stopwatch","name_short":"nyc-3","host":"nyc-1.us.uncletopia.com","port":27035,"enabled":true,"region":"us-east","cc":"us","latitude":40.73061,"longitude":-73.93524,"reserved":0,"last_update":"0001-01-01T00:00:00Z","name_a2s":"Uncletopia | New York City | 3 | Stopwatch","protocol":17,"map":"workshop/koth_clearcut_b15.ugc2107050255","folder":"tf","game":"Team Fortress","app_id":440,"player_count":0,"max_players":24,"Bots":0,"server_type":"Dedicated","server_os":"Linux","password":true,"vac":true,"version":"7961495","steam_id":85568392924742820,"keywords":["cp","nocrits","nodmgspread","uncletopia"],"game_id":440,"stv_port":27036,"stv_name":"Uncletopia | New York City | 3 | Stopwatch | STV","players":null},{"server_id":16,"name":"Uncletopia | New York City | 4 | Community","name_short":"nyc-4","host":"nyc-1.us.uncletopia.com","port":27045,"enabled":true,"region":"us-east","cc":"us","latitude":40.73061,"longitude":-73.93524,"reserved":0,"last_update":"0001-01-01T00:00:00Z","name_a2s":"Uncletopia | New York City | 4 | Community","protocol":17,"map":"workshop/cp_mannbase_rc2a.ugc1900737467","folder":"tf","game":"Team Fortress","app_id":440,"player_count":0,"max_players":24,"Bots":0,"server_type":"Dedicated","server_os":"Linux","password":true,"vac":true,"version":"7961495","steam_id":85568392924742821,"keywords":["cp","nocrits","nodmgspread","uncletopia"],"game_id":440,"stv_port":27046,"stv_name":"Uncletopia | New York City | 4 | Community | STV","players":null},{"server_id":142,"name":"Uncletopia | S√£o Paulo | 1 | All Maps","name_short":"sao-1","host":"sao-1.br.uncletopia.com","port":27015,"enabled":true,"region":"sa","cc":"br","latitude":-23.533773,"longitude":-46.62529,"reserved":0,"last_update":"0001-01-01T00:00:00Z","name_a2s":"Uncletopia | S√£o Paulo | 1 | All Maps","protocol":17,"map":"koth_lakeside_final","folder":"tf","game":"Team Fortress","app_id":440,"player_count":0,"max_players":24,"Bots":0,"server_type":"Dedicated","server_os":"Linux","password":true,"vac":true,"version":"7961495","steam_id":85568392924469996,"keywords":["cp","nocrits","nodmgspread","uncletopia"],"game_id":440,"stv_port":27016,"stv_name":"Uncletopia | S√£o Paulo | 1 | All Maps | STV","players":null},{"server_id":143,"name":"Uncletopia | S√£o Paulo | 2 | Community","name_short":"sao-2","host":"sao-2.br.uncletopia.com","port":27015,"enabled":true,"region":"sa","cc":"br","latitude":-23.533773,"longitude":-46.62529,"reserved":0,"last_update":"0001-01-01T00:00:00Z","name_a2s":"Uncletopia | S√£o Paulo | 2 | Community","protocol":17,"map":"workshop/cp_reckoner_rc6.ugc674719999","folder":"tf","game":"Team Fortress","app_id":440,"player_count":0,"max_players":24,"Bots":0,"server_type":"Dedicated","server_os":"Linux","password":true,"vac":true,"version":"7961495","steam_id":85568392924485349,"keywords":["cp","nocrits","nodmgspread","uncletopia"],"game_id":440,"stv_port":27016,"stv_name":"Uncletopia | S√£o Paulo | 2 | Community | STV","players":null},{"server_id":7,"name":"Uncletopia | Seattle | 1 | All Maps","name_short":"sea-1","host":"sea-1.us.uncletopia.com","port":27015,"enabled":true,"region":"us-west","cc":"us","latitude":47.608013,"longitude":-122.33517,"reserved":0,"last_update":"0001-01-01T00:00:00Z","name_a2s":"Uncletopia | Seattle | 1 | All Maps","protocol":17,"map":"koth_nucleus","folder":"tf","game":"Team Fortress","app_id":440,"player_count":24,"max_players":24,"Bots":0,"server_type":"Dedicated","server_os":"Linux","password":true,"vac":true,"version":"7961495","steam_id":85568392924469997,"keywords":["cp","nocrits","nodmgspread","uncletopia"],"game_id":440,"stv_port":27016,"stv_name":"Uncletopia | Seattle | 1 | All Maps | STV","players":[{"user_id":158,"name":"JawnyMac","steam_id":76561198179529599,"connected_time":2152000000000,"state":"active","ping":75},{"user_id":168,"name":"Ayayayayayahuasca","steam_id":76561199002906056,"connected_time":1601000000000,"state":"active","ping":47},{"user_id":136,"name":"SHADOW","steam_id":76561198207768148,"connected_time":3476000000000,"state":"active","ping":62},{"user_id":175,"name":"Amelia Airheart","steam_id":76561198972835565,"connected_time":664000000000,"state":"active","ping":45},{"user_id":160,"name":"dill","steam_id":76561198347085789,"connected_time":2127000000000,"state":"active","ping":71},{"user_id":133,"name":"Karg","steam_id":76561198091387866,"connected_time":4213000000000,"state":"active","ping":64},{"user_id":165,"name":"RainboomCrash","steam_id":76561198065612273,"connected_time":1725000000000,"state":"active","ping":49},{"user_id":134,"name":"jayeskae","steam_id":76561198144220801,"connected_time":3843000000000,"state":"active","ping":50},{"user_id":147,"name":"toes","steam_id":76561198221151676,"connected_time":2431000000000,"state":"active","ping":59},{"user_id":171,"name":"Sp√ºkiiTV","steam_id":76561198098281824,"connected_time":1358000000000,"state":"active","ping":542},{"user_id":166,"name":"Skabbety","steam_id":76561198168044257,"connected_time":1627000000000,"state":"active","ping":43},{"user_id":87,"name":"dust | it/she","steam_id":76561198045218909,"connected_time":7567000000000,"state":"active","ping":31},{"user_id":174,"name":"Lonestar827","steam_id":76561198035533639,"connected_time":675000000000,"state":"active","ping":44},{"user_id":114,"name":"[TrC] Dackstrus","steam_id":76561197973518509,"connected_time":5223000000000,"state":"active","ping":61},{"user_id":177,"name":"crunchy obama","steam_id":76561198044485217,"connected_time":335000000000,"state":"active","ping":71},{"user_id":88,"name":"chunkysquare","steam_id":76561199076468383,"connected_time":7563000000000,"state":"active","ping":51},{"user_id":176,"name":"Asolator0","steam_id":76561198095809798,"connected_time":597000000000,"state":"active","ping":54},{"user_id":150,"name":"A UsedNom","steam_id":76561198402832756,"connected_time":2298000000000,"state":"active","ping":62},{"user_id":173,"name":"bbbbb","steam_id":76561198095480838,"connected_time":815000000000,"state":"active","ping":48},{"user_id":151,"name":"CockCranker","steam_id":76561198276385778,"connected_time":2282000000000,"state":"active","ping":53},{"user_id":167,"name":"onionman0106","steam_id":76561199067766868,"connected_time":1622000000000,"state":"active","ping":54},{"user_id":152,"name":"Pixel","steam_id":76561198096221632,"connected_time":2276000000000,"state":"active","ping":110},{"user_id":154,"name":"NE–ØO","steam_id":76561197965450216,"connected_time":2239000000000,"state":"active","ping":45},{"user_id":155,"name":"rat gets the cheese","steam_id":76561198031234032,"connected_time":2234000000000,"state":"active","ping":99}]},{"server_id":119,"name":"Uncletopia | Seattle | 2 | All Maps","name_short":"sea-2","host":"sea-1.us.uncletopia.com","port":27025,"enabled":true,"region":"us-west","cc":"us","latitude":47.608013,"longitude":-122.33517,"reserved":0,"last_update":"0001-01-01T00:00:00Z","name_a2s":"Uncletopia | Seattle | 2 | All Maps","protocol":17,"map":"cp_sunshine","folder":"tf","game":"Team Fortress","app_id":440,"player_count":24,"max_players":24,"Bots":0,"server_type":"Dedicated","server_os":"Linux","password":true,"vac":true,"version":"7961495","steam_id":85568392924469998,"keywords":["cp","nocrits","nodmgspread","uncletopia"],"game_id":440,"stv_port":27026,"stv_name":"Uncletopia | Seattle | 2 | All Maps | STV","players":[{"user_id":4,"name":"woodpigeon","steam_id":76561199391478575,"connected_time":10032000000000,"state":"active","ping":57},{"user_id":97,"name":"Hound From Heck","steam_id":76561198087764017,"connected_time":4277000000000,"state":"active","ping":49},{"user_id":134,"name":"Simonator","steam_id":76561198242718444,"connected_time":940000000000,"state":"active","ping":35},{"user_id":144,"name":"Petrivus","steam_id":76561198202152453,"connected_time":299000000000,"state":"active","ping":44},{"user_id":126,"name":"Zombee","steam_id":76561198105367546,"connected_time":1980000000000,"state":"active","ping":82},{"user_id":128,"name":"SwearWord","steam_id":76561199131184237,"connected_time":1666000000000,"state":"active","ping":60},{"user_id":140,"name":"CL Pocky","steam_id":76561198067597483,"connected_time":619000000000,"state":"active","ping":45},{"user_id":11,"name":"ilun","steam_id":76561198042913843,"connected_time":9653000000000,"state":"active","ping":60},{"user_id":135,"name":"Person","steam_id":76561198073885832,"connected_time":936000000000,"state":"active","ping":65},{"user_id":143,"name":"Tranq","steam_id":76561197967250757,"connected_time":344000000000,"state":"active","ping":97},{"user_id":109,"name":"Sloth ‚ù¶","steam_id":76561197998378462,"connected_time":3650000000000,"state":"active","ping":46},{"user_id":130,"name":"https://fr.wikipedia.org/","steam_id":76561198051834684,"connected_time":1123000000000,"state":"active","ping":64},{"user_id":145,"name":"Cien a√±os de soledad","steam_id":76561198102681457,"connected_time":279000000000,"state":"active","ping":117},{"user_id":137,"name":"Smittywerbenjager-manjenson","steam_id":76561198067060742,"connected_time":841000000000,"state":"active","ping":68},{"user_id":122,"name":"Dimple #TF2Center","steam_id":76561198980324190,"connected_time":2523000000000,"state":"active","ping":59},{"user_id":67,"name":"pinguez","steam_id":76561199003447981,"connected_time":6287000000000,"state":"active","ping":79},{"user_id":138,"name":"blest!","steam_id":76561198966232220,"connected_time":836000000000,"state":"active","ping":67},{"user_id":106,"name":"PiolaCat","steam_id":76561199100535345,"connected_time":3868000000000,"state":"active","ping":105},{"user_id":110,"name":"Master of Golfcarts‚Ñ¢","steam_id":76561198071033195,"connected_time":3639000000000,"state":"active","ping":63},{"user_id":146,"name":"Shrimpjack","steam_id":76561199021386029,"connected_time":245000000000,"state":"active","ping":81},{"user_id":120,"name":"Rev","steam_id":76561199060355036,"connected_time":3056000000000,"state":"active","ping":51},{"user_id":114,"name":"a cat plushie","steam_id":76561198080046542,"connected_time":3597000000000,"state":"active","ping":48},{"user_id":136,"name":"fish (2:3)","steam_id":76561198134331073,"connected_time":899000000000,"state":"active","ping":45},{"user_id":147,"name":"The local hobo","steam_id":76561198289650060,"connected_time":196000000000,"state":"active","ping":70}]},{"server_id":406,"name":"Uncletopia | Seattle | 3 | Stopwatch","name_short":"sea-3","host":"sea-1.us.uncletopia.com","port":27035,"enabled":true,"region":"us-west","cc":"us","latitude":47.608013,"longitude":-122.33517,"reserved":0,"last_update":"0001-01-01T00:00:00Z","name_a2s":"Uncletopia | Seattle | 3 | Stopwatch","protocol":17,"map":"pl_swiftwater_final1","folder":"tf","game":"Team Fortress","app_id":440,"player_count":0,"max_players":24,"Bots":0,"server_type":"Dedicated","server_os":"Linux","password":true,"vac":true,"version":"7961495","steam_id":85568392924515217,"keywords":["nocrits","nodmgspread","payload","uncletopia"],"game_id":440,"stv_port":27036,"stv_name":"Uncletopia | Seattle | 3 | Stopwatch | STV","players":null},{"server_id":17,"name":"Uncletopia | San Francisco | 1 | All Maps","name_short":"sfo-1","host":"sfo-1.us.uncletopia.com","port":27015,"enabled":true,"region":"us-west","cc":"us","latitude":37.77397,"longitude":-122.4313,"reserved":0,"last_update":"0001-01-01T00:00:00Z","name_a2s":"Uncletopia | San Francisco | 1 | All Maps","protocol":17,"map":"cp_altitude","folder":"tf","game":"Team Fortress","app_id":440,"player_count":24,"max_players":24,"Bots":0,"server_type":"Dedicated","server_os":"Linux","password":true,"vac":true,"version":"7961495","steam_id":85568392924469999,"keywords":["cp","nocrits","nodmgspread","uncletopia"],"game_id":440,"stv_port":27016,"stv_name":"Uncletopia | San Francisco | 1 | All Maps | STV","players":[{"user_id":24,"name":"ohnocringe","steam_id":76561199381232082,"connected_time":1051000000000,"state":"active","ping":99},{"user_id":26,"name":"omnislime","steam_id":76561199382475668,"connected_time":911000000000,"state":"active","ping":100},{"user_id":20,"name":"Caspian","steam_id":76561199041466962,"connected_time":1572000000000,"state":"active","ping":37},{"user_id":21,"name":"CometDrg0n_","steam_id":76561198175713051,"connected_time":1303000000000,"state":"active","ping":67},{"user_id":43,"name":"They could be ********","steam_id":76561198441020995,"connected_time":342000000000,"state":"active","ping":32},{"user_id":52,"name":"Knebby","steam_id":76561198045154056,"connected_time":169000000000,"state":"active","ping":61},{"user_id":49,"name":"Stapler","steam_id":76561198099295077,"connected_time":221000000000,"state":"active","ping":49},{"user_id":29,"name":"Zilgrin","steam_id":76561199192857010,"connected_time":615000000000,"state":"active","ping":99},{"user_id":51,"name":"Sucks-At-Aiming","steam_id":76561198027487285,"connected_time":185000000000,"state":"active","ping":103},{"user_id":32,"name":"Smol Hawky","steam_id":76561198181505973,"connected_time":563000000000,"state":"active","ping":119},{"user_id":33,"name":"Neko Chan","steam_id":76561198409579029,"connected_time":561000000000,"state":"active","ping":99},{"user_id":34,"name":"Infernatious","steam_id":76561199483610732,"connected_time":543000000000,"state":"active","ping":65},{"user_id":37,"name":"Red-Raven","steam_id":76561197971130794,"connected_time":458000000000,"state":"active","ping":67},{"user_id":36,"name":"alex","steam_id":76561198334059206,"connected_time":466000000000,"state":"active","ping":57},{"user_id":53,"name":"Prof. Shittington","steam_id":76561198135137213,"connected_time":145000000000,"state":"active","ping":87},{"user_id":39,"name":"The Rock","steam_id":76561198433328517,"connected_time":436000000000,"state":"active","ping":130},{"user_id":41,"name":"Literally Roxy's Wife Tsuyu","steam_id":76561198175421763,"connected_time":389000000000,"state":"active","ping":105},{"user_id":42,"name":"aisu","steam_id":76561198043768507,"connected_time":388000000000,"state":"active","ping":94},{"user_id":44,"name":"Kgunner1v","steam_id":76561198259516937,"connected_time":334000000000,"state":"active","ping":97},{"user_id":45,"name":"TheNoFaceGuy","steam_id":76561198086398392,"connected_time":328000000000,"state":"active","ping":132},{"user_id":46,"name":"Dozy","steam_id":76561198444964360,"connected_time":325000000000,"state":"active","ping":131},{"user_id":48,"name":"45Amazing","steam_id":76561198303081758,"connected_time":293000000000,"state":"active","ping":56},{"user_id":54,"name":"the friendly pootis","steam_id":76561198049258493,"connected_time":129000000000,"state":"active","ping":79},{"user_id":55,"name":"AMONGUS","steam_id":76561199176017593,"connected_time":102000000000,"state":"active","ping":59}]},{"server_id":18,"name":"Uncletopia | San Francisco | 2 | All Maps","name_short":"sfo-2","host":"sfo-1.us.uncletopia.com","port":27025,"enabled":true,"region":"us-west","cc":"us","latitude":37.77397,"longitude":-122.4313,"reserved":0,"last_update":"0001-01-01T00:00:00Z","name_a2s":"Uncletopia | San Francisco | 2 | All Maps","protocol":17,"map":"cp_process_final","folder":"tf","game":"Team Fortress","app_id":440,"player_count":0,"max_players":24,"Bots":0,"server_type":"Dedicated","server_os":"Linux","password":true,"vac":true,"version":"7961495","steam_id":85568392924470000,"keywords":["cp","nocrits","nodmgspread","uncletopia"],"game_id":440,"stv_port":27026,"stv_name":"Uncletopia | San Francisco | 2 | All Maps | STV","players":null},{"server_id":19,"name":"Uncletopia | San Francisco | 3 | Stopwatch","name_short":"sfo-3","host":"sfo-1.us.uncletopia.com","port":27035,"enabled":true,"region":"us-west","cc":"us","latitude":37.77397,"longitude":-122.4313,"reserved":0,"last_update":"0001-01-01T00:00:00Z","name_a2s":"Uncletopia | San Francisco | 3 | Stopwatch","protocol":17,"map":"workshop/koth_product_final.ugc454272353","folder":"tf","game":"Team Fortress","app_id":440,"player_count":0,"max_players":24,"Bots":0,"server_type":"Dedicated","server_os":"Linux","password":true,"vac":true,"version":"7961495","steam_id":85568392924742824,"keywords":["cp","nocrits","nodmgspread","uncletopia"],"game_id":440,"stv_port":27036,"stv_name":"Uncletopia | San Francisco | 3 | Stopwatch | STV","players":null},{"server_id":20,"name":"Uncletopia | San Francisco | 4 | Community","name_short":"sfo-4","host":"sfo-1.us.uncletopia.com","port":27045,"enabled":true,"region":"us-west","cc":"us","latitude":37.77397,"longitude":-122.4313,"reserved":0,"last_update":"0001-01-01T00:00:00Z","name_a2s":"Uncletopia | San Francisco | 4 | Community","protocol":17,"map":"workshop/koth_synthetic_rc6a.ugc1549817316","folder":"tf","game":"Team Fortress","app_id":440,"player_count":0,"max_players":24,"Bots":0,"server_type":"Dedicated","server_os":"Linux","password":true,"vac":true,"version":"7961495","steam_id":85568392924742826,"keywords":["cp","nocrits","nodmgspread","uncletopia"],"game_id":440,"stv_port":27046,"stv_name":"Uncletopia | San Francisco | 4 | Community | STV","players":null},{"server_id":141,"name":"Uncletopia | Sydney | 1 | All Maps","name_short":"syd-1","host":"syd-1.au.uncletopia.com","port":27015,"enabled":true,"region":"au","cc":"au","latitude":-33.865143,"longitude":151.2099,"reserved":0,"last_update":"0001-01-01T00:00:00Z","name_a2s":"Uncletopia | Sydney | 1 | All Maps","protocol":17,"map":"koth_viaduct","folder":"tf","game":"Team Fortress","app_id":440,"player_count":1,"max_players":24,"Bots":0,"server_type":"Dedicated","server_os":"Linux","password":true,"vac":true,"version":"7961495","steam_id":85568392924470001,"keywords":["cp","nocrits","nodmgspread","uncletopia"],"game_id":440,"stv_port":27016,"stv_name":"Uncletopia | Sydney | 1 | All Maps | STV","players":[{"user_id":11,"name":"TF2 GUNZEL 761","steam_id":76561198973002575,"connected_time":229000000000,"state":"active","ping":66}]},{"server_id":123,"name":"Uncletopia | Sydney | 2 | All Maps","name_short":"syd-2","host":"syd-1.au.uncletopia.com","port":27025,"enabled":true,"region":"au","cc":"au","latitude":-33.865143,"longitude":151.2099,"reserved":0,"last_update":"0001-01-01T00:00:00Z","name_a2s":"Uncletopia | Sydney | 2 | All Maps","protocol":17,"map":"koth_lakeside_final","folder":"tf","game":"Team Fortress","app_id":440,"player_count":0,"max_players":24,"Bots":0,"server_type":"Dedicated","server_os":"Linux","password":true,"vac":true,"version":"7961495","steam_id":85568392924470002,"keywords":["cp","nocrits","nodmgspread","uncletopia"],"game_id":440,"stv_port":27026,"stv_name":"Uncletopia | Sydney | 2 | All Maps | STV","players":null},{"server_id":395,"name":"Uncletopia | Sydney | 3 | All Maps","name_short":"syd-3","host":"syd-1.au.uncletopia.com","port":27035,"enabled":true,"region":"au","cc":"au","latitude":-33.865143,"longitude":151.2099,"reserved":0,"last_update":"0001-01-01T00:00:00Z","name_a2s":"Uncletopia | Sydney | 3 | All Maps","protocol":17,"map":"cp_mountainlab","folder":"tf","game":"Team Fortress","app_id":440,"player_count":0,"max_players":24,"Bots":0,"server_type":"Dedicated","server_os":"Linux","password":true,"vac":true,"version":"7961495","steam_id":85568392925194467,"keywords":["cp","nocrits","nodmgspread","uncletopia"],"game_id":440,"stv_port":27036,"stv_name":"Uncletopia | Sydney | 3 | All Maps | STV","players":null},{"server_id":396,"name":"Uncletopia | Sydney | 4 | All Maps","name_short":"syd-4","host":"syd-1.au.uncletopia.com","port":27045,"enabled":true,"region":"au","cc":"au","latitude":-33.865143,"longitude":151.2099,"reserved":0,"last_update":"0001-01-01T00:00:00Z","name_a2s":"Uncletopia | Sydney | 4 | All Maps","protocol":17,"map":"pl_barnblitz","folder":"tf","game":"Team Fortress","app_id":440,"player_count":0,"max_players":24,"Bots":0,"server_type":"Dedicated","server_os":"Linux","password":true,"vac":true,"version":"7961495","steam_id":85568392925397958,"keywords":["nocrits","nodmgspread","payload","uncletopia"],"game_id":440,"stv_port":27046,"stv_name":"Uncletopia | Sydney | 4 | All Maps | STV","players":null},{"server_id":58,"name":"Uncletopia | Sydney | 5 | Stopwatch","name_short":"syd-5","host":"syd-1.au.uncletopia.com","port":27055,"enabled":true,"region":"au","cc":"au","latitude":-33.865143,"longitude":151.2099,"reserved":0,"last_update":"0001-01-01T00:00:00Z","name_a2s":"Uncletopia | Sydney | 5 | Stopwatch","protocol":17,"map":"workshop/koth_clearcut_b15.ugc2107050255","folder":"tf","game":"Team Fortress","app_id":440,"player_count":0,"max_players":24,"Bots":0,"server_type":"Dedicated","server_os":"Linux","password":true,"vac":true,"version":"7961495","steam_id":85568392925397959,"keywords":["cp","nocrits","nodmgspread","uncletopia"],"game_id":440,"stv_port":27056,"stv_name":"Uncletopia | Sydney | 5 | Stopwatch | STV","players":null},{"server_id":59,"name":"Uncletopia | Sydney | 6 | Community","name_short":"syd-6","host":"syd-1.au.uncletopia.com","port":27065,"enabled":true,"region":"au","cc":"au","latitude":-33.865143,"longitude":151.2099,"reserved":0,"last_update":"0001-01-01T00:00:00Z","name_a2s":"Uncletopia | Sydney | 6 | Community","protocol":17,"map":"cp_sunshine","folder":"tf","game":"Team Fortress","app_id":440,"player_count":0,"max_players":24,"Bots":0,"server_type":"Dedicated","server_os":"Linux","password":true,"vac":true,"version":"7961495","steam_id":85568392925397960,"keywords":["cp","nocrits","nodmgspread","uncletopia"],"game_id":440,"stv_port":27066,"stv_name":"Uncletopia | Sydney | 6 | Community | STV","players":null},{"server_id":49,"name":"Uncletopia | Warsaw | 1 | All Maps","name_short":"waw-1","host":"waw-1.pl.uncletopia.com","port":27015,"enabled":true,"region":"eu","cc":"pl","latitude":52.2297,"longitude":21.017532,"reserved":0,"last_update":"0001-01-01T00:00:00Z","name_a2s":"Uncletopia | Warsaw | 1 | All Maps","protocol":17,"map":"cp_altitude","folder":"tf","game":"Team Fortress","app_id":440,"player_count":0,"max_players":24,"Bots":0,"server_type":"Dedicated","server_os":"Linux","password":true,"vac":true,"version":"7961495","steam_id":85568392925397850,"keywords":["cp","nocrits","nodmgspread","uncletopia"],"game_id":440,"stv_port":27016,"stv_name":"Uncletopia | Warsaw | 1 | All Maps | STV","players":null},{"server_id":50,"name":"Uncletopia | Warsaw | 2 | All Maps","name_short":"waw-2","host":"waw-1.pl.uncletopia.com","port":27025,"enabled":true,"region":"eu","cc":"pl","latitude":52.2297,"longitude":21.017532,"reserved":0,"last_update":"0001-01-01T00:00:00Z","name_a2s":"Uncletopia | Warsaw | 2 | All Maps","protocol":17,"map":"koth_cascade","folder":"tf","game":"Team Fortress","app_id":440,"player_count":0,"max_players":24,"Bots":0,"server_type":"Dedicated","server_os":"Linux","password":true,"vac":true,"version":"7961495","steam_id":85568392925397851,"keywords":["cp","nocrits","nodmgspread","uncletopia"],"game_id":440,"stv_port":27026,"stv_name":"Uncletopia | Warsaw | 2 | All Maps | STV","players":null},{"server_id":51,"name":"Uncletopia | Warsaw | 3 | All Maps","name_short":"waw-3","host":"waw-1.pl.uncletopia.com","port":27035,"enabled":true,"region":"eu","cc":"pl","latitude":52.2297,"longitude":21.017532,"reserved":0,"last_update":"0001-01-01T00:00:00Z","name_a2s":"Uncletopia | Warsaw | 3 | All Maps","protocol":17,"map":"pl_frontier_final","folder":"tf","game":"Team Fortress","app_id":440,"player_count":0,"max_players":24,"Bots":0,"server_type":"Dedicated","server_os":"Linux","password":true,"vac":true,"version":"7961495","steam_id":85568392925397852,"keywords":["nocrits","nodmgspread","payload","uncletopia"],"game_id":440,"stv_port":27036,"stv_name":"Uncletopia | Warsaw | 3 | All Maps | STV","players":null},{"server_id":52,"name":"Uncletopia | Warsaw | 4 | All Maps","name_short":"waw-4","host":"waw-1.pl.uncletopia.com","port":27045,"enabled":true,"region":"eu","cc":"pl","latitude":52.2297,"longitude":21.017532,"reserved":0,"last_update":"0001-01-01T00:00:00Z","name_a2s":"Uncletopia | Warsaw | 4 | All Maps","protocol":17,"map":"koth_lakeside_final","folder":"tf","game":"Team Fortress","app_id":440,"player_count":0,"max_players":24,"Bots":0,"server_type":"Dedicated","server_os":"Linux","password":true,"vac":true,"version":"7961495","steam_id":85568392925397853,"keywords":["cp","nocrits","nodmgspread","uncletopia"],"game_id":440,"stv_port":27046,"stv_name":"Uncletopia | Warsaw | 4 | All Maps | STV","players":null},{"server_id":53,"name":"Uncletopia | Warsaw | 5 | Stopwatch","name_short":"waw-5","host":"waw-1.pl.uncletopia.com","port":27055,"enabled":true,"region":"eu","cc":"pl","latitude":52.2297,"longitude":21.017532,"reserved":0,"last_update":"0001-01-01T00:00:00Z","name_a2s":"Uncletopia | Warsaw | 5 | Stopwatch","protocol":17,"map":"workshop/pl_vigil_rc10.ugc1266210012","folder":"tf","game":"Team Fortress","app_id":440,"player_count":0,"max_players":24,"Bots":0,"server_type":"Dedicated","server_os":"Linux","password":true,"vac":true,"version":"7961495","steam_id":85568392925397854,"keywords":["nocrits","nodmgspread","payload","uncletopia"],"game_id":440,"stv_port":27056,"stv_name":"Uncletopia | Warsaw | 5 | Stopwatch | STV","players":null},{"server_id":54,"name":"Uncletopia | Warsaw | 6 | Community","name_short":"waw-6","host":"waw-1.pl.uncletopia.com","port":27065,"enabled":true,"region":"eu","cc":"pl","latitude":52.2297,"longitude":21.017532,"reserved":0,"last_update":"0001-01-01T00:00:00Z","name_a2s":"Uncletopia | Warsaw | 6 | Community","protocol":17,"map":"workshop/cp_mannbase_rc2a.ugc1900737467","folder":"tf","game":"Team Fortress","app_id":440,"player_count":0,"max_players":24,"Bots":0,"server_type":"Dedicated","server_os":"Linux","password":true,"vac":true,"version":"7961495","steam_id":85568392925397856,"keywords":["cp","nocrits","nodmgspread","uncletopia"],"game_id":440,"stv_port":27066,"stv_name":"Uncletopia | Warsaw | 6 | Community | STV","players":null}]}