{"status":true,"message":"","result":[{"server_id":9,"name":"Uncletopia | Atlanta | 1 | All Maps","name_short":"atl-1","host":"atl-1.us.uncletopia.com","port":27015,"enabled":true,"region":"us-east","cc":"us","latitude":33.753746,"longitude":-84.38633,"reserved":0,"last_update":"0001-01-01T00:00:00Z","name_a2s":"Uncletopia | Atlanta | 1 | All Maps","protocol":17,"map":"cp_sunshine","folder":"tf","game":"Team Fortress","app_id":440,"player_count":24,"max_players":24,"Bots":0,"server_type":"Dedicated","server_os":"Linux","password":true,"vac":true,"version":"7961495","steam_id":85568392924469982,"keywords":["cp","nocrits","nodmgspread","uncletopia"],"game_id":440,"stv_port":27016,"stv_name":"Uncletopia | Atlanta | 1 | All Maps | STV","players":null},{"server_id":104,"name":"Uncletopia | Atlanta | 2 | All Maps","name_short":"atl-2","host":"atl-1.us.uncletopia.com","port":27025,"enabled":true,"region":"us-east","cc":"us","latitude":33.753746,"longitude":-84.38633,"reserved":0,"last_update":"0001-01-01T00:00:00Z","name_a2s":"Uncletopia | Atlanta | 2 | All Maps","protocol":17,"map":"pl_upward","folder":"tf","game":"Team Fortress","app_id":440,"player_count":24,"max_players":24,"Bots":0,"server_type":"Dedicated","server_os":"Linux","password":true,"vac":true,"version":"7961495","steam_id":85568392924469983,"keywords":["nocrits","nodmgspread","payload","uncletopia"],"game_id":440,"stv_port":27026,"stv_name":"Uncletopia | Atlanta | 2 | All Maps | STV","players":null},{"server_id":400,"name":"Uncletopia | Atlanta | 3 | Stopwatch","name_short":"atl-3","host":"atl-1.us.uncletopia.com","port":27035,"enabled":true,"region":"us-east","cc":"us","latitude":33.753746,"longitude":-84.38633,"reserved":0,"last_update":"0001-01-01T00:00:00Z","name_a2s":"Uncletopia | Atlanta | 3 | Stopwatch","protocol":17,"map":"pl_vigil_rc10","folder":"tf","game":"Team Fortress","app_id":440,"player_count":9,"max_players":24,"Bots":0,"server_type":"Dedicated","server_os":"Linux","password":true,"vac":true,"version":"7961495","steam_id":85568392924515187,"keywords":["nocrits","nodmgspread","payload","uncletopia"],"game_id":440,"stv_port":27036,"stv_name":"Uncletopia | Atlanta | 3 | Stopwatch | STV","players":null},{"server_id":401,"name":"Uncletopia | Atlanta | 4 | Community","name_short":"atl-4","host":"atl-1.us.uncletopia.com","port":27045,"enabled":true,"region":"us-east","cc":"us","latitude":33.753746,"longitude":-84.38633,"reserved":0,"last_update":"0001-01-01T00:00:00Z","name_a2s":"Uncletopia | Atlanta | 4 | Community","protocol":17,"map":"cp_overgrown_rc8","folder":"tf","game":"Team Fortress","app_id":440,"player_count":21,"max_players":24,"Bots":0,"server_type":"Dedicated","server_os":"Linux","password":true,"vac":true,"version":"7961495","steam_id":85568392924515188,"keywords":["cp","nocrits","nodmgspread","uncletopia"],"game_id":440,"stv_port":27046,"stv_name":"Uncletopia | Atlanta | 4 | Community | STV","players":null},{"server_id":2,"name":"Uncletopia | Chicago | 1 | All Maps","name_short":"chi-1","host":"chi-1.us.uncletopia.com","port":27015,"enabled":true,"region":"us-central","cc":"us","latitude":41.881832,"longitude":-87.62318,"reserved":0,"last_update":"0001-01-01T00:00:00Z","name_a2s":"Uncletopia | Chicago | 1 | All Maps","protocol":17,"map":"pl_thundermountain","folder":"tf","game":"Team Fortress","app_id":440,"player_count":23,"max_players":24,"Bots":0,"server_type":"Dedicated","server_os":"Linux","password":true,"vac":true,"version":"7961495","steam_id":85568392924469984,"keywords":["nocrits","nodmgspread","payload","uncletopia"],"game_id":440,"stv_port":27016,"stv_name":"Uncletopia | Chicago | 1 | All Maps | STV","players":[{"user_id":682,"name":"fishy","steam_id":76561198018622305,"connected_time":2782000000000,"state":"active","ping":69},{"user_id":678,"name":"thecal","steam_id":76561198307893384,"connected_time":3579000000000,"state":"active","ping":58},{"user_id":689,"name":"what the freak","steam_id":76561198080754727,"connected_time":2304000000000,"state":"active","ping":83},{"user_id":694,"name":"Toottoot","steam_id":76561197992404836,"connected_time":1884000000000,"state":"active","ping":47},{"user_id":739,"name":"flappyflap2","steam_id":76561198285048973,"connected_time":618000000000,"state":"active","ping":62},{"user_id":724,"name":"C/Spoons","steam_id":76561198019227661,"connected_time":1029000000000,"state":"active","ping":50},{"user_id":695,"name":"Crab Rangoon","steam_id":76561198059310510,"connected_time":1724000000000,"state":"active","ping":61},{"user_id":626,"name":"TheOneZoot","steam_id":76561198121944243,"connected_time":6941000000000,"state":"active","ping":62},{"user_id":740,"name":"[TF2Apples] Intense Green Apple","steam_id":76561198803561622,"connected_time":240000000000,"state":"active","ping":77},{"user_id":725,"name":"Spy Gaming","steam_id":76561198453295613,"connected_time":1008000000000,"state":"active","ping":115},{"user_id":726,"name":"dunk","steam_id":76561198132476501,"connected_time":972000000000,"state":"active","ping":53},{"user_id":734,"name":"Apsev","steam_id":76561198119867604,"connected_time":783000000000,"state":"active","ping":63},{"user_id":637,"name":".JIFF","steam_id":76561198045181760,"connected_time":6683000000000,"state":"active","ping":62},{"user_id":735,"name":"Jasper Zawn","steam_id":76561198077651204,"connected_time":736000000000,"state":"active","ping":63},{"user_id":699,"name":"Draconic Ballad","steam_id":76561198027191515,"connected_time":1586000000000,"state":"active","ping":56},{"user_id":687,"name":"Goose","steam_id":76561198328998533,"connected_time":2335000000000,"state":"active","ping":49},{"user_id":655,"name":"SPIRE_FAN","steam_id":76561198001486573,"connected_time":5148000000000,"state":"active","ping":70},{"user_id":674,"name":"A Shiny Meat Bicycle","steam_id":76561198358757709,"connected_time":3775000000000,"state":"active","ping":97},{"user_id":671,"name":"Head Mod Dads","steam_id":76561198443141114,"connected_time":3969000000000,"state":"active","ping":85},{"user_id":692,"name":"Cdesmondd","steam_id":76561198072774462,"connected_time":2266000000000,"state":"active","ping":63},{"user_id":696,"name":"Ahmed","steam_id":76561198123927752,"connected_time":1678000000000,"state":"active","ping":56},{"user_id":705,"name":"MelonLikeAFelon","steam_id":76561198060170336,"connected_time":1395000000000,"state":"active","ping":68},{"user_id":707,"name":"SpiderJew","steam_id":76561198165770364,"connected_time":1386000000000,"state":"active","ping":93}]},{"server_id":106,"name":"Uncletopia | Chicago | 2 | All Maps","name_short":"chi-2","host":"chi-1.us.uncletopia.com","port":27025,"enabled":true,"region":"us-central","cc":"us","latitude":41.881832,"longitude":-87.62318,"reserved":0,"last_update":"0001-01-01T00:00:00Z","name_a2s":"Uncletopia | Chicago | 2 | All Maps","protocol":17,"map":"cp_snakewater_final1","folder":"tf","game":"Team Fortress","app_id":440,"player_count":24,"max_players":24,"Bots":0,"server_type":"Dedicated","server_os":"Linux","password":true,"vac":true,"version":"7961495","steam_id":85568392924469985,"keywords":["cp","nocrits","nodmgspread","uncletopia"],"game_id":440,"stv_port":27026,"stv_name":"Uncletopia | Chicago | 2 | All Maps | STV","players":[{"user_id":676,"name":"Mr. Tickle","steam_id":76561198126684647,"connected_time":660000000000,"state":"active","ping":58},{"user_id":620,"name":"something inside you is wrong","steam_id":76561198079416036,"connected_time":3468000000000,"state":"active","ping":44},{"user_id":679,"name":"Zing","steam_id":76561198097160898,"connected_time":630000000000,"state":"active","ping":49},{"user_id":630,"name":"Carpet enthusiast","steam_id":76561198024040142,"connected_time":3228000000000,"state":"active","ping":98},{"user_id":664,"name":"ElephantHydrogen4277882","steam_id":76561198175741741,"connected_time":1400000000000,"state":"active","ping":76},{"user_id":690,"name":"The Ugly Duckling","steam_id":76561199173272483,"connected_time":273000000000,"state":"active","ping":90},{"user_id":688,"name":"CrimsonUltra","steam_id":76561198163475615,"connected_time":351000000000,"state":"active","ping":80},{"user_id":681,"name":"TheBanditScout","steam_id":76561198380435383,"connected_time":562000000000,"state":"active","ping":90},{"user_id":683,"name":"that_man4","steam_id":76561198133102865,"connected_time":514000000000,"state":"active","ping":72},{"user_id":678,"name":"TAMU ClariNate","steam_id":76561198452988152,"connected_time":645000000000,"state":"active","ping":67},{"user_id":655,"name":"i suffer from ligma","steam_id":76561199158496518,"connected_time":1799000000000,"state":"active","ping":133},{"user_id":647,"name":"donn","steam_id":76561198113080083,"connected_time":2082000000000,"state":"active","ping":56},{"user_id":692,"name":"HoaroBatty","steam_id":76561198120361221,"connected_time":138000000000,"state":"active","ping":75},{"user_id":663,"name":"for the king","steam_id":76561197973488858,"connected_time":1497000000000,"state":"active","ping":60},{"user_id":691,"name":"jerma but crying and lesbian","steam_id":76561198110661425,"connected_time":240000000000,"state":"active","ping":51},{"user_id":660,"name":"Mushroom","steam_id":76561198980693043,"connected_time":1712000000000,"state":"active","ping":75},{"user_id":624,"name":"derdds","steam_id":76561198034339940,"connected_time":3387000000000,"state":"active","ping":59},{"user_id":689,"name":"BB Lorexav","steam_id":76561198207565988,"connected_time":305000000000,"state":"active","ping":78},{"user_id":685,"name":"tsun.","steam_id":76561198079488962,"connected_time":507000000000,"state":"active","ping":100},{"user_id":686,"name":"Sqooky","steam_id":76561198838054669,"connected_time":494000000000,"state":"active","ping":73},{"user_id":659,"name":"Qwerty","steam_id":76561198023525894,"connected_time":1761000000000,"state":"active","ping":167},{"user_id":687,"name":"Captain Emerald The Changeling","steam_id":76561198320651177,"connected_time":491000000000,"state":"active","ping":71},{"user_id":651,"name":"Bearegard","steam_id":76561198061926542,"connected_time":2068000000000,"state":"active","ping":66},{"user_id":674,"name":"lol boobs","steam_id":76561198249206656,"connected_time":896000000000,"state":"active","ping":66}]},{"server_id":402,"name":"Uncletopia | Chicago | 3 | All Maps","name_short":"chi-3","host":"chi-1.us.uncletopia.com","port":27035,"enabled":true,"region":"us-central","cc":"us","latitude":41.881832,"longitude":-87.62318,"reserved":0,"last_update":"0001-01-01T00:00:00Z","name_a2s":"Uncletopia | Chicago | 3 | All Maps","protocol":17,"map":"pl_swiftwater_final1","folder":"tf","game":"Team Fortress","app_id":440,"player_count":24,"max_players":24,"Bots":0,"server_type":"Dedicated","server_os":"Linux","password":true,"vac":true,"version":"7961495","steam_id":85568392924515191,"keywords":["nocrits","nodmgspread","payload","uncletopia"],"game_id":440,"stv_port":27036,"stv_name":"Uncletopia | Chicago | 3 | All Maps | STV","players":[{"user_id":519,"name":"[DATS➡] Sugar Meowth","steam_id":76561197995251793,"connected_time":222000000000,"state":"active","ping":88},{"user_id":469,"name":"Acuzik","steam_id":76561198045453400,"connected_time":4039000000000,"state":"active","ping":51},{"user_id":514,"name":"pHsHy","steam_id":76561198013195018,"connected_time":824000000000,"state":"active","ping":75},{"user_id":504,"name":"Saul Goodman","steam_id":76561198157305426,"connected_time":1747000000000,"state":"active","ping":61},{"user_id":515,"name":"Tattletails","steam_id":76561198055690341,"connected_time":814000000000,"state":"active","ping":167},{"user_id":497,"name":"Dynamite-DC","steam_id":76561198132300175,"connected_time":2213000000000,"state":"active","ping":81},{"user_id":471,"name":"Braingoo Hex","steam_id":76561198083094783,"connected_time":4036000000000,"state":"active","ping":102},{"user_id":506,"name":"the flying spoon","steam_id":76561199039152146,"connected_time":1665000000000,"state":"active","ping":72},{"user_id":490,"name":"cheetaz","steam_id":76561198224614084,"connected_time":2719000000000,"state":"active","ping":69},{"user_id":472,"name":"Bobby","steam_id":76561198037803087,"connected_time":4030000000000,"state":"active","ping":73},{"user_id":518,"name":"Renegade","steam_id":76561198066847055,"connected_time":267000000000,"state":"active","ping":56},{"user_id":517,"name":"Sicko Mode (Chris Pratt Cover)","steam_id":76561198315786174,"connected_time":291000000000,"state":"active","ping":74},{"user_id":520,"name":"TinyTator","steam_id":76561198799282234,"connected_time":189000000000,"state":"active","ping":77},{"user_id":499,"name":"Person","steam_id":76561198093244204,"connected_time":2193000000000,"state":"active","ping":75},{"user_id":477,"name":"winning","steam_id":76561198003206947,"connected_time":3799000000000,"state":"active","ping":71},{"user_id":521,"name":"Meh","steam_id":76561198078187920,"connected_time":173000000000,"state":"active","ping":86},{"user_id":489,"name":"salad","steam_id":76561198246701796,"connected_time":2822000000000,"state":"active","ping":78},{"user_id":492,"name":"Marble Eating Contest","steam_id":76561198037072888,"connected_time":2430000000000,"state":"active","ping":46},{"user_id":498,"name":"BoopingBears","steam_id":76561198346929455,"connected_time":2212000000000,"state":"active","ping":94},{"user_id":522,"name":"Cat Fortress","steam_id":76561198103496593,"connected_time":132000000000,"state":"active","ping":62},{"user_id":510,"name":"Kim Wexler","steam_id":76561198964107245,"connected_time":1280000000000,"state":"active","ping":99},{"user_id":523,"name":"Hey","steam_id":76561198447517893,"connected_time":108000000000,"state":"active","ping":74},{"user_id":512,"name":"Soup","steam_id":76561198079000665,"connected_time":1242000000000,"state":"active","ping":60},{"user_id":502,"name":"Kuji","steam_id":76561198236039258,"connected_time":1919000000000,"state":"active","ping":73}]},{"server_id":403,"name":"Uncletopia | Chicago | 4 | All Maps","name_short":"chi-4","host":"chi-1.us.uncletopia.com","port":27045,"enabled":true,"region":"us-central","cc":"us","latitude":41.881832,"longitude":-87.62318,"reserved":0,"last_update":"0001-01-01T00:00:00Z","name_a2s":"Uncletopia | Chicago | 4 | All Maps","protocol":17,"map":"pl_borneo","folder":"tf","game":"Team Fortress","app_id":440,"player_count":24,"max_players":24,"Bots":0,"server_type":"Dedicated","server_os":"Linux","password":true,"vac":true,"version":"7961495","steam_id":85568392924515193,"keywords":["nocrits","nodmgspread","payload","uncletopia"],"game_id":440,"stv_port":27046,"stv_name":"Uncletopia | Chicago | 4 | All Maps | STV","players":[{"user_id":374,"name":"big boobs","steam_id":76561198151150175,"connected_time":1043000000000,"state":"active","ping":50},{"user_id":305,"name":"ameritech","steam_id":76561198064769089,"connected_time":7996000000000,"state":"active","ping":54},{"user_id":385,"name":"Baby gaming","steam_id":76561198867319323,"connected_time":449000000000,"state":"active","ping":63},{"user_id":363,"name":"guy","steam_id":76561198079925551,"connected_time":2185000000000,"state":"active","ping":70},{"user_id":356,"name":"An Erect Penis :)","steam_id":76561198086477485,"connected_time":2557000000000,"state":"active","ping":38},{"user_id":388,"name":"Diplodocus","steam_id":76561198023323121,"connected_time":119000000000,"state":"active","ping":94},{"user_id":323,"name":"RusticCarp42989","steam_id":76561198361151865,"connected_time":6856000000000,"state":"active","ping":118},{"user_id":368,"name":"McGruble","steam_id":76561198136317340,"connected_time":1812000000000,"state":"active","ping":87},{"user_id":371,"name":"L to the OG","steam_id":76561199215811448,"connected_time":1200000000000,"state":"active","ping":71},{"user_id":381,"name":"can you help me with my homewor","steam_id":76561198408159536,"connected_time":568000000000,"state":"active","ping":47},{"user_id":391,"name":"ntjohn","steam_id":76561198043367011,"connected_time":44000000000,"state":"active","ping":66},{"user_id":373,"name":"vhs","steam_id":76561198880644978,"connected_time":1134000000000,"state":"active","ping":99},{"user_id":389,"name":"Neophyte","steam_id":76561198027183394,"connected_time":67000000000,"state":"active","ping":98},{"user_id":270,"name":"Jojoker","steam_id":76561198049833406,"connected_time":9556000000000,"state":"active","ping":73},{"user_id":335,"name":"SiltyStar85","steam_id":76561198309175923,"connected_time":5338000000000,"state":"active","ping":75},{"user_id":367,"name":"eat Pant","steam_id":76561197974965536,"connected_time":1972000000000,"state":"active","ping":59},{"user_id":384,"name":"A lost cow.","steam_id":76561198047673765,"connected_time":475000000000,"state":"active","ping":75},{"user_id":325,"name":"Outta Kenya","steam_id":76561198153604875,"connected_time":6800000000000,"state":"active","ping":85},{"user_id":390,"name":"Stapler","steam_id":76561198099295077,"connected_time":50000000000,"state":"active","ping":103},{"user_id":387,"name":"thetroupegang","steam_id":76561198340510098,"connected_time":386000000000,"state":"active","ping":69},{"user_id":382,"name":"agrarian.community42","steam_id":76561198063313115,"connected_time":566000000000,"state":"active","ping":60},{"user_id":320,"name":"The Jar","steam_id":76561198146013385,"connected_time":6966000000000,"state":"active","ping":77},{"user_id":364,"name":"TheSecretNewbie","steam_id":76561198194671218,"connected_time":2179000000000,"state":"active","ping":45},{"user_id":302,"name":"Pilotcashew","steam_id":76561198831032108,"connected_time":8033000000000,"state":"active","ping":75}]},{"server_id":36,"name":"Uncletopia | Chicago | 5 | All Maps","name_short":"chi-5","host":"chi-2.us.uncletopia.com","port":27015,"enabled":true,"region":"us-central","cc":"us","latitude":41.881832,"longitude":-87.62318,"reserved":0,"last_update":"0001-01-01T00:00:00Z","name_a2s":"Uncletopia | Chicago | 5 | All Maps","protocol":17,"map":"pl_frontier_final","folder":"tf","game":"Team Fortress","app_id":440,"player_count":19,"max_players":24,"Bots":0,"server_type":"Dedicated","server_os":"Linux","password":true,"vac":true,"version":"7961495","steam_id":85568392924866362,"keywords":["nocrits","nodmgspread","payload","uncletopia"],"game_id":440,"stv_port":27016,"stv_name":"Uncletopia | Chicago | 5 | All Maps | STV","players":[{"user_id":596,"name":"TheConchinator","steam_id":76561199388149092,"connected_time":462000000000,"state":"active","ping":59},{"user_id":597,"name":"flare","steam_id":76561198048623485,"connected_time":456000000000,"state":"active","ping":63},{"user_id":595,"name":"the album dariacore by leroy","steam_id":76561198061497429,"connected_time":562000000000,"state":"active","ping":63},{"user_id":392,"name":"zpalmtree","steam_id":76561198134307620,"connected_time":15537000000000,"state":"active","ping":71},{"user_id":604,"name":"Aerobro","steam_id":76561198033530996,"connected_time":73000000000,"state":"active","ping":87},{"user_id":514,"name":"[MRY] Sk-iLite","steam_id":76561198041797350,"connected_time":7859000000000,"state":"active","ping":74},{"user_id":576,"name":"roman","steam_id":76561198170066797,"connected_time":2674000000000,"state":"active","ping":63},{"user_id":584,"name":"DonoC","steam_id":76561198274473338,"connected_time":1673000000000,"state":"active","ping":78},{"user_id":545,"name":"uhooter","steam_id":76561198007829078,"connected_time":4777000000000,"state":"active","ping":58},{"user_id":603,"name":"Snoogs","steam_id":76561198444880931,"connected_time":385000000000,"state":"active","ping":75},{"user_id":553,"name":"Retro Phoenix","steam_id":76561198077176271,"connected_time":4558000000000,"state":"active","ping":65},{"user_id":557,"name":"Cowbo #enablecrits","steam_id":76561198081220016,"connected_time":4034000000000,"state":"active","ping":47},{"user_id":601,"name":"Rd2l EST Sunday Champion","steam_id":76561198214059091,"connected_time":421000000000,"state":"active","ping":73},{"user_id":549,"name":"lalalemons","steam_id":76561198243965308,"connected_time":4735000000000,"state":"active","ping":81},{"user_id":589,"name":"Selment","steam_id":76561198026489601,"connected_time":1257000000000,"state":"active","ping":48},{"user_id":537,"name":"MintHaggis","steam_id":76561198006674825,"connected_time":5971000000000,"state":"active","ping":79},{"user_id":586,"name":"Bored Barred Owl","steam_id":76561198263895597,"connected_time":1586000000000,"state":"active","ping":82},{"user_id":587,"name":"sooty","steam_id":76561198830243167,"connected_time":1335000000000,"state":"active","ping":74},{"user_id":594,"name":"Mufalito","steam_id":76561198951889482,"connected_time":584000000000,"state":"active","ping":135}]},{"server_id":37,"name":"Uncletopia | Chicago | 6 | All Maps","name_short":"chi-6","host":"chi-2.us.uncletopia.com","port":27025,"enabled":true,"region":"us-central","cc":"us","latitude":41.881832,"longitude":-87.62318,"reserved":0,"last_update":"0001-01-01T00:00:00Z","name_a2s":"Uncletopia | Chicago | 6 | All Maps","protocol":17,"map":"pl_upward","folder":"tf","game":"Team Fortress","app_id":440,"player_count":24,"max_players":24,"Bots":0,"server_type":"Dedicated","server_os":"Linux","password":true,"vac":true,"version":"7961495","steam_id":85568392924866363,"keywords":["nocrits","nodmgspread","payload","uncletopia"],"game_id":440,"stv_port":27026,"stv_name":"Uncletopia | Chicago | 6 | All Maps | STV","players":[{"user_id":601,"name":"Gaymer God","steam_id":76561199170208946,"connected_time":715000000000,"state":"active","ping":55},{"user_id":584,"name":"chesterwnimitz","steam_id":76561198062664377,"connected_time":1591000000000,"state":"active","ping":81},{"user_id":556,"name":"birr","steam_id":76561198896091253,"connected_time":3568000000000,"state":"active","ping":124},{"user_id":603,"name":"corviraptor (bison sweep)","steam_id":76561198058284392,"connected_time":220000000000,"state":"active","ping":75},{"user_id":587,"name":"The Huntsman","steam_id":76561198065151236,"connected_time":1300000000000,"state":"active","ping":80},{"user_id":602,"name":"Bombad Jedi","steam_id":76561198043718358,"connected_time":308000000000,"state":"active","ping":71},{"user_id":588,"name":"pup","steam_id":76561198145921847,"connected_time":1294000000000,"state":"active","ping":64},{"user_id":590,"name":"net_fakelag 40","steam_id":76561198968058652,"connected_time":1286000000000,"state":"active","ping":96},{"user_id":591,"name":"Alabit","steam_id":76561198065578560,"connected_time":1264000000000,"state":"active","ping":88},{"user_id":510,"name":"Princess Stinkypants","steam_id":76561198096221632,"connected_time":6303000000000,"state":"active","ping":67},{"user_id":592,"name":"SpiritBear","steam_id":76561198099128035,"connected_time":1259000000000,"state":"active","ping":88},{"user_id":543,"name":"minecraft","steam_id":76561198104345201,"connected_time":4428000000000,"state":"active","ping":69},{"user_id":566,"name":"wise","steam_id":76561198030066204,"connected_time":2776000000000,"state":"active","ping":55},{"user_id":604,"name":"Sunny!!!","steam_id":76561199182586547,"connected_time":94000000000,"state":"active","ping":73},{"user_id":593,"name":"ElectronX","steam_id":76561198116034988,"connected_time":1254000000000,"state":"active","ping":104},{"user_id":540,"name":"Visual Depression","steam_id":76561198825918366,"connected_time":4786000000000,"state":"active","ping":115},{"user_id":594,"name":"rice white","steam_id":76561198320732910,"connected_time":1245000000000,"state":"active","ping":80},{"user_id":583,"name":"fractaldunes","steam_id":76561198118102935,"connected_time":2124000000000,"state":"active","ping":57},{"user_id":570,"name":"Boomerish","steam_id":76561198083946878,"connected_time":2451000000000,"state":"active","ping":78},{"user_id":494,"name":"Hexadecatrack","steam_id":76561198044480181,"connected_time":7368000000000,"state":"active","ping":54},{"user_id":596,"name":"munch","steam_id":76561198820480684,"connected_time":1236000000000,"state":"active","ping":59},{"user_id":597,"name":"START PRAYIN BOY","steam_id":76561198089173996,"connected_time":1233000000000,"state":"active","ping":87},{"user_id":582,"name":"Danny Gonzalez took my kids","steam_id":76561199043573980,"connected_time":2137000000000,"state":"active","ping":61},{"user_id":600,"name":"Shmig","steam_id":76561199039358883,"connected_time":1102000000000,"state":"active","ping":74}]},{"server_id":38,"name":"Uncletopia | Chicago | 7 | Stopwatch","name_short":"chi-7","host":"chi-2.us.uncletopia.com","port":27035,"enabled":true,"region":"us-central","cc":"us","latitude":41.881832,"longitude":-87.62318,"reserved":0,"last_update":"0001-01-01T00:00:00Z","name_a2s":"Uncletopia | Chicago | 7 | Stopwatch","protocol":17,"map":"workshop/koth_product_final.ugc454272353","folder":"tf","game":"Team Fortress","app_id":440,"player_count":0,"max_players":24,"Bots":0,"server_type":"Dedicated","server_os":"Linux","password":true,"vac":true,"version":"7961495","steam_id":85568392924866364,"keywords":["cp","nocrits","nodmgspread","uncletopia"],"game_id":440,"stv_port":27036,"stv_name":"Uncletopia | Chicago | 7 | Stopwatch | STV","players":null},{"server_id":39,"name":"Uncletopia | Chicago | 8 | Community","name_short":"chi-8","host":"chi-2.us.uncletopia.com","port":27045,"enabled":true,"region":"us-central","cc":"us","latitude":41.881832,"longitude":-87.62318,"reserved":0,"last_update":"0001-01-01T00:00:00Z","name_a2s":"Uncletopia | Chicago | 8 | Community","protocol":17,"map":"workshop/pl_shoreleave_rc2.ugc1238849347","folder":"tf","game":"Team Fortress","app_id":440,"player_count":17,"max_players":24,"Bots":0,"server_type":"Dedicated","server_os":"Linux","password":true,"vac":true,"version":"7961495","steam_id":85568392924866365,"keywords":["nocrits","nodmgspread","payload","uncletopia"],"game_id":440,"stv_port":27046,"stv_name":"Uncletopia | Chicago | 8 | Community | STV","players":[{"user_id":130,"name":"Sunflower","steam_id":76561198081223793,"connected_time":849000000000,"state":"active","ping":54},{"user_id":125,"name":"mwee machine","steam_id":76561198047126327,"connected_time":1077000000000,"state":"active","ping":72},{"user_id":119,"name":"Ninjoth","steam_id":76561198038611753,"connected_time":2136000000000,"state":"active","ping":80},{"user_id":134,"name":"shay.wilson","steam_id":76561198005776463,"connected_time":279000000000,"state":"connecting","ping":0},{"user_id":135,"name":"Doc","steam_id":76561198014548140,"connected_time":173000000000,"state":"active","ping":101},{"user_id":136,"name":"G.bo","steam_id":76561198085176270,"connected_time":65000000000,"state":"active","ping":102},{"user_id":99,"name":"Aqzwdrc","steam_id":76561198318727043,"connected_time":3111000000000,"state":"active","ping":86},{"user_id":108,"name":"green bean","steam_id":76561198113099204,"connected_time":2665000000000,"state":"active","ping":85},{"user_id":133,"name":"Andallfor","steam_id":76561198350143349,"connected_time":469000000000,"state":"active","ping":77},{"user_id":88,"name":"Natsuki the Scunt","steam_id":76561199175922684,"connected_time":3718000000000,"state":"active","ping":104},{"user_id":114,"name":"Knooper","steam_id":76561198096149824,"connected_time":2513000000000,"state":"active","ping":136},{"user_id":115,"name":"Catfish","steam_id":76561198088009583,"connected_time":2422000000000,"state":"active","ping":67},{"user_id":120,"name":"Chagalicious","steam_id":76561198044128240,"connected_time":2131000000000,"state":"active","ping":86},{"user_id":102,"name":"saucy jack","steam_id":76561198307012859,"connected_time":3000000000000,"state":"active","ping":84},{"user_id":118,"name":"Generic Name","steam_id":76561198094225684,"connected_time":2402000000000,"state":"active","ping":74},{"user_id":103,"name":"robot with human hair","steam_id":76561198018691308,"connected_time":2996000000000,"state":"active","ping":78},{"user_id":72,"name":"Marineland","steam_id":76561198081285187,"connected_time":4532000000000,"state":"active","ping":76}]},{"server_id":8,"name":"Uncletopia | Dallas | 1 | All Maps","name_short":"dal-1","host":"dal-1.us.uncletopia.com","port":27015,"enabled":true,"region":"us-central","cc":"us","latitude":32.779167,"longitude":-96.80889,"reserved":0,"last_update":"0001-01-01T00:00:00Z","name_a2s":"Uncletopia | Dallas | 1 | All Maps","protocol":17,"map":"pl_barnblitz","folder":"tf","game":"Team Fortress","app_id":440,"player_count":24,"max_players":24,"Bots":0,"server_type":"Dedicated","server_os":"Linux","password":true,"vac":true,"version":"7961495","steam_id":85568392924469986,"keywords":["nocrits","nodmgspread","payload","uncletopia"],"game_id":440,"stv_port":27016,"stv_name":"Uncletopia | Dallas | 1 | All Maps | STV","players":[{"user_id":580,"name":"Locomotive","steam_id":76561199152926930,"connected_time":3117000000000,"state":"active","ping":68},{"user_id":590,"name":"king sir glorious","steam_id":76561198115676070,"connected_time":2857000000000,"state":"active","ping":115},{"user_id":603,"name":"AnnieM","steam_id":76561199435467297,"connected_time":1706000000000,"state":"active","ping":70},{"user_id":607,"name":"PiolaCat","steam_id":76561199100535345,"connected_time":1298000000000,"state":"active","ping":145},{"user_id":556,"name":"Myrkur","steam_id":76561198062448431,"connected_time":5495000000000,"state":"active","ping":92},{"user_id":619,"name":"slinky","steam_id":76561198246183704,"connected_time":381000000000,"state":"active","ping":49},{"user_id":606,"name":"aidenmc3","steam_id":76561198062209166,"connected_time":1450000000000,"state":"active","ping":44},{"user_id":569,"name":"Burny Sanders","steam_id":76561197961879048,"connected_time":4510000000000,"state":"active","ping":44},{"user_id":575,"name":"A Gamer [F2P]","steam_id":76561198138712892,"connected_time":3540000000000,"state":"active","ping":44},{"user_id":555,"name":"Insizhen","steam_id":76561198051352605,"connected_time":5593000000000,"state":"active","ping":58},{"user_id":609,"name":"Jimmy McGill","steam_id":76561198135137213,"connected_time":1268000000000,"state":"active","ping":48},{"user_id":563,"name":"HUESO","steam_id":76561198276383681,"connected_time":4970000000000,"state":"active","ping":83},{"user_id":605,"name":"Dr.Nooo!!!!!!!!","steam_id":76561198064738479,"connected_time":1695000000000,"state":"active","ping":84},{"user_id":525,"name":"RATATATATATA","steam_id":76561198288458595,"connected_time":9625000000000,"state":"active","ping":73},{"user_id":610,"name":"kim wexler","steam_id":76561199199795741,"connected_time":1265000000000,"state":"active","ping":67},{"user_id":599,"name":"Sax","steam_id":76561198055425123,"connected_time":2278000000000,"state":"active","ping":117},{"user_id":620,"name":"Cursed","steam_id":76561199161458959,"connected_time":369000000000,"state":"active","ping":82},{"user_id":626,"name":"EverythingZen","steam_id":76561198257384503,"connected_time":177000000000,"state":"active","ping":88},{"user_id":543,"name":"LampMan","steam_id":76561198079857527,"connected_time":7237000000000,"state":"active","ping":61},{"user_id":616,"name":"lament","steam_id":76561198408747483,"connected_time":454000000000,"state":"active","ping":63},{"user_id":600,"name":"John Wick","steam_id":76561198308193624,"connected_time":2067000000000,"state":"active","ping":67},{"user_id":614,"name":"JtsRes","steam_id":76561197994809241,"connected_time":1049000000000,"state":"active","ping":61},{"user_id":597,"name":"CoolOpossum77","steam_id":76561198085047501,"connected_time":2435000000000,"state":"active","ping":52},{"user_id":624,"name":"Birby","steam_id":76561198884009768,"connected_time":314000000000,"state":"active","ping":100}]},{"server_id":108,"name":"Uncletopia | Dallas | 2 | All Maps","name_short":"dal-2","host":"dal-1.us.uncletopia.com","port":27025,"enabled":true,"region":"us-central","cc":"us","latitude":32.779167,"longitude":-96.80889,"reserved":0,"last_update":"0001-01-01T00:00:00Z","name_a2s":"Uncletopia | Dallas | 2 | All Maps","protocol":17,"map":"pl_swiftwater_final1","folder":"tf","game":"Team Fortress","app_id":440,"player_count":24,"max_players":24,"Bots":0,"server_type":"Dedicated","server_os":"Linux","password":true,"vac":true,"version":"7961495","steam_id":85568392924469988,"keywords":["nocrits","nodmgspread","payload","uncletopia"],"game_id":440,"stv_port":27026,"stv_name":"Uncletopia | Dallas | 2 | All Maps | STV","players":[{"user_id":565,"name":"LittleBoyBlood","steam_id":76561198009842177,"connected_time":1083000000000,"state":"active","ping":107},{"user_id":561,"name":"PancakeSauce","steam_id":76561198404722668,"connected_time":1633000000000,"state":"active","ping":111},{"user_id":574,"name":"Cyan","steam_id":76561198272419685,"connected_time":192000000000,"state":"active","ping":81},{"user_id":548,"name":"schmuck","steam_id":76561198143789773,"connected_time":2645000000000,"state":"active","ping":60},{"user_id":508,"name":"Bombsgamer","steam_id":76561198350009050,"connected_time":7881000000000,"state":"active","ping":83},{"user_id":554,"name":"MrEdman4","steam_id":76561198062233923,"connected_time":2314000000000,"state":"active","ping":88},{"user_id":572,"name":"Withered Bonnie (Real)","steam_id":76561198423310113,"connected_time":477000000000,"state":"active","ping":53},{"user_id":573,"name":"Greasy Guavas","steam_id":76561198089650428,"connected_time":284000000000,"state":"active","ping":62},{"user_id":563,"name":"Moonflower ✦","steam_id":76561198191782483,"connected_time":1325000000000,"state":"active","ping":51},{"user_id":555,"name":"Skeleop","steam_id":76561198981106464,"connected_time":2306000000000,"state":"active","ping":77},{"user_id":516,"name":"small meth pouch","steam_id":76561198130412963,"connected_time":7527000000000,"state":"active","ping":62},{"user_id":478,"name":"Gary Busey","steam_id":76561197970096950,"connected_time":9165000000000,"state":"active","ping":41},{"user_id":564,"name":"BLOCKHEAD","steam_id":76561198808224331,"connected_time":1107000000000,"state":"active","ping":125},{"user_id":517,"name":"jensen_","steam_id":76561198150129955,"connected_time":6886000000000,"state":"active","ping":60},{"user_id":566,"name":"feed lips","steam_id":76561197971152439,"connected_time":1065000000000,"state":"active","ping":95},{"user_id":570,"name":"He Come Down","steam_id":76561198232500756,"connected_time":852000000000,"state":"active","ping":72},{"user_id":567,"name":"Seskova","steam_id":76561198090207032,"connected_time":1064000000000,"state":"active","ping":117},{"user_id":531,"name":"winterClover","steam_id":76561198407390017,"connected_time":4942000000000,"state":"active","ping":54},{"user_id":542,"name":"GlingGlop95","steam_id":76561198386865528,"connected_time":3667000000000,"state":"active","ping":83},{"user_id":571,"name":"Yapple Dapple","steam_id":76561198082422815,"connected_time":732000000000,"state":"active","ping":71},{"user_id":552,"name":"penzfan","steam_id":76561198230422640,"connected_time":2350000000000,"state":"active","ping":70},{"user_id":569,"name":"Untermensch","steam_id":76561198149634242,"connected_time":1034000000000,"state":"active","ping":91},{"user_id":539,"name":"8bean","steam_id":76561198239138132,"connected_time":4171000000000,"state":"active","ping":87},{"user_id":556,"name":"the keebler","steam_id":76561199486326945,"connected_time":2298000000000,"state":"active","ping":75}]},{"server_id":404,"name":"Uncletopia | Dallas | 3 | All Maps","name_short":"dal-3","host":"dal-1.us.uncletopia.com","port":27035,"enabled":true,"region":"us-central","cc":"us","latitude":32.779167,"longitude":-96.80889,"reserved":0,"last_update":"0001-01-01T00:00:00Z","name_a2s":"Uncletopia | Dallas | 3 | All Maps","protocol":17,"map":"pl_swiftwater_final1","folder":"tf","game":"Team Fortress","app_id":440,"player_count":23,"max_players":24,"Bots":0,"server_type":"Dedicated","server_os":"Linux","password":true,"vac":true,"version":"7961495","steam_id":85568392924515219,"keywords":["nocrits","nodmgspread","payload","uncletopia"],"game_id":440,"stv_port":27036,"stv_name":"Uncletopia | Dallas | 3 | All Maps | STV","players":[{"user_id":419,"name":"Gamerfan64","steam_id":76561198801410962,"connected_time":1100000000000,"state":"active","ping":38},{"user_id":407,"name":"Psychosis","steam_id":76561198078659070,"connected_time":1971000000000,"state":"active","ping":77},{"user_id":406,"name":"Prsm","steam_id":76561198053344995,"connected_time":2019000000000,"state":"active","ping":75},{"user_id":426,"name":"RectalExam","steam_id":76561197970502312,"connected_time":495000000000,"state":"active","ping":67},{"user_id":395,"name":"njk","steam_id":76561199061380038,"connected_time":3471000000000,"state":"active","ping":60},{"user_id":408,"name":"Diable Blanc","steam_id":76561198090102186,"connected_time":1956000000000,"state":"active","ping":75},{"user_id":428,"name":"Demonic Gaming Dragon","steam_id":76561198796877105,"connected_time":257000000000,"state":"active","ping":72},{"user_id":424,"name":"SkoranShogun","steam_id":76561198091811218,"connected_time":631000000000,"state":"active","ping":114},{"user_id":399,"name":"jimmyfnaf172198yay","steam_id":76561198311446636,"connected_time":2990000000000,"state":"active","ping":75},{"user_id":411,"name":"mkl","steam_id":76561197986401685,"connected_time":1872000000000,"state":"active","ping":68},{"user_id":372,"name":"Wang of Wall St","steam_id":76561198047460598,"connected_time":4997000000000,"state":"active","ping":96},{"user_id":396,"name":"Riff III","steam_id":76561198066921423,"connected_time":3244000000000,"state":"active","ping":69},{"user_id":403,"name":"Sup m8","steam_id":76561198081659121,"connected_time":2519000000000,"state":"active","ping":45},{"user_id":427,"name":"Gwuf","steam_id":76561198091503282,"connected_time":292000000000,"state":"active","ping":100},{"user_id":421,"name":"MrTea","steam_id":76561198265593563,"connected_time":871000000000,"state":"active","ping":71},{"user_id":423,"name":"JDizzle","steam_id":76561199122696841,"connected_time":645000000000,"state":"active","ping":83},{"user_id":327,"name":"your little goofy homie","steam_id":76561198967158026,"connected_time":9390000000000,"state":"active","ping":73},{"user_id":412,"name":"Olimar","steam_id":76561197993812175,"connected_time":1871000000000,"state":"active","ping":48},{"user_id":413,"name":"ChickenStripper","steam_id":76561199139295421,"connected_time":1765000000000,"state":"active","ping":95},{"user_id":430,"name":"Bacon","steam_id":76561199078407152,"connected_time":72000000000,"state":"active","ping":84},{"user_id":425,"name":"joebot","steam_id":76561197975606100,"connected_time":613000000000,"state":"active","ping":95},{"user_id":348,"name":"CeLeb144","steam_id":76561199089907740,"connected_time":7735000000000,"state":"active","ping":74},{"user_id":422,"name":"gooch_masta","steam_id":76561198151578423,"connected_time":850000000000,"state":"active","ping":86}]},{"server_id":405,"name":"Uncletopia | Dallas | 4 | Community","name_short":"dal-4","host":"dal-1.us.uncletopia.com","port":27045,"enabled":true,"region":"us-central","cc":"us","latitude":32.779167,"longitude":-96.80889,"reserved":0,"last_update":"0001-01-01T00:00:00Z","name_a2s":"Uncletopia | Dallas | 4 | Community","protocol":17,"map":"workshop/koth_trenchfoot_b1a.ugc731436616","folder":"tf","game":"Team Fortress","app_id":440,"player_count":0,"max_players":24,"Bots":0,"server_type":"Dedicated","server_os":"Linux","password":true,"vac":true,"version":"7961495","steam_id":85568392924515220,"keywords":["cp","nocrits","nodmgspread","uncletopia"],"game_id":440,"stv_port":27046,"stv_name":"Uncletopia | Dallas | 4 | Community | STV","players":null},{"server_id":5,"name":"Uncletopia | Frankfurt | 1 | All Maps","name_short":"frk-1","host":"frk-1.de.uncletopia.com","port":27015,"enabled":true,"region":"eu","cc":"de","latitude":50.110924,"longitude":8.682127,"reserved":0,"last_update":"0001-01-01T00:00:00Z","name_a2s":"Uncletopia | Frankfurt | 1 | All Maps","protocol":17,"map":"cp_5gorge","folder":"tf","game":"Team Fortress","app_id":440,"player_count":0,"max_players":24,"Bots":0,"server_type":"Dedicated","server_os":"Linux","password":true,"vac":true,"version":"7961495","steam_id":85568392924469989,"keywords":["cp","nocrits","nodmgspread","uncletopia"],"game_id":440,"stv_port":27016,"stv_name":"Uncletopia | Frankfurt | 1 | All Maps | STV","players":null},{"server_id":110,"name":"Uncletopia | Frankfurt | 2 | All Maps","name_short":"frk-2","host":"frk-1.de.uncletopia.com","port":27025,"enabled":true,"region":"eu","cc":"de","latitude":50.110924,"longitude":8.682127,"reserved":0,"last_update":"0001-01-01T00:00:00Z","name_a2s":"Uncletopia | Frankfurt | 2 | All Maps","protocol":17,"map":"cp_process_final","folder":"tf","game":"Team Fortress","app_id":440,"player_count":0,"max_players":24,"Bots":0,"server_type":"Dedicated","server_os":"Linux","password":true,"vac":true,"version":"7961495","steam_id":85568392924469990,"keywords":["cp","nocrits","nodmgspread","uncletopia"],"game_id":440,"stv_port":27026,"stv_name":"Uncletopia | Frankfurt | 2 | All Maps | STV","players":null},{"server_id":308,"name":"Uncletopia | Frankfurt | 3 | All Maps","name_short":"frk-3","host":"frk-1.de.uncletopia.com","port":27035,"enabled":true,"region":"eu","cc":"de","latitude":50.110924,"longitude":8.682127,"reserved":0,"last_update":"0001-01-01T00:00:00Z","name_a2s":"Uncletopia | Frankfurt | 3 | All Maps","protocol":17,"map":"pl_borneo","folder":"tf","game":"Team Fortress","app_id":440,"player_count":0,"max_players":24,"Bots":0,"server_type":"Dedicated","server_os":"Linux","password":true,"vac":true,"version":"7961495","steam_id":85568392924504274,"keywords":["nocrits","nodmgspread","payload","uncletopia"],"game_id":440,"stv_port":27036,"stv_name":"Uncletopia | Frankfurt | 3 | All Maps | STV","players":null},{"server_id":309,"name":"Uncletopia | Frankfurt | 4 | All Maps","name_short":"frk-4","host":"frk-1.de.uncletopia.com","port":27045,"enabled":true,"region":"eu","cc":"de","latitude":50.110924,"longitude":8.682127,"reserved":0,"last_update":"0001-01-01T00:00:00Z","name_a2s":"Uncletopia | Frankfurt | 4 | All Maps","protocol":17,"map":"koth_lakeside_final","folder":"tf","game":"Team Fortress","app_id":440,"player_count":0,"max_players":24,"Bots":0,"server_type":"Dedicated","server_os":"Linux","password":true,"vac":true,"version":"7961495","steam_id":85568392924504275,"keywords":["cp","nocrits","nodmgspread","uncletopia"],"game_id":440,"stv_port":27046,"stv_name":"Uncletopia | Frankfurt | 4 | All Maps | STV","players":null},{"server_id":310,"name":"Uncletopia | Frankfurt | 5 | All Maps","name_short":"frk-5","host":"frk-1.de.uncletopia.com","port":27055,"enabled":true,"region":"eu","cc":"de","latitude":50.110924,"longitude":8.682127,"reserved":0,"last_update":"0001-01-01T00:00:00Z","name_a2s":"Uncletopia | Frankfurt | 5 | All Maps","protocol":17,"map":"pl_frontier_final","folder":"tf","game":"Team Fortress","app_id":440,"player_count":0,"max_players":24,"Bots":0,"server_type":"Dedicated","server_os":"Linux","password":true,"vac":true,"version":"7961495","steam_id":85568392924504277,"keywords":["nocrits","nodmgspread","payload","uncletopia"],"game_id":440,"stv_port":27056,"stv_name":"Uncletopia | Frankfurt | 5 | All Maps | STV","players":null},{"server_id":311,"name":"Uncletopia | Frankfurt | 6 | All Maps","name_short":"frk-6","host":"frk-1.de.uncletopia.com","port":27065,"enabled":true,"region":"eu","cc":"de","latitude":50.110924,"longitude":8.682127,"reserved":0,"last_update":"0001-01-01T00:00:00Z","name_a2s":"Uncletopia | Frankfurt | 6 | All Maps","protocol":17,"map":"pl_upward","folder":"tf","game":"Team Fortress","app_id":440,"player_count":0,"max_players":24,"Bots":0,"server_type":"Dedicated","server_os":"Linux","password":true,"vac":true,"version":"7961495","steam_id":85568392924504278,"keywords":["nocrits","nodmgspread","payload","uncletopia"],"game_id":440,"stv_port":27066,"stv_name":"Uncletopia | Frankfurt | 6 | All Maps | STV","players":null},{"server_id":23,"name":"Uncletopia | Frankfurt | 7 | Stopwatch","name_short":"frk-7","host":"frk-1.de.uncletopia.com","port":27075,"enabled":true,"region":"eu","cc":"de","latitude":50.110924,"longitude":8.682127,"reserved":0,"last_update":"0001-01-01T00:00:00Z","name_a2s":"Uncletopia | Frankfurt | 7 | Stopwatch","protocol":17,"map":"pl_borneo","folder":"tf","game":"Team Fortress","app_id":440,"player_count":0,"max_players":24,"Bots":0,"server_type":"Dedicated","server_os":"Linux","password":true,"vac":true,"version":"7961495","steam_id":85568392924742827,"keywords":["nocrits","nodmgspread","payload","uncletopia"],"game_id":440,"stv_port":27076,"stv_name":"Uncletopia | Frankfurt | 7 | Stopwatch | STV","players":null},{"server_id":24,"name":"Uncletopia | Frankfurt | 8 | Community","name_short":"frk-8","host":"frk-1.de.uncletopia.com","port":27085,"enabled":true,"region":"eu","cc":"de","latitude":50.110924,"longitude":8.682127,"reserved":0,"last_update":"0001-01-01T00:00:00Z","name_a2s":"Uncletopia | Frankfurt | 8 | Community","protocol":17,"map":"workshop/pl_boundary_final1.ugc456799153","folder":"tf","game":"Team Fortress","app_id":440,"player_count":0,"max_players":24,"Bots":0,"server_type":"Dedicated","server_os":"Linux","password":true,"vac":true,"version":"7961495","steam_id":85568392924742828,"keywords":["nocrits","nodmgspread","payload","uncletopia"],"game_id":440,"stv_port":27086,"stv_name":"Uncletopia | Frankfurt | 8 | Community | STV","players":null},{"server_id":202,"name":"Uncletopia | Hong Kong | 1 | All Maps","name_short":"hgk-1","host":"hgk-1.hk.uncletopia.com","port":27015,"enabled":true,"region":"asia","cc":"hk","latitude":22.302711,"longitude":114.177216,"reserved":0,"last_update":"0001-01-01T00:00:00Z","name_a2s":"Uncletopia | Hong Kong | 1 | All Maps","protocol":17,"map":"cp_snakewater_final1","folder":"tf","game":"Team Fortress","app_id":440,"player_count":0,"max_players":24,"Bots":0,"server_type":"Dedicated","server_os":"Linux","password":true,"vac":true,"version":"7961495","steam_id":85568392924494504,"keywords":["cp","nocrits","nodmgspread","uncletopia"],"game_id":440,"stv_port":27016,"stv_name":"Uncletopia | Hong Kong | 1 | All Maps | STV","players":null},{"server_id":1,"name":"Uncletopia | Los Angeles | 1 | All Maps","name_short":"lax-1","host":"lax-1.us.uncletopia.com","port":27015,"enabled":true,"region":"us-west","cc":"us","latitude":33.94279,"longitude":-118.41004,"reserved":0,"last_update":"0001-01-01T00:00:00Z","name_a2s":"Uncletopia | Los Angeles | 1 | All Maps","protocol":17,"map":"pl_snowycoast","folder":"tf","game":"Team Fortress","app_id":440,"player_count":24,"max_players":24,"Bots":0,"server_type":"Dedicated","server_os":"Linux","password":true,"vac":true,"version":"7961495","steam_id":85568392924469991,"keywords":["nocrits","nodmgspread","payload","uncletopia"],"game_id":440,"stv_port":27016,"stv_name":"Uncletopia | Los Angeles | 1 | All Maps | STV","players":[{"user_id":257,"name":"Squidlye","steam_id":76561199015857743,"connected_time":8392000000000,"state":"active","ping":93},{"user_id":326,"name":"Vv","steam_id":76561199052196750,"connected_time":3208000000000,"state":"active","ping":83},{"user_id":362,"name":"Starkiller","steam_id":76561198101643120,"connected_time":1157000000000,"state":"active","ping":79},{"user_id":378,"name":"Omega\"Hell's Wall\"EXE","steam_id":76561198395291970,"connected_time":433000000000,"state":"active","ping":52},{"user_id":349,"name":"Mr. Carfox","steam_id":76561198041664428,"connected_time":2587000000000,"state":"active","ping":48},{"user_id":266,"name":"Mom","steam_id":76561198207936000,"connected_time":6912000000000,"state":"active","ping":44},{"user_id":343,"name":"Primordial pouch","steam_id":76561198077993687,"connected_time":2719000000000,"state":"active","ping":121},{"user_id":361,"name":"Altruisticailuridae","steam_id":76561198335295596,"connected_time":1308000000000,"state":"active","ping":60},{"user_id":368,"name":"mr. nine","steam_id":76561198097599414,"connected_time":780000000000,"state":"active","ping":60},{"user_id":375,"name":"roach","steam_id":76561198354811369,"connected_time":505000000000,"state":"active","ping":50},{"user_id":373,"name":"TF2C | fac -AA-","steam_id":76561198009818412,"connected_time":686000000000,"state":"active","ping":90},{"user_id":380,"name":"Harusrl :3","steam_id":76561199013638132,"connected_time":120000000000,"state":"active","ping":126},{"user_id":330,"name":"ark","steam_id":76561198041066271,"connected_time":3029000000000,"state":"active","ping":89},{"user_id":379,"name":"KellyKapoor","steam_id":76561198040828123,"connected_time":431000000000,"state":"active","ping":62},{"user_id":371,"name":"Link_Starr","steam_id":76561198133884015,"connected_time":751000000000,"state":"active","ping":52},{"user_id":347,"name":"Chris Hansen, Kell of Kells","steam_id":76561198986775156,"connected_time":2662000000000,"state":"active","ping":165},{"user_id":365,"name":"missing","steam_id":76561198828676417,"connected_time":881000000000,"state":"active","ping":112},{"user_id":366,"name":"Soupy Meal","steam_id":76561199056842761,"connected_time":868000000000,"state":"active","ping":53},{"user_id":372,"name":"Azosion","steam_id":76561198861267703,"connected_time":747000000000,"state":"active","ping":50},{"user_id":353,"name":"FI LO","steam_id":76561198976530881,"connected_time":2188000000000,"state":"active","ping":35},{"user_id":374,"name":"Krustytoepaste","steam_id":76561198320265524,"connected_time":674000000000,"state":"active","ping":65},{"user_id":357,"name":"Hugs","steam_id":76561198214584133,"connected_time":1804000000000,"state":"active","ping":64},{"user_id":377,"name":"FlashofAsh","steam_id":76561198400422981,"connected_time":482000000000,"state":"active","ping":70},{"user_id":363,"name":"Bodhi","steam_id":76561198043199143,"connected_time":1000000000000,"state":"active","ping":62}]},{"server_id":112,"name":"Uncletopia | Los Angeles | 2 | All Maps","name_short":"lax-2","host":"lax-1.us.uncletopia.com","port":27025,"enabled":true,"region":"us-west","cc":"us","latitude":33.94279,"longitude":-118.41004,"reserved":0,"last_update":"0001-01-01T00:00:00Z","name_a2s":"Uncletopia | Los Angeles | 2 | All Maps","protocol":17,"map":"cp_sunshine","folder":"tf","game":"Team Fortress","app_id":440,"player_count":24,"max_players":24,"Bots":0,"server_type":"Dedicated","server_os":"Linux","password":true,"vac":true,"version":"7961495","steam_id":85568392924469992,"keywords":["cp","nocrits","nodmgspread","uncletopia"],"game_id":440,"stv_port":27026,"stv_name":"Uncletopia | Los Angeles | 2 | All Maps | STV","players":[{"user_id":478,"name":"glue","steam_id":76561198382076026,"connected_time":1047000000000,"state":"active","ping":51},{"user_id":487,"name":"Legokek.Ducc","steam_id":76561198077176221,"connected_time":188000000000,"state":"active","ping":45},{"user_id":464,"name":"TüCold","steam_id":76561198111278197,"connected_time":1417000000000,"state":"active","ping":59},{"user_id":413,"name":"Gerbias","steam_id":76561198001002427,"connected_time":5089000000000,"state":"active","ping":62},{"user_id":462,"name":"Culprit Shy","steam_id":76561198206506481,"connected_time":1492000000000,"state":"active","ping":50},{"user_id":477,"name":"Light","steam_id":76561198317393397,"connected_time":1052000000000,"state":"active","ping":47},{"user_id":472,"name":"robloxscream","steam_id":76561199048027781,"connected_time":1239000000000,"state":"active","ping":67},{"user_id":484,"name":"Drilly22","steam_id":76561198068838338,"connected_time":353000000000,"state":"active","ping":88},{"user_id":488,"name":"walrooos","steam_id":76561198024521839,"connected_time":112000000000,"state":"active","ping":46},{"user_id":455,"name":"Michael Pilkington","steam_id":76561198307839694,"connected_time":2544000000000,"state":"active","ping":56},{"user_id":467,"name":"Mk","steam_id":76561198139790822,"connected_time":1357000000000,"state":"active","ping":102},{"user_id":443,"name":"Mocha Josie","steam_id":76561198066452726,"connected_time":3826000000000,"state":"active","ping":58},{"user_id":441,"name":"Grim","steam_id":76561198016978310,"connected_time":3872000000000,"state":"active","ping":72},{"user_id":490,"name":"Skribbles","steam_id":76561198373073766,"connected_time":34000000000,"state":"active","ping":64},{"user_id":486,"name":"boltyKit","steam_id":76561197972581361,"connected_time":302000000000,"state":"active","ping":65},{"user_id":453,"name":"boat dealership","steam_id":76561198262167378,"connected_time":2989000000000,"state":"active","ping":85},{"user_id":444,"name":"actual subhuman garbage","steam_id":76561198056367220,"connected_time":3796000000000,"state":"active","ping":75},{"user_id":448,"name":"The Roto Grip Exotic Gem","steam_id":76561197961141994,"connected_time":3312000000000,"state":"active","ping":115},{"user_id":458,"name":"PandaWithHat2313","steam_id":76561199116285411,"connected_time":2385000000000,"state":"active","ping":57},{"user_id":461,"name":"DuramborosLord","steam_id":76561198330475333,"connected_time":1589000000000,"state":"active","ping":60},{"user_id":401,"name":"Tang","steam_id":76561198121340574,"connected_time":5455000000000,"state":"active","ping":62},{"user_id":480,"name":"havarti gaming","steam_id":76561198069895678,"connected_time":1021000000000,"state":"active","ping":99},{"user_id":489,"name":"nella","steam_id":76561198079349621,"connected_time":92000000000,"state":"active","ping":51},{"user_id":468,"name":"Moshi Man","steam_id":76561198038249762,"connected_time":1352000000000,"state":"active","ping":105}]},{"server_id":324,"name":"Uncletopia | Los Angeles | 3 | All Maps","name_short":"lax-3","host":"lax-1.us.uncletopia.com","port":27035,"enabled":true,"region":"us-west","cc":"us","latitude":33.94279,"longitude":-118.41004,"reserved":0,"last_update":"0001-01-01T00:00:00Z","name_a2s":"Uncletopia | Los Angeles | 3 | All Maps","protocol":17,"map":"koth_highpass","folder":"tf","game":"Team Fortress","app_id":440,"player_count":1,"max_players":24,"Bots":0,"server_type":"Dedicated","server_os":"Linux","password":true,"vac":true,"version":"7961495","steam_id":85568392924510198,"keywords":["cp","nocrits","nodmgspread","uncletopia"],"game_id":440,"stv_port":27036,"stv_name":"Uncletopia | Los Angeles | 3 | All Maps | STV","players":[{"user_id":31,"name":"depeche","steam_id":76561199497603020,"connected_time":10000000000,"state":"active","ping":48}]},{"server_id":25,"name":"Uncletopia | Los Angeles | 4 | Stopwatch","name_short":"lax-4","host":"lax-1.us.uncletopia.com","port":27045,"enabled":true,"region":"us-west","cc":"us","latitude":33.94279,"longitude":-118.41004,"reserved":0,"last_update":"0001-01-01T00:00:00Z","name_a2s":"Uncletopia | Los Angeles | 4 | Stopwatch","protocol":17,"map":"workshop/koth_bagel_rc6.ugc2514036946","folder":"tf","game":"Team Fortress","app_id":440,"player_count":0,"max_players":24,"Bots":0,"server_type":"Dedicated","server_os":"Linux","password":true,"vac":true,"version":"7961495","steam_id":85568392924510199,"keywords":["cp","nocrits","nodmgspread","uncletopia"],"game_id":440,"stv_port":27046,"stv_name":"Uncletopia | Los Angeles | 4 | Stopwatch | STV","players":null},{"server_id":11,"name":"Uncletopia | London | 1 | All Maps","name_short":"lon-1","host":"lon-1.uk.uncletopia.com","port":27015,"enabled":true,"region":"eu","cc":"gb","latitude":51.509865,"longitude":-0.118092,"reserved":0,"last_update":"0001-01-01T00:00:00Z","name_a2s":"Uncletopia | London | 1 | All Maps","protocol":17,"map":"cp_snakewater_final1","folder":"tf","game":"Team Fortress","app_id":440,"player_count":0,"max_players":24,"Bots":0,"server_type":"Dedicated","server_os":"Linux","password":true,"vac":true,"version":"7961495","steam_id":85568392924367362,"keywords":["cp","nocrits","nodmgspread","uncletopia"],"game_id":440,"stv_port":27016,"stv_name":"Uncletopia | London | 1 | All Maps | STV","players":null},{"server_id":114,"name":"Uncletopia | London | 2 | All Maps","name_short":"lon-2","host":"lon-1.uk.uncletopia.com","port":27025,"enabled":true,"region":"eu","cc":"gb","latitude":51.509865,"longitude":-0.118092,"reserved":0,"last_update":"0001-01-01T00:00:00Z","name_a2s":"Uncletopia | London | 2 | All Maps","protocol":17,"map":"cp_snakewater_final1","folder":"tf","game":"Team Fortress","app_id":440,"player_count":2,"max_players":24,"Bots":0,"server_type":"Dedicated","server_os":"Linux","password":true,"vac":true,"version":"7961495","steam_id":85568392924470941,"keywords":["cp","nocrits","nodmgspread","uncletopia"],"game_id":440,"stv_port":27026,"stv_name":"Uncletopia | London | 2 | All Maps | STV","players":[{"user_id":626,"name":"Джекет","steam_id":76561198327897125,"connected_time":7072000000000,"state":"active","ping":103},{"user_id":667,"name":"SUPER HANS","steam_id":76561198342253732,"connected_time":2533000000000,"state":"active","ping":52}]},{"server_id":320,"name":"Uncletopia | London | 3 | All Maps","name_short":"lon-3","host":"lon-1.uk.uncletopia.com","port":27035,"enabled":true,"region":"eu","cc":"gb","latitude":51.509865,"longitude":-0.118092,"reserved":0,"last_update":"0001-01-01T00:00:00Z","name_a2s":"Uncletopia | London | 3 | All Maps","protocol":17,"map":"pl_upward","folder":"tf","game":"Team Fortress","app_id":440,"player_count":0,"max_players":24,"Bots":0,"server_type":"Dedicated","server_os":"Linux","password":true,"vac":true,"version":"7961495","steam_id":85568392924510192,"keywords":["nocrits","nodmgspread","payload","uncletopia"],"game_id":440,"stv_port":27036,"stv_name":"Uncletopia | London | 3 | All Maps | STV","players":null},{"server_id":321,"name":"Uncletopia | London | 4 | All Maps","name_short":"lon-4","host":"lon-1.uk.uncletopia.com","port":27045,"enabled":true,"region":"eu","cc":"gb","latitude":51.509865,"longitude":-0.118092,"reserved":0,"last_update":"0001-01-01T00:00:00Z","name_a2s":"Uncletopia | London | 4 | All Maps","protocol":17,"map":"koth_highpass","folder":"tf","game":"Team Fortress","app_id":440,"player_count":0,"max_players":24,"Bots":0,"server_type":"Dedicated","server_os":"Linux","password":true,"vac":true,"version":"7961495","steam_id":85568392924510193,"keywords":["cp","nocrits","nodmgspread","uncletopia"],"game_id":440,"stv_port":27046,"stv_name":"Uncletopia | London | 4 | All Maps | STV","players":null},{"server_id":21,"name":"Uncletopia | London | 5 | All Maps","name_short":"lon-5","host":"lon-1.uk.uncletopia.com","port":27055,"enabled":true,"region":"eu","cc":"gb","latitude":51.509865,"longitude":-0.118092,"reserved":0,"last_update":"0001-01-01T00:00:00Z","name_a2s":"Uncletopia | London | 5 | All Maps","protocol":17,"map":"pl_pier","folder":"tf","game":"Team Fortress","app_id":440,"player_count":3,"max_players":24,"Bots":0,"server_type":"Dedicated","server_os":"Linux","password":true,"vac":true,"version":"7961495","steam_id":85568392924742829,"keywords":["nocrits","nodmgspread","payload","uncletopia"],"game_id":440,"stv_port":27056,"stv_name":"Uncletopia | London | 5 | All Maps | STV","players":[{"user_id":690,"name":"Deemaské","steam_id":76561199225833593,"connected_time":1541000000000,"state":"active","ping":44},{"user_id":692,"name":"king k rool","steam_id":76561199179040672,"connected_time":1185000000000,"state":"active","ping":58},{"user_id":683,"name":"scoober","steam_id":76561198797329345,"connected_time":3683000000000,"state":"active","ping":203}]},{"server_id":22,"name":"Uncletopia | London | 6 | All Maps","name_short":"lon-6","host":"lon-1.uk.uncletopia.com","port":27065,"enabled":true,"region":"eu","cc":"gb","latitude":51.509865,"longitude":-0.118092,"reserved":0,"last_update":"0001-01-01T00:00:00Z","name_a2s":"Uncletopia | London | 6 | All Maps","protocol":17,"map":"koth_viaduct","folder":"tf","game":"Team Fortress","app_id":440,"player_count":0,"max_players":24,"Bots":0,"server_type":"Dedicated","server_os":"Linux","password":true,"vac":true,"version":"7961495","steam_id":85568392924742830,"keywords":["cp","nocrits","nodmgspread","uncletopia"],"game_id":440,"stv_port":27066,"stv_name":"Uncletopia | London | 6 | All Maps | STV","players":null},{"server_id":40,"name":"Uncletopia | London | 7 | Stopwatch","name_short":"lon-7","host":"lon-1.uk.uncletopia.com","port":27075,"enabled":true,"region":"eu","cc":"gb","latitude":51.509865,"longitude":-0.118092,"reserved":0,"last_update":"0001-01-01T00:00:00Z","name_a2s":"Uncletopia | London | 7 | Stopwatch","protocol":17,"map":"pl_upward","folder":"tf","game":"Team Fortress","app_id":440,"player_count":0,"max_players":24,"Bots":0,"server_type":"Dedicated","server_os":"Linux","password":true,"vac":true,"version":"7961495","steam_id":85568392924964314,"keywords":["nocrits","nodmgspread","payload","uncletopia"],"game_id":440,"stv_port":27076,"stv_name":"Uncletopia | London | 7 | Stopwatch | STV","players":null},{"server_id":41,"name":"Uncletopia | London | 8 | Community","name_short":"lon-8","host":"lon-1.uk.uncletopia.com","port":27085,"enabled":true,"region":"eu","cc":"gb","latitude":51.509865,"longitude":-0.118092,"reserved":0,"last_update":"0001-01-01T00:00:00Z","name_a2s":"Uncletopia | London | 8 | Community","protocol":17,"map":"workshop/cp_reckoner_rc6.ugc674719999","folder":"tf","game":"Team Fortress","app_id":440,"player_count":0,"max_players":24,"Bots":0,"server_type":"Dedicated","server_os":"Linux","password":true,"vac":true,"version":"7961495","steam_id":85568392924964315,"keywords":["cp","nocrits","nodmgspread","uncletopia"],"game_id":440,"stv_port":27086,"stv_name":"Uncletopia | London | 8 | Community | STV","players":null},{"server_id":300,"name":"Uncletopia | Montréal | 1 | One Thousand Uncles","name_short":"mtl-1","host":"mtl-1.ca.uncletopia.com","port":27015,"enabled":true,"region":"us-east","cc":"ca","latitude":45.50889,"longitude":-73.56167,"reserved":0,"last_update":"0001-01-01T00:00:00Z","name_a2s":"","protocol":0,"map":"","folder":"","game":"","app_id":0,"player_count":8,"max_players":0,"Bots":0,"server_type":"","server_os":"","password":false,"vac":false,"version":"","steam_id":0,"keywords":null,"game_id":0,"stv_port":0,"stv_name":"","players":[{"user_id":675,"name":"Sussin'","steam_id":76561198059813696,"connected_time":1595000000000,"state":"active","ping":62},{"user_id":672,"name":"Your Alcoholic Dad","steam_id":76561198214494745,"connected_time":2662000000000,"state":"active","ping":75},{"user_id":697,"name":"Null","steam_id":76561198062791227,"connected_time":262000000000,"state":"active","ping":67},{"user_id":698,"name":"NotAfraidOfSpiders","steam_id":76561199043160196,"connected_time":45000000000,"state":"active","ping":87},{"user_id":676,"name":"shy-_-guy42069","steam_id":76561199484725265,"connected_time":1492000000000,"state":"active","ping":72},{"user_id":677,"name":"Handsfree Held Cloned Goomba","steam_id":76561199431280503,"connected_time":693000000000,"state":"active","ping":86},{"user_id":678,"name":"Akira (they/them)","steam_id":76561198294601519,"connected_time":514000000000,"state":"active","ping":98},{"user_id":680,"name":"d4efeb","steam_id":76561198148098761,"connected_time":458000000000,"state":"active","ping":59}]},{"server_id":301,"name":"Uncletopia | Montréal | 2 | One Thousand Uncles","name_short":"mtl-2","host":"mtl-1.ca.uncletopia.com","port":27025,"enabled":true,"region":"us-east","cc":"ca","latitude":45.50889,"longitude":-73.56167,"reserved":0,"last_update":"0001-01-01T00:00:00Z","name_a2s":"","protocol":0,"map":"","folder":"","game":"","app_id":0,"player_count":12,"max_players":0,"Bots":0,"server_type":"","server_os":"","password":false,"vac":false,"version":"","steam_id":0,"keywords":null,"game_id":0,"stv_port":0,"stv_name":"","players":[{"user_id":399,"name":"Poyo Boyo","steam_id":76561198010201227,"connected_time":1677000000000,"state":"active","ping":61},{"user_id":262,"name":"Im Groot","steam_id":76561198294943420,"connected_time":8342000000000,"state":"active","ping":80},{"user_id":400,"name":"Swash","steam_id":76561197969421355,"connected_time":1243000000000,"state":"active","ping":45},{"user_id":372,"name":"ANDROIDQ4X","steam_id":76561198046823960,"connected_time":3087000000000,"state":"active","ping":98},{"user_id":401,"name":"Dr. Marvello","steam_id":76561198107573800,"connected_time":940000000000,"state":"active","ping":80},{"user_id":403,"name":"cheios demiose","steam_id":76561199050528128,"connected_time":870000000000,"state":"active","ping":87},{"user_id":373,"name":"deadman137","steam_id":76561198285362212,"connected_time":3029000000000,"state":"active","ping":65},{"user_id":374,"name":"LknCuteinJammies","steam_id":76561198073177803,"connected_time":3028000000000,"state":"active","ping":105},{"user_id":153,"name":"Dr Madness The Octoling","steam_id":76561198065407703,"connected_time":18077000000000,"state":"active","ping":55},{"user_id":341,"name":"Dr Balls","steam_id":76561199147558249,"connected_time":4493000000000,"state":"active","ping":75},{"user_id":251,"name":"Winter Not Summer","steam_id":76561198201409574,"connected_time":9698000000000,"state":"active","ping":61},{"user_id":343,"name":"Sexual Butt","steam_id":76561198102241399,"connected_time":4380000000000,"state":"active","ping":69}]},{"server_id":302,"name":"Uncletopia | Montréal | 3 | One Thousand Uncles","name_short":"mtl-3","host":"mtl-1.ca.uncletopia.com","port":27035,"enabled":true,"region":"us-east","cc":"ca","latitude":45.50889,"longitude":-73.56167,"reserved":0,"last_update":"0001-01-01T00:00:00Z","name_a2s":"","protocol":0,"map":"","folder":"","game":"","app_id":0,"player_count":3,"max_players":0,"Bots":0,"server_type":"","server_os":"","password":false,"vac":false,"version":"","steam_id":0,"keywords":null,"game_id":0,"stv_port":0,"stv_name":"","players":[{"user_id":515,"name":"VerrucktMedic","steam_id":76561198093144226,"connected_time":1643000000000,"state":"active","ping":59},{"user_id":532,"name":"wosted","steam_id":76561198159804137,"connected_time":756000000000,"state":"active","ping":54},{"user_id":533,"name":"Lots0","steam_id":76561198043143145,"connected_time":187000000000,"state":"active","ping":93}]},{"server_id":13,"name":"Uncletopia | New York City | 1 | All Maps","name_short":"nyc-1","host":"nyc-1.us.uncletopia.com","port":27015,"enabled":true,"region":"us-east","cc":"us","latitude":40.73061,"longitude":-73.93524,"reserved":0,"last_update":"0001-01-01T00:00:00Z","name_a2s":"Uncletopia | New York City | 1 | All Maps","protocol":17,"map":"cp_egypt_final","folder":"tf","game":"Team Fortress","app_id":440,"player_count":24,"max_players":24,"Bots":0,"server_type":"Dedicated","server_os":"Linux","password":true,"vac":true,"version":"7961495","steam_id":85568392924469993,"keywords":["cp","nocrits","nodmgspread","uncletopia"],"game_id":440,"stv_port":27016,"stv_name":"Uncletopia | New York City | 1 | All Maps | STV","players":[{"user_id":483,"name":"taigaxx","steam_id":76561198202669250,"connected_time":6742000000000,"state":"active","ping":73},{"user_id":517,"name":"De","steam_id":76561198206728044,"connected_time":4005000000000,"state":"active","ping":73},{"user_id":543,"name":"Sommar","steam_id":76561198092176972,"connected_time":2192000000000,"state":"active","ping":58},{"user_id":476,"name":"[NAME-REDACTED]","steam_id":76561198035682975,"connected_time":7041000000000,"state":"active","ping":55},{"user_id":506,"name":"Bigsumoslammer","steam_id":76561198044505076,"connected_time":5268000000000,"state":"active","ping":44},{"user_id":498,"name":"Grawhide","steam_id":76561198065619924,"connected_time":6148000000000,"state":"active","ping":74},{"user_id":518,"name":"googa","steam_id":76561198133130452,"connected_time":3993000000000,"state":"active","ping":44},{"user_id":546,"name":"bouncyhousin","steam_id":76561198852902827,"connected_time":2036000000000,"state":"active","ping":67},{"user_id":549,"name":"G2 DamDam","steam_id":76561198173095997,"connected_time":1297000000000,"state":"active","ping":50},{"user_id":538,"name":"Naldo","steam_id":76561198121273420,"connected_time":2825000000000,"state":"active","ping":57},{"user_id":508,"name":"It's FoolMoon","steam_id":76561198153344375,"connected_time":5230000000000,"state":"active","ping":39},{"user_id":444,"name":"Samrizo el Chorizo","steam_id":76561198009838162,"connected_time":9792000000000,"state":"active","ping":53},{"user_id":520,"name":"y!","steam_id":76561199342162423,"connected_time":3940000000000,"state":"active","ping":73},{"user_id":544,"name":"FiveOhForPlan","steam_id":76561198333012915,"connected_time":2165000000000,"state":"active","ping":71},{"user_id":547,"name":"A Puppy","steam_id":76561198828184456,"connected_time":1964000000000,"state":"active","ping":45},{"user_id":535,"name":"on that zaza?","steam_id":76561198038713198,"connected_time":3054000000000,"state":"active","ping":47},{"user_id":553,"name":"ndvr","steam_id":76561199379200102,"connected_time":382000000000,"state":"active","ping":54},{"user_id":523,"name":"Queso2469","steam_id":76561197993024580,"connected_time":3575000000000,"state":"active","ping":51},{"user_id":545,"name":"-|FG|- Hamilkar Barca","steam_id":76561198091666474,"connected_time":2159000000000,"state":"active","ping":60},{"user_id":550,"name":"creal","steam_id":76561198127116199,"connected_time":1180000000000,"state":"active","ping":62},{"user_id":500,"name":"็Periculosum PhD in Funny","steam_id":76561198123370914,"connected_time":5849000000000,"state":"active","ping":93},{"user_id":532,"name":"Voracious Puma","steam_id":76561197963621649,"connected_time":3242000000000,"state":"active","ping":86},{"user_id":541,"name":"Rigby","steam_id":76561198258121396,"connected_time":2261000000000,"state":"active","ping":82},{"user_id":556,"name":"space man","steam_id":76561198066333670,"connected_time":195000000000,"state":"active","ping":56}]},{"server_id":14,"name":"Uncletopia | New York City | 2 | All Maps","name_short":"nyc-2","host":"nyc-1.us.uncletopia.com","port":27025,"enabled":true,"region":"us-east","cc":"us","latitude":40.73061,"longitude":-73.93524,"reserved":0,"last_update":"0001-01-01T00:00:00Z","name_a2s":"Uncletopia | New York City | 2 | All Maps","protocol":17,"map":"pl_upward","folder":"tf","game":"Team Fortress","app_id":440,"player_count":24,"max_players":24,"Bots":0,"server_type":"Dedicated","server_os":"Linux","password":true,"vac":true,"version":"7961495","steam_id":85568392924469994,"keywords":["nocrits","nodmgspread","payload","uncletopia"],"game_id":440,"stv_port":27026,"stv_name":"Uncletopia | New York City | 2 | All Maps | STV","players":[{"user_id":678,"name":"brawndo luvr","steam_id":76561198202436474,"connected_time":239000000000,"state":"active","ping":45},{"user_id":677,"name":"dum bnuy","steam_id":76561198170574941,"connected_time":248000000000,"state":"active","ping":66},{"user_id":657,"name":"rin","steam_id":76561198155841915,"connected_time":2498000000000,"state":"active","ping":93},{"user_id":679,"name":"cognitiveAfflatus","steam_id":76561198295181426,"connected_time":190000000000,"state":"active","ping":50},{"user_id":662,"name":"Crisp","steam_id":76561198132644084,"connected_time":1787000000000,"state":"active","ping":53},{"user_id":670,"name":"Willy","steam_id":76561198046508940,"connected_time":811000000000,"state":"active","ping":49},{"user_id":675,"name":"Kallen","steam_id":76561198079693305,"connected_time":299000000000,"state":"active","ping":120},{"user_id":638,"name":"Urbanzpinapple","steam_id":76561198115426938,"connected_time":4249000000000,"state":"active","ping":71},{"user_id":667,"name":"chiswola","steam_id":76561198046920142,"connected_time":1405000000000,"state":"active","ping":162},{"user_id":671,"name":"[SEI]amike191","steam_id":76561198098094454,"connected_time":772000000000,"state":"active","ping":72},{"user_id":665,"name":"Goredude","steam_id":76561198041048764,"connected_time":1714000000000,"state":"active","ping":43},{"user_id":659,"name":"TheChickenChuck","steam_id":76561199192686708,"connected_time":2253000000000,"state":"active","ping":82},{"user_id":680,"name":"amnyak","steam_id":76561198165831950,"connected_time":189000000000,"state":"active","ping":70},{"user_id":672,"name":"poopshitter420","steam_id":76561198074624639,"connected_time":758000000000,"state":"active","ping":67},{"user_id":512,"name":"concrete_car","steam_id":76561198388207363,"connected_time":13599000000000,"state":"active","ping":69},{"user_id":660,"name":"Draconis","steam_id":76561198151381256,"connected_time":2150000000000,"state":"active","ping":69},{"user_id":673,"name":"AbbyRoads","steam_id":76561198868564212,"connected_time":738000000000,"state":"active","ping":74},{"user_id":681,"name":"Tidwell","steam_id":76561198037414410,"connected_time":142000000000,"state":"active","ping":63},{"user_id":668,"name":"Þú lýsir upp allan geiminn","steam_id":76561197999657118,"connected_time":1153000000000,"state":"active","ping":65},{"user_id":635,"name":"˗ˏˋNima´ˎ˗","steam_id":76561198102045762,"connected_time":4657000000000,"state":"active","ping":73},{"user_id":639,"name":"Cat_Soldier","steam_id":76561198799974610,"connected_time":4239000000000,"state":"active","ping":77},{"user_id":674,"name":"aversa","steam_id":76561198840460101,"connected_time":733000000000,"state":"active","ping":57},{"user_id":632,"name":"Hopdon The Magic Bunny","steam_id":76561198051616613,"connected_time":4931000000000,"state":"active","ping":88},{"user_id":655,"name":"Virgil","steam_id":76561198248786778,"connected_time":2589000000000,"state":"active","ping":181}]},{"server_id":15,"name":"Uncletopia | New York City | 3 | Stopwatch","name_short":"nyc-3","host":"nyc-1.us.uncletopia.com","port":27035,"enabled":true,"region":"us-east","cc":"us","latitude":40.73061,"longitude":-73.93524,"reserved":0,"last_update":"0001-01-01T00:00:00Z","name_a2s":"Uncletopia | New York City | 3 | Stopwatch","protocol":17,"map":"workshop/koth_bagel_rc6.ugc2514036946","folder":"tf","game":"Team Fortress","app_id":440,"player_count":0,"max_players":24,"Bots":0,"server_type":"Dedicated","server_os":"Linux","password":true,"vac":true,"version":"7961495","steam_id":85568392924742820,"keywords":["cp","nocrits","nodmgspread","uncletopia"],"game_id":440,"stv_port":27036,"stv_name":"Uncletopia | New York City | 3 | Stopwatch | STV","players":null},{"server_id":16,"name":"Uncletopia | New York City | 4 | Community","name_short":"nyc-4","host":"nyc-1.us.uncletopia.com","port":27045,"enabled":true,"region":"us-east","cc":"us","latitude":40.73061,"longitude":-73.93524,"reserved":0,"last_update":"0001-01-01T00:00:00Z","name_a2s":"Uncletopia | New York City | 4 | Community","protocol":17,"map":"workshop/rd_asteroid_redux_b1.ugc2154902912","folder":"tf","game":"Team Fortress","app_id":440,"player_count":17,"max_players":24,"Bots":0,"server_type":"Dedicated","server_os":"Linux","password":true,"vac":true,"version":"7961495","steam_id":85568392924742821,"keywords":["beta","nocrits","nodmgspread","rd","uncletopia"],"game_id":440,"stv_port":27046,"stv_name":"Uncletopia | New York City | 4 | Community | STV","players":[{"user_id":266,"name":"sam","steam_id":76561198088504281,"connected_time":2636000000000,"state":"active","ping":58},{"user_id":306,"name":"twink gaming","steam_id":76561199117379404,"connected_time":0,"state":"connecting","ping":0},{"user_id":275,"name":"Keroro","steam_id":76561198075106705,"connected_time":2304000000000,"state":"active","ping":54},{"user_id":304,"name":"Smooth Brain","steam_id":76561198069178643,"connected_time":98000000000,"state":"active","ping":31},{"user_id":282,"name":"ambrotos","steam_id":76561198042600523,"connected_time":1942000000000,"state":"active","ping":98},{"user_id":257,"name":"Mr.Bady","steam_id":76561199094651706,"connected_time":2850000000000,"state":"active","ping":58},{"user_id":276,"name":"Harry Dickter and the Cocklet o","steam_id":76561198071822546,"connected_time":2253000000000,"state":"active","ping":59},{"user_id":260,"name":"sloth (be nice im cringe)","steam_id":76561198047098172,"connected_time":2821000000000,"state":"active","ping":61},{"user_id":209,"name":"King Sans","steam_id":76561198294198517,"connected_time":5682000000000,"state":"active","ping":49},{"user_id":262,"name":"t.tv/FamilyGuyFunnyMoments277","steam_id":76561198416047580,"connected_time":2740000000000,"state":"active","ping":72},{"user_id":288,"name":"pipebombrater","steam_id":76561199029030831,"connected_time":1692000000000,"state":"active","ping":67},{"user_id":283,"name":"Chauncey von Snuffles III","steam_id":76561198021784746,"connected_time":1938000000000,"state":"active","ping":98},{"user_id":291,"name":"Shrebbie","steam_id":76561198875230824,"connected_time":1551000000000,"state":"active","ping":44},{"user_id":277,"name":"xLeoparrd","steam_id":76561198940657194,"connected_time":2236000000000,"state":"active","ping":83},{"user_id":281,"name":"Poisonpede","steam_id":76561198797046960,"connected_time":2019000000000,"state":"active","ping":69},{"user_id":302,"name":"cloveprince","steam_id":76561198343820072,"connected_time":1039000000000,"state":"active","ping":76},{"user_id":301,"name":"RoraBeth","steam_id":76561197999432246,"connected_time":1101000000000,"state":"active","ping":95}]},{"server_id":142,"name":"Uncletopia | São Paulo | 1 | All Maps","name_short":"sao-1","host":"sao-1.br.uncletopia.com","port":27015,"enabled":true,"region":"sa","cc":"br","latitude":-23.533773,"longitude":-46.62529,"reserved":0,"last_update":"0001-01-01T00:00:00Z","name_a2s":"Uncletopia | São Paulo | 1 | All Maps","protocol":17,"map":"koth_highpass","folder":"tf","game":"Team Fortress","app_id":440,"player_count":0,"max_players":24,"Bots":0,"server_type":"Dedicated","server_os":"Linux","password":true,"vac":true,"version":"7961495","steam_id":85568392924469996,"keywords":["cp","nocrits","nodmgspread","uncletopia"],"game_id":440,"stv_port":27016,"stv_name":"Uncletopia | São Paulo | 1 | All Maps | STV","players":null},{"server_id":143,"name":"Uncletopia | São Paulo | 2 | Community","name_short":"sao-2","host":"sao-2.br.uncletopia.com","port":27015,"enabled":true,"region":"sa","cc":"br","latitude":-23.533773,"longitude":-46.62529,"reserved":0,"last_update":"0001-01-01T00:00:00Z","name_a2s":"Uncletopia | São Paulo | 2 | Community","protocol":17,"map":"workshop/cp_overgrown_rc8.ugc503939302","folder":"tf","game":"Team Fortress","app_id":440,"player_count":4,"max_players":24,"Bots":0,"server_type":"Dedicated","server_os":"Linux","password":true,"vac":true,"version":"7961495","steam_id":85568392924485349,"keywords":["cp","nocrits","nodmgspread","uncletopia"],"game_id":440,"stv_port":27016,"stv_name":"Uncletopia | São Paulo | 2 | Community | STV","players":[{"user_id":36,"name":"Seleste","steam_id":76561199099945745,"connected_time":7095000000000,"state":"active","ping":94},{"user_id":42,"name":"omrboo061","steam_id":76561199443653759,"connected_time":4697000000000,"state":"active","ping":87},{"user_id":50,"name":"kris","steam_id":76561199367174064,"connected_time":1616000000000,"state":"active","ping":77},{"user_id":51,"name":"Aubergine","steam_id":76561198123805615,"connected_time":387000000000,"state":"active","ping":102}]},{"server_id":7,"name":"Uncletopia | Seattle | 1 | All Maps","name_short":"sea-1","host":"sea-1.us.uncletopia.com","port":27015,"enabled":true,"region":"us-west","cc":"us","latitude":47.608013,"longitude":-122.33517,"reserved":0,"last_update":"0001-01-01T00:00:00Z","name_a2s":"Uncletopia | Seattle | 1 | All Maps","protocol":17,"map":"pl_swiftwater_final1","folder":"tf","game":"Team Fortress","app_id":440,"player_count":24,"max_players":24,"Bots":0,"server_type":"Dedicated","server_os":"Linux","password":true,"vac":true,"version":"7961495","steam_id":85568392924469997,"keywords":["nocrits","nodmgspread","payload","uncletopia"],"game_id":440,"stv_port":27016,"stv_name":"Uncletopia | Seattle | 1 | All Maps | STV","players":[{"user_id":536,"name":"MrYadaization","steam_id":76561198050770818,"connected_time":1749000000000,"state":"active","ping":59},{"user_id":520,"name":"D.E.O","steam_id":76561198096992957,"connected_time":2897000000000,"state":"active","ping":164},{"user_id":513,"name":"Zincian","steam_id":76561198055484259,"connected_time":3439000000000,"state":"active","ping":54},{"user_id":550,"name":"ѕυ【ʕ•ᴥ•ʔ】","steam_id":76561198071233302,"connected_time":87000000000,"state":"active","ping":72},{"user_id":540,"name":"Bendidy","steam_id":76561198041964300,"connected_time":924000000000,"state":"active","ping":72},{"user_id":534,"name":"R5-D4","steam_id":76561198025196439,"connected_time":1772000000000,"state":"active","ping":59},{"user_id":544,"name":"CubDub","steam_id":76561198304548526,"connected_time":736000000000,"state":"active","ping":66},{"user_id":531,"name":"Poundcake","steam_id":76561198042196918,"connected_time":1791000000000,"state":"active","ping":46},{"user_id":528,"name":"Dosario","steam_id":76561198298095535,"connected_time":2102000000000,"state":"active","ping":42},{"user_id":545,"name":"Major_Pippy","steam_id":76561198004482878,"connected_time":696000000000,"state":"active","ping":40},{"user_id":546,"name":"mike, no sound","steam_id":76561198225411004,"connected_time":497000000000,"state":"active","ping":61},{"user_id":551,"name":"bird with bad aim","steam_id":76561198062360755,"connected_time":75000000000,"state":"active","ping":107},{"user_id":549,"name":"tye_bugyoda","steam_id":76561198045964199,"connected_time":238000000000,"state":"active","ping":88},{"user_id":553,"name":"The Assistant Regional Manager","steam_id":76561199221484936,"connected_time":11000000000,"state":"active","ping":84},{"user_id":498,"name":"Gregg Rulz ok","steam_id":76561199027131213,"connected_time":4128000000000,"state":"active","ping":48},{"user_id":400,"name":"Ayayayayayahuasca","steam_id":76561199002906056,"connected_time":14092000000000,"state":"active","ping":49},{"user_id":547,"name":"Corvo","steam_id":76561198992036196,"connected_time":453000000000,"state":"active","ping":42},{"user_id":504,"name":"SadFapping","steam_id":76561198076651049,"connected_time":3825000000000,"state":"active","ping":46},{"user_id":552,"name":"DrD","steam_id":76561198067266383,"connected_time":75000000000,"state":"active","ping":33},{"user_id":523,"name":"toes","steam_id":76561198221151676,"connected_time":2361000000000,"state":"active","ping":59},{"user_id":525,"name":"rat gets the cheese","steam_id":76561198031234032,"connected_time":2182000000000,"state":"active","ping":101},{"user_id":466,"name":"Cinna Mon","steam_id":76561198005840633,"connected_time":8161000000000,"state":"active","ping":55},{"user_id":472,"name":"Sweets","steam_id":76561198998446307,"connected_time":7382000000000,"state":"active","ping":64}]},{"server_id":119,"name":"Uncletopia | Seattle | 2 | All Maps","name_short":"sea-2","host":"sea-1.us.uncletopia.com","port":27025,"enabled":true,"region":"us-west","cc":"us","latitude":47.608013,"longitude":-122.33517,"reserved":0,"last_update":"0001-01-01T00:00:00Z","name_a2s":"Uncletopia | Seattle | 2 | All Maps","protocol":17,"map":"cp_sunshine","folder":"tf","game":"Team Fortress","app_id":440,"player_count":24,"max_players":24,"Bots":0,"server_type":"Dedicated","server_os":"Linux","password":true,"vac":true,"version":"7961495","steam_id":85568392924469998,"keywords":["cp","nocrits","nodmgspread","uncletopia"],"game_id":440,"stv_port":27026,"stv_name":"Uncletopia | Seattle | 2 | All Maps | STV","players":[{"user_id":502,"name":"Fully Upgraded Tacos","steam_id":76561199071130651,"connected_time":3810000000000,"state":"active","ping":99},{"user_id":528,"name":"Tuna Man","steam_id":76561198039977972,"connected_time":1427000000000,"state":"active","ping":46},{"user_id":387,"name":"Nessie is my Waifu","steam_id":76561198076021620,"connected_time":11726000000000,"state":"active","ping":115},{"user_id":547,"name":"Pneumo.","steam_id":76561197987911883,"connected_time":161000000000,"state":"active","ping":62},{"user_id":520,"name":"ArjayTheWeenie","steam_id":76561198275999294,"connected_time":1715000000000,"state":"active","ping":52},{"user_id":523,"name":"magunyamu","steam_id":76561198823083676,"connected_time":1488000000000,"state":"active","ping":89},{"user_id":433,"name":"Saltine Cracker","steam_id":76561198889144728,"connected_time":8541000000000,"state":"active","ping":62},{"user_id":544,"name":"dogerich404","steam_id":76561199124102546,"connected_time":349000000000,"state":"active","ping":75},{"user_id":497,"name":"Ominous Whir","steam_id":76561198002851724,"connected_time":4260000000000,"state":"active","ping":90},{"user_id":545,"name":"elephant thumb","steam_id":76561198118859752,"connected_time":345000000000,"state":"active","ping":74},{"user_id":535,"name":"Tideflat","steam_id":76561198179850851,"connected_time":603000000000,"state":"active","ping":47},{"user_id":538,"name":"Gamingtime","steam_id":76561198339856746,"connected_time":531000000000,"state":"active","ping":71},{"user_id":539,"name":"SonicFan","steam_id":76561198871858478,"connected_time":520000000000,"state":"active","ping":41},{"user_id":543,"name":"BamboozleMcdoozle","steam_id":76561198166510167,"connected_time":413000000000,"state":"active","ping":83},{"user_id":519,"name":"Matches_","steam_id":76561198048925904,"connected_time":1999000000000,"state":"active","ping":89},{"user_id":542,"name":"Canuck","steam_id":76561197999152255,"connected_time":443000000000,"state":"active","ping":52},{"user_id":504,"name":"Lili","steam_id":76561199488457138,"connected_time":3435000000000,"state":"active","ping":59},{"user_id":521,"name":"Noah1k","steam_id":76561199428633514,"connected_time":1608000000000,"state":"active","ping":60},{"user_id":517,"name":"io_est","steam_id":76561198079538952,"connected_time":2469000000000,"state":"active","ping":42},{"user_id":537,"name":"The Horny","steam_id":76561198863639459,"connected_time":581000000000,"state":"active","ping":50},{"user_id":503,"name":"CashGordon","steam_id":76561197975594096,"connected_time":3626000000000,"state":"active","ping":44},{"user_id":541,"name":"grillbyssisoloeso","steam_id":76561199105132740,"connected_time":494000000000,"state":"active","ping":76},{"user_id":486,"name":"cyren caster","steam_id":76561198204509499,"connected_time":4926000000000,"state":"active","ping":60},{"user_id":534,"name":"lamadre07","steam_id":76561198067337453,"connected_time":657000000000,"state":"active","ping":114}]},{"server_id":406,"name":"Uncletopia | Seattle | 3 | Stopwatch","name_short":"sea-3","host":"sea-1.us.uncletopia.com","port":27035,"enabled":true,"region":"us-west","cc":"us","latitude":47.608013,"longitude":-122.33517,"reserved":0,"last_update":"0001-01-01T00:00:00Z","name_a2s":"Uncletopia | Seattle | 3 | Stopwatch","protocol":17,"map":"workshop/koth_bagel_rc6.ugc2514036946","folder":"tf","game":"Team Fortress","app_id":440,"player_count":18,"max_players":24,"Bots":0,"server_type":"Dedicated","server_os":"Linux","password":true,"vac":true,"version":"7961495","steam_id":85568392924515217,"keywords":["cp","nocrits","nodmgspread","uncletopia"],"game_id":440,"stv_port":27036,"stv_name":"Uncletopia | Seattle | 3 | Stopwatch | STV","players":[{"user_id":311,"name":"Norriss","steam_id":76561198920296293,"connected_time":40000000000,"state":"active","ping":45},{"user_id":298,"name":"Dreszerg","steam_id":76561198838757422,"connected_time":338000000000,"state":"active","ping":127},{"user_id":295,"name":"trackpad gaming (he/him)","steam_id":76561198045966659,"connected_time":490000000000,"state":"active","ping":100},{"user_id":167,"name":"remanedur","steam_id":76561198059459507,"connected_time":7917000000000,"state":"active","ping":115},{"user_id":291,"name":"Your Dinosaurs","steam_id":76561198392670237,"connected_time":542000000000,"state":"active","ping":60},{"user_id":299,"name":"Oryx, Nightmare Daddy","steam_id":76561197989271492,"connected_time":326000000000,"state":"active","ping":41},{"user_id":292,"name":"the one who knocks","steam_id":76561198373946121,"connected_time":534000000000,"state":"active","ping":69},{"user_id":283,"name":"❤ pavizi ❤","steam_id":76561198064828655,"connected_time":829000000000,"state":"active","ping":109},{"user_id":272,"name":"McDonald","steam_id":76561199028533497,"connected_time":1779000000000,"state":"active","ping":70},{"user_id":301,"name":"U.n.k","steam_id":76561198329242141,"connected_time":316000000000,"state":"active","ping":43},{"user_id":178,"name":"Fray","steam_id":76561198030141282,"connected_time":7307000000000,"state":"active","ping":114},{"user_id":218,"name":"Sorrelyn","steam_id":76561198040851062,"connected_time":5985000000000,"state":"active","ping":105},{"user_id":307,"name":"Schnitz","steam_id":76561198265484253,"connected_time":252000000000,"state":"active","ping":83},{"user_id":308,"name":"Gswag69","steam_id":76561199481882856,"connected_time":175000000000,"state":"active","ping":38},{"user_id":303,"name":"dekemori","steam_id":76561198373889573,"connected_time":305000000000,"state":"active","ping":45},{"user_id":276,"name":"O","steam_id":76561198450073779,"connected_time":1190000000000,"state":"active","ping":44},{"user_id":250,"name":"Crabohydrate","steam_id":76561198157019155,"connected_time":3608000000000,"state":"active","ping":59},{"user_id":267,"name":"Amish Robot","steam_id":76561198041156065,"connected_time":2314000000000,"state":"active","ping":90}]},{"server_id":17,"name":"Uncletopia | San Francisco | 1 | All Maps","name_short":"sfo-1","host":"sfo-1.us.uncletopia.com","port":27015,"enabled":true,"region":"us-west","cc":"us","latitude":37.77397,"longitude":-122.4313,"reserved":0,"last_update":"0001-01-01T00:00:00Z","name_a2s":"Uncletopia | San Francisco | 1 | All Maps","protocol":17,"map":"pl_badwater","folder":"tf","game":"Team Fortress","app_id":440,"player_count":25,"max_players":24,"Bots":0,"server_type":"Dedicated","server_os":"Linux","password":true,"vac":true,"version":"7961495","steam_id":85568392924469999,"keywords":["nocrits","nodmgspread","payload","uncletopia"],"game_id":440,"stv_port":27016,"stv_name":"Uncletopia | San Francisco | 1 | All Maps | STV","players":[{"user_id":317,"name":"BigBubble42","steam_id":76561198136286123,"connected_time":3620000000000,"state":"active","ping":68},{"user_id":354,"name":"Goose","steam_id":76561198036774894,"connected_time":1730000000000,"state":"active","ping":76},{"user_id":355,"name":"systemphantom","steam_id":76561199083243739,"connected_time":1713000000000,"state":"active","ping":53},{"user_id":378,"name":"Jauri","steam_id":76561197994448995,"connected_time":571000000000,"state":"active","ping":94},{"user_id":356,"name":"Alkimia","steam_id":76561198385763137,"connected_time":1690000000000,"state":"active","ping":104},{"user_id":379,"name":"The Notorious T.A.F.T.","steam_id":76561198073012352,"connected_time":389000000000,"state":"active","ping":102},{"user_id":386,"name":"Not STAR_","steam_id":76561198105540254,"connected_time":111000000000,"state":"active","ping":57},{"user_id":300,"name":"Hero Smasher","steam_id":76561198150681669,"connected_time":4658000000000,"state":"active","ping":56},{"user_id":384,"name":"thunderous prophet","steam_id":76561198131166135,"connected_time":178000000000,"state":"active","ping":58},{"user_id":357,"name":"intek","steam_id":76561198052705291,"connected_time":1659000000000,"state":"active","ping":106},{"user_id":364,"name":"aflyingmouse","steam_id":76561198058134934,"connected_time":1283000000000,"state":"active","ping":81},{"user_id":383,"name":"CPTforever","steam_id":76561198237767198,"connected_time":213000000000,"state":"active","ping":46},{"user_id":358,"name":"old_gus","steam_id":76561197964214993,"connected_time":1582000000000,"state":"active","ping":61},{"user_id":363,"name":"Salazar9","steam_id":76561198049903973,"connected_time":1404000000000,"state":"active","ping":75},{"user_id":372,"name":"ForAPessimistImPrettyOptimistic","steam_id":76561198170128009,"connected_time":836000000000,"state":"active","ping":57},{"user_id":346,"name":"rkgk","steam_id":76561198202285760,"connected_time":2064000000000,"state":"active","ping":70},{"user_id":307,"name":"owl","steam_id":76561198088403016,"connected_time":4370000000000,"state":"active","ping":151},{"user_id":385,"name":"rushy :))","steam_id":76561198065825165,"connected_time":118000000000,"state":"active","ping":91},{"user_id":366,"name":"Monster in a Whiskey Glass","steam_id":76561198011675372,"connected_time":1191000000000,"state":"active","ping":82},{"user_id":377,"name":"cnoisy","steam_id":76561198043018600,"connected_time":594000000000,"state":"active","ping":116},{"user_id":374,"name":"NEBULA","steam_id":76561198086878595,"connected_time":774000000000,"state":"active","ping":57},{"user_id":340,"name":"Someone1251","steam_id":76561198798977695,"connected_time":2321000000000,"state":"active","ping":109},{"user_id":359,"name":"Ashtray","steam_id":76561198054089878,"connected_time":1580000000000,"state":"active","ping":78},{"user_id":375,"name":"Word To Your Mothership","steam_id":76561198034329138,"connected_time":770000000000,"state":"active","ping":53},{"user_id":387,"name":"jorts","steam_id":76561199041179985,"connected_time":62000000000,"state":"active","ping":71}]},{"server_id":18,"name":"Uncletopia | San Francisco | 2 | All Maps","name_short":"sfo-2","host":"sfo-1.us.uncletopia.com","port":27025,"enabled":true,"region":"us-west","cc":"us","latitude":37.77397,"longitude":-122.4313,"reserved":0,"last_update":"0001-01-01T00:00:00Z","name_a2s":"Uncletopia | San Francisco | 2 | All Maps","protocol":17,"map":"pl_badwater","folder":"tf","game":"Team Fortress","app_id":440,"player_count":20,"max_players":24,"Bots":0,"server_type":"Dedicated","server_os":"Linux","password":true,"vac":true,"version":"7961495","steam_id":85568392924470000,"keywords":["nocrits","nodmgspread","payload","uncletopia"],"game_id":440,"stv_port":27026,"stv_name":"Uncletopia | San Francisco | 2 | All Maps | STV","players":[{"user_id":379,"name":"Thermo","steam_id":76561198978967412,"connected_time":1161000000000,"state":"active","ping":54},{"user_id":336,"name":"self sufficient kitten","steam_id":76561197960592612,"connected_time":4699000000000,"state":"active","ping":65},{"user_id":398,"name":"don't get mad","steam_id":76561198064662875,"connected_time":42000000000,"state":"active","ping":46},{"user_id":384,"name":"PhaqSunished","steam_id":76561198089761822,"connected_time":1067000000000,"state":"active","ping":65},{"user_id":399,"name":"yawn","steam_id":76561198067753179,"connected_time":39000000000,"state":"active","ping":92},{"user_id":334,"name":"Whiskey","steam_id":76561198858154667,"connected_time":4748000000000,"state":"active","ping":50},{"user_id":374,"name":"Heartgold","steam_id":76561199062592062,"connected_time":1614000000000,"state":"active","ping":135},{"user_id":259,"name":"❤ Ashley ❤","steam_id":76561198056428303,"connected_time":9830000000000,"state":"active","ping":48},{"user_id":380,"name":"Foggy","steam_id":76561198853222793,"connected_time":1117000000000,"state":"active","ping":92},{"user_id":383,"name":"soltuno","steam_id":76561198074430565,"connected_time":1083000000000,"state":"active","ping":78},{"user_id":257,"name":"Diclonius","steam_id":76561198075646647,"connected_time":10121000000000,"state":"active","ping":47},{"user_id":375,"name":"mrthugpug1732","steam_id":76561198881200768,"connected_time":1488000000000,"state":"active","ping":71},{"user_id":396,"name":"Aerospine","steam_id":76561198021438134,"connected_time":176000000000,"state":"active","ping":54},{"user_id":370,"name":"bladees realest, saddest verse","steam_id":76561198098099826,"connected_time":1932000000000,"state":"active","ping":110},{"user_id":394,"name":"NotCarGuy","steam_id":76561198174813835,"connected_time":620000000000,"state":"active","ping":79},{"user_id":297,"name":"Grassman (Cc)","steam_id":76561198026488532,"connected_time":6645000000000,"state":"active","ping":37},{"user_id":372,"name":"greens beans","steam_id":76561198153611491,"connected_time":1787000000000,"state":"active","ping":64},{"user_id":389,"name":"InsertNameHere","steam_id":76561199237340935,"connected_time":901000000000,"state":"active","ping":129},{"user_id":386,"name":"Pacemaker","steam_id":76561198046865217,"connected_time":1047000000000,"state":"active","ping":52},{"user_id":397,"name":"NASA PEEPO","steam_id":76561198024982267,"connected_time":142000000000,"state":"active","ping":59}]},{"server_id":19,"name":"Uncletopia | San Francisco | 3 | Stopwatch","name_short":"sfo-3","host":"sfo-1.us.uncletopia.com","port":27035,"enabled":true,"region":"us-west","cc":"us","latitude":37.77397,"longitude":-122.4313,"reserved":0,"last_update":"0001-01-01T00:00:00Z","name_a2s":"Uncletopia | San Francisco | 3 | Stopwatch","protocol":17,"map":"workshop/koth_clearcut_b15.ugc2107050255","folder":"tf","game":"Team Fortress","app_id":440,"player_count":0,"max_players":24,"Bots":0,"server_type":"Dedicated","server_os":"Linux","password":true,"vac":true,"version":"7961495","steam_id":85568392924742824,"keywords":["cp","nocrits","nodmgspread","uncletopia"],"game_id":440,"stv_port":27036,"stv_name":"Uncletopia | San Francisco | 3 | Stopwatch | STV","players":null},{"server_id":20,"name":"Uncletopia | San Francisco | 4 | Community","name_short":"sfo-4","host":"sfo-1.us.uncletopia.com","port":27045,"enabled":true,"region":"us-west","cc":"us","latitude":37.77397,"longitude":-122.4313,"reserved":0,"last_update":"0001-01-01T00:00:00Z","name_a2s":"Uncletopia | San Francisco | 4 | Community","protocol":17,"map":"workshop/koth_product_final.ugc454272353","folder":"tf","game":"Team Fortress","app_id":440,"player_count":0,"max_players":24,"Bots":0,"server_type":"Dedicated","server_os":"Linux","password":true,"vac":true,"version":"7961495","steam_id":85568392924742826,"keywords":["cp","nocrits","nodmgspread","uncletopia"],"game_id":440,"stv_port":27046,"stv_name":"Uncletopia | San Francisco | 4 | Community | STV","players":null},{"server_id":141,"name":"Uncletopia | Sydney | 1 | All Maps","name_short":"syd-1","host":"syd-1.au.uncletopia.com","port":27015,"enabled":true,"region":"au","cc":"au","latitude":-33.865143,"longitude":151.2099,"reserved":0,"last_update":"0001-01-01T00:00:00Z","name_a2s":"Uncletopia | Sydney | 1 | All Maps","protocol":17,"map":"koth_cascade","folder":"tf","game":"Team Fortress","app_id":440,"player_count":14,"max_players":24,"Bots":0,"server_type":"Dedicated","server_os":"Linux","password":true,"vac":true,"version":"7961495","steam_id":85568392924470001,"keywords":["cp","nocrits","nodmgspread","uncletopia"],"game_id":440,"stv_port":27016,"stv_name":"Uncletopia | Sydney | 1 | All Maps | STV","players":[{"user_id":121,"name":"trash","steam_id":76561198110764631,"connected_time":283000000000,"state":"active","ping":45},{"user_id":119,"name":"Rat","steam_id":76561198405227476,"connected_time":553000000000,"state":"active","ping":68},{"user_id":66,"name":"swaggy seal","steam_id":76561198088993165,"connected_time":4466000000000,"state":"active","ping":61},{"user_id":83,"name":"Linear","steam_id":76561198273006011,"connected_time":3158000000000,"state":"active","ping":74},{"user_id":120,"name":"real or cake","steam_id":76561198152329584,"connected_time":370000000000,"state":"active","ping":63},{"user_id":81,"name":"raf manji","steam_id":76561198998542066,"connected_time":3410000000000,"state":"active","ping":58},{"user_id":112,"name":"4LOW","steam_id":76561199156942316,"connected_time":1164000000000,"state":"active","ping":79},{"user_id":113,"name":"pep","steam_id":76561198012967995,"connected_time":1022000000000,"state":"active","ping":57},{"user_id":122,"name":"Antsy","steam_id":76561198271163692,"connected_time":222000000000,"state":"active","ping":66},{"user_id":123,"name":"Stupid fatty","steam_id":76561199230621703,"connected_time":211000000000,"state":"active","ping":62},{"user_id":126,"name":"Beangodhiann","steam_id":76561198189663681,"connected_time":5000000000,"state":"spawning","ping":56},{"user_id":124,"name":"greer","steam_id":76561198198491197,"connected_time":21000000000,"state":"spawning","ping":77},{"user_id":125,"name":"pos1tve","steam_id":76561199087124672,"connected_time":19000000000,"state":"active","ping":45},{"user_id":76,"name":"FrostyTTV4","steam_id":76561198127455227,"connected_time":3913000000000,"state":"active","ping":84}]},{"server_id":123,"name":"Uncletopia | Sydney | 2 | All Maps","name_short":"syd-2","host":"syd-1.au.uncletopia.com","port":27025,"enabled":true,"region":"au","cc":"au","latitude":-33.865143,"longitude":151.2099,"reserved":0,"last_update":"0001-01-01T00:00:00Z","name_a2s":"Uncletopia | Sydney | 2 | All Maps","protocol":17,"map":"koth_lakeside_final","folder":"tf","game":"Team Fortress","app_id":440,"player_count":0,"max_players":24,"Bots":0,"server_type":"Dedicated","server_os":"Linux","password":true,"vac":true,"version":"7961495","steam_id":85568392924470002,"keywords":["cp","nocrits","nodmgspread","uncletopia"],"game_id":440,"stv_port":27026,"stv_name":"Uncletopia | Sydney | 2 | All Maps | STV","players":null},{"server_id":395,"name":"Uncletopia | Sydney | 3 | All Maps","name_short":"syd-3","host":"syd-1.au.uncletopia.com","port":27035,"enabled":true,"region":"au","cc":"au","latitude":-33.865143,"longitude":151.2099,"reserved":0,"last_update":"0001-01-01T00:00:00Z","name_a2s":"Uncletopia | Sydney | 3 | All Maps","protocol":17,"map":"pl_frontier_final","folder":"tf","game":"Team Fortress","app_id":440,"player_count":0,"max_players":24,"Bots":0,"server_type":"Dedicated","server_os":"Linux","password":true,"vac":true,"version":"7961495","steam_id":85568392925194467,"keywords":["nocrits","nodmgspread","payload","uncletopia"],"game_id":440,"stv_port":27036,"stv_name":"Uncletopia | Sydney | 3 | All Maps | STV","players":null},{"server_id":396,"name":"Uncletopia | Sydney | 4 | All Maps","name_short":"syd-4","host":"syd-1.au.uncletopia.com","port":27045,"enabled":true,"region":"au","cc":"au","latitude":-33.865143,"longitude":151.2099,"reserved":0,"last_update":"0001-01-01T00:00:00Z","name_a2s":"Uncletopia | Sydney | 4 | All Maps","protocol":17,"map":"cp_process_final","folder":"tf","game":"Team Fortress","app_id":440,"player_count":0,"max_players":24,"Bots":0,"server_type":"Dedicated","server_os":"Linux","password":true,"vac":true,"version":"7961495","steam_id":85568392925397958,"keywords":["cp","nocrits","nodmgspread","uncletopia"],"game_id":440,"stv_port":27046,"stv_name":"Uncletopia | Sydney | 4 | All Maps | STV","players":null},{"server_id":58,"name":"Uncletopia | Sydney | 5 | Stopwatch","name_short":"syd-5","host":"syd-1.au.uncletopia.com","port":27055,"enabled":true,"region":"au","cc":"au","latitude":-33.865143,"longitude":151.2099,"reserved":0,"last_update":"0001-01-01T00:00:00Z","name_a2s":"Uncletopia | Sydney | 5 | Stopwatch","protocol":17,"map":"pl_frontier_final","folder":"tf","game":"Team Fortress","app_id":440,"player_count":0,"max_players":24,"Bots":0,"server_type":"Dedicated","server_os":"Linux","password":true,"vac":true,"version":"7961495","steam_id":85568392925397959,"keywords":["nocrits","nodmgspread","payload","uncletopia"],"game_id":440,"stv_port":27056,"stv_name":"Uncletopia | Sydney | 5 | Stopwatch | STV","players":null},{"server_id":59,"name":"Uncletopia | Sydney | 6 | Community","name_short":"syd-6","host":"syd-1.au.uncletopia.com","port":27065,"enabled":true,"region":"au","cc":"au","latitude":-33.865143,"longitude":151.2099,"reserved":0,"last_update":"0001-01-01T00:00:00Z","name_a2s":"Uncletopia | Sydney | 6 | Community","protocol":17,"map":"workshop/koth_ashville_final.ugc2130459942","folder":"tf","game":"Team Fortress","app_id":440,"player_count":0,"max_players":24,"Bots":0,"server_type":"Dedicated","server_os":"Linux","password":true,"vac":true,"version":"7961495","steam_id":85568392925397960,"keywords":["cp","nocrits","nodmgspread","uncletopia"],"game_id":440,"stv_port":27066,"stv_name":"Uncletopia | Sydney | 6 | Community | STV","players":null},{"server_id":49,"name":"Uncletopia | Warsaw | 1 | One Thousand Uncles","name_short":"waw-1","host":"waw-1.pl.uncletopia.com","port":27015,"enabled":true,"region":"eu","cc":"pl","latitude":52.2297,"longitude":21.017532,"reserved":0,"last_update":"0001-01-01T00:00:00Z","name_a2s":"Uncletopia | Warsaw | 1 | One Thousand Uncles","protocol":17,"map":"cp_egypt_final","folder":"tf","game":"Team Fortress","app_id":440,"player_count":18,"max_players":32,"Bots":16,"server_type":"Dedicated","server_os":"Linux","password":true,"vac":true,"version":"7961495","steam_id":85568392925397850,"keywords":["alltalk","bots","cp","danepve","increased_maxplayers","nocrits","norespawntime","uncletopia"],"game_id":440,"stv_port":0,"stv_name":"","players":[{"user_id":179,"name":"ГРУСТНЫЕ МОМЕНТЫ","steam_id":76561198101603592,"connected_time":91000000000,"state":"active","ping":101},{"user_id":135,"name":"WolfyGamer21","steam_id":76561199148811704,"connected_time":7535000000000,"state":"active","ping":148}]},{"server_id":50,"name":"Uncletopia | Warsaw | 2 | One Thousand Uncles","name_short":"waw-2","host":"waw-1.pl.uncletopia.com","port":27025,"enabled":true,"region":"eu","cc":"pl","latitude":52.2297,"longitude":21.017532,"reserved":0,"last_update":"0001-01-01T00:00:00Z","name_a2s":"Uncletopia | Warsaw | 2 | One Thousand Uncles","protocol":17,"map":"pl_goldrush","folder":"tf","game":"Team Fortress","app_id":440,"player_count":0,"max_players":32,"Bots":0,"server_type":"Dedicated","server_os":"Linux","password":true,"vac":true,"version":"7961495","steam_id":85568392925397851,"keywords":["alltalk","danepve","increased_maxplayers","nocrits","norespawntime","payload","uncletopia"],"game_id":440,"stv_port":0,"stv_name":"","players":null},{"server_id":51,"name":"Uncletopia | Warsaw | 3 | All Maps","name_short":"waw-3","host":"waw-1.pl.uncletopia.com","port":27035,"enabled":true,"region":"eu","cc":"pl","latitude":52.2297,"longitude":21.017532,"reserved":0,"last_update":"0001-01-01T00:00:00Z","name_a2s":"Uncletopia | Warsaw | 3 | All Maps","protocol":17,"map":"koth_viaduct","folder":"tf","game":"Team Fortress","app_id":440,"player_count":0,"max_players":24,"Bots":0,"server_type":"Dedicated","server_os":"Linux","password":true,"vac":true,"version":"7961495","steam_id":85568392925397852,"keywords":["cp","nocrits","nodmgspread","uncletopia"],"game_id":440,"stv_port":27036,"stv_name":"Uncletopia | Warsaw | 3 | All Maps | STV","players":null},{"server_id":52,"name":"Uncletopia | Warsaw | 4 | All Maps","name_short":"waw-4","host":"waw-1.pl.uncletopia.com","port":27045,"enabled":true,"region":"eu","cc":"pl","latitude":52.2297,"longitude":21.017532,"reserved":0,"last_update":"0001-01-01T00:00:00Z","name_a2s":"Uncletopia | Warsaw | 4 | All Maps","protocol":17,"map":"pl_swiftwater_final1","folder":"tf","game":"Team Fortress","app_id":440,"player_count":0,"max_players":24,"Bots":0,"server_type":"Dedicated","server_os":"Linux","password":true,"vac":true,"version":"7961495","steam_id":85568392925397853,"keywords":["nocrits","nodmgspread","payload","uncletopia"],"game_id":440,"stv_port":27046,"stv_name":"Uncletopia | Warsaw | 4 | All Maps | STV","players":null},{"server_id":53,"name":"Uncletopia | Warsaw | 5 | Stopwatch","name_short":"waw-5","host":"waw-1.pl.uncletopia.com","port":27055,"enabled":true,"region":"eu","cc":"pl","latitude":52.2297,"longitude":21.017532,"reserved":0,"last_update":"0001-01-01T00:00:00Z","name_a2s":"Uncletopia | Warsaw | 5 | Stopwatch","protocol":17,"map":"workshop/pl_summercoast_rc8e.ugc1761528829","folder":"tf","game":"Team Fortress","app_id":440,"player_count":0,"max_players":24,"Bots":0,"server_type":"Dedicated","server_os":"Linux","password":true,"vac":true,"version":"7961495","steam_id":85568392925397854,"keywords":["nocrits","nodmgspread","payload","uncletopia"],"game_id":440,"stv_port":27056,"stv_name":"Uncletopia | Warsaw | 5 | Stopwatch | STV","players":null},{"server_id":54,"name":"Uncletopia | Warsaw | 6 | Community","name_short":"waw-6","host":"waw-1.pl.uncletopia.com","port":27065,"enabled":true,"region":"eu","cc":"pl","latitude":52.2297,"longitude":21.017532,"reserved":0,"last_update":"0001-01-01T00:00:00Z","name_a2s":"Uncletopia | Warsaw | 6 | Community","protocol":17,"map":"workshop/koth_trenchfoot_b1a.ugc731436616","folder":"tf","game":"Team Fortress","app_id":440,"player_count":0,"max_players":24,"Bots":0,"server_type":"Dedicated","server_os":"Linux","password":true,"vac":true,"version":"7961495","steam_id":85568392925397856,"keywords":["cp","nocrits","nodmgspread","uncletopia"],"game_id":440,"stv_port":27066,"stv_name":"Uncletopia | Warsaw | 6 | Community | STV","players":null}]}