{"status":true,"message":"","result":[{"server_id":9,"name":"Uncletopia | Atlanta | 1 | All Maps","name_short":"atl-1","host":"atl-1.us.uncletopia.com","port":27015,"enabled":true,"region":"us-east","cc":"us","latitude":33.753746,"longitude":-84.38633,"reserved":0,"last_update":"0001-01-01T00:00:00Z","name_a2s":"Uncletopia | Atlanta | 1 | All Maps","protocol":17,"map":"pl_pier","folder":"tf","game":"Team Fortress","app_id":440,"player_count":23,"max_players":24,"Bots":0,"server_type":"Dedicated","server_os":"Linux","password":true,"vac":true,"version":"7723704","steam_id":85568392924469982,"keywords":["nocrits","nodmgspread","payload","uncletopia"],"game_id":440,"stv_port":27016,"stv_name":"Uncletopia | Atlanta | 1 | All Maps | STV","players":[{"user_id":44,"name":"collacot","steam_id":76561198243248798,"connected_time":2801000000000,"state":"active","ping":59},{"user_id":76,"name":"Ghost","steam_id":76561198381421906,"connected_time":349000000000,"state":"active","ping":79},{"user_id":61,"name":"MyamE","steam_id":76561198133278462,"connected_time":1590000000000,"state":"active","ping":74},{"user_id":62,"name":"xXx_The_REAL_Marge_Simpson_xXx","steam_id":76561199116846851,"connected_time":1220000000000,"state":"active","ping":84},{"user_id":60,"name":"santas.secret.sauce","steam_id":76561198042464635,"connected_time":1653000000000,"state":"active","ping":86},{"user_id":40,"name":"SRV","steam_id":76561198026589960,"connected_time":3059000000000,"state":"active","ping":77},{"user_id":63,"name":"IPlayGamez","steam_id":76561198041387508,"connected_time":1202000000000,"state":"active","ping":59},{"user_id":51,"name":"ÂíåÂπ≥Á≤æÁõäÂÆûÂπ≤ÂÆ∂","steam_id":76561198054697958,"connected_time":2364000000000,"state":"active","ping":108},{"user_id":64,"name":"PrinceGrotle","steam_id":76561198206131603,"connected_time":1164000000000,"state":"active","ping":72},{"user_id":65,"name":"pinglefingle","steam_id":76561198216580197,"connected_time":1128000000000,"state":"active","ping":86},{"user_id":66,"name":"tummy","steam_id":76561198347660282,"connected_time":1106000000000,"state":"active","ping":125},{"user_id":78,"name":"aversa","steam_id":76561198840460101,"connected_time":135000000000,"state":"active","ping":211},{"user_id":56,"name":"Rat","steam_id":76561198137925582,"connected_time":2029000000000,"state":"active","ping":79},{"user_id":68,"name":"sad sock","steam_id":76561199104396911,"connected_time":1007000000000,"state":"active","ping":65},{"user_id":77,"name":"Birch","steam_id":76561198316231704,"connected_time":334000000000,"state":"active","ping":61},{"user_id":46,"name":"ToiletBowlJourney76","steam_id":76561198274112032,"connected_time":2782000000000,"state":"active","ping":92},{"user_id":48,"name":"Anxious Nerd Bird","steam_id":76561198112178602,"connected_time":2661000000000,"state":"active","ping":116},{"user_id":74,"name":"Killa*4*Hire","steam_id":76561197963445579,"connected_time":794000000000,"state":"active","ping":116},{"user_id":57,"name":"Biscuit","steam_id":76561198219019759,"connected_time":2004000000000,"state":"active","ping":165},{"user_id":79,"name":"The Collective","steam_id":76561198170423483,"connected_time":20000000000,"state":"active","ping":93},{"user_id":75,"name":"Internetexplorer","steam_id":76561198405105664,"connected_time":465000000000,"state":"active","ping":77},{"user_id":71,"name":"Seru","steam_id":76561199219827214,"connected_time":861000000000,"state":"active","ping":72},{"user_id":73,"name":"steel_v41","steam_id":76561199014781716,"connected_time":813000000000,"state":"active","ping":178}]},{"server_id":400,"name":"Uncletopia | Atlanta | 3 | All Maps","name_short":"atl-3","host":"atl-1.us.uncletopia.com","port":27035,"enabled":true,"region":"us-east","cc":"us","latitude":33.753746,"longitude":-84.38633,"reserved":0,"last_update":"0001-01-01T00:00:00Z","name_a2s":"Uncletopia | Atlanta | 3 | All Maps","protocol":17,"map":"cp_sunshine","folder":"tf","game":"Team Fortress","app_id":440,"player_count":0,"max_players":24,"Bots":0,"server_type":"Dedicated","server_os":"Linux","password":true,"vac":true,"version":"7723704","steam_id":85568392924515187,"keywords":["cp","nocrits","nodmgspread","uncletopia"],"game_id":440,"stv_port":27036,"stv_name":"Uncletopia | Atlanta | 3 | All Maps | STV","players":null},{"server_id":401,"name":"Uncletopia | Atlanta | 4 | No Payload","name_short":"atl-4","host":"atl-1.us.uncletopia.com","port":27045,"enabled":true,"region":"us-east","cc":"us","latitude":33.753746,"longitude":-84.38633,"reserved":0,"last_update":"0001-01-01T00:00:00Z","name_a2s":"Uncletopia | Atlanta | 4 | No Payload","protocol":17,"map":"pl_pier","folder":"tf","game":"Team Fortress","app_id":440,"player_count":0,"max_players":24,"Bots":0,"server_type":"Dedicated","server_os":"Linux","password":true,"vac":true,"version":"7723704","steam_id":85568392924515188,"keywords":["nocrits","nodmgspread","payload","uncletopia"],"game_id":440,"stv_port":27046,"stv_name":"Uncletopia | Atlanta | 4 | No Payload | STV","players":null},{"server_id":2,"name":"Uncletopia | Chicago | 1 | All Maps","name_short":"chi-1","host":"chi-1.us.uncletopia.com","port":27015,"enabled":true,"region":"us-central","cc":"us","latitude":41.881832,"longitude":-87.62318,"reserved":0,"last_update":"0001-01-01T00:00:00Z","name_a2s":"Uncletopia | Chicago | 1 | All Maps","protocol":17,"map":"pl_badwater","folder":"tf","game":"Team Fortress","app_id":440,"player_count":24,"max_players":24,"Bots":0,"server_type":"Dedicated","server_os":"Linux","password":true,"vac":true,"version":"7723704","steam_id":85568392924469984,"keywords":["nocrits","nodmgspread","payload","uncletopia"],"game_id":440,"stv_port":27016,"stv_name":"Uncletopia | Chicago | 1 | All Maps | STV","players":[{"user_id":36,"name":"MistakesWereMade","steam_id":76561199059220481,"connected_time":3689000000000,"state":"active","ping":101},{"user_id":65,"name":"claire","steam_id":76561198127525888,"connected_time":114000000000,"state":"active","ping":69},{"user_id":58,"name":"goblingon","steam_id":76561198157296770,"connected_time":1413000000000,"state":"active","ping":56},{"user_id":6,"name":"CheeseCake488","steam_id":76561199407617942,"connected_time":4510000000000,"state":"active","ping":128},{"user_id":7,"name":"timestew","steam_id":76561198367583372,"connected_time":4509000000000,"state":"active","ping":84},{"user_id":44,"name":"Onymy.","steam_id":76561198171048015,"connected_time":2637000000000,"state":"active","ping":58},{"user_id":18,"name":"cirno","steam_id":76561198166081596,"connected_time":4446000000000,"state":"active","ping":97},{"user_id":48,"name":"Flora","steam_id":76561198358547464,"connected_time":2537000000000,"state":"active","ping":78},{"user_id":11,"name":"DSM-IVCE","steam_id":76561199438515797,"connected_time":4498000000000,"state":"active","ping":120},{"user_id":53,"name":"Epifiny","steam_id":76561198027958086,"connected_time":1993000000000,"state":"active","ping":60},{"user_id":56,"name":"NoBoreGaming","steam_id":76561198044244547,"connected_time":1451000000000,"state":"active","ping":67},{"user_id":38,"name":"lyra","steam_id":76561198200002859,"connected_time":3513000000000,"state":"active","ping":66},{"user_id":19,"name":"‡πá","steam_id":76561198039763676,"connected_time":4441000000000,"state":"active","ping":67},{"user_id":59,"name":"SlimGrady","steam_id":76561198451231329,"connected_time":1386000000000,"state":"active","ping":59},{"user_id":54,"name":"mommy claus","steam_id":76561199230929836,"connected_time":1901000000000,"state":"active","ping":81},{"user_id":63,"name":"colin_elster","steam_id":76561198436402351,"connected_time":856000000000,"state":"active","ping":65},{"user_id":52,"name":"CassandraRC7 (She/her)","steam_id":76561198094123940,"connected_time":2028000000000,"state":"active","ping":56},{"user_id":61,"name":"Guts","steam_id":76561198244702428,"connected_time":1318000000000,"state":"active","ping":57},{"user_id":40,"name":"ItsRoy","steam_id":76561198119525485,"connected_time":3413000000000,"state":"active","ping":57},{"user_id":64,"name":"sevanial","steam_id":76561198071532126,"connected_time":734000000000,"state":"active","ping":60},{"user_id":41,"name":"ccog","steam_id":76561198009314845,"connected_time":3378000000000,"state":"active","ping":95},{"user_id":29,"name":"HEFTY HOG","steam_id":76561198079923652,"connected_time":4119000000000,"state":"active","ping":85},{"user_id":55,"name":"Knoxx","steam_id":76561198260692541,"connected_time":1895000000000,"state":"active","ping":141},{"user_id":57,"name":"paj","steam_id":76561198080026026,"connected_time":1446000000000,"state":"active","ping":104}]},{"server_id":106,"name":"Uncletopia | Chicago | 2 | All Maps","name_short":"chi-2","host":"chi-1.us.uncletopia.com","port":27025,"enabled":true,"region":"us-central","cc":"us","latitude":41.881832,"longitude":-87.62318,"reserved":0,"last_update":"0001-01-01T00:00:00Z","name_a2s":"Uncletopia | Chicago | 2 | All Maps","protocol":17,"map":"cp_mountainlab","folder":"tf","game":"Team Fortress","app_id":440,"player_count":0,"max_players":24,"Bots":0,"server_type":"Dedicated","server_os":"Linux","password":true,"vac":true,"version":"7723704","steam_id":85568392924469985,"keywords":["cp","nocrits","nodmgspread","uncletopia"],"game_id":440,"stv_port":27026,"stv_name":"Uncletopia | Chicago | 2 | All Maps | STV","players":null},{"server_id":402,"name":"Uncletopia | Chicago | 3 | All Maps","name_short":"chi-3","host":"chi-1.us.uncletopia.com","port":27035,"enabled":true,"region":"us-central","cc":"us","latitude":41.881832,"longitude":-87.62318,"reserved":0,"last_update":"0001-01-01T00:00:00Z","name_a2s":"Uncletopia | Chicago | 3 | All Maps","protocol":17,"map":"pl_snowycoast","folder":"tf","game":"Team Fortress","app_id":440,"player_count":0,"max_players":24,"Bots":0,"server_type":"Dedicated","server_os":"Linux","password":true,"vac":true,"version":"7723704","steam_id":85568392924515191,"keywords":["nocrits","nodmgspread","payload","uncletopia"],"game_id":440,"stv_port":27036,"stv_name":"Uncletopia | Chicago | 3 | All Maps | STV","players":null},{"server_id":403,"name":"Uncletopia | Chicago | 4 | All Maps","name_short":"chi-4","host":"chi-1.us.uncletopia.com","port":27045,"enabled":true,"region":"us-central","cc":"us","latitude":41.881832,"longitude":-87.62318,"reserved":0,"last_update":"0001-01-01T00:00:00Z","name_a2s":"Uncletopia | Chicago | 4 | All Maps","protocol":17,"map":"cp_snakewater_final1","folder":"tf","game":"Team Fortress","app_id":440,"player_count":0,"max_players":24,"Bots":0,"server_type":"Dedicated","server_os":"Linux","password":true,"vac":true,"version":"7723704","steam_id":85568392924515193,"keywords":["cp","nocrits","nodmgspread","uncletopia"],"game_id":440,"stv_port":27046,"stv_name":"Uncletopia | Chicago | 4 | All Maps | STV","players":null},{"server_id":36,"name":"Uncletopia | Chicago | 5 | All Maps","name_short":"chi-5","host":"chi-2.us.uncletopia.com","port":27015,"enabled":true,"region":"us-central","cc":"us","latitude":41.881832,"longitude":-87.62318,"reserved":0,"last_update":"0001-01-01T00:00:00Z","name_a2s":"Uncletopia | Chicago | 5 | All Maps","protocol":17,"map":"koth_cascade","folder":"tf","game":"Team Fortress","app_id":440,"player_count":0,"max_players":24,"Bots":0,"server_type":"Dedicated","server_os":"Linux","password":true,"vac":true,"version":"7723704","steam_id":85568392924866362,"keywords":["cp","nocrits","nodmgspread","uncletopia"],"game_id":440,"stv_port":27016,"stv_name":"Uncletopia | Chicago | 5 | All Maps | STV","players":null},{"server_id":37,"name":"Uncletopia | Chicago | 6 | All Maps","name_short":"chi-6","host":"chi-2.us.uncletopia.com","port":27025,"enabled":true,"region":"us-central","cc":"us","latitude":41.881832,"longitude":-87.62318,"reserved":0,"last_update":"0001-01-01T00:00:00Z","name_a2s":"Uncletopia | Chicago | 6 | All Maps","protocol":17,"map":"cp_altitude","folder":"tf","game":"Team Fortress","app_id":440,"player_count":0,"max_players":24,"Bots":0,"server_type":"Dedicated","server_os":"Linux","password":true,"vac":true,"version":"7723704","steam_id":85568392924866363,"keywords":["cp","nocrits","nodmgspread","uncletopia"],"game_id":440,"stv_port":27026,"stv_name":"Uncletopia | Chicago | 6 | All Maps | STV","players":null},{"server_id":38,"name":"Uncletopia | Chicago | 7 | No Payload","name_short":"chi-7","host":"chi-2.us.uncletopia.com","port":27035,"enabled":true,"region":"us-central","cc":"us","latitude":41.881832,"longitude":-87.62318,"reserved":0,"last_update":"0001-01-01T00:00:00Z","name_a2s":"","protocol":0,"map":"","folder":"","game":"","app_id":0,"player_count":0,"max_players":0,"Bots":0,"server_type":"","server_os":"","password":false,"vac":false,"version":"","steam_id":0,"keywords":null,"game_id":0,"stv_port":0,"stv_name":"","players":null},{"server_id":39,"name":"Uncletopia | Chicago | 8 | Community","name_short":"chi-8","host":"chi-2.us.uncletopia.com","port":27045,"enabled":true,"region":"us-central","cc":"us","latitude":41.881832,"longitude":-87.62318,"reserved":0,"last_update":"0001-01-01T00:00:00Z","name_a2s":"Uncletopia | Chicago | 8 | Community","protocol":17,"map":"pl_frontier_final","folder":"tf","game":"Team Fortress","app_id":440,"player_count":0,"max_players":24,"Bots":0,"server_type":"Dedicated","server_os":"Linux","password":true,"vac":true,"version":"7723704","steam_id":85568392924866365,"keywords":["nocrits","nodmgspread","payload","uncletopia"],"game_id":440,"stv_port":27046,"stv_name":"Uncletopia | Chicago | 8 | Community | STV","players":null},{"server_id":8,"name":"Uncletopia | Dallas | 1 | All Maps","name_short":"dal-1","host":"dal-1.us.uncletopia.com","port":27015,"enabled":true,"region":"us-central","cc":"us","latitude":32.779167,"longitude":-96.80889,"reserved":0,"last_update":"0001-01-01T00:00:00Z","name_a2s":"Uncletopia | Dallas | 1 | All Maps","protocol":17,"map":"pl_swiftwater_final1","folder":"tf","game":"Team Fortress","app_id":440,"player_count":0,"max_players":24,"Bots":0,"server_type":"Dedicated","server_os":"Linux","password":true,"vac":true,"version":"7723704","steam_id":85568392924469986,"keywords":["nocrits","nodmgspread","payload","uncletopia"],"game_id":440,"stv_port":27016,"stv_name":"Uncletopia | Dallas | 1 | All Maps | STV","players":null},{"server_id":108,"name":"Uncletopia | Dallas | 2 | All Maps","name_short":"dal-2","host":"dal-1.us.uncletopia.com","port":27025,"enabled":true,"region":"us-central","cc":"us","latitude":32.779167,"longitude":-96.80889,"reserved":0,"last_update":"0001-01-01T00:00:00Z","name_a2s":"Uncletopia | Dallas | 2 | All Maps","protocol":17,"map":"cp_snakewater_final1","folder":"tf","game":"Team Fortress","app_id":440,"player_count":0,"max_players":24,"Bots":0,"server_type":"Dedicated","server_os":"Linux","password":true,"vac":true,"version":"7723704","steam_id":85568392924469988,"keywords":["cp","nocrits","nodmgspread","uncletopia"],"game_id":440,"stv_port":27026,"stv_name":"Uncletopia | Dallas | 2 | All Maps | STV","players":null},{"server_id":5,"name":"Uncletopia | Frankfurt | 1 | All Maps","name_short":"frk-1","host":"frk-1.de.uncletopia.com","port":27015,"enabled":true,"region":"eu","cc":"de","latitude":50.110924,"longitude":8.682127,"reserved":0,"last_update":"0001-01-01T00:00:00Z","name_a2s":"Uncletopia | Frankfurt | 1 | All Maps","protocol":17,"map":"pl_upward","folder":"tf","game":"Team Fortress","app_id":440,"player_count":24,"max_players":24,"Bots":0,"server_type":"Dedicated","server_os":"Linux","password":true,"vac":true,"version":"7723704","steam_id":85568392924469989,"keywords":["nocrits","nodmgspread","payload","uncletopia"],"game_id":440,"stv_port":27016,"stv_name":"Uncletopia | Frankfurt | 1 | All Maps | STV","players":[{"user_id":134,"name":"No Weapons Guy","steam_id":76561198078041375,"connected_time":950000000000,"state":"active","ping":64},{"user_id":127,"name":"reaz!","steam_id":76561199050138956,"connected_time":1485000000000,"state":"active","ping":73},{"user_id":140,"name":"HarMala","steam_id":76561198055298143,"connected_time":681000000000,"state":"active","ping":80},{"user_id":61,"name":"Makeways","steam_id":76561198274466477,"connected_time":6074000000000,"state":"active","ping":65},{"user_id":136,"name":"Vikud","steam_id":76561199110575856,"connected_time":847000000000,"state":"active","ping":137},{"user_id":150,"name":"I wuv you \u003c3","steam_id":76561199436238409,"connected_time":472000000000,"state":"active","ping":75},{"user_id":132,"name":".::[SerafeTTiN]::.","steam_id":76561198009471724,"connected_time":1065000000000,"state":"active","ping":90},{"user_id":141,"name":"System","steam_id":76561199442503973,"connected_time":680000000000,"state":"active","ping":46},{"user_id":153,"name":"Leprechaun","steam_id":76561198328543549,"connected_time":19000000000,"state":"spawning","ping":112},{"user_id":124,"name":"Mathieu.","steam_id":76561198039268163,"connected_time":1658000000000,"state":"active","ping":62},{"user_id":137,"name":"skYle | joe +.+Íúù","steam_id":76561197981047264,"connected_time":845000000000,"state":"active","ping":45},{"user_id":129,"name":"Itai","steam_id":76561198804555329,"connected_time":1256000000000,"state":"active","ping":111},{"user_id":138,"name":"TopFragginRat","steam_id":76561198845295582,"connected_time":842000000000,"state":"active","ping":100},{"user_id":101,"name":"Octoblue64","steam_id":76561198388997283,"connected_time":3256000000000,"state":"active","ping":64},{"user_id":139,"name":"Dubious Little Creature","steam_id":76561198167986695,"connected_time":721000000000,"state":"active","ping":45},{"user_id":146,"name":"LOBZIK","steam_id":76561198114830120,"connected_time":539000000000,"state":"active","ping":78},{"user_id":125,"name":"generic alias","steam_id":76561198271607226,"connected_time":1657000000000,"state":"active","ping":98},{"user_id":142,"name":"pl_z≈Çawoda","steam_id":76561198040588109,"connected_time":677000000000,"state":"active","ping":75},{"user_id":133,"name":"KAZAM | Tervez","steam_id":76561198045459068,"connected_time":1006000000000,"state":"active","ping":91},{"user_id":144,"name":"Clitorina","steam_id":76561198077570815,"connected_time":596000000000,"state":"active","ping":59},{"user_id":152,"name":"Thors","steam_id":76561197968739075,"connected_time":196000000000,"state":"active","ping":45},{"user_id":108,"name":"ti ebanutiy?","steam_id":76561198244445226,"connected_time":3003000000000,"state":"active","ping":82},{"user_id":109,"name":"vissa","steam_id":76561198150680224,"connected_time":2986000000000,"state":"active","ping":88},{"user_id":151,"name":"E","steam_id":76561198166340115,"connected_time":409000000000,"state":"active","ping":64}]},{"server_id":110,"name":"Uncletopia | Frankfurt | 2 | All Maps","name_short":"frk-2","host":"frk-1.de.uncletopia.com","port":27025,"enabled":true,"region":"eu","cc":"de","latitude":50.110924,"longitude":8.682127,"reserved":0,"last_update":"0001-01-01T00:00:00Z","name_a2s":"Uncletopia | Frankfurt | 2 | All Maps","protocol":17,"map":"cp_mountainlab","folder":"tf","game":"Team Fortress","app_id":440,"player_count":24,"max_players":24,"Bots":0,"server_type":"Dedicated","server_os":"Linux","password":true,"vac":true,"version":"7723704","steam_id":85568392924469990,"keywords":["cp","nocrits","nodmgspread","uncletopia"],"game_id":440,"stv_port":27026,"stv_name":"Uncletopia | Frankfurt | 2 | All Maps | STV","players":[{"user_id":204,"name":"bbydhyonchord","steam_id":76561198181138367,"connected_time":546000000000,"state":"active","ping":86},{"user_id":179,"name":"please like and sucribe","steam_id":76561198189686075,"connected_time":1906000000000,"state":"active","ping":60},{"user_id":205,"name":"sesw","steam_id":76561198057332404,"connected_time":463000000000,"state":"active","ping":49},{"user_id":183,"name":"Bepperman","steam_id":76561198397517828,"connected_time":1674000000000,"state":"active","ping":65},{"user_id":202,"name":"Scotty","steam_id":76561197991276547,"connected_time":669000000000,"state":"active","ping":49},{"user_id":185,"name":"Wyvern786","steam_id":76561199137770636,"connected_time":1607000000000,"state":"active","ping":61},{"user_id":210,"name":"hemili0s","steam_id":76561198157926004,"connected_time":191000000000,"state":"active","ping":100},{"user_id":128,"name":"Videogamer","steam_id":76561198106012909,"connected_time":4711000000000,"state":"active","ping":59},{"user_id":186,"name":"lore","steam_id":76561198120984188,"connected_time":1539000000000,"state":"active","ping":69},{"user_id":187,"name":"retard","steam_id":76561199042470246,"connected_time":1528000000000,"state":"active","ping":53},{"user_id":197,"name":"hulluheppu1","steam_id":76561198093458326,"connected_time":1310000000000,"state":"active","ping":63},{"user_id":130,"name":"X-tis","steam_id":76561198043837480,"connected_time":4618000000000,"state":"active","ping":71},{"user_id":203,"name":"üå≠üåº Hugee","steam_id":76561198245495152,"connected_time":645000000000,"state":"active","ping":62},{"user_id":93,"name":"weird noises girl","steam_id":76561198404802175,"connected_time":8143000000000,"state":"active","ping":175},{"user_id":191,"name":"Coyote29","steam_id":76561198344502070,"connected_time":1449000000000,"state":"active","ping":80},{"user_id":208,"name":"barosans FR","steam_id":76561198038109099,"connected_time":337000000000,"state":"active","ping":51},{"user_id":153,"name":"Fat Pigeon","steam_id":76561198817940142,"connected_time":3781000000000,"state":"active","ping":49},{"user_id":198,"name":"Mclovin567","steam_id":76561198799105302,"connected_time":1306000000000,"state":"active","ping":62},{"user_id":207,"name":"pardner","steam_id":76561198451471161,"connected_time":386000000000,"state":"active","ping":72},{"user_id":209,"name":"Cuthbert","steam_id":76561198204649481,"connected_time":296000000000,"state":"active","ping":94},{"user_id":194,"name":"Maksivad","steam_id":76561198134394882,"connected_time":1402000000000,"state":"active","ping":70},{"user_id":174,"name":"Gurgula","steam_id":76561198021253678,"connected_time":2167000000000,"state":"active","ping":77},{"user_id":199,"name":"bind m1 \"+attack;kill\"","steam_id":76561198093290934,"connected_time":867000000000,"state":"active","ping":80},{"user_id":196,"name":"Mario la Maxim","steam_id":76561199137799215,"connected_time":1362000000000,"state":"active","ping":78}]},{"server_id":308,"name":"Uncletopia | Frankfurt | 3 | All Maps","name_short":"frk-3","host":"frk-1.de.uncletopia.com","port":27035,"enabled":true,"region":"eu","cc":"de","latitude":50.110924,"longitude":8.682127,"reserved":0,"last_update":"0001-01-01T00:00:00Z","name_a2s":"Uncletopia | Frankfurt | 3 | All Maps","protocol":17,"map":"koth_cascade","folder":"tf","game":"Team Fortress","app_id":440,"player_count":24,"max_players":24,"Bots":0,"server_type":"Dedicated","server_os":"Linux","password":true,"vac":true,"version":"7723704","steam_id":85568392924504274,"keywords":["cp","nocrits","nodmgspread","uncletopia"],"game_id":440,"stv_port":27036,"stv_name":"Uncletopia | Frankfurt | 3 | All Maps | STV","players":[{"user_id":336,"name":"ainme enjoyer","steam_id":76561198076613025,"connected_time":319000000000,"state":"active","ping":84},{"user_id":332,"name":"Reeeeeeeeee80","steam_id":76561199438276394,"connected_time":672000000000,"state":"active","ping":91},{"user_id":243,"name":"Guru","steam_id":76561198093853069,"connected_time":5884000000000,"state":"active","ping":58},{"user_id":299,"name":"juliuz","steam_id":76561198860026604,"connected_time":3295000000000,"state":"active","ping":64},{"user_id":322,"name":"kentir_buh","steam_id":76561198107526456,"connected_time":1024000000000,"state":"active","ping":69},{"user_id":339,"name":"Newax","steam_id":76561198020758511,"connected_time":238000000000,"state":"active","ping":60},{"user_id":333,"name":"Dr.Sees [F2P]","steam_id":76561199219233587,"connected_time":599000000000,"state":"active","ping":78},{"user_id":325,"name":"gaz","steam_id":76561198843714742,"connected_time":961000000000,"state":"active","ping":72},{"user_id":326,"name":"Lapa Mato","steam_id":76561199052049475,"connected_time":942000000000,"state":"active","ping":83},{"user_id":327,"name":"Suomenjuusto","steam_id":76561198991491758,"connected_time":930000000000,"state":"active","ping":73},{"user_id":318,"name":"Baconcat","steam_id":76561198079354676,"connected_time":1324000000000,"state":"active","ping":116},{"user_id":263,"name":"Welder","steam_id":76561198355300561,"connected_time":5065000000000,"state":"active","ping":69},{"user_id":316,"name":"SirLucky7","steam_id":76561198200377811,"connected_time":1800000000000,"state":"active","ping":55},{"user_id":258,"name":"Greg","steam_id":76561198014131702,"connected_time":5525000000000,"state":"active","ping":123},{"user_id":328,"name":"Regan","steam_id":76561198100631086,"connected_time":865000000000,"state":"active","ping":62},{"user_id":315,"name":"Ash_Dies_Alone","steam_id":76561198136126828,"connected_time":1989000000000,"state":"active","ping":55},{"user_id":288,"name":"Tryrn","steam_id":76561198075487436,"connected_time":3994000000000,"state":"active","ping":98},{"user_id":334,"name":"yeldad","steam_id":76561198447264153,"connected_time":487000000000,"state":"active","ping":128},{"user_id":335,"name":"Panky","steam_id":76561198143864006,"connected_time":400000000000,"state":"active","ping":68},{"user_id":337,"name":"clems17","steam_id":76561199420685482,"connected_time":286000000000,"state":"active","ping":53},{"user_id":338,"name":"Jeg","steam_id":76561198405291408,"connected_time":262000000000,"state":"active","ping":60},{"user_id":343,"name":"seductive_spiederman","steam_id":76561199138558228,"connected_time":93000000000,"state":"active","ping":76},{"user_id":341,"name":"–∏–≤–∞–Ω","steam_id":76561198072730591,"connected_time":185000000000,"state":"active","ping":60},{"user_id":342,"name":"stupid lil dingus","steam_id":76561199208482994,"connected_time":156000000000,"state":"active","ping":69}]},{"server_id":309,"name":"Uncletopia | Frankfurt | 4 | All Maps","name_short":"frk-4","host":"frk-1.de.uncletopia.com","port":27045,"enabled":true,"region":"eu","cc":"de","latitude":50.110924,"longitude":8.682127,"reserved":0,"last_update":"0001-01-01T00:00:00Z","name_a2s":"Uncletopia | Frankfurt | 4 | All Maps","protocol":17,"map":"pl_badwater","folder":"tf","game":"Team Fortress","app_id":440,"player_count":24,"max_players":24,"Bots":0,"server_type":"Dedicated","server_os":"Linux","password":true,"vac":true,"version":"7723704","steam_id":85568392924504275,"keywords":["nocrits","nodmgspread","payload","uncletopia"],"game_id":440,"stv_port":27046,"stv_name":"Uncletopia | Frankfurt | 4 | All Maps | STV","players":[{"user_id":246,"name":"val","steam_id":76561198324316160,"connected_time":382000000000,"state":"active","ping":61},{"user_id":247,"name":"Fidgett","steam_id":76561198349648942,"connected_time":333000000000,"state":"active","ping":90},{"user_id":248,"name":"racecar_37","steam_id":76561198985675604,"connected_time":298000000000,"state":"active","ping":76},{"user_id":233,"name":"draziw","steam_id":76561198429954935,"connected_time":1396000000000,"state":"active","ping":57},{"user_id":249,"name":"shinji","steam_id":76561198099696876,"connected_time":253000000000,"state":"active","ping":61},{"user_id":218,"name":"XfarisGamerX","steam_id":76561198367579380,"connected_time":2175000000000,"state":"active","ping":126},{"user_id":250,"name":"üÉî Nugg1t(sme/lly)","steam_id":76561198065652251,"connected_time":251000000000,"state":"active","ping":39},{"user_id":253,"name":"kiwis","steam_id":76561199234051685,"connected_time":139000000000,"state":"active","ping":48},{"user_id":252,"name":"bruh","steam_id":76561198109262927,"connected_time":155000000000,"state":"active","ping":74},{"user_id":220,"name":"OlkiSoup","steam_id":76561199209805904,"connected_time":2036000000000,"state":"active","ping":77},{"user_id":235,"name":"Dolcelatte","steam_id":76561198038501770,"connected_time":1387000000000,"state":"active","ping":59},{"user_id":219,"name":"Quartzy","steam_id":76561198313301520,"connected_time":2053000000000,"state":"active","ping":47},{"user_id":254,"name":"Nickel (28) [F2P]","steam_id":76561199082683456,"connected_time":120000000000,"state":"active","ping":113},{"user_id":213,"name":"Cippo95","steam_id":76561198255311582,"connected_time":2864000000000,"state":"active","ping":73},{"user_id":242,"name":"your_local_penguin","steam_id":76561199224954346,"connected_time":890000000000,"state":"active","ping":87},{"user_id":243,"name":"emie","steam_id":76561198122380622,"connected_time":848000000000,"state":"active","ping":81},{"user_id":241,"name":"Qwaden","steam_id":76561198881784698,"connected_time":1030000000000,"state":"active","ping":66},{"user_id":217,"name":"MiGGo","steam_id":76561198041645362,"connected_time":2226000000000,"state":"active","ping":85},{"user_id":255,"name":"Rambi","steam_id":76561199058078505,"connected_time":103000000000,"state":"active","ping":160},{"user_id":256,"name":"Syd","steam_id":76561198020515027,"connected_time":59000000000,"state":"active","ping":76},{"user_id":257,"name":"ayuumi","steam_id":76561198796327257,"connected_time":58000000000,"state":"active","ping":37},{"user_id":232,"name":"2004 Kanye","steam_id":76561198189000841,"connected_time":1739000000000,"state":"active","ping":81},{"user_id":191,"name":"ChaserFogFi","steam_id":76561199119836596,"connected_time":4768000000000,"state":"active","ping":50},{"user_id":258,"name":"BORK","steam_id":76561198025594481,"connected_time":5000000000,"state":"spawning","ping":91}]},{"server_id":310,"name":"Uncletopia | Frankfurt | 5 | All Maps","name_short":"frk-5","host":"frk-1.de.uncletopia.com","port":27055,"enabled":true,"region":"eu","cc":"de","latitude":50.110924,"longitude":8.682127,"reserved":0,"last_update":"0001-01-01T00:00:00Z","name_a2s":"Uncletopia | Frankfurt | 5 | All Maps","protocol":17,"map":"pl_badwater","folder":"tf","game":"Team Fortress","app_id":440,"player_count":24,"max_players":24,"Bots":0,"server_type":"Dedicated","server_os":"Linux","password":true,"vac":true,"version":"7723704","steam_id":85568392924504277,"keywords":["nocrits","nodmgspread","payload","uncletopia"],"game_id":440,"stv_port":27056,"stv_name":"Uncletopia | Frankfurt | 5 | All Maps | STV","players":[{"user_id":112,"name":"Veile","steam_id":76561199007201531,"connected_time":592000000000,"state":"active","ping":100},{"user_id":83,"name":"videogames1000","steam_id":76561198086976963,"connected_time":2509000000000,"state":"active","ping":88},{"user_id":78,"name":"player","steam_id":76561198054474684,"connected_time":2702000000000,"state":"active","ping":75},{"user_id":113,"name":"jmp","steam_id":76561198168283286,"connected_time":525000000000,"state":"active","ping":75},{"user_id":90,"name":"sorry \u003c3 Der√©k","steam_id":76561198159410471,"connected_time":2236000000000,"state":"active","ping":73},{"user_id":118,"name":"Doctor__Mobius","steam_id":76561197971281806,"connected_time":286000000000,"state":"active","ping":58},{"user_id":10,"name":"deaf","steam_id":76561198074553845,"connected_time":5849000000000,"state":"active","ping":87},{"user_id":74,"name":"Trytard","steam_id":76561198094507220,"connected_time":2866000000000,"state":"active","ping":62},{"user_id":66,"name":"Sloppy polish handyman","steam_id":76561198126398022,"connected_time":3042000000000,"state":"active","ping":75},{"user_id":13,"name":"Piteras","steam_id":76561198858532207,"connected_time":5686000000000,"state":"active","ping":70},{"user_id":51,"name":"Lindbergan","steam_id":76561198226613312,"connected_time":3758000000000,"state":"active","ping":88},{"user_id":96,"name":"Redmailbox","steam_id":76561198042930322,"connected_time":1711000000000,"state":"active","ping":60},{"user_id":108,"name":"zooom132","steam_id":76561198314426404,"connected_time":879000000000,"state":"active","ping":174},{"user_id":109,"name":"Hohlyatina","steam_id":76561198169154183,"connected_time":872000000000,"state":"active","ping":92},{"user_id":81,"name":"Dario","steam_id":76561198262290148,"connected_time":2651000000000,"state":"active","ping":48},{"user_id":82,"name":"Micha≈Ç","steam_id":76561198320346362,"connected_time":2587000000000,"state":"active","ping":60},{"user_id":97,"name":"T_G_G","steam_id":76561199114568070,"connected_time":1672000000000,"state":"active","ping":86},{"user_id":85,"name":"Luc","steam_id":76561198250516264,"connected_time":2467000000000,"state":"active","ping":61},{"user_id":114,"name":"Mike Ehrmantraut","steam_id":76561198082446459,"connected_time":496000000000,"state":"active","ping":61},{"user_id":103,"name":"linkinparkfan123","steam_id":76561199033782005,"connected_time":1150000000000,"state":"active","ping":98},{"user_id":111,"name":"√ÉNVS DR√ÉNVS","steam_id":76561198138733015,"connected_time":801000000000,"state":"active","ping":114},{"user_id":104,"name":"hushhx","steam_id":76561198216200092,"connected_time":1118000000000,"state":"active","ping":70},{"user_id":115,"name":"SpyCrab  Erik Twice","steam_id":76561198009710309,"connected_time":485000000000,"state":"active","ping":72},{"user_id":117,"name":"L√∂ys√§ Masa","steam_id":76561198343396172,"connected_time":467000000000,"state":"active","ping":88}]},{"server_id":311,"name":"Uncletopia | Frankfurt | 6 | All Maps","name_short":"frk-6","host":"frk-1.de.uncletopia.com","port":27065,"enabled":true,"region":"eu","cc":"de","latitude":50.110924,"longitude":8.682127,"reserved":0,"last_update":"0001-01-01T00:00:00Z","name_a2s":"Uncletopia | Frankfurt | 6 | All Maps","protocol":17,"map":"pl_barnblitz","folder":"tf","game":"Team Fortress","app_id":440,"player_count":5,"max_players":24,"Bots":0,"server_type":"Dedicated","server_os":"Linux","password":true,"vac":true,"version":"7723704","steam_id":85568392924504278,"keywords":["nocrits","nodmgspread","payload","uncletopia"],"game_id":440,"stv_port":27066,"stv_name":"Uncletopia | Frankfurt | 6 | All Maps | STV","players":[{"user_id":8,"name":"Righty","steam_id":76561199224705434,"connected_time":1439000000000,"state":"active","ping":125},{"user_id":7,"name":"rat","steam_id":76561199100632053,"connected_time":2229000000000,"state":"active","ping":63},{"user_id":10,"name":"GlassesMode","steam_id":76561199142786677,"connected_time":553000000000,"state":"active","ping":60},{"user_id":13,"name":"Lav","steam_id":76561198991138683,"connected_time":144000000000,"state":"active","ping":70},{"user_id":15,"name":"fried","steam_id":76561198307522022,"connected_time":67000000000,"state":"active","ping":45}]},{"server_id":23,"name":"Uncletopia | Frankfurt | 7 | No Payload","name_short":"frk-7","host":"frk-1.de.uncletopia.com","port":27075,"enabled":true,"region":"eu","cc":"de","latitude":50.110924,"longitude":8.682127,"reserved":0,"last_update":"0001-01-01T00:00:00Z","name_a2s":"Uncletopia | Frankfurt | 7 | No Payload","protocol":17,"map":"cp_foundry","folder":"tf","game":"Team Fortress","app_id":440,"player_count":0,"max_players":24,"Bots":0,"server_type":"Dedicated","server_os":"Linux","password":true,"vac":true,"version":"7723704","steam_id":85568392924742827,"keywords":["cp","nocrits","nodmgspread","uncletopia"],"game_id":440,"stv_port":27076,"stv_name":"Uncletopia | Frankfurt | 7 | No Payload | STV","players":null},{"server_id":24,"name":"Uncletopia | Frankfurt | 8 | Community","name_short":"frk-8","host":"frk-1.de.uncletopia.com","port":27085,"enabled":true,"region":"eu","cc":"de","latitude":50.110924,"longitude":8.682127,"reserved":0,"last_update":"0001-01-01T00:00:00Z","name_a2s":"Uncletopia | Frankfurt | 8 | Community","protocol":17,"map":"workshop/koth_ashville_final.ugc2130459942","folder":"tf","game":"Team Fortress","app_id":440,"player_count":0,"max_players":24,"Bots":0,"server_type":"Dedicated","server_os":"Linux","password":true,"vac":true,"version":"7723704","steam_id":85568392924742828,"keywords":["cp","nocrits","nodmgspread","uncletopia"],"game_id":440,"stv_port":27086,"stv_name":"Uncletopia | Frankfurt | 8 | Community | STV","players":null},{"server_id":202,"name":"Uncletopia | Hong Kong | 1 | All Maps","name_short":"hgk-1","host":"hgk-1.hk.uncletopia.com","port":27015,"enabled":true,"region":"asia","cc":"hk","latitude":22.302711,"longitude":114.177216,"reserved":0,"last_update":"0001-01-01T00:00:00Z","name_a2s":"Uncletopia | Hong Kong | 1 | All Maps","protocol":17,"map":"koth_lakeside_final","folder":"tf","game":"Team Fortress","app_id":440,"player_count":24,"max_players":24,"Bots":0,"server_type":"Dedicated","server_os":"Linux","password":true,"vac":true,"version":"7723704","steam_id":85568392924494504,"keywords":["cp","nocrits","nodmgspread","uncletopia"],"game_id":440,"stv_port":27016,"stv_name":"Uncletopia | Hong Kong | 1 | All Maps | STV","players":[{"user_id":343,"name":"C√° Th√°ng 4","steam_id":76561198047162026,"connected_time":13358000000000,"state":"active","ping":63},{"user_id":446,"name":"MS PowerPoint","steam_id":76561198369523192,"connected_time":5958000000000,"state":"active","ping":61},{"user_id":485,"name":"n3bukadnedzar","steam_id":76561198108308709,"connected_time":1026000000000,"state":"active","ping":91},{"user_id":457,"name":"cellum95","steam_id":76561198172146871,"connected_time":3976000000000,"state":"active","ping":72},{"user_id":489,"name":"Lym0n","steam_id":76561199192420260,"connected_time":948000000000,"state":"active","ping":103},{"user_id":465,"name":"Crit-A-Cola Fan","steam_id":76561198836956034,"connected_time":3486000000000,"state":"active","ping":68},{"user_id":476,"name":"Jimi Hen-Dicks Excrements","steam_id":76561198826565047,"connected_time":2206000000000,"state":"active","ping":82},{"user_id":482,"name":"Tume","steam_id":76561199117576868,"connected_time":1897000000000,"state":"active","ping":116},{"user_id":471,"name":"Hyojin","steam_id":76561199277317248,"connected_time":2774000000000,"state":"active","ping":60},{"user_id":477,"name":"Cipher(#savetf2)","steam_id":76561198796591492,"connected_time":2203000000000,"state":"active","ping":148},{"user_id":490,"name":"In(e)","steam_id":76561198362097007,"connected_time":615000000000,"state":"active","ping":51},{"user_id":441,"name":"JayJ","steam_id":76561198324008555,"connected_time":6235000000000,"state":"active","ping":49},{"user_id":479,"name":"Cheesey","steam_id":76561198975684137,"connected_time":2135000000000,"state":"active","ping":102},{"user_id":467,"name":"gave my love to a shooting star","steam_id":76561197990537324,"connected_time":3366000000000,"state":"active","ping":150},{"user_id":491,"name":"Owmyn","steam_id":76561199239651098,"connected_time":613000000000,"state":"active","ping":339},{"user_id":473,"name":"+h","steam_id":76561198815455148,"connected_time":2671000000000,"state":"active","ping":134},{"user_id":466,"name":"bocchi = ryan gosling = me","steam_id":76561197994194946,"connected_time":3425000000000,"state":"active","ping":100},{"user_id":443,"name":"twitch.tv/vision515","steam_id":76561198065293729,"connected_time":6209000000000,"state":"active","ping":155},{"user_id":493,"name":"it chrmis time","steam_id":76561198055553140,"connected_time":598000000000,"state":"active","ping":81},{"user_id":478,"name":"godhood","steam_id":76561198412329672,"connected_time":2199000000000,"state":"active","ping":98},{"user_id":481,"name":"big","steam_id":76561199071192186,"connected_time":1938000000000,"state":"active","ping":81},{"user_id":495,"name":"krankie ‚ô•","steam_id":76561198364773435,"connected_time":468000000000,"state":"active","ping":88},{"user_id":469,"name":"silversol","steam_id":76561198004570036,"connected_time":3216000000000,"state":"active","ping":102},{"user_id":488,"name":"Degenerate With Standards!!!","steam_id":76561199174449723,"connected_time":964000000000,"state":"active","ping":72}]},{"server_id":1,"name":"Uncletopia | Los Angeles | 1 | All Maps","name_short":"lax-1","host":"lax-1.us.uncletopia.com","port":27015,"enabled":true,"region":"us-west","cc":"us","latitude":33.94279,"longitude":-118.41004,"reserved":0,"last_update":"0001-01-01T00:00:00Z","name_a2s":"Uncletopia | Los Angeles | 1 | All Maps","protocol":17,"map":"pl_pier","folder":"tf","game":"Team Fortress","app_id":440,"player_count":0,"max_players":24,"Bots":0,"server_type":"Dedicated","server_os":"Linux","password":true,"vac":true,"version":"7723704","steam_id":85568392924469991,"keywords":["nocrits","nodmgspread","payload","uncletopia"],"game_id":440,"stv_port":27016,"stv_name":"Uncletopia | Los Angeles | 1 | All Maps | STV","players":null},{"server_id":112,"name":"Uncletopia | Los Angeles | 2 | All Maps","name_short":"lax-2","host":"lax-1.us.uncletopia.com","port":27025,"enabled":true,"region":"us-west","cc":"us","latitude":33.94279,"longitude":-118.41004,"reserved":0,"last_update":"0001-01-01T00:00:00Z","name_a2s":"Uncletopia | Los Angeles | 2 | All Maps","protocol":17,"map":"koth_lakeside_final","folder":"tf","game":"Team Fortress","app_id":440,"player_count":0,"max_players":24,"Bots":0,"server_type":"Dedicated","server_os":"Linux","password":true,"vac":true,"version":"7723704","steam_id":85568392924469992,"keywords":["cp","nocrits","nodmgspread","uncletopia"],"game_id":440,"stv_port":27026,"stv_name":"Uncletopia | Los Angeles | 2 | All Maps | STV","players":null},{"server_id":324,"name":"Uncletopia | Los Angeles | 3 | All Maps","name_short":"lax-3","host":"lax-1.us.uncletopia.com","port":27035,"enabled":true,"region":"us-west","cc":"us","latitude":33.94279,"longitude":-118.41004,"reserved":0,"last_update":"0001-01-01T00:00:00Z","name_a2s":"Uncletopia | Los Angeles | 3 | All Maps","protocol":17,"map":"koth_viaduct","folder":"tf","game":"Team Fortress","app_id":440,"player_count":0,"max_players":24,"Bots":0,"server_type":"Dedicated","server_os":"Linux","password":true,"vac":true,"version":"7723704","steam_id":85568392924510198,"keywords":["cp","nocrits","nodmgspread","uncletopia"],"game_id":440,"stv_port":27036,"stv_name":"Uncletopia | Los Angeles | 3 | All Maps | STV","players":null},{"server_id":25,"name":"Uncletopia | Los Angeles | 4 | No Payload","name_short":"lax-4","host":"lax-1.us.uncletopia.com","port":27045,"enabled":true,"region":"us-west","cc":"us","latitude":33.94279,"longitude":-118.41004,"reserved":0,"last_update":"0001-01-01T00:00:00Z","name_a2s":"Uncletopia | Los Angeles | 4 | No Payload","protocol":17,"map":"koth_lazarus","folder":"tf","game":"Team Fortress","app_id":440,"player_count":0,"max_players":24,"Bots":0,"server_type":"Dedicated","server_os":"Linux","password":true,"vac":true,"version":"7723704","steam_id":85568392924510199,"keywords":["cp","nocrits","nodmgspread","uncletopia"],"game_id":440,"stv_port":27046,"stv_name":"Uncletopia | Los Angeles | 4 | No Payload | STV","players":null},{"server_id":11,"name":"Uncletopia | London | 1 | All Maps","name_short":"lon-1","host":"lon-1.uk.uncletopia.com","port":27015,"enabled":true,"region":"eu","cc":"gb","latitude":51.509865,"longitude":-0.118092,"reserved":0,"last_update":"0001-01-01T00:00:00Z","name_a2s":"Uncletopia | London | 1 | All Maps","protocol":17,"map":"pl_frontier_final","folder":"tf","game":"Team Fortress","app_id":440,"player_count":11,"max_players":24,"Bots":0,"server_type":"Dedicated","server_os":"Linux","password":true,"vac":true,"version":"7723704","steam_id":85568392924367362,"keywords":["nocrits","nodmgspread","payload","uncletopia"],"game_id":440,"stv_port":27016,"stv_name":"Uncletopia | London | 1 | All Maps | STV","players":[{"user_id":157,"name":"most sane mentalist","steam_id":76561198310095220,"connected_time":136000000000,"state":"active","ping":42},{"user_id":154,"name":"ComicalDegree","steam_id":76561199380838082,"connected_time":368000000000,"state":"active","ping":31},{"user_id":146,"name":"silicon based life form","steam_id":76561199127121346,"connected_time":671000000000,"state":"active","ping":53},{"user_id":151,"name":"GamingElek","steam_id":76561198253639367,"connected_time":471000000000,"state":"active","ping":71},{"user_id":149,"name":"eggslut","steam_id":76561198010752241,"connected_time":580000000000,"state":"active","ping":59},{"user_id":155,"name":"üé¥HASUAUAüé¥","steam_id":76561198401705158,"connected_time":352000000000,"state":"active","ping":55},{"user_id":156,"name":"Emotional Reassurance Pyro","steam_id":76561198213498127,"connected_time":346000000000,"state":"active","ping":92},{"user_id":145,"name":"Bunnytt","steam_id":76561198340246275,"connected_time":715000000000,"state":"active","ping":110},{"user_id":132,"name":"Equinox","steam_id":76561199055592635,"connected_time":1688000000000,"state":"active","ping":49},{"user_id":127,"name":"Smag","steam_id":76561198153675141,"connected_time":1894000000000,"state":"active","ping":51},{"user_id":43,"name":"sPork","steam_id":76561198056880331,"connected_time":7335000000000,"state":"active","ping":71}]},{"server_id":114,"name":"Uncletopia | London | 2 | All Maps","name_short":"lon-2","host":"lon-1.uk.uncletopia.com","port":27025,"enabled":true,"region":"eu","cc":"gb","latitude":51.509865,"longitude":-0.118092,"reserved":0,"last_update":"0001-01-01T00:00:00Z","name_a2s":"Uncletopia | London | 2 | All Maps","protocol":17,"map":"cp_process_final","folder":"tf","game":"Team Fortress","app_id":440,"player_count":23,"max_players":24,"Bots":0,"server_type":"Dedicated","server_os":"Linux","password":true,"vac":true,"version":"7723704","steam_id":85568392924470941,"keywords":["cp","nocrits","nodmgspread","uncletopia"],"game_id":440,"stv_port":27026,"stv_name":"Uncletopia | London | 2 | All Maps | STV","players":[{"user_id":161,"name":"rel","steam_id":76561198992148678,"connected_time":2118000000000,"state":"active","ping":44},{"user_id":144,"name":"Majus","steam_id":76561198303243032,"connected_time":2866000000000,"state":"active","ping":59},{"user_id":185,"name":"Buddy","steam_id":76561198050185582,"connected_time":704000000000,"state":"active","ping":59},{"user_id":181,"name":"i was fighting wars blackvswhit","steam_id":76561199416857377,"connected_time":851000000000,"state":"active","ping":68},{"user_id":90,"name":"fayaman","steam_id":76561198111807532,"connected_time":7982000000000,"state":"active","ping":59},{"user_id":105,"name":"Thesis","steam_id":76561199308784371,"connected_time":6676000000000,"state":"active","ping":59},{"user_id":142,"name":"Hugz","steam_id":76561198069572147,"connected_time":2931000000000,"state":"active","ping":46},{"user_id":194,"name":"ThePoorArtist","steam_id":76561198827036373,"connected_time":68000000000,"state":"active","ping":45},{"user_id":169,"name":"JC","steam_id":76561198029213352,"connected_time":1345000000000,"state":"active","ping":32},{"user_id":189,"name":".bAruch","steam_id":76561198046673026,"connected_time":355000000000,"state":"active","ping":90},{"user_id":170,"name":"WhiteVersusBlack(BWCVSBBC)","steam_id":76561199445892321,"connected_time":1330000000000,"state":"active","ping":118},{"user_id":190,"name":"lupe.-","steam_id":76561198079813788,"connected_time":333000000000,"state":"active","ping":62},{"user_id":164,"name":"Packet","steam_id":76561199173195875,"connected_time":1566000000000,"state":"active","ping":81},{"user_id":193,"name":"EnchantedCoffee","steam_id":76561198371221467,"connected_time":112000000000,"state":"active","ping":43},{"user_id":177,"name":"Shrimpeee","steam_id":76561199012689768,"connected_time":1217000000000,"state":"active","ping":59},{"user_id":157,"name":"adm1ral_plunge","steam_id":76561198035342559,"connected_time":2422000000000,"state":"active","ping":72},{"user_id":192,"name":"Godot","steam_id":76561198339980449,"connected_time":208000000000,"state":"active","ping":67},{"user_id":130,"name":"Pogi820","steam_id":76561198320573568,"connected_time":4109000000000,"state":"active","ping":122},{"user_id":178,"name":"Rory","steam_id":76561198354037580,"connected_time":1022000000000,"state":"active","ping":38},{"user_id":195,"name":"Perci","steam_id":76561198097789669,"connected_time":3000000000,"state":"spawning","ping":74},{"user_id":158,"name":"[dopijus]","steam_id":76561198943009513,"connected_time":2245000000000,"state":"active","ping":99},{"user_id":176,"name":"CODSWOLOP","steam_id":76561199114598660,"connected_time":1279000000000,"state":"active","ping":152},{"user_id":184,"name":"banrab","steam_id":76561198083615367,"connected_time":804000000000,"state":"active","ping":37}]},{"server_id":320,"name":"Uncletopia | London | 3 | All Maps","name_short":"lon-3","host":"lon-1.uk.uncletopia.com","port":27035,"enabled":true,"region":"eu","cc":"gb","latitude":51.509865,"longitude":-0.118092,"reserved":0,"last_update":"0001-01-01T00:00:00Z","name_a2s":"Uncletopia | London | 3 | All Maps","protocol":17,"map":"pl_upward","folder":"tf","game":"Team Fortress","app_id":440,"player_count":0,"max_players":24,"Bots":0,"server_type":"Dedicated","server_os":"Linux","password":true,"vac":true,"version":"7723704","steam_id":85568392924510192,"keywords":["nocrits","nodmgspread","payload","uncletopia"],"game_id":440,"stv_port":27036,"stv_name":"Uncletopia | London | 3 | All Maps | STV","players":null},{"server_id":321,"name":"Uncletopia | London | 4 | All Maps","name_short":"lon-4","host":"lon-1.uk.uncletopia.com","port":27045,"enabled":true,"region":"eu","cc":"gb","latitude":51.509865,"longitude":-0.118092,"reserved":0,"last_update":"0001-01-01T00:00:00Z","name_a2s":"Uncletopia | London | 4 | All Maps","protocol":17,"map":"pl_upward","folder":"tf","game":"Team Fortress","app_id":440,"player_count":23,"max_players":24,"Bots":0,"server_type":"Dedicated","server_os":"Linux","password":true,"vac":true,"version":"7723704","steam_id":85568392924510193,"keywords":["nocrits","nodmgspread","payload","uncletopia"],"game_id":440,"stv_port":27046,"stv_name":"Uncletopia | London | 4 | All Maps | STV","players":[{"user_id":142,"name":"Millero15","steam_id":76561198143105719,"connected_time":184000000000,"state":"active","ping":87},{"user_id":143,"name":"level 2 sentry","steam_id":76561198891999531,"connected_time":160000000000,"state":"active","ping":84},{"user_id":112,"name":"brick","steam_id":76561198052465575,"connected_time":1703000000000,"state":"active","ping":76},{"user_id":128,"name":"Him","steam_id":76561198086400484,"connected_time":908000000000,"state":"active","ping":73},{"user_id":127,"name":"Fus in Boots","steam_id":76561198053897722,"connected_time":1049000000000,"state":"active","ping":46},{"user_id":129,"name":"Ivan Poopovich","steam_id":76561198388750592,"connected_time":889000000000,"state":"active","ping":63},{"user_id":132,"name":"Bread 0f Box","steam_id":76561198165594721,"connected_time":665000000000,"state":"active","ping":52},{"user_id":144,"name":"curious femboy","steam_id":76561199199388221,"connected_time":78000000000,"state":"spawning","ping":48},{"user_id":137,"name":"Sandragon","steam_id":76561198273221488,"connected_time":471000000000,"state":"active","ping":135},{"user_id":134,"name":"Seail_M","steam_id":76561198002405605,"connected_time":629000000000,"state":"active","ping":60},{"user_id":145,"name":"Heroine Nisa","steam_id":76561198013748040,"connected_time":72000000000,"state":"active","ping":75},{"user_id":146,"name":"Hound Jackal","steam_id":76561198378357559,"connected_time":70000000000,"state":"active","ping":41},{"user_id":135,"name":"cheesecake.","steam_id":76561198426604784,"connected_time":597000000000,"state":"active","ping":38},{"user_id":136,"name":"Avocado [Ham Mafia]","steam_id":76561199007231261,"connected_time":582000000000,"state":"active","ping":68},{"user_id":121,"name":"ee nah","steam_id":76561198576073428,"connected_time":1176000000000,"state":"active","ping":54},{"user_id":138,"name":"JohnMat2","steam_id":76561199007662486,"connected_time":466000000000,"state":"active","ping":47},{"user_id":52,"name":"Jonkheervanflep","steam_id":76561198006853101,"connected_time":6394000000000,"state":"active","ping":95},{"user_id":147,"name":"Cheesy  I üíõ","steam_id":76561198016538483,"connected_time":23000000000,"state":"active","ping":86},{"user_id":125,"name":"British Disapproval","steam_id":76561198001375260,"connected_time":1088000000000,"state":"active","ping":53},{"user_id":84,"name":"Litsuw","steam_id":76561198081785898,"connected_time":3650000000000,"state":"active","ping":60},{"user_id":139,"name":"Artemis","steam_id":76561199063756747,"connected_time":452000000000,"state":"active","ping":94},{"user_id":148,"name":"Gay Potato","steam_id":76561198018859519,"connected_time":20000000000,"state":"active","ping":79},{"user_id":141,"name":"jstaylor2702","steam_id":76561198959962382,"connected_time":355000000000,"state":"active","ping":55}]},{"server_id":21,"name":"Uncletopia | London | 5 | All Maps","name_short":"lon-5","host":"lon-1.uk.uncletopia.com","port":27055,"enabled":true,"region":"eu","cc":"gb","latitude":51.509865,"longitude":-0.118092,"reserved":0,"last_update":"0001-01-01T00:00:00Z","name_a2s":"Uncletopia | London | 5 | All Maps","protocol":17,"map":"pl_badwater","folder":"tf","game":"Team Fortress","app_id":440,"player_count":0,"max_players":24,"Bots":0,"server_type":"Dedicated","server_os":"Linux","password":true,"vac":true,"version":"7723704","steam_id":85568392924742829,"keywords":["nocrits","nodmgspread","payload","uncletopia"],"game_id":440,"stv_port":27056,"stv_name":"Uncletopia | London | 5 | All Maps | STV","players":null},{"server_id":22,"name":"Uncletopia | London | 6 | All Maps","name_short":"lon-6","host":"lon-1.uk.uncletopia.com","port":27065,"enabled":true,"region":"eu","cc":"gb","latitude":51.509865,"longitude":-0.118092,"reserved":0,"last_update":"0001-01-01T00:00:00Z","name_a2s":"Uncletopia | London | 6 | All Maps","protocol":17,"map":"cp_altitude","folder":"tf","game":"Team Fortress","app_id":440,"player_count":0,"max_players":24,"Bots":0,"server_type":"Dedicated","server_os":"Linux","password":true,"vac":true,"version":"7723704","steam_id":85568392924742830,"keywords":["cp","nocrits","nodmgspread","uncletopia"],"game_id":440,"stv_port":27066,"stv_name":"Uncletopia | London | 6 | All Maps | STV","players":null},{"server_id":40,"name":"Uncletopia | London | 7 | No Payload","name_short":"lon-7","host":"lon-1.uk.uncletopia.com","port":27075,"enabled":true,"region":"eu","cc":"gb","latitude":51.509865,"longitude":-0.118092,"reserved":0,"last_update":"0001-01-01T00:00:00Z","name_a2s":"Uncletopia | London | 7 | No Payload","protocol":17,"map":"koth_cascade","folder":"tf","game":"Team Fortress","app_id":440,"player_count":0,"max_players":24,"Bots":0,"server_type":"Dedicated","server_os":"Linux","password":true,"vac":true,"version":"7723704","steam_id":85568392924964314,"keywords":["cp","nocrits","nodmgspread","uncletopia"],"game_id":440,"stv_port":27076,"stv_name":"Uncletopia | London | 7 | No Payload | STV","players":null},{"server_id":41,"name":"Uncletopia | London | 8 | Community","name_short":"lon-8","host":"lon-1.uk.uncletopia.com","port":27085,"enabled":true,"region":"eu","cc":"gb","latitude":51.509865,"longitude":-0.118092,"reserved":0,"last_update":"0001-01-01T00:00:00Z","name_a2s":"Uncletopia | London | 8 | Community","protocol":17,"map":"workshop/koth_slaughter_rc1.ugc1712845210","folder":"tf","game":"Team Fortress","app_id":440,"player_count":3,"max_players":24,"Bots":0,"server_type":"Dedicated","server_os":"Linux","password":true,"vac":true,"version":"7723704","steam_id":85568392924964315,"keywords":["cp","nocrits","nodmgspread","uncletopia"],"game_id":440,"stv_port":27086,"stv_name":"Uncletopia | London | 8 | Community | STV","players":[{"user_id":5,"name":"fjansisgod2","steam_id":76561199105955467,"connected_time":1289000000000,"state":"active","ping":157},{"user_id":8,"name":"cheese101","steam_id":76561199114032053,"connected_time":337000000000,"state":"active","ping":266},{"user_id":9,"name":"Pan W","steam_id":76561198384111099,"connected_time":14000000000,"state":"spawning","ping":60}]},{"server_id":300,"name":"Uncletopia | Montr√©al | 1 | All Maps","name_short":"mtl-1","host":"mtl-1.ca.uncletopia.com","port":27015,"enabled":true,"region":"us-east","cc":"ca","latitude":45.50889,"longitude":-73.56167,"reserved":0,"last_update":"0001-01-01T00:00:00Z","name_a2s":"","protocol":0,"map":"","folder":"","game":"","app_id":0,"player_count":0,"max_players":0,"Bots":0,"server_type":"","server_os":"","password":false,"vac":false,"version":"","steam_id":0,"keywords":null,"game_id":0,"stv_port":0,"stv_name":"","players":null},{"server_id":301,"name":"Uncletopia | Montr√©al | 2 | All Maps","name_short":"mtl-2","host":"mtl-1.ca.uncletopia.com","port":27025,"enabled":true,"region":"us-east","cc":"ca","latitude":45.50889,"longitude":-73.56167,"reserved":0,"last_update":"0001-01-01T00:00:00Z","name_a2s":"","protocol":0,"map":"","folder":"","game":"","app_id":0,"player_count":0,"max_players":0,"Bots":0,"server_type":"","server_os":"","password":false,"vac":false,"version":"","steam_id":0,"keywords":null,"game_id":0,"stv_port":0,"stv_name":"","players":null},{"server_id":302,"name":"Uncletopia | Montr√©al | 3 | All Maps","name_short":"mtl-3","host":"mtl-1.ca.uncletopia.com","port":27035,"enabled":true,"region":"us-east","cc":"ca","latitude":45.50889,"longitude":-73.56167,"reserved":0,"last_update":"0001-01-01T00:00:00Z","name_a2s":"","protocol":0,"map":"","folder":"","game":"","app_id":0,"player_count":0,"max_players":0,"Bots":0,"server_type":"","server_os":"","password":false,"vac":false,"version":"","steam_id":0,"keywords":null,"game_id":0,"stv_port":0,"stv_name":"","players":null},{"server_id":303,"name":"Uncletopia | Montr√©al | 4 | No Payload","name_short":"mtl-4","host":"mtl-1.ca.uncletopia.com","port":27045,"enabled":true,"region":"us-east","cc":"ca","latitude":45.50889,"longitude":-73.56167,"reserved":0,"last_update":"0001-01-01T00:00:00Z","name_a2s":"","protocol":0,"map":"","folder":"","game":"","app_id":0,"player_count":0,"max_players":0,"Bots":0,"server_type":"","server_os":"","password":false,"vac":false,"version":"","steam_id":0,"keywords":null,"game_id":0,"stv_port":0,"stv_name":"","players":null},{"server_id":13,"name":"Uncletopia | New York City | 1 | All Maps","name_short":"nyc-1","host":"nyc-1.us.uncletopia.com","port":27015,"enabled":true,"region":"us-east","cc":"us","latitude":40.73061,"longitude":-73.93524,"reserved":0,"last_update":"0001-01-01T00:00:00Z","name_a2s":"Uncletopia | New York City | 1 | All Maps","protocol":17,"map":"cp_snakewater_final1","folder":"tf","game":"Team Fortress","app_id":440,"player_count":0,"max_players":24,"Bots":0,"server_type":"Dedicated","server_os":"Linux","password":true,"vac":true,"version":"7723704","steam_id":85568392924469993,"keywords":["cp","nocrits","nodmgspread","uncletopia"],"game_id":440,"stv_port":27016,"stv_name":"Uncletopia | New York City | 1 | All Maps | STV","players":null},{"server_id":14,"name":"Uncletopia | New York City | 2 | All Maps","name_short":"nyc-2","host":"nyc-1.us.uncletopia.com","port":27025,"enabled":true,"region":"us-east","cc":"us","latitude":40.73061,"longitude":-73.93524,"reserved":0,"last_update":"0001-01-01T00:00:00Z","name_a2s":"Uncletopia | New York City | 2 | All Maps","protocol":17,"map":"cp_dustbowl","folder":"tf","game":"Team Fortress","app_id":440,"player_count":0,"max_players":24,"Bots":0,"server_type":"Dedicated","server_os":"Linux","password":true,"vac":true,"version":"7723704","steam_id":85568392924469994,"keywords":["cp","nocrits","nodmgspread","uncletopia"],"game_id":440,"stv_port":27026,"stv_name":"Uncletopia | New York City | 2 | All Maps | STV","players":null},{"server_id":15,"name":"Uncletopia | New York City | 3 | All Maps","name_short":"nyc-3","host":"nyc-1.us.uncletopia.com","port":27035,"enabled":true,"region":"us-east","cc":"us","latitude":40.73061,"longitude":-73.93524,"reserved":0,"last_update":"0001-01-01T00:00:00Z","name_a2s":"Uncletopia | New York City | 3 | All Maps","protocol":17,"map":"pl_frontier_final","folder":"tf","game":"Team Fortress","app_id":440,"player_count":0,"max_players":24,"Bots":0,"server_type":"Dedicated","server_os":"Linux","password":true,"vac":true,"version":"7723704","steam_id":85568392924742820,"keywords":["nocrits","nodmgspread","payload","uncletopia"],"game_id":440,"stv_port":27036,"stv_name":"Uncletopia | New York City | 3 | All Maps | STV","players":null},{"server_id":16,"name":"Uncletopia | New York City | 4 | Community","name_short":"nyc-4","host":"nyc-1.us.uncletopia.com","port":27045,"enabled":true,"region":"us-east","cc":"us","latitude":40.73061,"longitude":-73.93524,"reserved":0,"last_update":"0001-01-01T00:00:00Z","name_a2s":"Uncletopia | New York City | 4 | Community","protocol":17,"map":"cp_process_final","folder":"tf","game":"Team Fortress","app_id":440,"player_count":0,"max_players":24,"Bots":0,"server_type":"Dedicated","server_os":"Linux","password":true,"vac":true,"version":"7723704","steam_id":85568392924742821,"keywords":["cp","nocrits","nodmgspread","uncletopia"],"game_id":440,"stv_port":27046,"stv_name":"Uncletopia | New York City | 4 | Community | STV","players":null},{"server_id":142,"name":"Uncletopia | S√£o Paulo | 1 | All Maps","name_short":"sao-1","host":"sao-1.br.uncletopia.com","port":27015,"enabled":true,"region":"sa","cc":"br","latitude":-23.533773,"longitude":-46.62529,"reserved":0,"last_update":"0001-01-01T00:00:00Z","name_a2s":"Uncletopia | S√£o Paulo | 1 | All Maps","protocol":17,"map":"pl_upward","folder":"tf","game":"Team Fortress","app_id":440,"player_count":0,"max_players":24,"Bots":0,"server_type":"Dedicated","server_os":"Linux","password":true,"vac":true,"version":"7723704","steam_id":85568392924469996,"keywords":["nocrits","nodmgspread","payload","uncletopia"],"game_id":440,"stv_port":27016,"stv_name":"Uncletopia | S√£o Paulo | 1 | All Maps | STV","players":null},{"server_id":143,"name":"Uncletopia | S√£o Paulo | 2 | All Maps","name_short":"sao-2","host":"sao-2.br.uncletopia.com","port":27015,"enabled":true,"region":"sa","cc":"br","latitude":-23.533773,"longitude":-46.62529,"reserved":0,"last_update":"0001-01-01T00:00:00Z","name_a2s":"Uncletopia | S√£o Paulo | 2 | All Maps","protocol":17,"map":"pl_barnblitz","folder":"tf","game":"Team Fortress","app_id":440,"player_count":0,"max_players":24,"Bots":0,"server_type":"Dedicated","server_os":"Linux","password":true,"vac":true,"version":"7723704","steam_id":85568392924485349,"keywords":["nocrits","nodmgspread","payload","uncletopia"],"game_id":440,"stv_port":27016,"stv_name":"Uncletopia | S√£o Paulo | 2 | All Maps | STV","players":null},{"server_id":7,"name":"Uncletopia | Seattle | 1 | All Maps","name_short":"sea-1","host":"sea-1.us.uncletopia.com","port":27015,"enabled":true,"region":"us-west","cc":"us","latitude":47.608013,"longitude":-122.33517,"reserved":0,"last_update":"0001-01-01T00:00:00Z","name_a2s":"Uncletopia | Seattle | 1 | All Maps","protocol":17,"map":"koth_highpass","folder":"tf","game":"Team Fortress","app_id":440,"player_count":0,"max_players":24,"Bots":0,"server_type":"Dedicated","server_os":"Linux","password":true,"vac":true,"version":"7723704","steam_id":85568392924469997,"keywords":["cp","nocrits","nodmgspread","uncletopia"],"game_id":440,"stv_port":27016,"stv_name":"Uncletopia | Seattle | 1 | All Maps | STV","players":null},{"server_id":119,"name":"Uncletopia | Seattle | 2 | All Maps","name_short":"sea-2","host":"sea-1.us.uncletopia.com","port":27025,"enabled":true,"region":"us-west","cc":"us","latitude":47.608013,"longitude":-122.33517,"reserved":0,"last_update":"0001-01-01T00:00:00Z","name_a2s":"Uncletopia | Seattle | 2 | All Maps","protocol":17,"map":"koth_highpass","folder":"tf","game":"Team Fortress","app_id":440,"player_count":0,"max_players":24,"Bots":0,"server_type":"Dedicated","server_os":"Linux","password":true,"vac":true,"version":"7723704","steam_id":85568392924469998,"keywords":["cp","nocrits","nodmgspread","uncletopia"],"game_id":440,"stv_port":27026,"stv_name":"Uncletopia | Seattle | 2 | All Maps | STV","players":null},{"server_id":17,"name":"Uncletopia | San Francisco | 1 | All Maps","name_short":"sfo-1","host":"sfo-1.us.uncletopia.com","port":27015,"enabled":true,"region":"us-west","cc":"us","latitude":37.77397,"longitude":-122.4313,"reserved":0,"last_update":"0001-01-01T00:00:00Z","name_a2s":"Uncletopia | San Francisco | 1 | All Maps","protocol":17,"map":"cp_dustbowl","folder":"tf","game":"Team Fortress","app_id":440,"player_count":0,"max_players":24,"Bots":0,"server_type":"Dedicated","server_os":"Linux","password":true,"vac":true,"version":"7723704","steam_id":85568392924469999,"keywords":["cp","nocrits","nodmgspread","uncletopia"],"game_id":440,"stv_port":27016,"stv_name":"Uncletopia | San Francisco | 1 | All Maps | STV","players":null},{"server_id":18,"name":"Uncletopia | San Francisco | 2 | All Maps","name_short":"sfo-2","host":"sfo-1.us.uncletopia.com","port":27025,"enabled":true,"region":"us-west","cc":"us","latitude":37.77397,"longitude":-122.4313,"reserved":0,"last_update":"0001-01-01T00:00:00Z","name_a2s":"Uncletopia | San Francisco | 2 | All Maps","protocol":17,"map":"koth_king","folder":"tf","game":"Team Fortress","app_id":440,"player_count":0,"max_players":24,"Bots":0,"server_type":"Dedicated","server_os":"Linux","password":true,"vac":true,"version":"7723704","steam_id":85568392924470000,"keywords":["cp","nocrits","nodmgspread","uncletopia"],"game_id":440,"stv_port":27026,"stv_name":"Uncletopia | San Francisco | 2 | All Maps | STV","players":null},{"server_id":19,"name":"Uncletopia | San Francisco | 3 | No Payload","name_short":"sfo-3","host":"sfo-1.us.uncletopia.com","port":27035,"enabled":true,"region":"us-west","cc":"us","latitude":37.77397,"longitude":-122.4313,"reserved":0,"last_update":"0001-01-01T00:00:00Z","name_a2s":"Uncletopia | San Francisco | 3 | No Payload","protocol":17,"map":"koth_badlands","folder":"tf","game":"Team Fortress","app_id":440,"player_count":0,"max_players":24,"Bots":0,"server_type":"Dedicated","server_os":"Linux","password":true,"vac":true,"version":"7723704","steam_id":85568392924742824,"keywords":["cp","nocrits","nodmgspread","uncletopia"],"game_id":440,"stv_port":27036,"stv_name":"Uncletopia | San Francisco | 3 | No Payload | STV","players":null},{"server_id":20,"name":"Uncletopia | San Francisco | 4 | Community","name_short":"sfo-4","host":"sfo-1.us.uncletopia.com","port":27045,"enabled":true,"region":"us-west","cc":"us","latitude":37.77397,"longitude":-122.4313,"reserved":0,"last_update":"0001-01-01T00:00:00Z","name_a2s":"Uncletopia | San Francisco | 4 | Community","protocol":17,"map":"workshop/koth_synthetic_rc6a.ugc1549817316","folder":"tf","game":"Team Fortress","app_id":440,"player_count":0,"max_players":24,"Bots":0,"server_type":"Dedicated","server_os":"Linux","password":true,"vac":true,"version":"7723704","steam_id":85568392924742826,"keywords":["cp","nocrits","nodmgspread","uncletopia"],"game_id":440,"stv_port":27046,"stv_name":"Uncletopia | San Francisco | 4 | Community | STV","players":null},{"server_id":141,"name":"Uncletopia | Sydney | 1 | All Maps","name_short":"syd-1","host":"syd-1.au.uncletopia.com","port":27015,"enabled":true,"region":"au","cc":"au","latitude":-33.865143,"longitude":151.2099,"reserved":0,"last_update":"0001-01-01T00:00:00Z","name_a2s":"Uncletopia | Sydney | 1 | All Maps","protocol":17,"map":"cp_altitude","folder":"tf","game":"Team Fortress","app_id":440,"player_count":21,"max_players":24,"Bots":0,"server_type":"Dedicated","server_os":"Linux","password":true,"vac":true,"version":"7723704","steam_id":85568392924470001,"keywords":["cp","nocrits","nodmgspread","uncletopia"],"game_id":440,"stv_port":27016,"stv_name":"Uncletopia | Sydney | 1 | All Maps | STV","players":[{"user_id":619,"name":"Gamzee","steam_id":76561198099153604,"connected_time":522000000000,"state":"active","ping":65},{"user_id":602,"name":"FrOStY","steam_id":76561198088155805,"connected_time":2879000000000,"state":"active","ping":64},{"user_id":606,"name":"Moral Sandwich","steam_id":76561198028535226,"connected_time":2073000000000,"state":"active","ping":83},{"user_id":612,"name":"Brownie","steam_id":76561198392672345,"connected_time":1142000000000,"state":"active","ping":65},{"user_id":609,"name":"Campy McSpawnington","steam_id":76561197963420642,"connected_time":1743000000000,"state":"active","ping":52},{"user_id":596,"name":"dc","steam_id":76561198040993425,"connected_time":3558000000000,"state":"active","ping":120},{"user_id":626,"name":"bro","steam_id":76561198310908346,"connected_time":294000000000,"state":"active","ping":60},{"user_id":603,"name":"KeenyBro","steam_id":76561198289800573,"connected_time":2859000000000,"state":"active","ping":154},{"user_id":607,"name":"Blondie","steam_id":76561198257286963,"connected_time":2057000000000,"state":"active","ping":67},{"user_id":605,"name":"SWAG DRAGON","steam_id":76561197960279341,"connected_time":2779000000000,"state":"active","ping":77},{"user_id":613,"name":"Team Fartress Poo","steam_id":76561198139598106,"connected_time":1140000000000,"state":"active","ping":57},{"user_id":610,"name":"brute","steam_id":76561199361606568,"connected_time":1669000000000,"state":"active","ping":193},{"user_id":614,"name":"Vern Tessio","steam_id":76561198363214419,"connected_time":1125000000000,"state":"active","ping":63},{"user_id":590,"name":"tinkaton from pokemon gen 9 UU","steam_id":76561198079345240,"connected_time":3903000000000,"state":"active","ping":58},{"user_id":627,"name":"Bing Soy","steam_id":76561198057093383,"connected_time":282000000000,"state":"active","ping":44},{"user_id":628,"name":"Mungbean","steam_id":76561198192300679,"connected_time":280000000000,"state":"active","ping":75},{"user_id":592,"name":"hive","steam_id":76561199099744527,"connected_time":3830000000000,"state":"active","ping":48},{"user_id":631,"name":"kweshuu","steam_id":76561199282412024,"connected_time":181000000000,"state":"active","ping":76},{"user_id":625,"name":"Corhix","steam_id":76561198968706355,"connected_time":352000000000,"state":"active","ping":166},{"user_id":630,"name":"Scout","steam_id":76561198322807454,"connected_time":228000000000,"state":"active","ping":102},{"user_id":632,"name":"Sarcastic Slab","steam_id":76561198145174915,"connected_time":180000000000,"state":"active","ping":61}]},{"server_id":123,"name":"Uncletopia | Sydney | 2 | All Maps","name_short":"syd-2","host":"syd-1.au.uncletopia.com","port":27025,"enabled":true,"region":"au","cc":"au","latitude":-33.865143,"longitude":151.2099,"reserved":0,"last_update":"0001-01-01T00:00:00Z","name_a2s":"Uncletopia | Sydney | 2 | All Maps","protocol":17,"map":"pl_badwater","folder":"tf","game":"Team Fortress","app_id":440,"player_count":20,"max_players":24,"Bots":0,"server_type":"Dedicated","server_os":"Linux","password":true,"vac":true,"version":"7723704","steam_id":85568392924470002,"keywords":["nocrits","nodmgspread","payload","uncletopia"],"game_id":440,"stv_port":27026,"stv_name":"Uncletopia | Sydney | 2 | All Maps | STV","players":[{"user_id":258,"name":"pepsb","steam_id":76561198066291166,"connected_time":1077000000000,"state":"active","ping":59},{"user_id":236,"name":"Chops","steam_id":76561198071178936,"connected_time":2813000000000,"state":"active","ping":96},{"user_id":257,"name":"—Üùìºùì∏ùì´ùíÜùîÇ","steam_id":76561198059937811,"connected_time":1197000000000,"state":"active","ping":65},{"user_id":215,"name":"Eddie","steam_id":76561198081031350,"connected_time":4214000000000,"state":"active","ping":49},{"user_id":263,"name":"Skeptikal01","steam_id":76561199064694137,"connected_time":876000000000,"state":"active","ping":149},{"user_id":225,"name":"cimpact","steam_id":76561198452258917,"connected_time":3390000000000,"state":"active","ping":113},{"user_id":264,"name":"dragonfruitconsumer22","steam_id":76561198042198744,"connected_time":846000000000,"state":"active","ping":44},{"user_id":270,"name":"Teufort","steam_id":76561198125184142,"connected_time":113000000000,"state":"active","ping":66},{"user_id":246,"name":"Lancer","steam_id":76561198122813810,"connected_time":1894000000000,"state":"active","ping":65},{"user_id":259,"name":"The_Green_Jelly","steam_id":76561198381061704,"connected_time":985000000000,"state":"active","ping":86},{"user_id":261,"name":"SlenderFox","steam_id":76561198044002401,"connected_time":942000000000,"state":"active","ping":58},{"user_id":262,"name":"rastaFROG730","steam_id":76561198058812647,"connected_time":941000000000,"state":"active","ping":44},{"user_id":265,"name":"enoeht","steam_id":76561198054187483,"connected_time":823000000000,"state":"active","ping":56},{"user_id":266,"name":"freethinker","steam_id":76561198319488283,"connected_time":607000000000,"state":"active","ping":64},{"user_id":271,"name":"Squishy","steam_id":76561198985769205,"connected_time":51000000000,"state":"active","ping":56},{"user_id":251,"name":"KenOAndStuff","steam_id":76561198438165878,"connected_time":1613000000000,"state":"active","ping":136},{"user_id":216,"name":"Willsy","steam_id":76561198027119367,"connected_time":4183000000000,"state":"active","ping":48},{"user_id":213,"name":"Lateralus","steam_id":76561198007865860,"connected_time":4358000000000,"state":"active","ping":113},{"user_id":248,"name":"The Cake Is A Pie","steam_id":76561198043068402,"connected_time":1858000000000,"state":"active","ping":73},{"user_id":201,"name":"Chowdermonkey","steam_id":76561198990121068,"connected_time":5519000000000,"state":"active","ping":57}]},{"server_id":395,"name":"Uncletopia | Sydney | 3 | All Maps","name_short":"syd-3","host":"syd-1.au.uncletopia.com","port":27035,"enabled":true,"region":"au","cc":"au","latitude":-33.865143,"longitude":151.2099,"reserved":0,"last_update":"0001-01-01T00:00:00Z","name_a2s":"Uncletopia | Sydney | 3 | All Maps","protocol":17,"map":"cp_altitude","folder":"tf","game":"Team Fortress","app_id":440,"player_count":0,"max_players":24,"Bots":0,"server_type":"Dedicated","server_os":"Linux","password":true,"vac":true,"version":"7723704","steam_id":85568392925194467,"keywords":["cp","nocrits","nodmgspread","uncletopia"],"game_id":440,"stv_port":27036,"stv_name":"Uncletopia | Sydney | 3 | All Maps | STV","players":null},{"server_id":396,"name":"Uncletopia | Sydney | 4 | All Maps","name_short":"syd-4","host":"syd-1.au.uncletopia.com","port":27045,"enabled":true,"region":"au","cc":"au","latitude":-33.865143,"longitude":151.2099,"reserved":0,"last_update":"0001-01-01T00:00:00Z","name_a2s":"Uncletopia | Sydney | 4 | All Maps","protocol":17,"map":"cp_altitude","folder":"tf","game":"Team Fortress","app_id":440,"player_count":0,"max_players":24,"Bots":0,"server_type":"Dedicated","server_os":"Linux","password":true,"vac":true,"version":"7723704","steam_id":85568392925397958,"keywords":["cp","nocrits","nodmgspread","uncletopia"],"game_id":440,"stv_port":27046,"stv_name":"Uncletopia | Sydney | 4 | All Maps | STV","players":null},{"server_id":58,"name":"Uncletopia | Sydney | 5 | No Payload","name_short":"syd-5","host":"syd-1.au.uncletopia.com","port":27055,"enabled":true,"region":"au","cc":"au","latitude":-33.865143,"longitude":151.2099,"reserved":0,"last_update":"0001-01-01T00:00:00Z","name_a2s":"Uncletopia | Sydney | 5 | No Payload","protocol":17,"map":"koth_cascade","folder":"tf","game":"Team Fortress","app_id":440,"player_count":0,"max_players":24,"Bots":0,"server_type":"Dedicated","server_os":"Linux","password":true,"vac":true,"version":"7723704","steam_id":85568392925397959,"keywords":["cp","nocrits","nodmgspread","uncletopia"],"game_id":440,"stv_port":27056,"stv_name":"Uncletopia | Sydney | 5 | No Payload | STV","players":null},{"server_id":59,"name":"Uncletopia | Sydney | 6 | Community","name_short":"syd-6","host":"syd-1.au.uncletopia.com","port":27065,"enabled":true,"region":"au","cc":"au","latitude":-33.865143,"longitude":151.2099,"reserved":0,"last_update":"0001-01-01T00:00:00Z","name_a2s":"Uncletopia | Sydney | 6 | Community","protocol":17,"map":"koth_lakeside_final","folder":"tf","game":"Team Fortress","app_id":440,"player_count":0,"max_players":24,"Bots":0,"server_type":"Dedicated","server_os":"Linux","password":true,"vac":true,"version":"7723704","steam_id":85568392925397960,"keywords":["cp","nocrits","nodmgspread","uncletopia"],"game_id":440,"stv_port":27066,"stv_name":"Uncletopia | Sydney | 6 | Community | STV","players":null},{"server_id":49,"name":"Uncletopia | Warsaw | 1 | All Maps","name_short":"waw-1","host":"waw-1.pl.uncletopia.com","port":27015,"enabled":true,"region":"eu","cc":"pl","latitude":52.2297,"longitude":21.017532,"reserved":0,"last_update":"0001-01-01T00:00:00Z","name_a2s":"Uncletopia | Warsaw | 1 | All Maps","protocol":17,"map":"pl_swiftwater_final1","folder":"tf","game":"Team Fortress","app_id":440,"player_count":0,"max_players":24,"Bots":0,"server_type":"Dedicated","server_os":"Linux","password":true,"vac":true,"version":"7723704","steam_id":85568392925397850,"keywords":["nocrits","nodmgspread","payload","uncletopia"],"game_id":440,"stv_port":27016,"stv_name":"Uncletopia | Warsaw | 1 | All Maps | STV","players":null},{"server_id":50,"name":"Uncletopia | Warsaw | 2 | All Maps","name_short":"waw-2","host":"waw-1.pl.uncletopia.com","port":27025,"enabled":true,"region":"eu","cc":"pl","latitude":52.2297,"longitude":21.017532,"reserved":0,"last_update":"0001-01-01T00:00:00Z","name_a2s":"Uncletopia | Warsaw | 2 | All Maps","protocol":17,"map":"pl_snowycoast","folder":"tf","game":"Team Fortress","app_id":440,"player_count":0,"max_players":24,"Bots":0,"server_type":"Dedicated","server_os":"Linux","password":true,"vac":true,"version":"7723704","steam_id":85568392925397851,"keywords":["nocrits","nodmgspread","payload","uncletopia"],"game_id":440,"stv_port":27026,"stv_name":"Uncletopia | Warsaw | 2 | All Maps | STV","players":null},{"server_id":51,"name":"Uncletopia | Warsaw | 3 | All Maps","name_short":"waw-3","host":"waw-1.pl.uncletopia.com","port":27035,"enabled":true,"region":"eu","cc":"pl","latitude":52.2297,"longitude":21.017532,"reserved":0,"last_update":"0001-01-01T00:00:00Z","name_a2s":"Uncletopia | Warsaw | 3 | All Maps","protocol":17,"map":"koth_lakeside_final","folder":"tf","game":"Team Fortress","app_id":440,"player_count":0,"max_players":24,"Bots":0,"server_type":"Dedicated","server_os":"Linux","password":true,"vac":true,"version":"7723704","steam_id":85568392925397852,"keywords":["cp","nocrits","nodmgspread","uncletopia"],"game_id":440,"stv_port":27036,"stv_name":"Uncletopia | Warsaw | 3 | All Maps | STV","players":null},{"server_id":52,"name":"Uncletopia | Warsaw | 4 | All Maps","name_short":"waw-4","host":"waw-1.pl.uncletopia.com","port":27045,"enabled":true,"region":"eu","cc":"pl","latitude":52.2297,"longitude":21.017532,"reserved":0,"last_update":"0001-01-01T00:00:00Z","name_a2s":"Uncletopia | Warsaw | 4 | All Maps","protocol":17,"map":"pl_swiftwater_final1","folder":"tf","game":"Team Fortress","app_id":440,"player_count":0,"max_players":24,"Bots":0,"server_type":"Dedicated","server_os":"Linux","password":true,"vac":true,"version":"7723704","steam_id":85568392925397853,"keywords":["nocrits","nodmgspread","payload","uncletopia"],"game_id":440,"stv_port":27046,"stv_name":"Uncletopia | Warsaw | 4 | All Maps | STV","players":null},{"server_id":53,"name":"Uncletopia | Warsaw | 5 | No Payload","name_short":"waw-5","host":"waw-1.pl.uncletopia.com","port":27055,"enabled":true,"region":"eu","cc":"pl","latitude":52.2297,"longitude":21.017532,"reserved":0,"last_update":"0001-01-01T00:00:00Z","name_a2s":"Uncletopia | Warsaw | 5 | No Payload","protocol":17,"map":"koth_highpass","folder":"tf","game":"Team Fortress","app_id":440,"player_count":0,"max_players":24,"Bots":0,"server_type":"Dedicated","server_os":"Linux","password":true,"vac":true,"version":"7723704","steam_id":85568392925397854,"keywords":["cp","nocrits","nodmgspread","uncletopia"],"game_id":440,"stv_port":27056,"stv_name":"Uncletopia | Warsaw | 5 | No Payload | STV","players":null},{"server_id":54,"name":"Uncletopia | Warsaw | 6 | Community","name_short":"waw-6","host":"waw-1.pl.uncletopia.com","port":27065,"enabled":true,"region":"eu","cc":"pl","latitude":52.2297,"longitude":21.017532,"reserved":0,"last_update":"0001-01-01T00:00:00Z","name_a2s":"Uncletopia | Warsaw | 6 | Community","protocol":17,"map":"koth_viaduct","folder":"tf","game":"Team Fortress","app_id":440,"player_count":0,"max_players":24,"Bots":0,"server_type":"Dedicated","server_os":"Linux","password":true,"vac":true,"version":"7723704","steam_id":85568392925397856,"keywords":["cp","nocrits","nodmgspread","uncletopia"],"game_id":440,"stv_port":27066,"stv_name":"Uncletopia | Warsaw | 6 | Community | STV","players":null}]}