{"status":true,"message":"","result":[{"server_id":9,"name":"Uncletopia | Atlanta | 1 | All Maps","name_short":"atl-1","host":"atl-1.us.uncletopia.com","port":27015,"enabled":true,"region":"us-east","cc":"us","latitude":33.753746,"longitude":-84.38633,"reserved":0,"last_update":"0001-01-01T00:00:00Z","name_a2s":"Uncletopia | Atlanta | 1 | All Maps","protocol":17,"map":"pl_badwater","folder":"tf","game":"Team Fortress","app_id":440,"player_count":24,"max_players":24,"Bots":0,"server_type":"Dedicated","server_os":"Linux","password":true,"vac":true,"version":"7961495","steam_id":85568392924469982,"keywords":["nocrits","nodmgspread","payload","uncletopia"],"game_id":440,"stv_port":27016,"stv_name":"Uncletopia | Atlanta | 1 | All Maps | STV","players":null},{"server_id":104,"name":"Uncletopia | Atlanta | 2 | All Maps","name_short":"atl-2","host":"atl-1.us.uncletopia.com","port":27025,"enabled":true,"region":"us-east","cc":"us","latitude":33.753746,"longitude":-84.38633,"reserved":0,"last_update":"0001-01-01T00:00:00Z","name_a2s":"Uncletopia | Atlanta | 2 | All Maps","protocol":17,"map":"cp_dustbowl","folder":"tf","game":"Team Fortress","app_id":440,"player_count":24,"max_players":24,"Bots":0,"server_type":"Dedicated","server_os":"Linux","password":true,"vac":true,"version":"7961495","steam_id":85568392924469983,"keywords":["cp","nocrits","nodmgspread","uncletopia"],"game_id":440,"stv_port":27026,"stv_name":"Uncletopia | Atlanta | 2 | All Maps | STV","players":null},{"server_id":400,"name":"Uncletopia | Atlanta | 3 | All Maps","name_short":"atl-3","host":"atl-1.us.uncletopia.com","port":27035,"enabled":true,"region":"us-east","cc":"us","latitude":33.753746,"longitude":-84.38633,"reserved":0,"last_update":"0001-01-01T00:00:00Z","name_a2s":"Uncletopia | Atlanta | 3 | All Maps","protocol":17,"map":"pl_badwater","folder":"tf","game":"Team Fortress","app_id":440,"player_count":1,"max_players":24,"Bots":0,"server_type":"Dedicated","server_os":"Linux","password":true,"vac":true,"version":"7961495","steam_id":85568392924515187,"keywords":["nocrits","nodmgspread","payload","uncletopia"],"game_id":440,"stv_port":27036,"stv_name":"Uncletopia | Atlanta | 3 | All Maps | STV","players":null},{"server_id":401,"name":"Uncletopia | Atlanta | 4 | Community","name_short":"atl-4","host":"atl-1.us.uncletopia.com","port":27045,"enabled":true,"region":"us-east","cc":"us","latitude":33.753746,"longitude":-84.38633,"reserved":0,"last_update":"0001-01-01T00:00:00Z","name_a2s":"Uncletopia | Atlanta | 4 | Community","protocol":17,"map":"cp_dustbowl","folder":"tf","game":"Team Fortress","app_id":440,"player_count":0,"max_players":24,"Bots":0,"server_type":"Dedicated","server_os":"Linux","password":true,"vac":true,"version":"7961495","steam_id":85568392924515188,"keywords":["cp","nocrits","nodmgspread","uncletopia"],"game_id":440,"stv_port":27046,"stv_name":"Uncletopia | Atlanta | 4 | Community | STV","players":null},{"server_id":2,"name":"Uncletopia | Chicago | 1 | All Maps","name_short":"chi-1","host":"chi-1.us.uncletopia.com","port":27015,"enabled":true,"region":"us-central","cc":"us","latitude":41.881832,"longitude":-87.62318,"reserved":0,"last_update":"0001-01-01T00:00:00Z","name_a2s":"Uncletopia | Chicago | 1 | All Maps","protocol":17,"map":"pl_snowycoast","folder":"tf","game":"Team Fortress","app_id":440,"player_count":21,"max_players":24,"Bots":0,"server_type":"Dedicated","server_os":"Linux","password":true,"vac":true,"version":"7961495","steam_id":85568392924469984,"keywords":["nocrits","nodmgspread","payload","uncletopia"],"game_id":440,"stv_port":27016,"stv_name":"Uncletopia | Chicago | 1 | All Maps | STV","players":[{"user_id":404,"name":"stiGGy","steam_id":76561198049311931,"connected_time":8000000000,"state":"spawning","ping":89},{"user_id":392,"name":"bonk helm enjoyer","steam_id":76561198042209721,"connected_time":821000000000,"state":"active","ping":46},{"user_id":348,"name":"Milkmur","steam_id":76561198210043821,"connected_time":2561000000000,"state":"active","ping":69},{"user_id":391,"name":"Tokyo_Timeshift_","steam_id":76561198048677523,"connected_time":826000000000,"state":"active","ping":61},{"user_id":366,"name":"7thelden","steam_id":76561198297428761,"connected_time":1909000000000,"state":"active","ping":59},{"user_id":343,"name":"NUt","steam_id":76561198031007966,"connected_time":2648000000000,"state":"active","ping":65},{"user_id":387,"name":"Cyborg","steam_id":76561198278373788,"connected_time":1089000000000,"state":"active","ping":49},{"user_id":368,"name":"Just washed","steam_id":76561199030160932,"connected_time":1756000000000,"state":"active","ping":77},{"user_id":375,"name":"gnarly","steam_id":76561198253744092,"connected_time":1636000000000,"state":"active","ping":43},{"user_id":400,"name":"PKBEAST_7","steam_id":76561198177136537,"connected_time":383000000000,"state":"active","ping":86},{"user_id":371,"name":"Uncle Muscles","steam_id":76561198069814977,"connected_time":1715000000000,"state":"active","ping":60},{"user_id":384,"name":"Brocc","steam_id":76561198153969865,"connected_time":1278000000000,"state":"active","ping":241},{"user_id":405,"name":"I haven't even begun to peak","steam_id":76561198022302843,"connected_time":4000000000,"state":"spawning","ping":76},{"user_id":376,"name":"The Foolish Samurai","steam_id":76561198094494945,"connected_time":1612000000000,"state":"active","ping":92},{"user_id":397,"name":"Lunartik","steam_id":76561199004827382,"connected_time":654000000000,"state":"active","ping":63},{"user_id":379,"name":"Sergeant Joker #savetf2","steam_id":76561198854616604,"connected_time":1516000000000,"state":"active","ping":64},{"user_id":389,"name":"Rat_Kisser","steam_id":76561198129883955,"connected_time":1030000000000,"state":"active","ping":71},{"user_id":364,"name":"point man","steam_id":76561199037528097,"connected_time":1990000000000,"state":"active","ping":73},{"user_id":401,"name":"Your Local Queer Librarian","steam_id":76561198013077080,"connected_time":283000000000,"state":"active","ping":56},{"user_id":383,"name":"RPGnoob","steam_id":76561198384913758,"connected_time":1360000000000,"state":"active","ping":79},{"user_id":403,"name":"PK_Lawnmower","steam_id":76561198145324531,"connected_time":99000000000,"state":"active","ping":74}]},{"server_id":106,"name":"Uncletopia | Chicago | 2 | All Maps","name_short":"chi-2","host":"chi-1.us.uncletopia.com","port":27025,"enabled":true,"region":"us-central","cc":"us","latitude":41.881832,"longitude":-87.62318,"reserved":0,"last_update":"0001-01-01T00:00:00Z","name_a2s":"Uncletopia | Chicago | 2 | All Maps","protocol":17,"map":"cp_mercenarypark","folder":"tf","game":"Team Fortress","app_id":440,"player_count":16,"max_players":24,"Bots":0,"server_type":"Dedicated","server_os":"Linux","password":true,"vac":true,"version":"7961495","steam_id":85568392924469985,"keywords":["cp","nocrits","nodmgspread","uncletopia"],"game_id":440,"stv_port":27026,"stv_name":"Uncletopia | Chicago | 2 | All Maps | STV","players":[{"user_id":292,"name":"melon","steam_id":76561199014039702,"connected_time":273000000000,"state":"active","ping":55},{"user_id":291,"name":"god loves you","steam_id":76561198066619792,"connected_time":284000000000,"state":"active","ping":61},{"user_id":297,"name":"mothsprings","steam_id":76561198928604937,"connected_time":7000000000,"state":"spawning","ping":216},{"user_id":289,"name":"Andrei12264","steam_id":76561199123066659,"connected_time":386000000000,"state":"active","ping":174},{"user_id":286,"name":"Grumpicake","steam_id":76561198292927842,"connected_time":532000000000,"state":"active","ping":64},{"user_id":295,"name":"cacos","steam_id":76561199130242847,"connected_time":148000000000,"state":"active","ping":201},{"user_id":296,"name":"Lost","steam_id":76561198025933206,"connected_time":108000000000,"state":"active","ping":56},{"user_id":220,"name":"flange","steam_id":76561198040182692,"connected_time":3908000000000,"state":"active","ping":120},{"user_id":257,"name":"coffeeEnjoyer","steam_id":76561198025307896,"connected_time":1292000000000,"state":"active","ping":60},{"user_id":277,"name":"general.b","steam_id":76561198162480519,"connected_time":882000000000,"state":"active","ping":49},{"user_id":276,"name":"Zera","steam_id":76561198025129918,"connected_time":933000000000,"state":"active","ping":46},{"user_id":272,"name":"CheesyNacho","steam_id":76561198350445456,"connected_time":1064000000000,"state":"active","ping":70},{"user_id":264,"name":"puppy :3","steam_id":76561198011196264,"connected_time":1206000000000,"state":"active","ping":47},{"user_id":284,"name":"He Angy","steam_id":76561198347050941,"connected_time":625000000000,"state":"active","ping":60},{"user_id":246,"name":"aiden","steam_id":76561198449527009,"connected_time":2198000000000,"state":"active","ping":89},{"user_id":250,"name":"Echolu","steam_id":76561198158613750,"connected_time":2077000000000,"state":"active","ping":108}]},{"server_id":402,"name":"Uncletopia | Chicago | 3 | All Maps","name_short":"chi-3","host":"chi-1.us.uncletopia.com","port":27035,"enabled":true,"region":"us-central","cc":"us","latitude":41.881832,"longitude":-87.62318,"reserved":0,"last_update":"0001-01-01T00:00:00Z","name_a2s":"Uncletopia | Chicago | 3 | All Maps","protocol":17,"map":"koth_viaduct","folder":"tf","game":"Team Fortress","app_id":440,"player_count":10,"max_players":24,"Bots":0,"server_type":"Dedicated","server_os":"Linux","password":true,"vac":true,"version":"7961495","steam_id":85568392924515191,"keywords":["cp","nocrits","nodmgspread","uncletopia"],"game_id":440,"stv_port":27036,"stv_name":"Uncletopia | Chicago | 3 | All Maps | STV","players":[{"user_id":32,"name":"[82DK] Ike","steam_id":76561198135256526,"connected_time":1787000000000,"state":"active","ping":82},{"user_id":33,"name":"Mortal Flame","steam_id":76561198130698418,"connected_time":1777000000000,"state":"active","ping":93},{"user_id":34,"name":"Artyom","steam_id":76561198132986712,"connected_time":1741000000000,"state":"active","ping":100},{"user_id":43,"name":"Michaelfirefox","steam_id":76561198060462079,"connected_time":715000000000,"state":"active","ping":100},{"user_id":44,"name":"Thequirka","steam_id":76561198968058652,"connected_time":712000000000,"state":"active","ping":98},{"user_id":50,"name":"dingus","steam_id":76561198966767200,"connected_time":457000000000,"state":"active","ping":49},{"user_id":51,"name":"Yacosteel456","steam_id":76561199214141646,"connected_time":272000000000,"state":"active","ping":136},{"user_id":45,"name":"fasterbum","steam_id":76561198142577444,"connected_time":690000000000,"state":"active","ping":52},{"user_id":47,"name":"Smile from God","steam_id":76561198032663494,"connected_time":605000000000,"state":"active","ping":68},{"user_id":52,"name":"HomerGaming","steam_id":76561199223982565,"connected_time":172000000000,"state":"active","ping":199}]},{"server_id":403,"name":"Uncletopia | Chicago | 4 | All Maps","name_short":"chi-4","host":"chi-1.us.uncletopia.com","port":27045,"enabled":true,"region":"us-central","cc":"us","latitude":41.881832,"longitude":-87.62318,"reserved":0,"last_update":"0001-01-01T00:00:00Z","name_a2s":"Uncletopia | Chicago | 4 | All Maps","protocol":17,"map":"pl_pier","folder":"tf","game":"Team Fortress","app_id":440,"player_count":24,"max_players":24,"Bots":0,"server_type":"Dedicated","server_os":"Linux","password":true,"vac":true,"version":"7961495","steam_id":85568392924515193,"keywords":["nocrits","nodmgspread","payload","uncletopia"],"game_id":440,"stv_port":27046,"stv_name":"Uncletopia | Chicago | 4 | All Maps | STV","players":[{"user_id":388,"name":"Chew","steam_id":76561198846979943,"connected_time":1199000000000,"state":"active","ping":76},{"user_id":298,"name":"177013","steam_id":76561198072303290,"connected_time":8220000000000,"state":"active","ping":64},{"user_id":378,"name":"Joseph_Stalin","steam_id":76561199001392482,"connected_time":1652000000000,"state":"active","ping":70},{"user_id":353,"name":"No.21 - Feral Scent","steam_id":76561198045844070,"connected_time":3545000000000,"state":"active","ping":79},{"user_id":334,"name":"Doctor_Redstone","steam_id":76561198061947161,"connected_time":6169000000000,"state":"active","ping":68},{"user_id":391,"name":"TheSnipersHat","steam_id":76561198057684066,"connected_time":573000000000,"state":"active","ping":57},{"user_id":314,"name":"dick kickem (real)","steam_id":76561198084335030,"connected_time":7775000000000,"state":"active","ping":84},{"user_id":355,"name":"BreakfastTacos","steam_id":76561198847620442,"connected_time":3541000000000,"state":"active","ping":101},{"user_id":347,"name":"Zamich","steam_id":76561198170659337,"connected_time":4112000000000,"state":"active","ping":67},{"user_id":393,"name":"gideon nav my beloved","steam_id":76561198259092181,"connected_time":450000000000,"state":"active","ping":55},{"user_id":380,"name":"big joe's car company","steam_id":76561198204995668,"connected_time":1651000000000,"state":"active","ping":88},{"user_id":394,"name":"0100101101100001011100100110110","steam_id":76561198034028769,"connected_time":441000000000,"state":"active","ping":62},{"user_id":385,"name":"catface","steam_id":76561198096347625,"connected_time":1429000000000,"state":"active","ping":76},{"user_id":395,"name":"dulg","steam_id":76561198127640309,"connected_time":435000000000,"state":"active","ping":88},{"user_id":396,"name":"rad killl raccoon","steam_id":76561198980975595,"connected_time":430000000000,"state":"active","ping":120},{"user_id":383,"name":"sweaver","steam_id":76561199156551835,"connected_time":1607000000000,"state":"active","ping":59},{"user_id":399,"name":"anonpain","steam_id":76561198081317092,"connected_time":174000000000,"state":"active","ping":54},{"user_id":389,"name":"giant_dork","steam_id":76561199105606956,"connected_time":1186000000000,"state":"active","ping":75},{"user_id":306,"name":"YeetethYoteth","steam_id":76561198957396090,"connected_time":7960000000000,"state":"active","ping":63},{"user_id":316,"name":"Chunk Stuffer","steam_id":76561198856508573,"connected_time":7748000000000,"state":"active","ping":60},{"user_id":390,"name":"OctillionaireSigmaMale","steam_id":76561198816005207,"connected_time":840000000000,"state":"active","ping":77},{"user_id":387,"name":"Kev","steam_id":76561198310880776,"connected_time":1278000000000,"state":"active","ping":79},{"user_id":400,"name":"MondoDong","steam_id":76561197991400109,"connected_time":5000000000,"state":"spawning","ping":48},{"user_id":397,"name":"CuSO4","steam_id":76561199278147589,"connected_time":404000000000,"state":"active","ping":68}]},{"server_id":36,"name":"Uncletopia | Chicago | 5 | All Maps","name_short":"chi-5","host":"chi-2.us.uncletopia.com","port":27015,"enabled":true,"region":"us-central","cc":"us","latitude":41.881832,"longitude":-87.62318,"reserved":0,"last_update":"0001-01-01T00:00:00Z","name_a2s":"Uncletopia | Chicago | 5 | All Maps","protocol":17,"map":"pl_barnblitz","folder":"tf","game":"Team Fortress","app_id":440,"player_count":0,"max_players":24,"Bots":0,"server_type":"Dedicated","server_os":"Linux","password":true,"vac":true,"version":"7961495","steam_id":85568392924866362,"keywords":["nocrits","nodmgspread","payload","uncletopia"],"game_id":440,"stv_port":27016,"stv_name":"Uncletopia | Chicago | 5 | All Maps | STV","players":null},{"server_id":37,"name":"Uncletopia | Chicago | 6 | All Maps","name_short":"chi-6","host":"chi-2.us.uncletopia.com","port":27025,"enabled":true,"region":"us-central","cc":"us","latitude":41.881832,"longitude":-87.62318,"reserved":0,"last_update":"0001-01-01T00:00:00Z","name_a2s":"Uncletopia | Chicago | 6 | All Maps","protocol":17,"map":"pl_borneo","folder":"tf","game":"Team Fortress","app_id":440,"player_count":24,"max_players":24,"Bots":0,"server_type":"Dedicated","server_os":"Linux","password":true,"vac":true,"version":"7961495","steam_id":85568392924866363,"keywords":["nocrits","nodmgspread","payload","uncletopia"],"game_id":440,"stv_port":27026,"stv_name":"Uncletopia | Chicago | 6 | All Maps | STV","players":[{"user_id":271,"name":"ballistickill64","steam_id":76561199163875433,"connected_time":1498000000000,"state":"active","ping":92},{"user_id":266,"name":"King Spaghetti","steam_id":76561198027067890,"connected_time":2305000000000,"state":"active","ping":55},{"user_id":95,"name":"Da Benevolent Pimp","steam_id":76561198073569962,"connected_time":15067000000000,"state":"active","ping":53},{"user_id":279,"name":"Kagi","steam_id":76561198117400696,"connected_time":1231000000000,"state":"active","ping":70},{"user_id":103,"name":"Jarnold","steam_id":76561198090434537,"connected_time":14828000000000,"state":"active","ping":54},{"user_id":269,"name":"Park","steam_id":76561198057222814,"connected_time":1914000000000,"state":"active","ping":68},{"user_id":257,"name":"J3X","steam_id":76561198184753858,"connected_time":3122000000000,"state":"active","ping":90},{"user_id":231,"name":"Likeia #Savetf2","steam_id":76561198005214207,"connected_time":5140000000000,"state":"active","ping":58},{"user_id":285,"name":"Fermenting Kiwi","steam_id":76561198253303497,"connected_time":1021000000000,"state":"active","ping":75},{"user_id":284,"name":"Slashes","steam_id":76561197968573499,"connected_time":1031000000000,"state":"active","ping":59},{"user_id":292,"name":"blobb","steam_id":76561198950448488,"connected_time":257000000000,"state":"active","ping":56},{"user_id":265,"name":"Clumsy","steam_id":76561198056345245,"connected_time":2390000000000,"state":"active","ping":68},{"user_id":251,"name":"yoodle doodle","steam_id":76561198054897884,"connected_time":4227000000000,"state":"active","ping":71},{"user_id":293,"name":"-π- BakaD","steam_id":76561197960559169,"connected_time":207000000000,"state":"active","ping":55},{"user_id":273,"name":"lil guy","steam_id":76561198030786504,"connected_time":1384000000000,"state":"active","ping":89},{"user_id":267,"name":"The Noise","steam_id":76561199390353195,"connected_time":2178000000000,"state":"active","ping":82},{"user_id":294,"name":"JustaDude013","steam_id":76561199151914748,"connected_time":67000000000,"state":"active","ping":89},{"user_id":291,"name":"The Wave","steam_id":76561198268225109,"connected_time":514000000000,"state":"active","ping":87},{"user_id":276,"name":"it's tickle time with daddy ;)","steam_id":76561199495051478,"connected_time":1283000000000,"state":"active","ping":54},{"user_id":242,"name":"Banana","steam_id":76561199445100850,"connected_time":4920000000000,"state":"active","ping":81},{"user_id":282,"name":"Kobold With A Gun","steam_id":76561199160414689,"connected_time":1122000000000,"state":"active","ping":69},{"user_id":278,"name":"k1tty","steam_id":76561198869348268,"connected_time":1264000000000,"state":"active","ping":99},{"user_id":264,"name":"shmood","steam_id":76561198241948526,"connected_time":2448000000000,"state":"active","ping":61},{"user_id":254,"name":"the spy from team fortress 2","steam_id":76561198047797306,"connected_time":3821000000000,"state":"active","ping":61}]},{"server_id":38,"name":"Uncletopia | Chicago | 7 | Stopwatch Beta","name_short":"chi-7","host":"chi-2.us.uncletopia.com","port":27035,"enabled":true,"region":"us-central","cc":"us","latitude":41.881832,"longitude":-87.62318,"reserved":0,"last_update":"0001-01-01T00:00:00Z","name_a2s":"Uncletopia | Chicago | 7 | Stopwatch Beta","protocol":17,"map":"pl_borneo","folder":"tf","game":"Team Fortress","app_id":440,"player_count":0,"max_players":24,"Bots":0,"server_type":"Dedicated","server_os":"Linux","password":true,"vac":true,"version":"7961495","steam_id":85568392924866364,"keywords":["nocrits","nodmgspread","payload","uncletopia"],"game_id":440,"stv_port":27036,"stv_name":"Uncletopia | Chicago | 7 | Stopwatch Beta | STV","players":null},{"server_id":39,"name":"Uncletopia | Chicago | 8 | Community","name_short":"chi-8","host":"chi-2.us.uncletopia.com","port":27045,"enabled":true,"region":"us-central","cc":"us","latitude":41.881832,"longitude":-87.62318,"reserved":0,"last_update":"0001-01-01T00:00:00Z","name_a2s":"Uncletopia | Chicago | 8 | Community","protocol":17,"map":"pl_barnblitz","folder":"tf","game":"Team Fortress","app_id":440,"player_count":0,"max_players":24,"Bots":0,"server_type":"Dedicated","server_os":"Linux","password":true,"vac":true,"version":"7961495","steam_id":85568392924866365,"keywords":["nocrits","nodmgspread","payload","uncletopia"],"game_id":440,"stv_port":27046,"stv_name":"Uncletopia | Chicago | 8 | Community | STV","players":null},{"server_id":8,"name":"Uncletopia | Dallas | 1 | All Maps","name_short":"dal-1","host":"dal-1.us.uncletopia.com","port":27015,"enabled":true,"region":"us-central","cc":"us","latitude":32.779167,"longitude":-96.80889,"reserved":0,"last_update":"0001-01-01T00:00:00Z","name_a2s":"Uncletopia | Dallas | 1 | All Maps","protocol":17,"map":"pl_barnblitz","folder":"tf","game":"Team Fortress","app_id":440,"player_count":24,"max_players":24,"Bots":0,"server_type":"Dedicated","server_os":"Linux","password":true,"vac":true,"version":"7961495","steam_id":85568392924469986,"keywords":["nocrits","nodmgspread","payload","uncletopia"],"game_id":440,"stv_port":27016,"stv_name":"Uncletopia | Dallas | 1 | All Maps | STV","players":[{"user_id":201,"name":"zinnk","steam_id":76561198092081825,"connected_time":664000000000,"state":"active","ping":89},{"user_id":194,"name":"parmajean","steam_id":76561198049461668,"connected_time":858000000000,"state":"active","ping":60},{"user_id":196,"name":"Gamba","steam_id":76561198069264650,"connected_time":801000000000,"state":"active","ping":86},{"user_id":190,"name":"PowerGem3000","steam_id":76561198944644691,"connected_time":1473000000000,"state":"active","ping":81},{"user_id":167,"name":"Trolley","steam_id":76561198106695948,"connected_time":4340000000000,"state":"active","ping":126},{"user_id":177,"name":"e doctor","steam_id":76561198081851446,"connected_time":3394000000000,"state":"active","ping":63},{"user_id":156,"name":"mar y sol","steam_id":76561198004481006,"connected_time":4916000000000,"state":"active","ping":75},{"user_id":189,"name":"autisthicc","steam_id":76561198003918928,"connected_time":1581000000000,"state":"active","ping":157},{"user_id":191,"name":"Dallas","steam_id":76561198066542919,"connected_time":1039000000000,"state":"active","ping":122},{"user_id":195,"name":"FanaticSalt","steam_id":76561199380123059,"connected_time":855000000000,"state":"active","ping":45},{"user_id":160,"name":"m1 garand gaming","steam_id":76561199026721822,"connected_time":4782000000000,"state":"active","ping":110},{"user_id":178,"name":"Rin \"Hindwing\" Redtail","steam_id":76561199074865638,"connected_time":3371000000000,"state":"active","ping":58},{"user_id":197,"name":"ඞ","steam_id":76561199365672047,"connected_time":758000000000,"state":"active","ping":102},{"user_id":161,"name":"wile","steam_id":76561198125261443,"connected_time":4768000000000,"state":"active","ping":117},{"user_id":204,"name":"meggancunningham28","steam_id":76561199029512187,"connected_time":465000000000,"state":"active","ping":114},{"user_id":141,"name":"Dr. W0lv","steam_id":76561198129237487,"connected_time":5966000000000,"state":"active","ping":69},{"user_id":179,"name":"Beats By Drake *Nickelodeon*","steam_id":76561198074572101,"connected_time":3360000000000,"state":"active","ping":76},{"user_id":199,"name":"Slepii","steam_id":76561198881786224,"connected_time":746000000000,"state":"active","ping":75},{"user_id":200,"name":"nhbiker","steam_id":76561198081277675,"connected_time":693000000000,"state":"active","ping":89},{"user_id":205,"name":"Soda","steam_id":76561198219209367,"connected_time":428000000000,"state":"active","ping":68},{"user_id":172,"name":"Gobl1n","steam_id":76561198808610991,"connected_time":3657000000000,"state":"active","ping":86},{"user_id":168,"name":"3848","steam_id":76561198109077451,"connected_time":4136000000000,"state":"active","ping":74},{"user_id":203,"name":"dispenser tf2 (real)","steam_id":76561198882986104,"connected_time":586000000000,"state":"active","ping":112},{"user_id":187,"name":"Queen Frau the Round","steam_id":76561197999942134,"connected_time":1785000000000,"state":"active","ping":75}]},{"server_id":108,"name":"Uncletopia | Dallas | 2 | All Maps","name_short":"dal-2","host":"dal-1.us.uncletopia.com","port":27025,"enabled":true,"region":"us-central","cc":"us","latitude":32.779167,"longitude":-96.80889,"reserved":0,"last_update":"0001-01-01T00:00:00Z","name_a2s":"Uncletopia | Dallas | 2 | All Maps","protocol":17,"map":"koth_harvest_final","folder":"tf","game":"Team Fortress","app_id":440,"player_count":15,"max_players":24,"Bots":0,"server_type":"Dedicated","server_os":"Linux","password":true,"vac":true,"version":"7961495","steam_id":85568392924469988,"keywords":["cp","nocrits","nodmgspread","uncletopia"],"game_id":440,"stv_port":27026,"stv_name":"Uncletopia | Dallas | 2 | All Maps | STV","players":[{"user_id":90,"name":"Boomer Gaming","steam_id":76561198037803087,"connected_time":356000000000,"state":"active","ping":60},{"user_id":17,"name":"Kermit","steam_id":76561198034559979,"connected_time":5901000000000,"state":"active","ping":83},{"user_id":32,"name":"dolph","steam_id":76561198341304816,"connected_time":4907000000000,"state":"active","ping":91},{"user_id":65,"name":"Sup m8","steam_id":76561198081659121,"connected_time":2176000000000,"state":"active","ping":44},{"user_id":91,"name":"potato gamer","steam_id":76561199151360128,"connected_time":333000000000,"state":"active","ping":93},{"user_id":83,"name":"Rucksen","steam_id":76561199006549868,"connected_time":1297000000000,"state":"active","ping":46},{"user_id":72,"name":"Rob","steam_id":76561199187786660,"connected_time":1708000000000,"state":"active","ping":51},{"user_id":73,"name":"Oni","steam_id":76561198112066584,"connected_time":1699000000000,"state":"active","ping":61},{"user_id":87,"name":"Toast","steam_id":76561199207957224,"connected_time":795000000000,"state":"active","ping":108},{"user_id":76,"name":"antoniov00gaming","steam_id":76561198364632073,"connected_time":1651000000000,"state":"active","ping":84},{"user_id":92,"name":"OrangeSodaMachine","steam_id":76561198079230156,"connected_time":319000000000,"state":"active","ping":78},{"user_id":94,"name":"NayLind","steam_id":76561198797896810,"connected_time":45000000000,"state":"active","ping":53},{"user_id":95,"name":"Snivy","steam_id":76561198135488292,"connected_time":0,"state":"spawning","ping":30},{"user_id":30,"name":"A Fruit","steam_id":76561198951830050,"connected_time":5045000000000,"state":"active","ping":43},{"user_id":63,"name":"Petebros","steam_id":76561198892196829,"connected_time":2350000000000,"state":"active","ping":85}]},{"server_id":404,"name":"Uncletopia | Dallas | 3 | All Maps","name_short":"dal-3","host":"dal-1.us.uncletopia.com","port":27035,"enabled":true,"region":"us-central","cc":"us","latitude":32.779167,"longitude":-96.80889,"reserved":0,"last_update":"0001-01-01T00:00:00Z","name_a2s":"Uncletopia | Dallas | 3 | All Maps","protocol":17,"map":"koth_highpass","folder":"tf","game":"Team Fortress","app_id":440,"player_count":0,"max_players":24,"Bots":0,"server_type":"Dedicated","server_os":"Linux","password":true,"vac":true,"version":"7961495","steam_id":85568392924515219,"keywords":["cp","nocrits","nodmgspread","uncletopia"],"game_id":440,"stv_port":27036,"stv_name":"Uncletopia | Dallas | 3 | All Maps | STV","players":null},{"server_id":405,"name":"Uncletopia | Dallas | 4 | Community","name_short":"dal-4","host":"dal-1.us.uncletopia.com","port":27045,"enabled":true,"region":"us-central","cc":"us","latitude":32.779167,"longitude":-96.80889,"reserved":0,"last_update":"0001-01-01T00:00:00Z","name_a2s":"Uncletopia | Dallas | 4 | Community","protocol":17,"map":"workshop/koth_slaughter_rc1.ugc1712845210","folder":"tf","game":"Team Fortress","app_id":440,"player_count":20,"max_players":24,"Bots":0,"server_type":"Dedicated","server_os":"Linux","password":true,"vac":true,"version":"7961495","steam_id":85568392924515220,"keywords":["cp","nocrits","nodmgspread","uncletopia"],"game_id":440,"stv_port":27046,"stv_name":"Uncletopia | Dallas | 4 | Community | STV","players":[{"user_id":210,"name":"silly jester","steam_id":76561198079609974,"connected_time":1400000000000,"state":"active","ping":87},{"user_id":234,"name":"Jazz2T","steam_id":76561198154418867,"connected_time":525000000000,"state":"active","ping":111},{"user_id":240,"name":"2002 Toyota Corolla VE","steam_id":76561198149172070,"connected_time":144000000000,"state":"active","ping":46},{"user_id":235,"name":"Monkey Gaming","steam_id":76561198232461944,"connected_time":447000000000,"state":"active","ping":96},{"user_id":225,"name":"cynical_person","steam_id":76561198992742722,"connected_time":929000000000,"state":"active","ping":79},{"user_id":219,"name":"40s on the jeep","steam_id":76561198893301630,"connected_time":994000000000,"state":"active","ping":84},{"user_id":220,"name":"xlesz","steam_id":76561199020119161,"connected_time":994000000000,"state":"active","ping":78},{"user_id":203,"name":"KYRDodgeman","steam_id":76561199106649457,"connected_time":2190000000000,"state":"active","ping":55},{"user_id":222,"name":"Herba","steam_id":76561198117879846,"connected_time":962000000000,"state":"active","ping":125},{"user_id":239,"name":"Tentrazerpa","steam_id":76561198123542797,"connected_time":239000000000,"state":"active","ping":120},{"user_id":237,"name":"guy","steam_id":76561198196443262,"connected_time":366000000000,"state":"active","ping":151},{"user_id":238,"name":"Evaporated_373k","steam_id":76561199435266743,"connected_time":337000000000,"state":"active","ping":64},{"user_id":228,"name":"mr. bam","steam_id":76561198078238722,"connected_time":782000000000,"state":"active","ping":105},{"user_id":229,"name":"BirBinGo","steam_id":76561198356529600,"connected_time":778000000000,"state":"active","ping":100},{"user_id":241,"name":"catrinaisahuman","steam_id":76561198281355729,"connected_time":96000000000,"state":"active","ping":61},{"user_id":230,"name":"canofspaghettios","steam_id":76561198124204246,"connected_time":670000000000,"state":"active","ping":67},{"user_id":242,"name":"RIP MF DOOM","steam_id":76561198414611561,"connected_time":69000000000,"state":"active","ping":82},{"user_id":243,"name":"Abraham Lincoln","steam_id":76561198004065704,"connected_time":30000000000,"state":"spawning","ping":203},{"user_id":187,"name":"Chhaam","steam_id":76561198058508132,"connected_time":3734000000000,"state":"active","ping":74},{"user_id":202,"name":"DarkEmpireOne","steam_id":76561198106849547,"connected_time":2292000000000,"state":"active","ping":80}]},{"server_id":5,"name":"Uncletopia | Frankfurt | 1 | All Maps","name_short":"frk-1","host":"frk-1.de.uncletopia.com","port":27015,"enabled":true,"region":"eu","cc":"de","latitude":50.110924,"longitude":8.682127,"reserved":0,"last_update":"0001-01-01T00:00:00Z","name_a2s":"Uncletopia | Frankfurt | 1 | All Maps","protocol":17,"map":"pl_badwater","folder":"tf","game":"Team Fortress","app_id":440,"player_count":24,"max_players":24,"Bots":0,"server_type":"Dedicated","server_os":"Linux","password":true,"vac":true,"version":"7961495","steam_id":85568392924469989,"keywords":["nocrits","nodmgspread","payload","uncletopia"],"game_id":440,"stv_port":27016,"stv_name":"Uncletopia | Frankfurt | 1 | All Maps | STV","players":[{"user_id":892,"name":"MrEru1","steam_id":76561198105034495,"connected_time":11000000000,"state":"active","ping":84},{"user_id":877,"name":"MR.BLOTTO","steam_id":76561198067920111,"connected_time":201000000000,"state":"active","ping":45},{"user_id":876,"name":"TAFI03","steam_id":76561198213082089,"connected_time":229000000000,"state":"active","ping":58},{"user_id":635,"name":"blow up like osama","steam_id":76561199195628354,"connected_time":4902000000000,"state":"active","ping":75},{"user_id":836,"name":"TнundeгCuпт","steam_id":76561198135091800,"connected_time":928000000000,"state":"active","ping":41},{"user_id":818,"name":"Makeways","steam_id":76561198274466477,"connected_time":1503000000000,"state":"active","ping":83},{"user_id":828,"name":"monke gaming","steam_id":76561198128028307,"connected_time":1180000000000,"state":"active","ping":95},{"user_id":884,"name":"Penguinmark","steam_id":76561199057089501,"connected_time":106000000000,"state":"active","ping":129},{"user_id":820,"name":"mohemmedmokhter2005","steam_id":76561199197650506,"connected_time":1459000000000,"state":"active","ping":105},{"user_id":601,"name":"Mr. Watch","steam_id":76561198276103501,"connected_time":7276000000000,"state":"active","ping":82},{"user_id":794,"name":"Peskyplumber64","steam_id":76561198044458330,"connected_time":1965000000000,"state":"active","ping":67},{"user_id":726,"name":"Ceiling fan enthusiast","steam_id":76561197989214268,"connected_time":3380000000000,"state":"active","ping":69},{"user_id":879,"name":"Abbplutt","steam_id":76561198121678429,"connected_time":197000000000,"state":"active","ping":76},{"user_id":802,"name":"Skippie","steam_id":76561198102029146,"connected_time":1851000000000,"state":"active","ping":70},{"user_id":753,"name":"Geoff the Oracle","steam_id":76561198053759965,"connected_time":2973000000000,"state":"active","ping":75},{"user_id":625,"name":"Emir","steam_id":76561198113089831,"connected_time":5551000000000,"state":"active","ping":90},{"user_id":880,"name":"Mong","steam_id":76561198254497427,"connected_time":185000000000,"state":"active","ping":49},{"user_id":862,"name":"Testicular torsion","steam_id":76561198119547399,"connected_time":484000000000,"state":"active","ping":56},{"user_id":881,"name":"mashete","steam_id":76561198151829282,"connected_time":178000000000,"state":"active","ping":86},{"user_id":633,"name":"Carl","steam_id":76561198045638738,"connected_time":4911000000000,"state":"active","ping":71},{"user_id":823,"name":"Wild_Xray26","steam_id":76561198059386050,"connected_time":1402000000000,"state":"active","ping":77},{"user_id":634,"name":"cheriberry","steam_id":76561198093577036,"connected_time":4909000000000,"state":"active","ping":55},{"user_id":891,"name":"Kanon","steam_id":76561198295037860,"connected_time":32000000000,"state":"active","ping":61},{"user_id":885,"name":"Lyell","steam_id":76561198350329389,"connected_time":105000000000,"state":"active","ping":85}]},{"server_id":110,"name":"Uncletopia | Frankfurt | 2 | All Maps","name_short":"frk-2","host":"frk-1.de.uncletopia.com","port":27025,"enabled":true,"region":"eu","cc":"de","latitude":50.110924,"longitude":8.682127,"reserved":0,"last_update":"0001-01-01T00:00:00Z","name_a2s":"Uncletopia | Frankfurt | 2 | All Maps","protocol":17,"map":"koth_harvest_final","folder":"tf","game":"Team Fortress","app_id":440,"player_count":23,"max_players":24,"Bots":0,"server_type":"Dedicated","server_os":"Linux","password":true,"vac":true,"version":"7961495","steam_id":85568392924469990,"keywords":["cp","nocrits","nodmgspread","uncletopia"],"game_id":440,"stv_port":27026,"stv_name":"Uncletopia | Frankfurt | 2 | All Maps | STV","players":[{"user_id":403,"name":"Creative","steam_id":76561198835034247,"connected_time":1847000000000,"state":"active","ping":82},{"user_id":420,"name":"Slooshie","steam_id":76561198008749909,"connected_time":1297000000000,"state":"active","ping":59},{"user_id":410,"name":"Maddox","steam_id":76561198026419869,"connected_time":1603000000000,"state":"active","ping":67},{"user_id":430,"name":"Pain in a Box","steam_id":76561197990777173,"connected_time":446000000000,"state":"active","ping":90},{"user_id":431,"name":"robu","steam_id":76561198113874116,"connected_time":370000000000,"state":"active","ping":71},{"user_id":419,"name":"amabes2015","steam_id":76561199122555949,"connected_time":1333000000000,"state":"active","ping":137},{"user_id":432,"name":"1ggy","steam_id":76561199051285912,"connected_time":297000000000,"state":"active","ping":79},{"user_id":399,"name":"Yayx","steam_id":76561198078780040,"connected_time":2071000000000,"state":"active","ping":53},{"user_id":367,"name":"Ye","steam_id":76561198354719262,"connected_time":4439000000000,"state":"active","ping":73},{"user_id":411,"name":"Arsonist","steam_id":76561199087953833,"connected_time":1583000000000,"state":"active","ping":103},{"user_id":426,"name":"The Bucket","steam_id":76561199131973613,"connected_time":870000000000,"state":"active","ping":90},{"user_id":427,"name":"Sirzen","steam_id":76561198170155434,"connected_time":865000000000,"state":"active","ping":46},{"user_id":423,"name":"highest noon","steam_id":76561199103959197,"connected_time":1147000000000,"state":"active","ping":86},{"user_id":357,"name":"Garfield","steam_id":76561198000267067,"connected_time":5248000000000,"state":"active","ping":69},{"user_id":415,"name":"nicco","steam_id":76561198046217866,"connected_time":1406000000000,"state":"active","ping":44},{"user_id":416,"name":"dusty","steam_id":76561199011977567,"connected_time":1403000000000,"state":"active","ping":64},{"user_id":429,"name":"󠀡󠀡","steam_id":76561198125381319,"connected_time":723000000000,"state":"active","ping":52},{"user_id":428,"name":"MadMatts","steam_id":76561198801690324,"connected_time":841000000000,"state":"active","ping":61},{"user_id":382,"name":"Nobody","steam_id":76561198151116796,"connected_time":3668000000000,"state":"active","ping":82},{"user_id":383,"name":"avatarvic","steam_id":76561198305931255,"connected_time":3607000000000,"state":"active","ping":66},{"user_id":418,"name":"FieryPenguin","steam_id":76561198063866188,"connected_time":1361000000000,"state":"active","ping":60},{"user_id":422,"name":"Brisingaer","steam_id":76561198120707128,"connected_time":1266000000000,"state":"active","ping":175},{"user_id":433,"name":"Bineapple","steam_id":76561198983650763,"connected_time":286000000000,"state":"active","ping":62}]},{"server_id":308,"name":"Uncletopia | Frankfurt | 3 | All Maps","name_short":"frk-3","host":"frk-1.de.uncletopia.com","port":27035,"enabled":true,"region":"eu","cc":"de","latitude":50.110924,"longitude":8.682127,"reserved":0,"last_update":"0001-01-01T00:00:00Z","name_a2s":"Uncletopia | Frankfurt | 3 | All Maps","protocol":17,"map":"pl_upward","folder":"tf","game":"Team Fortress","app_id":440,"player_count":24,"max_players":24,"Bots":0,"server_type":"Dedicated","server_os":"Linux","password":true,"vac":true,"version":"7961495","steam_id":85568392924504274,"keywords":["nocrits","nodmgspread","payload","uncletopia"],"game_id":440,"stv_port":27036,"stv_name":"Uncletopia | Frankfurt | 3 | All Maps | STV","players":[{"user_id":220,"name":"Wattseyy","steam_id":76561198248567360,"connected_time":1735000000000,"state":"active","ping":54},{"user_id":199,"name":"A stripper","steam_id":76561198034865891,"connected_time":4130000000000,"state":"active","ping":60},{"user_id":158,"name":"Rune","steam_id":76561198066157645,"connected_time":6556000000000,"state":"active","ping":57},{"user_id":216,"name":"Toxic_Cicity","steam_id":76561198165753440,"connected_time":2480000000000,"state":"active","ping":86},{"user_id":181,"name":"willem dafoe fan","steam_id":76561198795590054,"connected_time":5414000000000,"state":"active","ping":74},{"user_id":173,"name":"Spine fluid","steam_id":76561198180020222,"connected_time":5875000000000,"state":"active","ping":64},{"user_id":208,"name":"Baklava Enjoyer","steam_id":76561198990679631,"connected_time":3760000000000,"state":"active","ping":72},{"user_id":226,"name":"jumpbug jerry","steam_id":76561198963378933,"connected_time":131000000000,"state":"active","ping":55},{"user_id":218,"name":"tomtslgaming","steam_id":76561199112773288,"connected_time":2317000000000,"state":"active","ping":89},{"user_id":209,"name":"MR BUBBLES","steam_id":76561198019005259,"connected_time":3389000000000,"state":"active","ping":99},{"user_id":211,"name":"tealoverr.190","steam_id":76561199028497703,"connected_time":2722000000000,"state":"active","ping":104},{"user_id":213,"name":"Utkunator","steam_id":76561198967463151,"connected_time":2663000000000,"state":"active","ping":102},{"user_id":114,"name":"wasps","steam_id":76561198049485054,"connected_time":9763000000000,"state":"active","ping":75},{"user_id":214,"name":"Burger King Dante","steam_id":76561198390314734,"connected_time":2602000000000,"state":"active","ping":58},{"user_id":217,"name":"Far ∞","steam_id":76561199166149359,"connected_time":2441000000000,"state":"active","ping":81},{"user_id":171,"name":"Wade Wilson's Spoilt C4","steam_id":76561198013884709,"connected_time":5943000000000,"state":"active","ping":82},{"user_id":147,"name":"Not a Sober Person","steam_id":76561198042593027,"connected_time":7337000000000,"state":"active","ping":87},{"user_id":225,"name":"Waluigi","steam_id":76561199070474380,"connected_time":876000000000,"state":"active","ping":101},{"user_id":222,"name":"Seth MacShartlane","steam_id":76561198307037169,"connected_time":1284000000000,"state":"active","ping":71},{"user_id":201,"name":"☁ Lou1smeister ☁","steam_id":76561198004032968,"connected_time":4113000000000,"state":"active","ping":75},{"user_id":204,"name":"osj","steam_id":76561198054002229,"connected_time":4050000000000,"state":"active","ping":63},{"user_id":206,"name":"MaRo","steam_id":76561198992286676,"connected_time":4026000000000,"state":"active","ping":69},{"user_id":223,"name":"Lilypadio","steam_id":76561198090146457,"connected_time":1001000000000,"state":"active","ping":59},{"user_id":207,"name":"Romultra","steam_id":76561198354105082,"connected_time":4009000000000,"state":"active","ping":45}]},{"server_id":309,"name":"Uncletopia | Frankfurt | 4 | All Maps","name_short":"frk-4","host":"frk-1.de.uncletopia.com","port":27045,"enabled":true,"region":"eu","cc":"de","latitude":50.110924,"longitude":8.682127,"reserved":0,"last_update":"0001-01-01T00:00:00Z","name_a2s":"Uncletopia | Frankfurt | 4 | All Maps","protocol":17,"map":"cp_sunshine","folder":"tf","game":"Team Fortress","app_id":440,"player_count":19,"max_players":24,"Bots":0,"server_type":"Dedicated","server_os":"Linux","password":true,"vac":true,"version":"7961495","steam_id":85568392924504275,"keywords":["cp","nocrits","nodmgspread","uncletopia"],"game_id":440,"stv_port":27046,"stv_name":"Uncletopia | Frankfurt | 4 | All Maps | STV","players":[{"user_id":727,"name":"quarks and stuff","steam_id":76561198137869662,"connected_time":333000000000,"state":"active","ping":38},{"user_id":724,"name":"Vince","steam_id":76561199103000131,"connected_time":664000000000,"state":"active","ping":67},{"user_id":730,"name":"sphere","steam_id":76561197971059842,"connected_time":65000000000,"state":"active","ping":59},{"user_id":715,"name":"Di","steam_id":76561198073471392,"connected_time":1671000000000,"state":"active","ping":60},{"user_id":648,"name":"Jonkster","steam_id":76561198329647787,"connected_time":5364000000000,"state":"active","ping":103},{"user_id":720,"name":"avalon","steam_id":76561198003212528,"connected_time":837000000000,"state":"active","ping":60},{"user_id":701,"name":"Gio","steam_id":76561199114382953,"connected_time":1861000000000,"state":"active","ping":110},{"user_id":675,"name":"GeneralBathtub","steam_id":76561198291678581,"connected_time":4059000000000,"state":"active","ping":61},{"user_id":708,"name":"PIZZAMAN","steam_id":76561198296484184,"connected_time":1778000000000,"state":"active","ping":60},{"user_id":698,"name":"John Noob","steam_id":76561197999170026,"connected_time":2375000000000,"state":"active","ping":89},{"user_id":719,"name":"Tichy☆","steam_id":76561198026218934,"connected_time":981000000000,"state":"active","ping":48},{"user_id":707,"name":"ant753","steam_id":76561198103458889,"connected_time":1810000000000,"state":"active","ping":67},{"user_id":716,"name":"RainbowLlama","steam_id":76561198132079405,"connected_time":1513000000000,"state":"active","ping":56},{"user_id":714,"name":"Sand","steam_id":76561198103761268,"connected_time":1676000000000,"state":"active","ping":45},{"user_id":713,"name":"Summer ♥","steam_id":76561198047723907,"connected_time":1719000000000,"state":"active","ping":56},{"user_id":666,"name":"FNF","steam_id":76561199151422826,"connected_time":4504000000000,"state":"active","ping":120},{"user_id":718,"name":"☞LaZe☜","steam_id":76561198202191400,"connected_time":1100000000000,"state":"active","ping":63},{"user_id":664,"name":"madhead200","steam_id":76561198119498666,"connected_time":4516000000000,"state":"active","ping":80},{"user_id":729,"name":"mp1mp2mp3","steam_id":76561198088967665,"connected_time":184000000000,"state":"active","ping":91}]},{"server_id":310,"name":"Uncletopia | Frankfurt | 5 | All Maps","name_short":"frk-5","host":"frk-1.de.uncletopia.com","port":27055,"enabled":true,"region":"eu","cc":"de","latitude":50.110924,"longitude":8.682127,"reserved":0,"last_update":"0001-01-01T00:00:00Z","name_a2s":"Uncletopia | Frankfurt | 5 | All Maps","protocol":17,"map":"pl_frontier_final","folder":"tf","game":"Team Fortress","app_id":440,"player_count":24,"max_players":24,"Bots":0,"server_type":"Dedicated","server_os":"Linux","password":true,"vac":true,"version":"7961495","steam_id":85568392924504277,"keywords":["nocrits","nodmgspread","payload","uncletopia"],"game_id":440,"stv_port":27056,"stv_name":"Uncletopia | Frankfurt | 5 | All Maps | STV","players":[{"user_id":414,"name":"flave","steam_id":76561198056372101,"connected_time":4398000000000,"state":"active","ping":99},{"user_id":419,"name":"Megapuncher","steam_id":76561198023536780,"connected_time":4242000000000,"state":"active","ping":40},{"user_id":457,"name":"ĆpunTaBaLuga","steam_id":76561198843629649,"connected_time":577000000000,"state":"active","ping":76},{"user_id":453,"name":"jaime8D","steam_id":76561197980590671,"connected_time":596000000000,"state":"active","ping":89},{"user_id":357,"name":"LemonLeCitron","steam_id":76561198215545267,"connected_time":8704000000000,"state":"active","ping":70},{"user_id":443,"name":"skai","steam_id":76561198184881255,"connected_time":1555000000000,"state":"active","ping":72},{"user_id":456,"name":"Glenn Danzig","steam_id":76561198124159344,"connected_time":582000000000,"state":"active","ping":49},{"user_id":452,"name":"Lopat","steam_id":76561198820264239,"connected_time":692000000000,"state":"active","ping":87},{"user_id":423,"name":"Abonnent","steam_id":76561198246307908,"connected_time":3832000000000,"state":"active","ping":40},{"user_id":438,"name":"Urfangonultasadana","steam_id":76561199389286151,"connected_time":2173000000000,"state":"active","ping":93},{"user_id":294,"name":"Finnish Farmer","steam_id":76561198205366043,"connected_time":14143000000000,"state":"active","ping":85},{"user_id":369,"name":"Breizbuc","steam_id":76561198118220633,"connected_time":8093000000000,"state":"active","ping":66},{"user_id":455,"name":"tone","steam_id":76561197975301462,"connected_time":585000000000,"state":"active","ping":90},{"user_id":435,"name":"s a i","steam_id":76561197970379754,"connected_time":2269000000000,"state":"active","ping":58},{"user_id":454,"name":"ZePequenio","steam_id":76561197968506094,"connected_time":587000000000,"state":"active","ping":70},{"user_id":429,"name":"Deckard","steam_id":76561198004704647,"connected_time":3516000000000,"state":"active","ping":75},{"user_id":421,"name":"Pvt Talbot","steam_id":76561198261001389,"connected_time":4074000000000,"state":"active","ping":45},{"user_id":424,"name":"Gibby","steam_id":76561198048213112,"connected_time":3828000000000,"state":"active","ping":50},{"user_id":442,"name":"Hercules","steam_id":76561198041164170,"connected_time":1972000000000,"state":"active","ping":60},{"user_id":458,"name":"Lyncurion","steam_id":76561199260022725,"connected_time":575000000000,"state":"active","ping":78},{"user_id":460,"name":"The legendery balls","steam_id":76561199139344747,"connected_time":399000000000,"state":"active","ping":92},{"user_id":461,"name":"[SSRB] Kiri","steam_id":76561198193983787,"connected_time":340000000000,"state":"active","ping":137},{"user_id":433,"name":"realness","steam_id":76561199129226935,"connected_time":2638000000000,"state":"active","ping":99},{"user_id":441,"name":"Syd","steam_id":76561198020515027,"connected_time":2158000000000,"state":"active","ping":62}]},{"server_id":311,"name":"Uncletopia | Frankfurt | 6 | All Maps","name_short":"frk-6","host":"frk-1.de.uncletopia.com","port":27065,"enabled":true,"region":"eu","cc":"de","latitude":50.110924,"longitude":8.682127,"reserved":0,"last_update":"0001-01-01T00:00:00Z","name_a2s":"Uncletopia | Frankfurt | 6 | All Maps","protocol":17,"map":"pl_badwater","folder":"tf","game":"Team Fortress","app_id":440,"player_count":24,"max_players":24,"Bots":0,"server_type":"Dedicated","server_os":"Linux","password":true,"vac":true,"version":"7961495","steam_id":85568392924504278,"keywords":["nocrits","nodmgspread","payload","uncletopia"],"game_id":440,"stv_port":27066,"stv_name":"Uncletopia | Frankfurt | 6 | All Maps | STV","players":[{"user_id":507,"name":"KajaStorm","steam_id":76561199215842872,"connected_time":6734000000000,"state":"active","ping":126},{"user_id":470,"name":"zazuza","steam_id":76561198049820905,"connected_time":9036000000000,"state":"active","ping":63},{"user_id":576,"name":"Teriyaki Dick","steam_id":76561198067917216,"connected_time":1110000000000,"state":"active","ping":159},{"user_id":584,"name":"Jon (ebic gamer)","steam_id":76561199380849468,"connected_time":4000000000,"state":"spawning","ping":58},{"user_id":553,"name":"After8","steam_id":76561198090750865,"connected_time":3468000000000,"state":"active","ping":63},{"user_id":581,"name":"_Starlight_","steam_id":76561197993885738,"connected_time":25000000000,"state":"active","ping":65},{"user_id":554,"name":"MISTER SUIIII","steam_id":76561198018330092,"connected_time":3424000000000,"state":"active","ping":75},{"user_id":538,"name":"Koli","steam_id":76561197992428783,"connected_time":4428000000000,"state":"active","ping":50},{"user_id":548,"name":"sex havin'","steam_id":76561198169857427,"connected_time":3567000000000,"state":"active","ping":65},{"user_id":577,"name":"LOKKI","steam_id":76561198259022887,"connected_time":1070000000000,"state":"active","ping":60},{"user_id":579,"name":"DwarfInYou","steam_id":76561198966341795,"connected_time":878000000000,"state":"active","ping":50},{"user_id":541,"name":"Funny Cat Song","steam_id":76561199229682408,"connected_time":3803000000000,"state":"active","ping":46},{"user_id":574,"name":"YeetusFeetus","steam_id":76561199043598948,"connected_time":1600000000000,"state":"active","ping":112},{"user_id":559,"name":"LOBZIK","steam_id":76561198114830120,"connected_time":3227000000000,"state":"active","ping":77},{"user_id":471,"name":"Vonacht","steam_id":76561198016033944,"connected_time":9036000000000,"state":"active","ping":62},{"user_id":582,"name":"phonovsky","steam_id":76561198114647822,"connected_time":17000000000,"state":"active","ping":66},{"user_id":575,"name":"frosty","steam_id":76561198094560834,"connected_time":1140000000000,"state":"active","ping":60},{"user_id":568,"name":"coella","steam_id":76561198442803577,"connected_time":2402000000000,"state":"active","ping":76},{"user_id":561,"name":"Ixsus\u003c3","steam_id":76561198094756869,"connected_time":3218000000000,"state":"active","ping":56},{"user_id":583,"name":"Sza","steam_id":76561198022132105,"connected_time":15000000000,"state":"active","ping":274},{"user_id":580,"name":"Dictatorial Karelian","steam_id":76561198196736457,"connected_time":449000000000,"state":"active","ping":75},{"user_id":578,"name":"JamesPepega","steam_id":76561198019156154,"connected_time":1052000000000,"state":"active","ping":58},{"user_id":540,"name":"cazador","steam_id":76561198123096922,"connected_time":3899000000000,"state":"active","ping":91},{"user_id":567,"name":"Pepegi","steam_id":76561198001230113,"connected_time":2710000000000,"state":"active","ping":75}]},{"server_id":23,"name":"Uncletopia | Frankfurt | 7 | Stopwatch Beta","name_short":"frk-7","host":"frk-1.de.uncletopia.com","port":27075,"enabled":true,"region":"eu","cc":"de","latitude":50.110924,"longitude":8.682127,"reserved":0,"last_update":"0001-01-01T00:00:00Z","name_a2s":"Uncletopia | Frankfurt | 7 | Stopwatch Beta","protocol":17,"map":"pl_upward","folder":"tf","game":"Team Fortress","app_id":440,"player_count":6,"max_players":24,"Bots":0,"server_type":"Dedicated","server_os":"Linux","password":true,"vac":true,"version":"7961495","steam_id":85568392924742827,"keywords":["nocrits","nodmgspread","payload","uncletopia"],"game_id":440,"stv_port":27076,"stv_name":"Uncletopia | Frankfurt | 7 | Stopwatch Beta | STV","players":[{"user_id":18,"name":"The Viking","steam_id":76561198081521903,"connected_time":2358000000000,"state":"active","ping":65},{"user_id":24,"name":"yoni_goos","steam_id":76561198040631535,"connected_time":1426000000000,"state":"active","ping":58},{"user_id":26,"name":"Borloxos","steam_id":76561198123110073,"connected_time":945000000000,"state":"active","ping":54},{"user_id":22,"name":"Cedric","steam_id":76561198023902236,"connected_time":1723000000000,"state":"active","ping":58},{"user_id":23,"name":"ComEpsilon","steam_id":76561198068065775,"connected_time":1671000000000,"state":"active","ping":59},{"user_id":32,"name":"Galex","steam_id":76561198045637579,"connected_time":326000000000,"state":"active","ping":48}]},{"server_id":24,"name":"Uncletopia | Frankfurt | 8 | Community","name_short":"frk-8","host":"frk-1.de.uncletopia.com","port":27085,"enabled":true,"region":"eu","cc":"de","latitude":50.110924,"longitude":8.682127,"reserved":0,"last_update":"0001-01-01T00:00:00Z","name_a2s":"Uncletopia | Frankfurt | 8 | Community","protocol":17,"map":"workshop/koth_ashville_final.ugc2130459942","folder":"tf","game":"Team Fortress","app_id":440,"player_count":0,"max_players":24,"Bots":0,"server_type":"Dedicated","server_os":"Linux","password":true,"vac":true,"version":"7961495","steam_id":85568392924742828,"keywords":["cp","nocrits","nodmgspread","uncletopia"],"game_id":440,"stv_port":27086,"stv_name":"Uncletopia | Frankfurt | 8 | Community | STV","players":null},{"server_id":202,"name":"Uncletopia | Hong Kong | 1 | All Maps","name_short":"hgk-1","host":"hgk-1.hk.uncletopia.com","port":27015,"enabled":true,"region":"asia","cc":"hk","latitude":22.302711,"longitude":114.177216,"reserved":0,"last_update":"0001-01-01T00:00:00Z","name_a2s":"Uncletopia | Hong Kong | 1 | All Maps","protocol":17,"map":"cp_mountainlab","folder":"tf","game":"Team Fortress","app_id":440,"player_count":0,"max_players":24,"Bots":0,"server_type":"Dedicated","server_os":"Linux","password":true,"vac":true,"version":"7961495","steam_id":85568392924494504,"keywords":["cp","nocrits","nodmgspread","uncletopia"],"game_id":440,"stv_port":27016,"stv_name":"Uncletopia | Hong Kong | 1 | All Maps | STV","players":null},{"server_id":1,"name":"Uncletopia | Los Angeles | 1 | All Maps","name_short":"lax-1","host":"lax-1.us.uncletopia.com","port":27015,"enabled":true,"region":"us-west","cc":"us","latitude":33.94279,"longitude":-118.41004,"reserved":0,"last_update":"0001-01-01T00:00:00Z","name_a2s":"Uncletopia | Los Angeles | 1 | All Maps","protocol":17,"map":"pl_barnblitz","folder":"tf","game":"Team Fortress","app_id":440,"player_count":24,"max_players":24,"Bots":0,"server_type":"Dedicated","server_os":"Linux","password":true,"vac":true,"version":"7961495","steam_id":85568392924469991,"keywords":["nocrits","nodmgspread","payload","uncletopia"],"game_id":440,"stv_port":27016,"stv_name":"Uncletopia | Los Angeles | 1 | All Maps | STV","players":[{"user_id":206,"name":"hyazZaza","steam_id":76561199100342013,"connected_time":453000000000,"state":"active","ping":46},{"user_id":196,"name":"Pah-Wraith Gul Dukat","steam_id":76561198033918106,"connected_time":1185000000000,"state":"active","ping":46},{"user_id":197,"name":"Lo-Pan","steam_id":76561198085670133,"connected_time":1178000000000,"state":"active","ping":87},{"user_id":167,"name":"Sailor","steam_id":76561199081983517,"connected_time":2637000000000,"state":"active","ping":84},{"user_id":151,"name":"anotherl2","steam_id":76561198354418895,"connected_time":4410000000000,"state":"active","ping":96},{"user_id":191,"name":"Karthos","steam_id":76561198040827487,"connected_time":1343000000000,"state":"active","ping":107},{"user_id":174,"name":"cool beans","steam_id":76561198045758072,"connected_time":2239000000000,"state":"active","ping":58},{"user_id":211,"name":"5mech","steam_id":76561198979167520,"connected_time":51000000000,"state":"active","ping":76},{"user_id":169,"name":"Doey","steam_id":76561198356353805,"connected_time":2480000000000,"state":"active","ping":110},{"user_id":198,"name":"MegaBitmap","steam_id":76561198086027059,"connected_time":1162000000000,"state":"active","ping":78},{"user_id":194,"name":"Ockulus","steam_id":76561199069638460,"connected_time":1230000000000,"state":"active","ping":51},{"user_id":205,"name":"cran","steam_id":76561198178840075,"connected_time":524000000000,"state":"active","ping":82},{"user_id":195,"name":"SuperEvilPasta","steam_id":76561198078258907,"connected_time":1223000000000,"state":"active","ping":54},{"user_id":207,"name":"skelatr8tr2","steam_id":76561198834082869,"connected_time":444000000000,"state":"active","ping":108},{"user_id":200,"name":"Jam Jams","steam_id":76561198128811267,"connected_time":1123000000000,"state":"active","ping":98},{"user_id":208,"name":"CheeseCake488","steam_id":76561199407617942,"connected_time":430000000000,"state":"active","ping":79},{"user_id":142,"name":"Karg","steam_id":76561198091387866,"connected_time":4919000000000,"state":"active","ping":64},{"user_id":177,"name":"Taco+Taco=Burrito","steam_id":76561198063128663,"connected_time":2202000000000,"state":"active","ping":51},{"user_id":202,"name":"Typha","steam_id":76561198350099066,"connected_time":951000000000,"state":"active","ping":42},{"user_id":157,"name":"stinky monkey","steam_id":76561199218089590,"connected_time":3792000000000,"state":"active","ping":71},{"user_id":110,"name":"the keebler","steam_id":76561199486326945,"connected_time":7085000000000,"state":"active","ping":106},{"user_id":170,"name":"viper","steam_id":76561198839942937,"connected_time":2365000000000,"state":"active","ping":120},{"user_id":204,"name":"np3","steam_id":76561198019824641,"connected_time":844000000000,"state":"active","ping":84},{"user_id":210,"name":"Weakforanimebitches","steam_id":76561198217663016,"connected_time":211000000000,"state":"active","ping":47}]},{"server_id":112,"name":"Uncletopia | Los Angeles | 2 | All Maps","name_short":"lax-2","host":"lax-1.us.uncletopia.com","port":27025,"enabled":true,"region":"us-west","cc":"us","latitude":33.94279,"longitude":-118.41004,"reserved":0,"last_update":"0001-01-01T00:00:00Z","name_a2s":"Uncletopia | Los Angeles | 2 | All Maps","protocol":17,"map":"cp_dustbowl","folder":"tf","game":"Team Fortress","app_id":440,"player_count":0,"max_players":24,"Bots":0,"server_type":"Dedicated","server_os":"Linux","password":true,"vac":true,"version":"7961495","steam_id":85568392924469992,"keywords":["cp","nocrits","nodmgspread","uncletopia"],"game_id":440,"stv_port":27026,"stv_name":"Uncletopia | Los Angeles | 2 | All Maps | STV","players":null},{"server_id":324,"name":"Uncletopia | Los Angeles | 3 | All Maps","name_short":"lax-3","host":"lax-1.us.uncletopia.com","port":27035,"enabled":true,"region":"us-west","cc":"us","latitude":33.94279,"longitude":-118.41004,"reserved":0,"last_update":"0001-01-01T00:00:00Z","name_a2s":"Uncletopia | Los Angeles | 3 | All Maps","protocol":17,"map":"pl_borneo","folder":"tf","game":"Team Fortress","app_id":440,"player_count":24,"max_players":24,"Bots":0,"server_type":"Dedicated","server_os":"Linux","password":true,"vac":true,"version":"7961495","steam_id":85568392924510198,"keywords":["nocrits","nodmgspread","payload","uncletopia"],"game_id":440,"stv_port":27036,"stv_name":"Uncletopia | Los Angeles | 3 | All Maps | STV","players":[{"user_id":348,"name":"A Dodge Challenger","steam_id":76561198097978317,"connected_time":1674000000000,"state":"active","ping":115},{"user_id":367,"name":"Landlord","steam_id":76561198987913057,"connected_time":5000000000,"state":"spawning","ping":59},{"user_id":350,"name":"Moonbeam","steam_id":76561198401540831,"connected_time":1632000000000,"state":"active","ping":90},{"user_id":340,"name":"bonk","steam_id":76561199158470103,"connected_time":2359000000000,"state":"active","ping":130},{"user_id":351,"name":"Busta-Ma-Balls","steam_id":76561198005777658,"connected_time":1625000000000,"state":"active","ping":114},{"user_id":363,"name":"Seberster","steam_id":76561198136958624,"connected_time":572000000000,"state":"active","ping":113},{"user_id":357,"name":"obi-wan kenobi","steam_id":76561199064050951,"connected_time":1226000000000,"state":"active","ping":119},{"user_id":359,"name":"thumb","steam_id":76561198353762582,"connected_time":1193000000000,"state":"active","ping":69},{"user_id":318,"name":"Spy on cart","steam_id":76561198025466913,"connected_time":4272000000000,"state":"active","ping":35},{"user_id":365,"name":"Epifiny","steam_id":76561198027958086,"connected_time":326000000000,"state":"active","ping":123},{"user_id":294,"name":"fortzei","steam_id":76561198210920541,"connected_time":6330000000000,"state":"active","ping":65},{"user_id":361,"name":"MLG Doge","steam_id":76561198060123004,"connected_time":947000000000,"state":"active","ping":88},{"user_id":360,"name":"BrightOrangeMango","steam_id":76561198023144607,"connected_time":980000000000,"state":"active","ping":64},{"user_id":342,"name":"xXSuperFluffyXx","steam_id":76561198393376386,"connected_time":2332000000000,"state":"active","ping":89},{"user_id":347,"name":"VELOURIA","steam_id":76561198116550170,"connected_time":1690000000000,"state":"active","ping":49},{"user_id":366,"name":"Envi","steam_id":76561198040700667,"connected_time":158000000000,"state":"active","ping":111},{"user_id":354,"name":"EAT SPIT!","steam_id":76561198096836451,"connected_time":1557000000000,"state":"active","ping":46},{"user_id":344,"name":"White_Wizard_Named_Corona","steam_id":76561198055652735,"connected_time":2247000000000,"state":"active","ping":97},{"user_id":364,"name":"Defeat","steam_id":76561198065203818,"connected_time":520000000000,"state":"active","ping":62},{"user_id":362,"name":"Exactly 8 Italians","steam_id":76561199443213821,"connected_time":944000000000,"state":"active","ping":104},{"user_id":358,"name":"myunicorn","steam_id":76561199391478575,"connected_time":1214000000000,"state":"active","ping":92},{"user_id":343,"name":"the guy inside your printer","steam_id":76561198321313604,"connected_time":2321000000000,"state":"active","ping":111},{"user_id":316,"name":"Panda Loser","steam_id":76561198828745176,"connected_time":4352000000000,"state":"active","ping":100},{"user_id":338,"name":"It's a Doggydog World","steam_id":76561198018232414,"connected_time":2431000000000,"state":"active","ping":66}]},{"server_id":25,"name":"Uncletopia | Los Angeles | 4 | Stopwatch Beta","name_short":"lax-4","host":"lax-1.us.uncletopia.com","port":27045,"enabled":true,"region":"us-west","cc":"us","latitude":33.94279,"longitude":-118.41004,"reserved":0,"last_update":"0001-01-01T00:00:00Z","name_a2s":"Uncletopia | Los Angeles | 4 | Stopwatch Beta","protocol":17,"map":"koth_highpass","folder":"tf","game":"Team Fortress","app_id":440,"player_count":0,"max_players":24,"Bots":0,"server_type":"Dedicated","server_os":"Linux","password":true,"vac":true,"version":"7961495","steam_id":85568392924510199,"keywords":["cp","nocrits","nodmgspread","uncletopia"],"game_id":440,"stv_port":27046,"stv_name":"Uncletopia | Los Angeles | 4 | Stopwatch Beta | STV","players":null},{"server_id":11,"name":"Uncletopia | London | 1 | All Maps","name_short":"lon-1","host":"lon-1.uk.uncletopia.com","port":27015,"enabled":true,"region":"eu","cc":"gb","latitude":51.509865,"longitude":-0.118092,"reserved":0,"last_update":"0001-01-01T00:00:00Z","name_a2s":"Uncletopia | London | 1 | All Maps","protocol":17,"map":"pl_upward","folder":"tf","game":"Team Fortress","app_id":440,"player_count":24,"max_players":24,"Bots":0,"server_type":"Dedicated","server_os":"Linux","password":true,"vac":true,"version":"7961495","steam_id":85568392924367362,"keywords":["nocrits","nodmgspread","payload","uncletopia"],"game_id":440,"stv_port":27016,"stv_name":"Uncletopia | London | 1 | All Maps | STV","players":[{"user_id":967,"name":"Kphi(i)","steam_id":76561198970587061,"connected_time":4094000000000,"state":"active","ping":57},{"user_id":1005,"name":"Vexu","steam_id":76561198113145846,"connected_time":453000000000,"state":"active","ping":91},{"user_id":1000,"name":"sad monkey hands on his head","steam_id":76561198116530769,"connected_time":1241000000000,"state":"active","ping":94},{"user_id":978,"name":"jermany","steam_id":76561198126599355,"connected_time":3767000000000,"state":"active","ping":55},{"user_id":1001,"name":"owo","steam_id":76561198158209651,"connected_time":1219000000000,"state":"active","ping":65},{"user_id":999,"name":"gibb (official)","steam_id":76561198074097655,"connected_time":1406000000000,"state":"active","ping":28},{"user_id":982,"name":"gr3821","steam_id":76561198091531010,"connected_time":3386000000000,"state":"active","ping":43},{"user_id":1003,"name":"ra","steam_id":76561198239927434,"connected_time":477000000000,"state":"active","ping":90},{"user_id":1006,"name":"Perci","steam_id":76561198097789669,"connected_time":440000000000,"state":"active","ping":71},{"user_id":950,"name":"♂ Twink Hunter ♂","steam_id":76561198397024973,"connected_time":6290000000000,"state":"active","ping":42},{"user_id":993,"name":"Kahvi","steam_id":76561198723244199,"connected_time":2206000000000,"state":"active","ping":77},{"user_id":997,"name":"syms","steam_id":76561198066679812,"connected_time":1669000000000,"state":"active","ping":78},{"user_id":942,"name":"jonesy","steam_id":76561198073975078,"connected_time":6548000000000,"state":"active","ping":55},{"user_id":998,"name":"H-say","steam_id":76561198177400362,"connected_time":1555000000000,"state":"active","ping":94},{"user_id":992,"name":"summer","steam_id":76561198170056395,"connected_time":2450000000000,"state":"active","ping":57},{"user_id":1007,"name":"Estyle","steam_id":76561198157804700,"connected_time":433000000000,"state":"active","ping":94},{"user_id":957,"name":"Flashback","steam_id":76561197973978552,"connected_time":5344000000000,"state":"active","ping":56},{"user_id":948,"name":"Smiffy","steam_id":76561198094911581,"connected_time":6505000000000,"state":"active","ping":46},{"user_id":1002,"name":"Behind you","steam_id":76561198102420849,"connected_time":809000000000,"state":"active","ping":71},{"user_id":1008,"name":"conquistadorgt","steam_id":76561198848812449,"connected_time":425000000000,"state":"active","ping":85},{"user_id":1009,"name":"Lukey","steam_id":76561198052076168,"connected_time":412000000000,"state":"active","ping":68},{"user_id":994,"name":"halow","steam_id":76561198061505163,"connected_time":1796000000000,"state":"active","ping":111},{"user_id":955,"name":"Ziemniaczki","steam_id":76561198061866742,"connected_time":5594000000000,"state":"active","ping":76},{"user_id":1010,"name":"bon","steam_id":76561198145465595,"connected_time":178000000000,"state":"active","ping":43}]},{"server_id":114,"name":"Uncletopia | London | 2 | All Maps","name_short":"lon-2","host":"lon-1.uk.uncletopia.com","port":27025,"enabled":true,"region":"eu","cc":"gb","latitude":51.509865,"longitude":-0.118092,"reserved":0,"last_update":"0001-01-01T00:00:00Z","name_a2s":"Uncletopia | London | 2 | All Maps","protocol":17,"map":"cp_metalworks","folder":"tf","game":"Team Fortress","app_id":440,"player_count":19,"max_players":24,"Bots":0,"server_type":"Dedicated","server_os":"Linux","password":true,"vac":true,"version":"7961495","steam_id":85568392924470941,"keywords":["cp","nocrits","nodmgspread","uncletopia"],"game_id":440,"stv_port":27026,"stv_name":"Uncletopia | London | 2 | All Maps | STV","players":[{"user_id":492,"name":"dog","steam_id":76561198098065932,"connected_time":187000000000,"state":"active","ping":46},{"user_id":485,"name":"Victoria NyaNya","steam_id":76561198386462300,"connected_time":1278000000000,"state":"active","ping":100},{"user_id":489,"name":"Woman (Real)","steam_id":76561199151823932,"connected_time":889000000000,"state":"active","ping":89},{"user_id":497,"name":"FoOzTV","steam_id":76561197998636728,"connected_time":51000000000,"state":"active","ping":66},{"user_id":498,"name":"fence_","steam_id":76561198150386379,"connected_time":46000000000,"state":"active","ping":46},{"user_id":487,"name":"ender45","steam_id":76561198840955715,"connected_time":1235000000000,"state":"active","ping":42},{"user_id":499,"name":"FloatingEmpire3","steam_id":76561198809514696,"connected_time":36000000000,"state":"active","ping":71},{"user_id":457,"name":"x","steam_id":76561198043837480,"connected_time":3366000000000,"state":"active","ping":71},{"user_id":461,"name":"Egor Pomidor","steam_id":76561199175688390,"connected_time":2999000000000,"state":"active","ping":82},{"user_id":480,"name":"Mr.O","steam_id":76561198039567498,"connected_time":1465000000000,"state":"active","ping":54},{"user_id":414,"name":"Bob D","steam_id":76561198026375630,"connected_time":7658000000000,"state":"active","ping":60},{"user_id":459,"name":"overman","steam_id":76561198038348301,"connected_time":3285000000000,"state":"active","ping":69},{"user_id":495,"name":"wormson","steam_id":76561198836754631,"connected_time":125000000000,"state":"active","ping":53},{"user_id":426,"name":"hipster_doofus","steam_id":76561197970902697,"connected_time":6226000000000,"state":"active","ping":59},{"user_id":440,"name":"KnugenIV","steam_id":76561198127091993,"connected_time":5500000000000,"state":"active","ping":61},{"user_id":410,"name":"Ar|es","steam_id":76561198819160313,"connected_time":7792000000000,"state":"active","ping":90},{"user_id":481,"name":"GoatLord1","steam_id":76561198157964544,"connected_time":1464000000000,"state":"active","ping":36},{"user_id":473,"name":"LordTrap.exe","steam_id":76561198318089716,"connected_time":1855000000000,"state":"active","ping":59},{"user_id":466,"name":"static","steam_id":76561198836825741,"connected_time":1897000000000,"state":"active","ping":54}]},{"server_id":320,"name":"Uncletopia | London | 3 | All Maps","name_short":"lon-3","host":"lon-1.uk.uncletopia.com","port":27035,"enabled":true,"region":"eu","cc":"gb","latitude":51.509865,"longitude":-0.118092,"reserved":0,"last_update":"0001-01-01T00:00:00Z","name_a2s":"Uncletopia | London | 3 | All Maps","protocol":17,"map":"pl_snowycoast","folder":"tf","game":"Team Fortress","app_id":440,"player_count":24,"max_players":24,"Bots":0,"server_type":"Dedicated","server_os":"Linux","password":true,"vac":true,"version":"7961495","steam_id":85568392924510192,"keywords":["nocrits","nodmgspread","payload","uncletopia"],"game_id":440,"stv_port":27036,"stv_name":"Uncletopia | London | 3 | All Maps | STV","players":[{"user_id":285,"name":"my mom","steam_id":76561199225201569,"connected_time":1155000000000,"state":"active","ping":125},{"user_id":305,"name":"RedWater","steam_id":76561198016406576,"connected_time":289000000000,"state":"active","ping":90},{"user_id":306,"name":"i kill time","steam_id":76561199266547847,"connected_time":274000000000,"state":"active","ping":111},{"user_id":302,"name":"Yuval","steam_id":76561198241802390,"connected_time":510000000000,"state":"active","ping":105},{"user_id":307,"name":"Flippy","steam_id":76561197970181048,"connected_time":274000000000,"state":"active","ping":55},{"user_id":258,"name":"Beni 🦧🍌","steam_id":76561198011340227,"connected_time":2747000000000,"state":"active","ping":61},{"user_id":300,"name":"Blobbaz","steam_id":76561198031076278,"connected_time":646000000000,"state":"active","ping":60},{"user_id":312,"name":"Hypergonadism","steam_id":76561198294895726,"connected_time":173000000000,"state":"active","ping":63},{"user_id":309,"name":"Brave Sir Velenor","steam_id":76561197993852543,"connected_time":234000000000,"state":"active","ping":51},{"user_id":304,"name":"Raulca25","steam_id":76561199068256964,"connected_time":361000000000,"state":"active","ping":79},{"user_id":310,"name":"BoxLag","steam_id":76561198303995144,"connected_time":216000000000,"state":"active","ping":57},{"user_id":303,"name":"W","steam_id":76561198273623211,"connected_time":457000000000,"state":"active","ping":90},{"user_id":297,"name":"lunaire","steam_id":76561198163344452,"connected_time":728000000000,"state":"active","ping":98},{"user_id":294,"name":"incoming","steam_id":76561199138214818,"connected_time":930000000000,"state":"active","ping":92},{"user_id":286,"name":"Mc Cheezy","steam_id":76561198834780242,"connected_time":1135000000000,"state":"active","ping":104},{"user_id":273,"name":"Moondrop","steam_id":76561199421181719,"connected_time":1994000000000,"state":"active","ping":69},{"user_id":301,"name":"Cosmetic brain","steam_id":76561198055936410,"connected_time":644000000000,"state":"active","ping":89},{"user_id":315,"name":"METhOphetamine","steam_id":76561198068216224,"connected_time":91000000000,"state":"active","ping":60},{"user_id":269,"name":"Arno","steam_id":76561198025329937,"connected_time":2253000000000,"state":"active","ping":46},{"user_id":299,"name":"Ducks","steam_id":76561198096092510,"connected_time":672000000000,"state":"active","ping":87},{"user_id":311,"name":"Hitotsume","steam_id":76561198129157178,"connected_time":196000000000,"state":"active","ping":90},{"user_id":313,"name":"Aeglos","steam_id":76561198248698294,"connected_time":149000000000,"state":"active","ping":64},{"user_id":229,"name":"Gubbly Bubbins","steam_id":76561198101451654,"connected_time":4789000000000,"state":"active","ping":49},{"user_id":314,"name":"HenryFromSkalitz!","steam_id":76561198062139190,"connected_time":126000000000,"state":"active","ping":159}]},{"server_id":321,"name":"Uncletopia | London | 4 | All Maps","name_short":"lon-4","host":"lon-1.uk.uncletopia.com","port":27045,"enabled":true,"region":"eu","cc":"gb","latitude":51.509865,"longitude":-0.118092,"reserved":0,"last_update":"0001-01-01T00:00:00Z","name_a2s":"Uncletopia | London | 4 | All Maps","protocol":17,"map":"pl_badwater","folder":"tf","game":"Team Fortress","app_id":440,"player_count":24,"max_players":24,"Bots":0,"server_type":"Dedicated","server_os":"Linux","password":true,"vac":true,"version":"7961495","steam_id":85568392924510193,"keywords":["nocrits","nodmgspread","payload","uncletopia"],"game_id":440,"stv_port":27046,"stv_name":"Uncletopia | London | 4 | All Maps | STV","players":[{"user_id":435,"name":"cez","steam_id":76561198361380956,"connected_time":4718000000000,"state":"active","ping":55},{"user_id":482,"name":"Smeople Thrower","steam_id":76561198112128564,"connected_time":1183000000000,"state":"active","ping":87},{"user_id":456,"name":"\u003cusername\u003e","steam_id":76561198067755755,"connected_time":3758000000000,"state":"active","ping":88},{"user_id":483,"name":"SmoothJazz","steam_id":76561198143044358,"connected_time":1144000000000,"state":"active","ping":74},{"user_id":381,"name":"-rikeOo-","steam_id":76561198303995379,"connected_time":8506000000000,"state":"active","ping":77},{"user_id":484,"name":"Star in a pond","steam_id":76561198205501279,"connected_time":1136000000000,"state":"active","ping":102},{"user_id":495,"name":"ham","steam_id":76561198092186935,"connected_time":647000000000,"state":"active","ping":46},{"user_id":485,"name":"Utvar","steam_id":76561198131838460,"connected_time":1135000000000,"state":"active","ping":62},{"user_id":496,"name":"Batch Number 443714","steam_id":76561197977497969,"connected_time":549000000000,"state":"active","ping":46},{"user_id":487,"name":"McMonty","steam_id":76561198028973788,"connected_time":1072000000000,"state":"active","ping":58},{"user_id":478,"name":"Spykiller42","steam_id":76561199027962230,"connected_time":1570000000000,"state":"active","ping":56},{"user_id":451,"name":"Epic Fail Montage","steam_id":76561198357107806,"connected_time":3907000000000,"state":"active","ping":60},{"user_id":445,"name":"Windog Quon","steam_id":76561198323575187,"connected_time":3997000000000,"state":"active","ping":50},{"user_id":488,"name":"Rocadinis","steam_id":76561198095910616,"connected_time":1043000000000,"state":"active","ping":90},{"user_id":490,"name":"Suetolog","steam_id":76561199053090212,"connected_time":946000000000,"state":"active","ping":61},{"user_id":469,"name":"Potshott","steam_id":76561198184014158,"connected_time":1977000000000,"state":"active","ping":53},{"user_id":470,"name":"mendako","steam_id":76561198295305088,"connected_time":1973000000000,"state":"active","ping":60},{"user_id":491,"name":"*DEAD*","steam_id":76561198095560087,"connected_time":924000000000,"state":"active","ping":81},{"user_id":447,"name":"Politically Correct Principal","steam_id":76561199495610087,"connected_time":3981000000000,"state":"active","ping":88},{"user_id":493,"name":"Knoxx","steam_id":76561198260692541,"connected_time":848000000000,"state":"active","ping":53},{"user_id":422,"name":"Labracababrador","steam_id":76561198255280285,"connected_time":5492000000000,"state":"active","ping":81},{"user_id":391,"name":"local uncletopia goblin","steam_id":76561198027187109,"connected_time":8272000000000,"state":"active","ping":56},{"user_id":430,"name":"in mcdonalds","steam_id":76561198143921841,"connected_time":5413000000000,"state":"active","ping":89},{"user_id":480,"name":"QuickMan","steam_id":76561199182954152,"connected_time":1553000000000,"state":"active","ping":174}]},{"server_id":21,"name":"Uncletopia | London | 5 | All Maps","name_short":"lon-5","host":"lon-1.uk.uncletopia.com","port":27055,"enabled":true,"region":"eu","cc":"gb","latitude":51.509865,"longitude":-0.118092,"reserved":0,"last_update":"0001-01-01T00:00:00Z","name_a2s":"Uncletopia | London | 5 | All Maps","protocol":17,"map":"koth_nucleus","folder":"tf","game":"Team Fortress","app_id":440,"player_count":24,"max_players":24,"Bots":0,"server_type":"Dedicated","server_os":"Linux","password":true,"vac":true,"version":"7961495","steam_id":85568392924742829,"keywords":["cp","nocrits","nodmgspread","uncletopia"],"game_id":440,"stv_port":27056,"stv_name":"Uncletopia | London | 5 | All Maps | STV","players":[{"user_id":414,"name":"Aspect","steam_id":76561198215661695,"connected_time":32000000000,"state":"active","ping":129},{"user_id":389,"name":"Rustyunderscore","steam_id":76561198277177996,"connected_time":830000000000,"state":"active","ping":55},{"user_id":340,"name":"Noam","steam_id":76561198057789807,"connected_time":3604000000000,"state":"active","ping":89},{"user_id":412,"name":"Implywood (they/them)","steam_id":76561198096762648,"connected_time":53000000000,"state":"active","ping":66},{"user_id":391,"name":"DeepFox","steam_id":76561198368843471,"connected_time":726000000000,"state":"active","ping":61},{"user_id":371,"name":"protëin","steam_id":76561197998423616,"connected_time":2428000000000,"state":"active","ping":68},{"user_id":394,"name":"Ash J. Williams","steam_id":76561198087717456,"connected_time":612000000000,"state":"active","ping":61},{"user_id":395,"name":"Bottle O' Scrumpy","steam_id":76561199244250562,"connected_time":569000000000,"state":"active","ping":106},{"user_id":413,"name":"Tone-Deaf Bard","steam_id":76561199261267271,"connected_time":44000000000,"state":"active","ping":98},{"user_id":397,"name":"Castellan","steam_id":76561197994861142,"connected_time":559000000000,"state":"active","ping":61},{"user_id":314,"name":"Dogdigger","steam_id":76561198032893130,"connected_time":6387000000000,"state":"active","ping":96},{"user_id":398,"name":"Hillnick","steam_id":76561198287764464,"connected_time":531000000000,"state":"active","ping":71},{"user_id":406,"name":"Dog Barf","steam_id":76561198073586987,"connected_time":453000000000,"state":"active","ping":80},{"user_id":407,"name":"D4NTheProtogen","steam_id":76561198206460789,"connected_time":447000000000,"state":"active","ping":64},{"user_id":401,"name":"TomNoSocks","steam_id":76561198114071046,"connected_time":518000000000,"state":"active","ping":65},{"user_id":349,"name":"DANDELION","steam_id":76561198038451376,"connected_time":3250000000000,"state":"active","ping":65},{"user_id":385,"name":"heavy sings (real)","steam_id":76561199023804405,"connected_time":1254000000000,"state":"active","ping":73},{"user_id":409,"name":"Hetmanych","steam_id":76561198870926865,"connected_time":341000000000,"state":"active","ping":37},{"user_id":403,"name":"Vermin","steam_id":76561198045527771,"connected_time":501000000000,"state":"active","ping":96},{"user_id":404,"name":"♥ImWithMilk","steam_id":76561198269577569,"connected_time":478000000000,"state":"active","ping":48},{"user_id":353,"name":"Eoghan","steam_id":76561198095344395,"connected_time":3220000000000,"state":"active","ping":46},{"user_id":283,"name":"aeiou.","steam_id":76561198207929768,"connected_time":8134000000000,"state":"active","ping":54},{"user_id":415,"name":"bombo112","steam_id":76561198059743551,"connected_time":8000000000,"state":"spawning","ping":54},{"user_id":408,"name":"install gentoo","steam_id":76561198185257982,"connected_time":423000000000,"state":"active","ping":76}]},{"server_id":22,"name":"Uncletopia | London | 6 | All Maps","name_short":"lon-6","host":"lon-1.uk.uncletopia.com","port":27065,"enabled":true,"region":"eu","cc":"gb","latitude":51.509865,"longitude":-0.118092,"reserved":0,"last_update":"0001-01-01T00:00:00Z","name_a2s":"Uncletopia | London | 6 | All Maps","protocol":17,"map":"pl_borneo","folder":"tf","game":"Team Fortress","app_id":440,"player_count":19,"max_players":24,"Bots":0,"server_type":"Dedicated","server_os":"Linux","password":true,"vac":true,"version":"7961495","steam_id":85568392924742830,"keywords":["nocrits","nodmgspread","payload","uncletopia"],"game_id":440,"stv_port":27066,"stv_name":"Uncletopia | London | 6 | All Maps | STV","players":[{"user_id":370,"name":"The Lady","steam_id":76561198029895809,"connected_time":4013000000000,"state":"spawning","ping":180},{"user_id":434,"name":"Warpzel65","steam_id":76561198799303596,"connected_time":47000000000,"state":"spawning","ping":224},{"user_id":344,"name":"prophits","steam_id":76561198011854314,"connected_time":5880000000000,"state":"spawning","ping":116},{"user_id":409,"name":"mercenarypit","steam_id":76561198161935108,"connected_time":1204000000000,"state":"spawning","ping":117},{"user_id":422,"name":"Madlag","steam_id":76561199481854201,"connected_time":912000000000,"state":"spawning","ping":166},{"user_id":431,"name":"Duke Nukem Facts!","steam_id":76561199013457963,"connected_time":222000000000,"state":"spawning","ping":108},{"user_id":427,"name":"Hive","steam_id":76561198207343209,"connected_time":534000000000,"state":"spawning","ping":124},{"user_id":428,"name":"Omyskull","steam_id":76561198131711758,"connected_time":385000000000,"state":"spawning","ping":90},{"user_id":405,"name":"sgt Bytheway","steam_id":76561198094169965,"connected_time":1548000000000,"state":"spawning","ping":162},{"user_id":429,"name":"TheBeardedM1G","steam_id":76561198040208946,"connected_time":371000000000,"state":"spawning","ping":105},{"user_id":410,"name":"Phreaker","steam_id":76561198065649351,"connected_time":1203000000000,"state":"spawning","ping":88},{"user_id":424,"name":"IMFEELINGGOODIMFEELINGGREAT!!","steam_id":76561198118695769,"connected_time":893000000000,"state":"spawning","ping":104},{"user_id":406,"name":"doker","steam_id":76561198251840154,"connected_time":1546000000000,"state":"spawning","ping":148},{"user_id":360,"name":"rada❤","steam_id":76561198062362168,"connected_time":5072000000000,"state":"spawning","ping":118},{"user_id":402,"name":"Gaslight Gaming","steam_id":76561198012300440,"connected_time":1762000000000,"state":"spawning","ping":100},{"user_id":407,"name":"ratsnrats","steam_id":76561199187258021,"connected_time":1531000000000,"state":"spawning","ping":67},{"user_id":408,"name":"edward cullen from twilight","steam_id":76561198038827937,"connected_time":1513000000000,"state":"spawning","ping":124},{"user_id":421,"name":"starlightartist","steam_id":76561198050608456,"connected_time":952000000000,"state":"spawning","ping":169},{"user_id":388,"name":"lorislk989","steam_id":76561199224251630,"connected_time":2579000000000,"state":"spawning","ping":153}]},{"server_id":40,"name":"Uncletopia | London | 7 | No Payload","name_short":"lon-7","host":"lon-1.uk.uncletopia.com","port":27075,"enabled":true,"region":"eu","cc":"gb","latitude":51.509865,"longitude":-0.118092,"reserved":0,"last_update":"0001-01-01T00:00:00Z","name_a2s":"Uncletopia | London | 7 | No Payload","protocol":17,"map":"cp_egypt_final","folder":"tf","game":"Team Fortress","app_id":440,"player_count":11,"max_players":24,"Bots":0,"server_type":"Dedicated","server_os":"Linux","password":true,"vac":true,"version":"7961495","steam_id":85568392924964314,"keywords":["cp","nocrits","nodmgspread","uncletopia"],"game_id":440,"stv_port":27076,"stv_name":"Uncletopia | London | 7 | No Payload | STV","players":[{"user_id":446,"name":"If You Kill Me, KYS.","steam_id":76561198999652040,"connected_time":229000000000,"state":"active","ping":59},{"user_id":413,"name":"Der Herr Doktor","steam_id":76561198119476089,"connected_time":2099000000000,"state":"active","ping":66},{"user_id":437,"name":"jù xiē","steam_id":76561198096189399,"connected_time":568000000000,"state":"active","ping":60},{"user_id":447,"name":"pad6z23h8s","steam_id":76561198880756741,"connected_time":174000000000,"state":"active","ping":79},{"user_id":366,"name":"Rumf","steam_id":76561197993957541,"connected_time":4616000000000,"state":"active","ping":52},{"user_id":441,"name":"toomas2018 gaming","steam_id":76561199105796083,"connected_time":491000000000,"state":"active","ping":82},{"user_id":444,"name":"Baron","steam_id":76561198021901783,"connected_time":455000000000,"state":"active","ping":58},{"user_id":445,"name":"Teecho","steam_id":76561197995269610,"connected_time":452000000000,"state":"active","ping":54},{"user_id":298,"name":"M2rtRa","steam_id":76561198111036466,"connected_time":7761000000000,"state":"active","ping":75},{"user_id":402,"name":"NerevarDZN","steam_id":76561198055037163,"connected_time":3108000000000,"state":"active","ping":72},{"user_id":436,"name":"joachym","steam_id":76561198428579761,"connected_time":736000000000,"state":"active","ping":68}]},{"server_id":41,"name":"Uncletopia | London | 8 | Community","name_short":"lon-8","host":"lon-1.uk.uncletopia.com","port":27085,"enabled":true,"region":"eu","cc":"gb","latitude":51.509865,"longitude":-0.118092,"reserved":0,"last_update":"0001-01-01T00:00:00Z","name_a2s":"Uncletopia | London | 8 | Community","protocol":17,"map":"workshop/pl_cactuscanyon_redux_final2.ugc2579644293","folder":"tf","game":"Team Fortress","app_id":440,"player_count":3,"max_players":24,"Bots":0,"server_type":"Dedicated","server_os":"Linux","password":true,"vac":true,"version":"7961495","steam_id":85568392924964315,"keywords":["nocrits","nodmgspread","payload","uncletopia"],"game_id":440,"stv_port":27086,"stv_name":"Uncletopia | London | 8 | Community | STV","players":[{"user_id":30,"name":"DJ_Not_Guilty","steam_id":76561198074369317,"connected_time":803000000000,"state":"active","ping":50},{"user_id":20,"name":"Psyche","steam_id":76561198091662001,"connected_time":2383000000000,"state":"active","ping":67},{"user_id":29,"name":"lipaul777","steam_id":76561199090751367,"connected_time":1043000000000,"state":"active","ping":70}]},{"server_id":300,"name":"Uncletopia | Montréal | 1 | All Maps","name_short":"mtl-1","host":"mtl-1.ca.uncletopia.com","port":27015,"enabled":true,"region":"us-east","cc":"ca","latitude":45.50889,"longitude":-73.56167,"reserved":0,"last_update":"0001-01-01T00:00:00Z","name_a2s":"","protocol":0,"map":"","folder":"","game":"","app_id":0,"player_count":0,"max_players":0,"Bots":0,"server_type":"","server_os":"","password":false,"vac":false,"version":"","steam_id":0,"keywords":null,"game_id":0,"stv_port":0,"stv_name":"","players":null},{"server_id":301,"name":"Uncletopia | Montréal | 2 | All Maps","name_short":"mtl-2","host":"mtl-1.ca.uncletopia.com","port":27025,"enabled":true,"region":"us-east","cc":"ca","latitude":45.50889,"longitude":-73.56167,"reserved":0,"last_update":"0001-01-01T00:00:00Z","name_a2s":"","protocol":0,"map":"","folder":"","game":"","app_id":0,"player_count":0,"max_players":0,"Bots":0,"server_type":"","server_os":"","password":false,"vac":false,"version":"","steam_id":0,"keywords":null,"game_id":0,"stv_port":0,"stv_name":"","players":null},{"server_id":302,"name":"Uncletopia | Montréal | 3 | All Maps","name_short":"mtl-3","host":"mtl-1.ca.uncletopia.com","port":27035,"enabled":true,"region":"us-east","cc":"ca","latitude":45.50889,"longitude":-73.56167,"reserved":0,"last_update":"0001-01-01T00:00:00Z","name_a2s":"","protocol":0,"map":"","folder":"","game":"","app_id":0,"player_count":0,"max_players":0,"Bots":0,"server_type":"","server_os":"","password":false,"vac":false,"version":"","steam_id":0,"keywords":null,"game_id":0,"stv_port":0,"stv_name":"","players":null},{"server_id":303,"name":"Uncletopia | Montréal | 4 | No Payload","name_short":"mtl-4","host":"mtl-1.ca.uncletopia.com","port":27045,"enabled":true,"region":"us-east","cc":"ca","latitude":45.50889,"longitude":-73.56167,"reserved":0,"last_update":"0001-01-01T00:00:00Z","name_a2s":"","protocol":0,"map":"","folder":"","game":"","app_id":0,"player_count":0,"max_players":0,"Bots":0,"server_type":"","server_os":"","password":false,"vac":false,"version":"","steam_id":0,"keywords":null,"game_id":0,"stv_port":0,"stv_name":"","players":null},{"server_id":13,"name":"Uncletopia | New York City | 1 | All Maps","name_short":"nyc-1","host":"nyc-1.us.uncletopia.com","port":27015,"enabled":true,"region":"us-east","cc":"us","latitude":40.73061,"longitude":-73.93524,"reserved":0,"last_update":"0001-01-01T00:00:00Z","name_a2s":"Uncletopia | New York City | 1 | All Maps","protocol":17,"map":"cp_mountainlab","folder":"tf","game":"Team Fortress","app_id":440,"player_count":24,"max_players":24,"Bots":0,"server_type":"Dedicated","server_os":"Linux","password":true,"vac":true,"version":"7961495","steam_id":85568392924469993,"keywords":["cp","nocrits","nodmgspread","uncletopia"],"game_id":440,"stv_port":27016,"stv_name":"Uncletopia | New York City | 1 | All Maps | STV","players":[{"user_id":306,"name":"Ask Me For Random Trivia!","steam_id":76561198087065165,"connected_time":239000000000,"state":"active","ping":49},{"user_id":309,"name":"Pigeon","steam_id":76561198846193209,"connected_time":122000000000,"state":"active","ping":85},{"user_id":212,"name":"Belts the Puppet","steam_id":76561198322969864,"connected_time":7438000000000,"state":"active","ping":72},{"user_id":294,"name":"toucant lie","steam_id":76561198098001998,"connected_time":1115000000000,"state":"active","ping":52},{"user_id":221,"name":"GummybearKillr","steam_id":76561198031235750,"connected_time":6689000000000,"state":"active","ping":54},{"user_id":299,"name":"breathingtrees","steam_id":76561198118931690,"connected_time":928000000000,"state":"active","ping":56},{"user_id":167,"name":"googa","steam_id":76561198133130452,"connected_time":11335000000000,"state":"active","ping":42},{"user_id":291,"name":"BeerPowder","steam_id":76561198058129400,"connected_time":1239000000000,"state":"active","ping":53},{"user_id":292,"name":"froge","steam_id":76561198304959766,"connected_time":1216000000000,"state":"active","ping":145},{"user_id":295,"name":"GregSlayer","steam_id":76561199044769924,"connected_time":1096000000000,"state":"active","ping":66},{"user_id":286,"name":"crexorz","steam_id":76561198890949432,"connected_time":1802000000000,"state":"active","ping":80},{"user_id":269,"name":"endangered spycrab","steam_id":76561198993581426,"connected_time":3040000000000,"state":"active","ping":59},{"user_id":304,"name":"Neacrock","steam_id":76561199178338856,"connected_time":567000000000,"state":"active","ping":54},{"user_id":276,"name":"x","steam_id":76561198966980576,"connected_time":2341000000000,"state":"active","ping":41},{"user_id":296,"name":"glorpo male","steam_id":76561198110320334,"connected_time":1081000000000,"state":"active","ping":48},{"user_id":310,"name":"Nightman","steam_id":76561198089513762,"connected_time":97000000000,"state":"active","ping":68},{"user_id":268,"name":"epsilene","steam_id":76561198027468624,"connected_time":3092000000000,"state":"active","ping":44},{"user_id":308,"name":"attentiondeficit","steam_id":76561198129682583,"connected_time":158000000000,"state":"active","ping":77},{"user_id":257,"name":"SpaceSanctum","steam_id":76561198805242305,"connected_time":3650000000000,"state":"active","ping":45},{"user_id":288,"name":"Brown_Dream","steam_id":76561198975766145,"connected_time":1426000000000,"state":"active","ping":71},{"user_id":277,"name":"COOL master_9","steam_id":76561198073041151,"connected_time":2325000000000,"state":"active","ping":115},{"user_id":289,"name":"Ian","steam_id":76561199078852180,"connected_time":1414000000000,"state":"active","ping":58},{"user_id":311,"name":"CrazyKermitRubes","steam_id":76561198009065204,"connected_time":91000000000,"state":"active","ping":61},{"user_id":313,"name":"Sheev Palpatine","steam_id":76561198252332430,"connected_time":58000000000,"state":"active","ping":110}]},{"server_id":14,"name":"Uncletopia | New York City | 2 | All Maps","name_short":"nyc-2","host":"nyc-1.us.uncletopia.com","port":27025,"enabled":true,"region":"us-east","cc":"us","latitude":40.73061,"longitude":-73.93524,"reserved":0,"last_update":"0001-01-01T00:00:00Z","name_a2s":"Uncletopia | New York City | 2 | All Maps","protocol":17,"map":"koth_lakeside_final","folder":"tf","game":"Team Fortress","app_id":440,"player_count":0,"max_players":24,"Bots":0,"server_type":"Dedicated","server_os":"Linux","password":true,"vac":true,"version":"7961495","steam_id":85568392924469994,"keywords":["cp","nocrits","nodmgspread","uncletopia"],"game_id":440,"stv_port":27026,"stv_name":"Uncletopia | New York City | 2 | All Maps | STV","players":null},{"server_id":15,"name":"Uncletopia | New York City | 3 | Stopwatch Beta","name_short":"nyc-3","host":"nyc-1.us.uncletopia.com","port":27035,"enabled":true,"region":"us-east","cc":"us","latitude":40.73061,"longitude":-73.93524,"reserved":0,"last_update":"0001-01-01T00:00:00Z","name_a2s":"Uncletopia | New York City | 3 | Stopwatch Beta","protocol":17,"map":"cp_snakewater_final1","folder":"tf","game":"Team Fortress","app_id":440,"player_count":0,"max_players":24,"Bots":0,"server_type":"Dedicated","server_os":"Linux","password":true,"vac":true,"version":"7961495","steam_id":85568392924742820,"keywords":["cp","nocrits","nodmgspread","uncletopia"],"game_id":440,"stv_port":27036,"stv_name":"Uncletopia | New York City | 3 | Stopwatch Beta | STV","players":null},{"server_id":16,"name":"Uncletopia | New York City | 4 | Community","name_short":"nyc-4","host":"nyc-1.us.uncletopia.com","port":27045,"enabled":true,"region":"us-east","cc":"us","latitude":40.73061,"longitude":-73.93524,"reserved":0,"last_update":"0001-01-01T00:00:00Z","name_a2s":"Uncletopia | New York City | 4 | Community","protocol":17,"map":"workshop/koth_slaughter_rc1.ugc1712845210","folder":"tf","game":"Team Fortress","app_id":440,"player_count":0,"max_players":24,"Bots":0,"server_type":"Dedicated","server_os":"Linux","password":true,"vac":true,"version":"7961495","steam_id":85568392924742821,"keywords":["cp","nocrits","nodmgspread","uncletopia"],"game_id":440,"stv_port":27046,"stv_name":"Uncletopia | New York City | 4 | Community | STV","players":null},{"server_id":142,"name":"Uncletopia | São Paulo | 1 | All Maps","name_short":"sao-1","host":"sao-1.br.uncletopia.com","port":27015,"enabled":true,"region":"sa","cc":"br","latitude":-23.533773,"longitude":-46.62529,"reserved":0,"last_update":"0001-01-01T00:00:00Z","name_a2s":"Uncletopia | São Paulo | 1 | All Maps","protocol":17,"map":"cp_mountainlab","folder":"tf","game":"Team Fortress","app_id":440,"player_count":0,"max_players":24,"Bots":0,"server_type":"Dedicated","server_os":"Linux","password":true,"vac":true,"version":"7961495","steam_id":85568392924469996,"keywords":["cp","nocrits","nodmgspread","uncletopia"],"game_id":440,"stv_port":27016,"stv_name":"Uncletopia | São Paulo | 1 | All Maps | STV","players":null},{"server_id":143,"name":"Uncletopia | São Paulo | 2 | Community","name_short":"sao-2","host":"sao-2.br.uncletopia.com","port":27015,"enabled":true,"region":"sa","cc":"br","latitude":-23.533773,"longitude":-46.62529,"reserved":0,"last_update":"0001-01-01T00:00:00Z","name_a2s":"Uncletopia | São Paulo | 2 | Community","protocol":17,"map":"workshop/cp_glassworks_rc6a.ugc454118349","folder":"tf","game":"Team Fortress","app_id":440,"player_count":1,"max_players":24,"Bots":0,"server_type":"Dedicated","server_os":"Linux","password":true,"vac":true,"version":"7961495","steam_id":85568392924485349,"keywords":["cp","nocrits","nodmgspread","uncletopia"],"game_id":440,"stv_port":27016,"stv_name":"Uncletopia | São Paulo | 2 | Community | STV","players":[{"user_id":4,"name":"Granemann","steam_id":76561198086827008,"connected_time":27000000000,"state":"active","ping":57}]},{"server_id":7,"name":"Uncletopia | Seattle | 1 | All Maps","name_short":"sea-1","host":"sea-1.us.uncletopia.com","port":27015,"enabled":true,"region":"us-west","cc":"us","latitude":47.608013,"longitude":-122.33517,"reserved":0,"last_update":"0001-01-01T00:00:00Z","name_a2s":"Uncletopia | Seattle | 1 | All Maps","protocol":17,"map":"koth_nucleus","folder":"tf","game":"Team Fortress","app_id":440,"player_count":24,"max_players":24,"Bots":0,"server_type":"Dedicated","server_os":"Linux","password":true,"vac":true,"version":"7961495","steam_id":85568392924469997,"keywords":["cp","nocrits","nodmgspread","uncletopia"],"game_id":440,"stv_port":27016,"stv_name":"Uncletopia | Seattle | 1 | All Maps | STV","players":[{"user_id":143,"name":"Mr defrost","steam_id":76561198322125657,"connected_time":1611000000000,"state":"active","ping":64},{"user_id":109,"name":"Breetus","steam_id":76561198142421024,"connected_time":2972000000000,"state":"active","ping":78},{"user_id":132,"name":"strawberry","steam_id":76561198101926397,"connected_time":1938000000000,"state":"active","ping":93},{"user_id":122,"name":"SlurpyTheDog","steam_id":76561198799733154,"connected_time":2128000000000,"state":"active","ping":119},{"user_id":130,"name":"JesterJasper","steam_id":76561198025338925,"connected_time":2011000000000,"state":"active","ping":49},{"user_id":155,"name":"SnailYT","steam_id":76561198332040385,"connected_time":94000000000,"state":"active","ping":60},{"user_id":156,"name":"luc","steam_id":76561198093883448,"connected_time":46000000000,"state":"active","ping":47},{"user_id":118,"name":"Maron Tickles","steam_id":76561199125982967,"connected_time":2292000000000,"state":"active","ping":118},{"user_id":150,"name":"Strikerbolt","steam_id":76561199095622897,"connected_time":736000000000,"state":"active","ping":76},{"user_id":153,"name":"THE_DARK_TRICKSTER","steam_id":76561198870649125,"connected_time":399000000000,"state":"active","ping":87},{"user_id":123,"name":":^1 Hekken","steam_id":76561198109933577,"connected_time":2104000000000,"state":"active","ping":55},{"user_id":81,"name":"[TrC] Nosy","steam_id":76561197978859310,"connected_time":5523000000000,"state":"active","ping":59},{"user_id":124,"name":"ZEKKER","steam_id":76561197967968980,"connected_time":2090000000000,"state":"active","ping":54},{"user_id":144,"name":"Slothy","steam_id":76561198967069349,"connected_time":1512000000000,"state":"active","ping":56},{"user_id":84,"name":"[TrC] Dackstrus","steam_id":76561197973518509,"connected_time":5444000000000,"state":"active","ping":60},{"user_id":117,"name":"Loaf","steam_id":76561198446378419,"connected_time":2519000000000,"state":"active","ping":130},{"user_id":103,"name":"no vc no c","steam_id":76561197989503095,"connected_time":3366000000000,"state":"active","ping":151},{"user_id":148,"name":"Sly Marbo","steam_id":76561198135271741,"connected_time":749000000000,"state":"active","ping":58},{"user_id":154,"name":"NVM!!!","steam_id":76561198432721568,"connected_time":380000000000,"state":"active","ping":63},{"user_id":140,"name":"MxProf","steam_id":76561198044519572,"connected_time":1769000000000,"state":"active","ping":58},{"user_id":138,"name":"A better name","steam_id":76561198357330520,"connected_time":1890000000000,"state":"active","ping":119},{"user_id":149,"name":"Saint Pablo","steam_id":76561198083300159,"connected_time":738000000000,"state":"active","ping":68},{"user_id":147,"name":"Shark Sandwich","steam_id":76561198025007938,"connected_time":825000000000,"state":"active","ping":59},{"user_id":146,"name":"DIRTSMOKER3000","steam_id":76561198044782657,"connected_time":936000000000,"state":"active","ping":58}]},{"server_id":119,"name":"Uncletopia | Seattle | 2 | All Maps","name_short":"sea-2","host":"sea-1.us.uncletopia.com","port":27025,"enabled":true,"region":"us-west","cc":"us","latitude":47.608013,"longitude":-122.33517,"reserved":0,"last_update":"0001-01-01T00:00:00Z","name_a2s":"Uncletopia | Seattle | 2 | All Maps","protocol":17,"map":"cp_mountainlab","folder":"tf","game":"Team Fortress","app_id":440,"player_count":0,"max_players":24,"Bots":0,"server_type":"Dedicated","server_os":"Linux","password":true,"vac":true,"version":"7961495","steam_id":85568392924469998,"keywords":["cp","nocrits","nodmgspread","uncletopia"],"game_id":440,"stv_port":27026,"stv_name":"Uncletopia | Seattle | 2 | All Maps | STV","players":null},{"server_id":406,"name":"Uncletopia | Seattle | 3 | Stopwatch Beta","name_short":"sea-3","host":"sea-1.us.uncletopia.com","port":27035,"enabled":true,"region":"us-west","cc":"us","latitude":47.608013,"longitude":-122.33517,"reserved":0,"last_update":"0001-01-01T00:00:00Z","name_a2s":"Uncletopia | Seattle | 3 | Stopwatch Beta","protocol":17,"map":"cp_mountainlab","folder":"tf","game":"Team Fortress","app_id":440,"player_count":0,"max_players":24,"Bots":0,"server_type":"Dedicated","server_os":"Linux","password":true,"vac":true,"version":"7961495","steam_id":85568392924515217,"keywords":["cp","nocrits","nodmgspread","uncletopia"],"game_id":440,"stv_port":27036,"stv_name":"Uncletopia | Seattle | 3 | Stopwatch Beta | STV","players":null},{"server_id":17,"name":"Uncletopia | San Francisco | 1 | All Maps","name_short":"sfo-1","host":"sfo-1.us.uncletopia.com","port":27015,"enabled":true,"region":"us-west","cc":"us","latitude":37.77397,"longitude":-122.4313,"reserved":0,"last_update":"0001-01-01T00:00:00Z","name_a2s":"Uncletopia | San Francisco | 1 | All Maps","protocol":17,"map":"cp_altitude","folder":"tf","game":"Team Fortress","app_id":440,"player_count":0,"max_players":24,"Bots":0,"server_type":"Dedicated","server_os":"Linux","password":true,"vac":true,"version":"7961495","steam_id":85568392924469999,"keywords":["cp","nocrits","nodmgspread","uncletopia"],"game_id":440,"stv_port":27016,"stv_name":"Uncletopia | San Francisco | 1 | All Maps | STV","players":null},{"server_id":18,"name":"Uncletopia | San Francisco | 2 | All Maps","name_short":"sfo-2","host":"sfo-1.us.uncletopia.com","port":27025,"enabled":true,"region":"us-west","cc":"us","latitude":37.77397,"longitude":-122.4313,"reserved":0,"last_update":"0001-01-01T00:00:00Z","name_a2s":"Uncletopia | San Francisco | 2 | All Maps","protocol":17,"map":"pl_pier","folder":"tf","game":"Team Fortress","app_id":440,"player_count":6,"max_players":24,"Bots":0,"server_type":"Dedicated","server_os":"Linux","password":true,"vac":true,"version":"7961495","steam_id":85568392924470000,"keywords":["nocrits","nodmgspread","payload","uncletopia"],"game_id":440,"stv_port":27026,"stv_name":"Uncletopia | San Francisco | 2 | All Maps | STV","players":[{"user_id":5,"name":"Annette Ball","steam_id":76561198874956671,"connected_time":1200000000000,"state":"active","ping":179},{"user_id":6,"name":"teddyplayzgames","steam_id":76561199055741408,"connected_time":1197000000000,"state":"active","ping":188},{"user_id":8,"name":"BoyKisser","steam_id":76561199200969139,"connected_time":467000000000,"state":"active","ping":117},{"user_id":9,"name":"bcharlton","steam_id":76561199007186253,"connected_time":462000000000,"state":"active","ping":102},{"user_id":10,"name":"Droozlex","steam_id":76561198157221366,"connected_time":189000000000,"state":"active","ping":73},{"user_id":11,"name":"Boy Kisser","steam_id":76561199069629037,"connected_time":178000000000,"state":"active","ping":117}]},{"server_id":19,"name":"Uncletopia | San Francisco | 3 | Stopwatch Beta","name_short":"sfo-3","host":"sfo-1.us.uncletopia.com","port":27035,"enabled":true,"region":"us-west","cc":"us","latitude":37.77397,"longitude":-122.4313,"reserved":0,"last_update":"0001-01-01T00:00:00Z","name_a2s":"Uncletopia | San Francisco | 3 | Stopwatch Beta","protocol":17,"map":"pl_upward","folder":"tf","game":"Team Fortress","app_id":440,"player_count":0,"max_players":24,"Bots":0,"server_type":"Dedicated","server_os":"Linux","password":true,"vac":true,"version":"7961495","steam_id":85568392924742824,"keywords":["nocrits","nodmgspread","payload","uncletopia"],"game_id":440,"stv_port":27036,"stv_name":"Uncletopia | San Francisco | 3 | Stopwatch Beta | STV","players":null},{"server_id":20,"name":"Uncletopia | San Francisco | 4 | Community","name_short":"sfo-4","host":"sfo-1.us.uncletopia.com","port":27045,"enabled":true,"region":"us-west","cc":"us","latitude":37.77397,"longitude":-122.4313,"reserved":0,"last_update":"0001-01-01T00:00:00Z","name_a2s":"Uncletopia | San Francisco | 4 | Community","protocol":17,"map":"pl_snowycoast","folder":"tf","game":"Team Fortress","app_id":440,"player_count":0,"max_players":24,"Bots":0,"server_type":"Dedicated","server_os":"Linux","password":true,"vac":true,"version":"7961495","steam_id":85568392924742826,"keywords":["nocrits","nodmgspread","payload","uncletopia"],"game_id":440,"stv_port":27046,"stv_name":"Uncletopia | San Francisco | 4 | Community | STV","players":null},{"server_id":141,"name":"Uncletopia | Sydney | 1 | All Maps","name_short":"syd-1","host":"syd-1.au.uncletopia.com","port":27015,"enabled":true,"region":"au","cc":"au","latitude":-33.865143,"longitude":151.2099,"reserved":0,"last_update":"0001-01-01T00:00:00Z","name_a2s":"Uncletopia | Sydney | 1 | All Maps","protocol":17,"map":"pl_frontier_final","folder":"tf","game":"Team Fortress","app_id":440,"player_count":0,"max_players":24,"Bots":0,"server_type":"Dedicated","server_os":"Linux","password":true,"vac":true,"version":"7961495","steam_id":85568392924470001,"keywords":["nocrits","nodmgspread","payload","uncletopia"],"game_id":440,"stv_port":27016,"stv_name":"Uncletopia | Sydney | 1 | All Maps | STV","players":null},{"server_id":123,"name":"Uncletopia | Sydney | 2 | All Maps","name_short":"syd-2","host":"syd-1.au.uncletopia.com","port":27025,"enabled":true,"region":"au","cc":"au","latitude":-33.865143,"longitude":151.2099,"reserved":0,"last_update":"0001-01-01T00:00:00Z","name_a2s":"Uncletopia | Sydney | 2 | All Maps","protocol":17,"map":"koth_viaduct","folder":"tf","game":"Team Fortress","app_id":440,"player_count":0,"max_players":24,"Bots":0,"server_type":"Dedicated","server_os":"Linux","password":true,"vac":true,"version":"7961495","steam_id":85568392924470002,"keywords":["cp","nocrits","nodmgspread","uncletopia"],"game_id":440,"stv_port":27026,"stv_name":"Uncletopia | Sydney | 2 | All Maps | STV","players":null},{"server_id":395,"name":"Uncletopia | Sydney | 3 | All Maps","name_short":"syd-3","host":"syd-1.au.uncletopia.com","port":27035,"enabled":true,"region":"au","cc":"au","latitude":-33.865143,"longitude":151.2099,"reserved":0,"last_update":"0001-01-01T00:00:00Z","name_a2s":"Uncletopia | Sydney | 3 | All Maps","protocol":17,"map":"pl_borneo","folder":"tf","game":"Team Fortress","app_id":440,"player_count":0,"max_players":24,"Bots":0,"server_type":"Dedicated","server_os":"Linux","password":true,"vac":true,"version":"7961495","steam_id":85568392925194467,"keywords":["nocrits","nodmgspread","payload","uncletopia"],"game_id":440,"stv_port":27036,"stv_name":"Uncletopia | Sydney | 3 | All Maps | STV","players":null},{"server_id":396,"name":"Uncletopia | Sydney | 4 | All Maps","name_short":"syd-4","host":"syd-1.au.uncletopia.com","port":27045,"enabled":true,"region":"au","cc":"au","latitude":-33.865143,"longitude":151.2099,"reserved":0,"last_update":"0001-01-01T00:00:00Z","name_a2s":"Uncletopia | Sydney | 4 | All Maps","protocol":17,"map":"pl_barnblitz","folder":"tf","game":"Team Fortress","app_id":440,"player_count":0,"max_players":24,"Bots":0,"server_type":"Dedicated","server_os":"Linux","password":true,"vac":true,"version":"7961495","steam_id":85568392925397958,"keywords":["nocrits","nodmgspread","payload","uncletopia"],"game_id":440,"stv_port":27046,"stv_name":"Uncletopia | Sydney | 4 | All Maps | STV","players":null},{"server_id":58,"name":"Uncletopia | Sydney | 5 | Stopwatch Beta","name_short":"syd-5","host":"syd-1.au.uncletopia.com","port":27055,"enabled":true,"region":"au","cc":"au","latitude":-33.865143,"longitude":151.2099,"reserved":0,"last_update":"0001-01-01T00:00:00Z","name_a2s":"Uncletopia | Sydney | 5 | Stopwatch Beta","protocol":17,"map":"pl_frontier_final","folder":"tf","game":"Team Fortress","app_id":440,"player_count":0,"max_players":24,"Bots":0,"server_type":"Dedicated","server_os":"Linux","password":true,"vac":true,"version":"7961495","steam_id":85568392925397959,"keywords":["nocrits","nodmgspread","payload","uncletopia"],"game_id":440,"stv_port":27056,"stv_name":"Uncletopia | Sydney | 5 | Stopwatch Beta | STV","players":null},{"server_id":59,"name":"Uncletopia | Sydney | 6 | Community","name_short":"syd-6","host":"syd-1.au.uncletopia.com","port":27065,"enabled":true,"region":"au","cc":"au","latitude":-33.865143,"longitude":151.2099,"reserved":0,"last_update":"0001-01-01T00:00:00Z","name_a2s":"Uncletopia | Sydney | 6 | Community","protocol":17,"map":"pl_swiftwater_final1","folder":"tf","game":"Team Fortress","app_id":440,"player_count":0,"max_players":24,"Bots":0,"server_type":"Dedicated","server_os":"Linux","password":true,"vac":true,"version":"7961495","steam_id":85568392925397960,"keywords":["nocrits","nodmgspread","payload","uncletopia"],"game_id":440,"stv_port":27066,"stv_name":"Uncletopia | Sydney | 6 | Community | STV","players":null},{"server_id":49,"name":"Uncletopia | Warsaw | 1 | All Maps","name_short":"waw-1","host":"waw-1.pl.uncletopia.com","port":27015,"enabled":true,"region":"eu","cc":"pl","latitude":52.2297,"longitude":21.017532,"reserved":0,"last_update":"0001-01-01T00:00:00Z","name_a2s":"Uncletopia | Warsaw | 1 | All Maps","protocol":17,"map":"koth_lakeside_final","folder":"tf","game":"Team Fortress","app_id":440,"player_count":3,"max_players":24,"Bots":0,"server_type":"Dedicated","server_os":"Linux","password":true,"vac":true,"version":"7961495","steam_id":85568392925397850,"keywords":["cp","nocrits","nodmgspread","uncletopia"],"game_id":440,"stv_port":27016,"stv_name":"Uncletopia | Warsaw | 1 | All Maps | STV","players":[{"user_id":608,"name":"balls_hunter","steam_id":76561199053264214,"connected_time":407000000000,"state":"active","ping":100},{"user_id":588,"name":"Bandek","steam_id":76561198448812123,"connected_time":5485000000000,"state":"active","ping":89},{"user_id":589,"name":"töcsk","steam_id":76561198290142097,"connected_time":5481000000000,"state":"active","ping":80}]},{"server_id":50,"name":"Uncletopia | Warsaw | 2 | All Maps","name_short":"waw-2","host":"waw-1.pl.uncletopia.com","port":27025,"enabled":true,"region":"eu","cc":"pl","latitude":52.2297,"longitude":21.017532,"reserved":0,"last_update":"0001-01-01T00:00:00Z","name_a2s":"Uncletopia | Warsaw | 2 | All Maps","protocol":17,"map":"cp_dustbowl","folder":"tf","game":"Team Fortress","app_id":440,"player_count":0,"max_players":24,"Bots":0,"server_type":"Dedicated","server_os":"Linux","password":true,"vac":true,"version":"7961495","steam_id":85568392925397851,"keywords":["cp","nocrits","nodmgspread","uncletopia"],"game_id":440,"stv_port":27026,"stv_name":"Uncletopia | Warsaw | 2 | All Maps | STV","players":null},{"server_id":51,"name":"Uncletopia | Warsaw | 3 | All Maps","name_short":"waw-3","host":"waw-1.pl.uncletopia.com","port":27035,"enabled":true,"region":"eu","cc":"pl","latitude":52.2297,"longitude":21.017532,"reserved":0,"last_update":"0001-01-01T00:00:00Z","name_a2s":"Uncletopia | Warsaw | 3 | All Maps","protocol":17,"map":"koth_highpass","folder":"tf","game":"Team Fortress","app_id":440,"player_count":0,"max_players":24,"Bots":0,"server_type":"Dedicated","server_os":"Linux","password":true,"vac":true,"version":"7961495","steam_id":85568392925397852,"keywords":["cp","nocrits","nodmgspread","uncletopia"],"game_id":440,"stv_port":27036,"stv_name":"Uncletopia | Warsaw | 3 | All Maps | STV","players":null},{"server_id":52,"name":"Uncletopia | Warsaw | 4 | All Maps","name_short":"waw-4","host":"waw-1.pl.uncletopia.com","port":27045,"enabled":true,"region":"eu","cc":"pl","latitude":52.2297,"longitude":21.017532,"reserved":0,"last_update":"0001-01-01T00:00:00Z","name_a2s":"Uncletopia | Warsaw | 4 | All Maps","protocol":17,"map":"koth_viaduct","folder":"tf","game":"Team Fortress","app_id":440,"player_count":0,"max_players":24,"Bots":0,"server_type":"Dedicated","server_os":"Linux","password":true,"vac":true,"version":"7961495","steam_id":85568392925397853,"keywords":["cp","nocrits","nodmgspread","uncletopia"],"game_id":440,"stv_port":27046,"stv_name":"Uncletopia | Warsaw | 4 | All Maps | STV","players":null},{"server_id":53,"name":"Uncletopia | Warsaw | 5 | Stopwatch Beta","name_short":"waw-5","host":"waw-1.pl.uncletopia.com","port":27055,"enabled":true,"region":"eu","cc":"pl","latitude":52.2297,"longitude":21.017532,"reserved":0,"last_update":"0001-01-01T00:00:00Z","name_a2s":"Uncletopia | Warsaw | 5 | Stopwatch Beta","protocol":17,"map":"workshop/pl_summercoast_rc8e.ugc1761528829","folder":"tf","game":"Team Fortress","app_id":440,"player_count":0,"max_players":24,"Bots":0,"server_type":"Dedicated","server_os":"Linux","password":true,"vac":true,"version":"7961495","steam_id":85568392925397854,"keywords":["nocrits","nodmgspread","payload","uncletopia"],"game_id":440,"stv_port":27056,"stv_name":"Uncletopia | Warsaw | 5 | Stopwatch Beta | STV","players":null},{"server_id":54,"name":"Uncletopia | Warsaw | 6 | Community","name_short":"waw-6","host":"waw-1.pl.uncletopia.com","port":27065,"enabled":true,"region":"eu","cc":"pl","latitude":52.2297,"longitude":21.017532,"reserved":0,"last_update":"0001-01-01T00:00:00Z","name_a2s":"Uncletopia | Warsaw | 6 | Community","protocol":17,"map":"workshop/koth_product_final.ugc454272353","folder":"tf","game":"Team Fortress","app_id":440,"player_count":0,"max_players":24,"Bots":0,"server_type":"Dedicated","server_os":"Linux","password":true,"vac":true,"version":"7961495","steam_id":85568392925397856,"keywords":["cp","nocrits","nodmgspread","uncletopia"],"game_id":440,"stv_port":27066,"stv_name":"Uncletopia | Warsaw | 6 | Community | STV","players":null}]}