{"status":true,"message":"","result":[{"server_id":2,"name":"Uncletopia | Chicago | 1 | All Maps","name_short":"chi-1","host":"chi-1.us.uncletopia.com","port":27015,"enabled":true,"region":"us-central","cc":"us","latitude":41.881832,"longitude":-87.62318,"reserved":0,"last_update":"0001-01-01T00:00:00Z","name_a2s":"Uncletopia | Chicago | 1 | All Maps","protocol":17,"map":"pl_barnblitz","folder":"tf","game":"Team Fortress","app_id":440,"player_count":24,"max_players":24,"Bots":0,"server_type":"Dedicated","server_os":"Linux","password":true,"vac":true,"version":"7961495","steam_id":85568392924469984,"keywords":["nocrits","nodmgspread","payload","uncletopia"],"game_id":440,"stv_port":27016,"stv_name":"Uncletopia | Chicago | 1 | All Maps | STV","players":[{"user_id":583,"name":"Undertime Slopper","steam_id":76561198396789061,"connected_time":2731000000000,"state":"active","ping":90},{"user_id":604,"name":"40s on the jeep","steam_id":76561198893301630,"connected_time":511000000000,"state":"active","ping":55},{"user_id":609,"name":"all toasters toast toast","steam_id":76561198140846580,"connected_time":112000000000,"state":"active","ping":61},{"user_id":603,"name":"PowderBones","steam_id":76561198057211840,"connected_time":674000000000,"state":"active","ping":69},{"user_id":570,"name":"Maverick","steam_id":76561198322829814,"connected_time":3833000000000,"state":"active","ping":77},{"user_id":610,"name":"get scrongled, idiot","steam_id":76561198115874625,"connected_time":104000000000,"state":"active","ping":113},{"user_id":579,"name":"Panzer4000","steam_id":76561198121308618,"connected_time":2971000000000,"state":"active","ping":54},{"user_id":589,"name":"TheOmegalisk","steam_id":76561198308836257,"connected_time":2079000000000,"state":"active","ping":66},{"user_id":591,"name":"Pok√©","steam_id":76561198100167641,"connected_time":1635000000000,"state":"active","ping":57},{"user_id":607,"name":"Hob-Goblin Jim The IV","steam_id":76561199046650666,"connected_time":176000000000,"state":"active","ping":54},{"user_id":611,"name":"TDOB","steam_id":76561198062701904,"connected_time":101000000000,"state":"active","ping":73},{"user_id":612,"name":"Void","steam_id":76561199186496740,"connected_time":80000000000,"state":"active","ping":82},{"user_id":550,"name":"blob","steam_id":76561198122375328,"connected_time":5130000000000,"state":"active","ping":59},{"user_id":613,"name":"Mix","steam_id":76561198835593895,"connected_time":79000000000,"state":"active","ping":88},{"user_id":585,"name":"Ras","steam_id":76561198123546775,"connected_time":2693000000000,"state":"active","ping":75},{"user_id":568,"name":"Spy Gaming","steam_id":76561198453295613,"connected_time":3997000000000,"state":"active","ping":114},{"user_id":614,"name":"Jerk Tryhard (roleplay)","steam_id":76561199470538309,"connected_time":73000000000,"state":"active","ping":60},{"user_id":615,"name":"guy who loves eating cigarettes","steam_id":76561198094495920,"connected_time":72000000000,"state":"active","ping":33},{"user_id":608,"name":"Decot","steam_id":76561198042016967,"connected_time":121000000000,"state":"active","ping":68},{"user_id":572,"name":"aiden","steam_id":76561198449527009,"connected_time":3800000000000,"state":"active","ping":106},{"user_id":601,"name":"hollowlilies","steam_id":76561198075315443,"connected_time":1269000000000,"state":"active","ping":87},{"user_id":590,"name":"Dallas","steam_id":76561198066542919,"connected_time":2079000000000,"state":"active","ping":100},{"user_id":602,"name":"Murchant","steam_id":76561198087744946,"connected_time":1020000000000,"state":"active","ping":69},{"user_id":618,"name":"Bosanski_Liljan23","steam_id":76561199100809502,"connected_time":37000000000,"state":"spawning","ping":136}]},{"server_id":106,"name":"Uncletopia | Chicago | 2 | All Maps","name_short":"chi-2","host":"chi-1.us.uncletopia.com","port":27025,"enabled":true,"region":"us-central","cc":"us","latitude":41.881832,"longitude":-87.62318,"reserved":0,"last_update":"0001-01-01T00:00:00Z","name_a2s":"Uncletopia | Chicago | 2 | All Maps","protocol":17,"map":"pl_borneo","folder":"tf","game":"Team Fortress","app_id":440,"player_count":24,"max_players":24,"Bots":0,"server_type":"Dedicated","server_os":"Linux","password":true,"vac":true,"version":"7961495","steam_id":85568392924469985,"keywords":["nocrits","nodmgspread","payload","uncletopia"],"game_id":440,"stv_port":27026,"stv_name":"Uncletopia | Chicago | 2 | All Maps | STV","players":[{"user_id":325,"name":"Prod. By WARCHI3F","steam_id":76561198871224298,"connected_time":1066000000000,"state":"active","ping":70},{"user_id":309,"name":"Nite","steam_id":76561199014777092,"connected_time":2440000000000,"state":"active","ping":59},{"user_id":274,"name":"Soupman_Official","steam_id":76561198314308732,"connected_time":5986000000000,"state":"active","ping":42},{"user_id":292,"name":"mikey","steam_id":76561198095803763,"connected_time":3728000000000,"state":"active","ping":84},{"user_id":319,"name":"Wiggler","steam_id":76561198118420406,"connected_time":1718000000000,"state":"active","ping":94},{"user_id":288,"name":"TheOneZoot (Def Not on TTV)","steam_id":76561198121944243,"connected_time":4108000000000,"state":"active","ping":76},{"user_id":333,"name":"ThePatheticMedic","steam_id":76561198873083105,"connected_time":205000000000,"state":"active","ping":55},{"user_id":330,"name":"daemon","steam_id":76561198001541433,"connected_time":651000000000,"state":"active","ping":59},{"user_id":312,"name":"professional nonprofessional","steam_id":76561199200442395,"connected_time":2041000000000,"state":"active","ping":168},{"user_id":280,"name":"Mavrick","steam_id":76561198039678150,"connected_time":5458000000000,"state":"active","ping":58},{"user_id":304,"name":"Br√∂dPojke","steam_id":76561198834301650,"connected_time":2913000000000,"state":"active","ping":82},{"user_id":212,"name":"mog60_09","steam_id":76561199365852751,"connected_time":11692000000000,"state":"active","ping":57},{"user_id":323,"name":"littlesack","steam_id":76561197960270526,"connected_time":1546000000000,"state":"active","ping":100},{"user_id":219,"name":"hej","steam_id":76561197996366940,"connected_time":10925000000000,"state":"active","ping":60},{"user_id":337,"name":"Nephs","steam_id":76561198136763403,"connected_time":48000000000,"state":"active","ping":75},{"user_id":261,"name":"heademptyengi.JIFF","steam_id":76561198045181760,"connected_time":6911000000000,"state":"active","ping":60},{"user_id":334,"name":"Ickyboar","steam_id":76561198065028791,"connected_time":205000000000,"state":"active","ping":72},{"user_id":272,"name":"ash","steam_id":76561198127890645,"connected_time":6143000000000,"state":"active","ping":88},{"user_id":290,"name":"Christmas Ham","steam_id":76561198119601623,"connected_time":3771000000000,"state":"active","ping":147},{"user_id":310,"name":"Word To Your Mothership","steam_id":76561198034329138,"connected_time":2396000000000,"state":"active","ping":93},{"user_id":289,"name":"Filthy Acts at Reasonable Price","steam_id":76561198354615890,"connected_time":3783000000000,"state":"active","ping":79},{"user_id":311,"name":"Fredfredfood","steam_id":76561198072824802,"connected_time":2381000000000,"state":"active","ping":56},{"user_id":335,"name":"no","steam_id":76561198248853140,"connected_time":205000000000,"state":"active","ping":41},{"user_id":248,"name":"Lia_Rein","steam_id":76561198151569597,"connected_time":7987000000000,"state":"active","ping":139}]},{"server_id":402,"name":"Uncletopia | Chicago | 3 | All Maps","name_short":"chi-3","host":"chi-1.us.uncletopia.com","port":27035,"enabled":true,"region":"us-central","cc":"us","latitude":41.881832,"longitude":-87.62318,"reserved":0,"last_update":"0001-01-01T00:00:00Z","name_a2s":"Uncletopia | Chicago | 3 | All Maps","protocol":17,"map":"cp_mercenarypark","folder":"tf","game":"Team Fortress","app_id":440,"player_count":24,"max_players":24,"Bots":0,"server_type":"Dedicated","server_os":"Linux","password":true,"vac":true,"version":"7961495","steam_id":85568392924515191,"keywords":["cp","nocrits","nodmgspread","uncletopia"],"game_id":440,"stv_port":27036,"stv_name":"Uncletopia | Chicago | 3 | All Maps | STV","players":[{"user_id":303,"name":"Psychosis","steam_id":76561198078659070,"connected_time":4098000000000,"state":"active","ping":74},{"user_id":350,"name":"Mog","steam_id":76561198025575870,"connected_time":645000000000,"state":"active","ping":57},{"user_id":354,"name":"Ibrahim","steam_id":76561198028320625,"connected_time":491000000000,"state":"active","ping":67},{"user_id":308,"name":"Miner2495","steam_id":76561198445904523,"connected_time":4031000000000,"state":"active","ping":70},{"user_id":344,"name":"Steve Greentop","steam_id":76561198119426892,"connected_time":1274000000000,"state":"active","ping":56},{"user_id":345,"name":"bearly","steam_id":76561198094077510,"connected_time":1272000000000,"state":"active","ping":54},{"user_id":355,"name":"Jin Mu-Won","steam_id":76561198414122318,"connected_time":478000000000,"state":"active","ping":60},{"user_id":327,"name":"Heron","steam_id":76561198065851432,"connected_time":2318000000000,"state":"active","ping":58},{"user_id":338,"name":"Priestess of Spiders","steam_id":76561198111286397,"connected_time":1656000000000,"state":"active","ping":110},{"user_id":324,"name":"5mech","steam_id":76561198979167520,"connected_time":2563000000000,"state":"active","ping":57},{"user_id":333,"name":"subdromeda","steam_id":76561198884351860,"connected_time":1853000000000,"state":"active","ping":68},{"user_id":326,"name":"An Erect Penis :)","steam_id":76561198086477485,"connected_time":2386000000000,"state":"active","ping":39},{"user_id":316,"name":"thecal","steam_id":76561198307893384,"connected_time":3705000000000,"state":"active","ping":47},{"user_id":139,"name":"Neophyte","steam_id":76561198027183394,"connected_time":12508000000000,"state":"active","ping":131},{"user_id":348,"name":"ZeN","steam_id":76561199098746585,"connected_time":1074000000000,"state":"active","ping":49},{"user_id":356,"name":"fruit brute fiend","steam_id":76561198811500361,"connected_time":470000000000,"state":"active","ping":90},{"user_id":297,"name":"Leviathan","steam_id":76561198042678399,"connected_time":4475000000000,"state":"active","ping":75},{"user_id":351,"name":"afroadam","steam_id":76561197993377919,"connected_time":558000000000,"state":"active","ping":65},{"user_id":336,"name":"D4","steam_id":76561197980016915,"connected_time":1685000000000,"state":"active","ping":62},{"user_id":314,"name":"4 life","steam_id":76561198175961598,"connected_time":3858000000000,"state":"active","ping":114},{"user_id":352,"name":"Puke Skyfucker","steam_id":76561198012846213,"connected_time":535000000000,"state":"active","ping":70},{"user_id":357,"name":"siggystar10","steam_id":76561199155065176,"connected_time":449000000000,"state":"active","ping":160},{"user_id":358,"name":"targeted individual","steam_id":76561198057076267,"connected_time":438000000000,"state":"active","ping":70},{"user_id":322,"name":"Slimeboy Enthusiast","steam_id":76561199200969139,"connected_time":3172000000000,"state":"active","ping":122}]},{"server_id":403,"name":"Uncletopia | Chicago | 4 | All Maps","name_short":"chi-4","host":"chi-1.us.uncletopia.com","port":27045,"enabled":true,"region":"us-central","cc":"us","latitude":41.881832,"longitude":-87.62318,"reserved":0,"last_update":"0001-01-01T00:00:00Z","name_a2s":"Uncletopia | Chicago | 4 | All Maps","protocol":17,"map":"pl_barnblitz","folder":"tf","game":"Team Fortress","app_id":440,"player_count":24,"max_players":24,"Bots":0,"server_type":"Dedicated","server_os":"Linux","password":true,"vac":true,"version":"7961495","steam_id":85568392924515193,"keywords":["nocrits","nodmgspread","payload","uncletopia"],"game_id":440,"stv_port":27046,"stv_name":"Uncletopia | Chicago | 4 | All Maps | STV","players":[{"user_id":140,"name":"YoteDab McFapDab.jpg","steam_id":76561197984870380,"connected_time":2411000000000,"state":"active","ping":88},{"user_id":131,"name":"·πΩ‚ßâ cookie","steam_id":76561197998884823,"connected_time":3657000000000,"state":"active","ping":55},{"user_id":165,"name":"Grand Piano Tuna","steam_id":76561198135137213,"connected_time":847000000000,"state":"active","ping":54},{"user_id":149,"name":"Ejaculation Zach","steam_id":76561198203765200,"connected_time":1707000000000,"state":"active","ping":52},{"user_id":148,"name":"flwrgrl","steam_id":76561198815644949,"connected_time":1719000000000,"state":"active","ping":60},{"user_id":169,"name":"A unneeded medic(F2p)","steam_id":76561199388826335,"connected_time":470000000000,"state":"active","ping":76},{"user_id":164,"name":"gritty 2024","steam_id":76561198165567310,"connected_time":919000000000,"state":"active","ping":58},{"user_id":152,"name":"THGAwesome","steam_id":76561198162847218,"connected_time":1623000000000,"state":"active","ping":79},{"user_id":150,"name":"Mr. ICEE","steam_id":76561198004377171,"connected_time":1654000000000,"state":"active","ping":108},{"user_id":162,"name":"Shame","steam_id":76561198100490994,"connected_time":1073000000000,"state":"active","ping":74},{"user_id":146,"name":"tomandjerry085","steam_id":76561198800789071,"connected_time":2315000000000,"state":"active","ping":100},{"user_id":170,"name":"Szop","steam_id":76561198309291795,"connected_time":446000000000,"state":"active","ping":180},{"user_id":166,"name":"ATastyDonut","steam_id":76561198984819894,"connected_time":563000000000,"state":"active","ping":68},{"user_id":167,"name":"catfish from toontown","steam_id":76561198060070002,"connected_time":488000000000,"state":"active","ping":74},{"user_id":168,"name":"Nobody","steam_id":76561198085808754,"connected_time":484000000000,"state":"active","ping":93},{"user_id":118,"name":"Shadoe","steam_id":76561198218577281,"connected_time":5130000000000,"state":"active","ping":46},{"user_id":171,"name":"ryan55510","steam_id":76561198054750052,"connected_time":440000000000,"state":"active","ping":171},{"user_id":97,"name":"ark","steam_id":76561198041066271,"connected_time":6598000000000,"state":"active","ping":76},{"user_id":172,"name":"v8o1","steam_id":76561198127599257,"connected_time":435000000000,"state":"active","ping":91},{"user_id":144,"name":"ApertureCity","steam_id":76561198004153607,"connected_time":2343000000000,"state":"active","ping":84},{"user_id":157,"name":"gameofstones2010","steam_id":76561198887808591,"connected_time":1577000000000,"state":"active","ping":70},{"user_id":145,"name":"Denzel McFlurry","steam_id":76561199231296521,"connected_time":2342000000000,"state":"active","ping":71},{"user_id":99,"name":"the lizard that monitors","steam_id":76561198092135570,"connected_time":6586000000000,"state":"active","ping":64},{"user_id":92,"name":"DafuQ","steam_id":76561198010166265,"connected_time":6766000000000,"state":"active","ping":126}]},{"server_id":36,"name":"Uncletopia | Chicago | 5 | All Maps","name_short":"chi-5","host":"chi-2.us.uncletopia.com","port":27015,"enabled":true,"region":"us-central","cc":"us","latitude":41.881832,"longitude":-87.62318,"reserved":0,"last_update":"0001-01-01T00:00:00Z","name_a2s":"Uncletopia | Chicago | 5 | All Maps","protocol":17,"map":"cp_mercenarypark","folder":"tf","game":"Team Fortress","app_id":440,"player_count":24,"max_players":24,"Bots":0,"server_type":"Dedicated","server_os":"Linux","password":true,"vac":true,"version":"7961495","steam_id":85568392924866362,"keywords":["cp","nocrits","nodmgspread","uncletopia"],"game_id":440,"stv_port":27016,"stv_name":"Uncletopia | Chicago | 5 | All Maps | STV","players":[{"user_id":275,"name":"Something","steam_id":76561198881562709,"connected_time":3377000000000,"state":"active","ping":69},{"user_id":298,"name":"Kuddly Kay (She/Her)","steam_id":76561198353432576,"connected_time":2083000000000,"state":"active","ping":65},{"user_id":311,"name":"bulbasaur890","steam_id":76561198093443639,"connected_time":1501000000000,"state":"active","ping":71},{"user_id":309,"name":"IMM0RTAL","steam_id":76561198013747901,"connected_time":1627000000000,"state":"active","ping":73},{"user_id":303,"name":"Theory-LOL","steam_id":76561198116419931,"connected_time":1883000000000,"state":"active","ping":105},{"user_id":284,"name":"ohhhl0rd","steam_id":76561199066793578,"connected_time":2728000000000,"state":"active","ping":57},{"user_id":324,"name":"lost in spaaaaace","steam_id":76561199085974120,"connected_time":993000000000,"state":"active","ping":74},{"user_id":307,"name":"The Enigmatic Dolphin","steam_id":76561197991390953,"connected_time":1822000000000,"state":"active","ping":72},{"user_id":274,"name":"triangleman","steam_id":76561198972733542,"connected_time":3487000000000,"state":"active","ping":60},{"user_id":316,"name":"Reflector","steam_id":76561198078999855,"connected_time":1404000000000,"state":"active","ping":81},{"user_id":325,"name":"jimmy","steam_id":76561198411061839,"connected_time":934000000000,"state":"active","ping":93},{"user_id":326,"name":"Gundo","steam_id":76561198093339825,"connected_time":619000000000,"state":"active","ping":80},{"user_id":272,"name":"froge","steam_id":76561198304959766,"connected_time":3646000000000,"state":"active","ping":169},{"user_id":314,"name":"magickxanadu","steam_id":76561199117360103,"connected_time":1471000000000,"state":"active","ping":77},{"user_id":327,"name":"Nyle","steam_id":76561198045652639,"connected_time":595000000000,"state":"active","ping":134},{"user_id":267,"name":"Naffty","steam_id":76561198119734981,"connected_time":3775000000000,"state":"active","ping":98},{"user_id":295,"name":"Fish","steam_id":76561198872926297,"connected_time":2327000000000,"state":"active","ping":97},{"user_id":317,"name":"Mrs.Frizzle","steam_id":76561198117157085,"connected_time":1400000000000,"state":"active","ping":73},{"user_id":247,"name":"Pattar","steam_id":76561198146276146,"connected_time":4785000000000,"state":"active","ping":58},{"user_id":329,"name":"QWERTY_KKL","steam_id":76561199156419203,"connected_time":576000000000,"state":"active","ping":83},{"user_id":273,"name":"Synergy","steam_id":76561198098630198,"connected_time":3596000000000,"state":"active","ping":99},{"user_id":322,"name":"AT‚ú™MIC","steam_id":76561198100385184,"connected_time":1171000000000,"state":"active","ping":102},{"user_id":290,"name":"Yogeerts","steam_id":76561198005121419,"connected_time":2578000000000,"state":"active","ping":72},{"user_id":319,"name":"Rio\u003c3","steam_id":76561198299175965,"connected_time":1362000000000,"state":"active","ping":73}]},{"server_id":37,"name":"Uncletopia | Chicago | 6 | All Maps","name_short":"chi-6","host":"chi-2.us.uncletopia.com","port":27025,"enabled":true,"region":"us-central","cc":"us","latitude":41.881832,"longitude":-87.62318,"reserved":0,"last_update":"0001-01-01T00:00:00Z","name_a2s":"Uncletopia | Chicago | 6 | All Maps","protocol":17,"map":"pl_pier","folder":"tf","game":"Team Fortress","app_id":440,"player_count":24,"max_players":24,"Bots":0,"server_type":"Dedicated","server_os":"Linux","password":true,"vac":true,"version":"7961495","steam_id":85568392924866363,"keywords":["nocrits","nodmgspread","payload","uncletopia"],"game_id":440,"stv_port":27026,"stv_name":"Uncletopia | Chicago | 6 | All Maps | STV","players":[{"user_id":117,"name":"Crabo Stabbo","steam_id":76561198061227228,"connected_time":1230000000000,"state":"active","ping":57},{"user_id":75,"name":"prosciutto","steam_id":76561198882758067,"connected_time":3721000000000,"state":"active","ping":44},{"user_id":107,"name":"DB1","steam_id":76561199172642819,"connected_time":1763000000000,"state":"active","ping":71},{"user_id":91,"name":"Frimpimy","steam_id":76561198142605675,"connected_time":2743000000000,"state":"active","ping":59},{"user_id":122,"name":"Bug","steam_id":76561198279239047,"connected_time":591000000000,"state":"active","ping":69},{"user_id":81,"name":"i_boop_ur_nose","steam_id":76561198312459560,"connected_time":3593000000000,"state":"active","ping":81},{"user_id":82,"name":"raspy","steam_id":76561198027298961,"connected_time":3593000000000,"state":"active","ping":59},{"user_id":119,"name":"xiPoison","steam_id":76561198064961659,"connected_time":1084000000000,"state":"active","ping":69},{"user_id":37,"name":"Captain Bug","steam_id":76561198137763878,"connected_time":5184000000000,"state":"active","ping":80},{"user_id":92,"name":"Lord_Toaster","steam_id":76561199080247884,"connected_time":2682000000000,"state":"active","ping":69},{"user_id":123,"name":"gIBBY","steam_id":76561198080099598,"connected_time":553000000000,"state":"active","ping":59},{"user_id":130,"name":"helen keller","steam_id":76561197979870540,"connected_time":76000000000,"state":"active","ping":47},{"user_id":85,"name":"Monkey D. Management","steam_id":76561198400603422,"connected_time":3530000000000,"state":"active","ping":70},{"user_id":109,"name":"weewa","steam_id":76561198064876090,"connected_time":1758000000000,"state":"active","ping":75},{"user_id":120,"name":"J.G. Klaus","steam_id":76561198001111196,"connected_time":848000000000,"state":"active","ping":59},{"user_id":102,"name":"The Stallion","steam_id":76561198142249307,"connected_time":2145000000000,"state":"active","ping":51},{"user_id":101,"name":"glankinator","steam_id":76561198354077256,"connected_time":2175000000000,"state":"active","ping":47},{"user_id":125,"name":"thebeast","steam_id":76561198255963049,"connected_time":370000000000,"state":"active","ping":116},{"user_id":67,"name":"h","steam_id":76561198202416617,"connected_time":4162000000000,"state":"active","ping":94},{"user_id":127,"name":"playguy carter","steam_id":76561198080679337,"connected_time":321000000000,"state":"active","ping":60},{"user_id":70,"name":"wenshengqiu","steam_id":76561199048682062,"connected_time":4108000000000,"state":"active","ping":87},{"user_id":90,"name":"Dr. Professor PJ, Ph.D","steam_id":76561198004429398,"connected_time":3233000000000,"state":"active","ping":59},{"user_id":55,"name":"Classysaurus","steam_id":76561198065992731,"connected_time":4818000000000,"state":"active","ping":58},{"user_id":63,"name":"IanFishooks","steam_id":76561199403427527,"connected_time":4274000000000,"state":"active","ping":88}]},{"server_id":38,"name":"Uncletopia | Chicago | 7 | Stopwatch Beta","name_short":"chi-7","host":"chi-2.us.uncletopia.com","port":27035,"enabled":true,"region":"us-central","cc":"us","latitude":41.881832,"longitude":-87.62318,"reserved":0,"last_update":"0001-01-01T00:00:00Z","name_a2s":"Uncletopia | Chicago | 7 | Stopwatch Beta","protocol":17,"map":"koth_lakeside_final","folder":"tf","game":"Team Fortress","app_id":440,"player_count":9,"max_players":24,"Bots":0,"server_type":"Dedicated","server_os":"Linux","password":true,"vac":true,"version":"7961495","steam_id":85568392924866364,"keywords":["cp","nocrits","nodmgspread","uncletopia"],"game_id":440,"stv_port":27036,"stv_name":"Uncletopia | Chicago | 7 | Stopwatch Beta | STV","players":[{"user_id":22,"name":"legopirate10","steam_id":76561198178827241,"connected_time":920000000000,"state":"active","ping":41},{"user_id":23,"name":"Dragoon","steam_id":76561198211973253,"connected_time":915000000000,"state":"active","ping":71},{"user_id":24,"name":"Snowy","steam_id":76561198360209483,"connected_time":901000000000,"state":"active","ping":63},{"user_id":33,"name":"Bully Maguire","steam_id":76561199081621029,"connected_time":32000000000,"state":"spawning","ping":89},{"user_id":26,"name":"ÁÑ°Ë¨Ä„Å™ÊîæÁÅ´ÁäØ - Reckless","steam_id":76561198845582974,"connected_time":569000000000,"state":"active","ping":68},{"user_id":31,"name":"Neptune NR","steam_id":76561198177766951,"connected_time":161000000000,"state":"active","ping":71},{"user_id":28,"name":"Weakforanimebitches","steam_id":76561198217663016,"connected_time":258000000000,"state":"active","ping":95},{"user_id":29,"name":"Crow","steam_id":76561198274977209,"connected_time":181000000000,"state":"active","ping":52},{"user_id":30,"name":"strawberry donut","steam_id":76561198354284591,"connected_time":180000000000,"state":"active","ping":49}]},{"server_id":39,"name":"Uncletopia | Chicago | 8 | Community","name_short":"chi-8","host":"chi-2.us.uncletopia.com","port":27045,"enabled":true,"region":"us-central","cc":"us","latitude":41.881832,"longitude":-87.62318,"reserved":0,"last_update":"0001-01-01T00:00:00Z","name_a2s":"Uncletopia | Chicago | 8 | Community","protocol":17,"map":"workshop/koth_ashville_final.ugc2130459942","folder":"tf","game":"Team Fortress","app_id":440,"player_count":24,"max_players":24,"Bots":0,"server_type":"Dedicated","server_os":"Linux","password":true,"vac":true,"version":"7961495","steam_id":85568392924866365,"keywords":["cp","nocrits","nodmgspread","uncletopia"],"game_id":440,"stv_port":27046,"stv_name":"Uncletopia | Chicago | 8 | Community | STV","players":[{"user_id":120,"name":"‚ùÑkittyzzz‚ùÑ","steam_id":76561199403582050,"connected_time":856000000000,"state":"active","ping":142},{"user_id":141,"name":"chief.chunk","steam_id":76561198807928980,"connected_time":180000000000,"state":"active","ping":85},{"user_id":122,"name":"ven the foreskin haver","steam_id":76561198880428283,"connected_time":839000000000,"state":"active","ping":76},{"user_id":101,"name":"SomeSimpleton","steam_id":76561199183492031,"connected_time":1200000000000,"state":"active","ping":85},{"user_id":135,"name":"raduski","steam_id":76561198795699119,"connected_time":603000000000,"state":"active","ping":82},{"user_id":103,"name":"canofspaghettios","steam_id":76561198124204246,"connected_time":1190000000000,"state":"active","ping":57},{"user_id":133,"name":"itsbirdE","steam_id":76561198378783304,"connected_time":701000000000,"state":"active","ping":77},{"user_id":113,"name":"Big Iron Enjoyer","steam_id":76561199184115008,"connected_time":1015000000000,"state":"active","ping":74},{"user_id":106,"name":"Capybara Enjoyer","steam_id":76561199147114434,"connected_time":1130000000000,"state":"active","ping":116},{"user_id":123,"name":"Mr. DeLarge","steam_id":76561198336820066,"connected_time":823000000000,"state":"active","ping":110},{"user_id":139,"name":"eryn üó∫","steam_id":76561198004433070,"connected_time":471000000000,"state":"active","ping":76},{"user_id":140,"name":"Samitch_King","steam_id":76561198233317884,"connected_time":382000000000,"state":"active","ping":46},{"user_id":111,"name":"Turbulence","steam_id":76561198173172369,"connected_time":1068000000000,"state":"active","ping":160},{"user_id":138,"name":"workin for snapple","steam_id":76561198013732450,"connected_time":537000000000,"state":"active","ping":46},{"user_id":124,"name":"enginerr","steam_id":76561199082610233,"connected_time":819000000000,"state":"active","ping":60},{"user_id":116,"name":"Pseudotriangle","steam_id":76561198058247667,"connected_time":961000000000,"state":"active","ping":82},{"user_id":117,"name":"wilnemo35795","steam_id":76561198163245106,"connected_time":958000000000,"state":"active","ping":70},{"user_id":118,"name":"Kinbo2487","steam_id":76561198184714198,"connected_time":943000000000,"state":"active","ping":80},{"user_id":136,"name":"jolo","steam_id":76561198042831480,"connected_time":594000000000,"state":"active","ping":74},{"user_id":137,"name":"DJGamer2008","steam_id":76561198422561071,"connected_time":585000000000,"state":"active","ping":57},{"user_id":128,"name":"WolfNinja","steam_id":76561199218099629,"connected_time":785000000000,"state":"active","ping":61},{"user_id":130,"name":"YungKeet","steam_id":76561198293854963,"connected_time":756000000000,"state":"active","ping":85},{"user_id":131,"name":"Mediocre Gaming","steam_id":76561199230467980,"connected_time":754000000000,"state":"active","ping":65},{"user_id":132,"name":"Loggybears","steam_id":76561198366828434,"connected_time":741000000000,"state":"active","ping":94}]},{"server_id":8,"name":"Uncletopia | Dallas | 1 | All Maps","name_short":"dal-1","host":"dal-1.us.uncletopia.com","port":27015,"enabled":true,"region":"us-central","cc":"us","latitude":32.779167,"longitude":-96.80889,"reserved":0,"last_update":"0001-01-01T00:00:00Z","name_a2s":"Uncletopia | Dallas | 1 | All Maps","protocol":17,"map":"cp_dustbowl","folder":"tf","game":"Team Fortress","app_id":440,"player_count":24,"max_players":24,"Bots":0,"server_type":"Dedicated","server_os":"Linux","password":true,"vac":true,"version":"7961495","steam_id":85568392924469986,"keywords":["cp","nocrits","nodmgspread","uncletopia"],"game_id":440,"stv_port":27016,"stv_name":"Uncletopia | Dallas | 1 | All Maps | STV","players":[{"user_id":241,"name":"peebs","steam_id":76561198261319753,"connected_time":983000000000,"state":"active","ping":56},{"user_id":206,"name":"Kenku","steam_id":76561199086762926,"connected_time":3880000000000,"state":"active","ping":66},{"user_id":202,"name":"Streetcleaner","steam_id":76561199160439080,"connected_time":4216000000000,"state":"active","ping":72},{"user_id":228,"name":"Woomy","steam_id":76561198070242372,"connected_time":2309000000000,"state":"active","ping":63},{"user_id":220,"name":"Mr. Bixby","steam_id":76561198868839264,"connected_time":2758000000000,"state":"active","ping":45},{"user_id":199,"name":"Newt","steam_id":76561198842909288,"connected_time":4258000000000,"state":"active","ping":80},{"user_id":236,"name":"Shrederatershan","steam_id":76561199211707598,"connected_time":1676000000000,"state":"active","ping":89},{"user_id":242,"name":"DanFango","steam_id":76561198078300753,"connected_time":981000000000,"state":"active","ping":85},{"user_id":240,"name":"shae2007","steam_id":76561199442299675,"connected_time":1128000000000,"state":"active","ping":75},{"user_id":251,"name":"TechnoBear2099","steam_id":76561198238863596,"connected_time":313000000000,"state":"active","ping":47},{"user_id":244,"name":"TheGuy101","steam_id":76561199201772624,"connected_time":968000000000,"state":"active","ping":91},{"user_id":210,"name":"Jerphf","steam_id":76561198328825964,"connected_time":3757000000000,"state":"active","ping":60},{"user_id":226,"name":"Pornelius Hubert","steam_id":76561198186128723,"connected_time":2325000000000,"state":"active","ping":50},{"user_id":237,"name":"Bobwafflemanjr","steam_id":76561198271769725,"connected_time":1418000000000,"state":"active","ping":70},{"user_id":246,"name":"Serene Salamander","steam_id":76561198001094770,"connected_time":952000000000,"state":"active","ping":89},{"user_id":235,"name":"Polaco","steam_id":76561198176326523,"connected_time":1852000000000,"state":"active","ping":64},{"user_id":223,"name":"Trashgaming","steam_id":76561199184268442,"connected_time":2496000000000,"state":"active","ping":104},{"user_id":245,"name":"Monkey Mode","steam_id":76561197961267543,"connected_time":962000000000,"state":"active","ping":74},{"user_id":247,"name":"Raptorloch","steam_id":76561198834567806,"connected_time":940000000000,"state":"active","ping":58},{"user_id":248,"name":"Protassium","steam_id":76561198084092694,"connected_time":925000000000,"state":"active","ping":47},{"user_id":233,"name":"fleepore (:","steam_id":76561199238295034,"connected_time":2012000000000,"state":"active","ping":72},{"user_id":213,"name":"eish","steam_id":76561198089463603,"connected_time":3725000000000,"state":"active","ping":129},{"user_id":250,"name":"Some Stupid Name","steam_id":76561198065575548,"connected_time":377000000000,"state":"active","ping":87},{"user_id":227,"name":"PistolPoppinSince02","steam_id":76561198100160330,"connected_time":2324000000000,"state":"active","ping":51}]},{"server_id":108,"name":"Uncletopia | Dallas | 2 | All Maps","name_short":"dal-2","host":"dal-1.us.uncletopia.com","port":27025,"enabled":true,"region":"us-central","cc":"us","latitude":32.779167,"longitude":-96.80889,"reserved":0,"last_update":"0001-01-01T00:00:00Z","name_a2s":"Uncletopia | Dallas | 2 | All Maps","protocol":17,"map":"pl_upward","folder":"tf","game":"Team Fortress","app_id":440,"player_count":24,"max_players":24,"Bots":0,"server_type":"Dedicated","server_os":"Linux","password":true,"vac":true,"version":"7961495","steam_id":85568392924469988,"keywords":["nocrits","nodmgspread","payload","uncletopia"],"game_id":440,"stv_port":27026,"stv_name":"Uncletopia | Dallas | 2 | All Maps | STV","players":[{"user_id":385,"name":"MF Mexy","steam_id":76561198162328126,"connected_time":353000000000,"state":"active","ping":97},{"user_id":382,"name":"Fairchild Republic A-10 Thndrbl","steam_id":76561199038043360,"connected_time":500000000000,"state":"active","ping":101},{"user_id":381,"name":"slowdance","steam_id":76561198097427947,"connected_time":528000000000,"state":"active","ping":120},{"user_id":354,"name":"King Baldski","steam_id":76561198359568400,"connected_time":2233000000000,"state":"active","ping":144},{"user_id":358,"name":"k1tty","steam_id":76561198869348268,"connected_time":2054000000000,"state":"active","ping":71},{"user_id":336,"name":"Legally Braindead","steam_id":76561198377574031,"connected_time":3396000000000,"state":"active","ping":94},{"user_id":374,"name":"Femboy drywall enthusiast","steam_id":76561198864841966,"connected_time":820000000000,"state":"active","ping":96},{"user_id":386,"name":"leon fan,stan,enjoyer,lover LFB","steam_id":76561198041643833,"connected_time":225000000000,"state":"active","ping":61},{"user_id":313,"name":"Aeris","steam_id":76561198287271028,"connected_time":4692000000000,"state":"active","ping":82},{"user_id":375,"name":"Necronoxide","steam_id":76561197997856321,"connected_time":814000000000,"state":"active","ping":89},{"user_id":273,"name":"Phosu","steam_id":76561198180162801,"connected_time":7896000000000,"state":"active","ping":66},{"user_id":380,"name":"Nyplestheclown","steam_id":76561198028600291,"connected_time":636000000000,"state":"active","ping":54},{"user_id":355,"name":"cozy","steam_id":76561199044037628,"connected_time":2098000000000,"state":"active","ping":81},{"user_id":387,"name":"Rodgedan","steam_id":76561198226236524,"connected_time":80000000000,"state":"active","ping":103},{"user_id":379,"name":"Rafl","steam_id":76561198055222756,"connected_time":786000000000,"state":"active","ping":49},{"user_id":378,"name":"Dragus","steam_id":76561198032967285,"connected_time":799000000000,"state":"active","ping":68},{"user_id":339,"name":"orneps489","steam_id":76561199124755916,"connected_time":3313000000000,"state":"active","ping":97},{"user_id":280,"name":"Underscorn","steam_id":76561198374209415,"connected_time":7069000000000,"state":"active","ping":59},{"user_id":373,"name":"Caliburn","steam_id":76561198205194977,"connected_time":926000000000,"state":"active","ping":82},{"user_id":363,"name":"DMM","steam_id":76561198065426171,"connected_time":1935000000000,"state":"active","ping":52},{"user_id":361,"name":"[GUT] RiDiK¬Æ","steam_id":76561197969756446,"connected_time":1978000000000,"state":"active","ping":77},{"user_id":372,"name":"Elixir","steam_id":76561198154415647,"connected_time":1042000000000,"state":"active","ping":95},{"user_id":371,"name":"johnnybaseballgame83@yahoo.com","steam_id":76561198070542000,"connected_time":1104000000000,"state":"active","ping":69},{"user_id":384,"name":"Irritated Duck","steam_id":76561198247792076,"connected_time":382000000000,"state":"active","ping":148}]},{"server_id":5,"name":"Uncletopia | Frankfurt | 1 | All Maps","name_short":"frk-1","host":"frk-1.de.uncletopia.com","port":27015,"enabled":true,"region":"eu","cc":"de","latitude":50.110924,"longitude":8.682127,"reserved":0,"last_update":"0001-01-01T00:00:00Z","name_a2s":"Uncletopia | Frankfurt | 1 | All Maps","protocol":17,"map":"pl_rumford_event","folder":"tf","game":"Team Fortress","app_id":440,"player_count":24,"max_players":24,"Bots":0,"server_type":"Dedicated","server_os":"Linux","password":true,"vac":true,"version":"7961495","steam_id":85568392924469989,"keywords":["nocrits","nodmgspread","payload","uncletopia"],"game_id":440,"stv_port":27016,"stv_name":"Uncletopia | Frankfurt | 1 | All Maps | STV","players":[{"user_id":685,"name":"Samaruun","steam_id":76561198048841418,"connected_time":443000000000,"state":"active","ping":60},{"user_id":692,"name":"The one who knocks","steam_id":76561198089341471,"connected_time":215000000000,"state":"active","ping":71},{"user_id":669,"name":"Alex","steam_id":76561198137086239,"connected_time":1841000000000,"state":"active","ping":51},{"user_id":660,"name":"Miiukade","steam_id":76561198089157860,"connected_time":2210000000000,"state":"active","ping":136},{"user_id":607,"name":"ninja fortnajt","steam_id":76561198442437488,"connected_time":5189000000000,"state":"active","ping":60},{"user_id":656,"name":"profreshional cactus","steam_id":76561198837919828,"connected_time":2330000000000,"state":"active","ping":98},{"user_id":689,"name":"Tea","steam_id":76561198799243030,"connected_time":297000000000,"state":"active","ping":103},{"user_id":659,"name":"slorp","steam_id":76561198239927434,"connected_time":2242000000000,"state":"active","ping":90},{"user_id":648,"name":"Qwerty","steam_id":76561198023525894,"connected_time":2990000000000,"state":"active","ping":88},{"user_id":677,"name":"plazma","steam_id":76561198886594048,"connected_time":1145000000000,"state":"active","ping":100},{"user_id":649,"name":"Protector.CZ","steam_id":76561197972341084,"connected_time":2989000000000,"state":"active","ping":72},{"user_id":667,"name":"Mach","steam_id":76561198952487564,"connected_time":2016000000000,"state":"active","ping":176},{"user_id":632,"name":"s a i","steam_id":76561197970379754,"connected_time":3770000000000,"state":"active","ping":60},{"user_id":687,"name":"Happy Little Accidents","steam_id":76561198153810367,"connected_time":430000000000,"state":"active","ping":60},{"user_id":688,"name":"magicBoIrose","steam_id":76561198007481914,"connected_time":313000000000,"state":"active","ping":84},{"user_id":662,"name":"James","steam_id":76561198168882012,"connected_time":2181000000000,"state":"active","ping":70},{"user_id":684,"name":"l8 sk8ter boi","steam_id":76561198031573426,"connected_time":467000000000,"state":"active","ping":73},{"user_id":690,"name":"vetzakski","steam_id":76561198988041775,"connected_time":292000000000,"state":"active","ping":86},{"user_id":691,"name":"flange","steam_id":76561198040182692,"connected_time":290000000000,"state":"active","ping":54},{"user_id":678,"name":"fr","steam_id":76561198299040854,"connected_time":1143000000000,"state":"active","ping":63},{"user_id":679,"name":"The Lady","steam_id":76561198029895809,"connected_time":1054000000000,"state":"active","ping":77},{"user_id":683,"name":"Kepler_62f","steam_id":76561199005732555,"connected_time":678000000000,"state":"active","ping":70},{"user_id":666,"name":"ehehehehehhe","steam_id":76561198044502435,"connected_time":2150000000000,"state":"active","ping":87},{"user_id":686,"name":"Daruun","steam_id":76561198019068781,"connected_time":441000000000,"state":"active","ping":75}]},{"server_id":110,"name":"Uncletopia | Frankfurt | 2 | All Maps","name_short":"frk-2","host":"frk-1.de.uncletopia.com","port":27025,"enabled":true,"region":"eu","cc":"de","latitude":50.110924,"longitude":8.682127,"reserved":0,"last_update":"0001-01-01T00:00:00Z","name_a2s":"Uncletopia | Frankfurt | 2 | All Maps","protocol":17,"map":"ctf_doublecross","folder":"tf","game":"Team Fortress","app_id":440,"player_count":18,"max_players":24,"Bots":0,"server_type":"Dedicated","server_os":"Linux","password":true,"vac":true,"version":"7961495","steam_id":85568392924469990,"keywords":["ctf","nocrits","nodmgspread","uncletopia"],"game_id":440,"stv_port":27026,"stv_name":"Uncletopia | Frankfurt | 2 | All Maps | STV","players":[{"user_id":548,"name":"Chucko Kokos","steam_id":76561198112553005,"connected_time":5000000000,"state":"spawning","ping":60},{"user_id":542,"name":"chair 2.0","steam_id":76561199233470150,"connected_time":832000000000,"state":"spawning","ping":53},{"user_id":538,"name":"Amon Gus","steam_id":76561199094540960,"connected_time":1448000000000,"state":"active","ping":61},{"user_id":543,"name":"KNNTX","steam_id":76561198161313074,"connected_time":598000000000,"state":"spawning","ping":97},{"user_id":529,"name":"Dr Nefario","steam_id":76561198254646194,"connected_time":1854000000000,"state":"active","ping":134},{"user_id":550,"name":"resu","steam_id":76561198992026574,"connected_time":2000000000,"state":"spawning","ping":55},{"user_id":521,"name":"Chaffy2125","steam_id":76561198232839260,"connected_time":2324000000000,"state":"spawning","ping":50},{"user_id":546,"name":"huhnkieleo","steam_id":76561198031325797,"connected_time":143000000000,"state":"spawning","ping":66},{"user_id":527,"name":"smookie20","steam_id":76561198435986481,"connected_time":1923000000000,"state":"spawning","ping":59},{"user_id":536,"name":"ant753","steam_id":76561198103458889,"connected_time":1509000000000,"state":"spawning","ping":64},{"user_id":539,"name":"ein'd","steam_id":76561198152162834,"connected_time":1280000000000,"state":"spawning","ping":104},{"user_id":515,"name":"Lopat","steam_id":76561198820264239,"connected_time":2620000000000,"state":"active","ping":98},{"user_id":516,"name":"ForniFaun","steam_id":76561198065335696,"connected_time":2616000000000,"state":"active","ping":69},{"user_id":547,"name":"Lernix","steam_id":76561198382328645,"connected_time":41000000000,"state":"spawning","ping":47},{"user_id":532,"name":"Edgy Name","steam_id":76561198378270820,"connected_time":1780000000000,"state":"active","ping":59},{"user_id":541,"name":"forv","steam_id":76561198326667006,"connected_time":1177000000000,"state":"spawning","ping":79},{"user_id":518,"name":"domek brexit geezerüá¨üáß","steam_id":76561198048447632,"connected_time":2507000000000,"state":"spawning","ping":49},{"user_id":460,"name":"Alyosha","steam_id":76561198032771167,"connected_time":5703000000000,"state":"active","ping":75}]},{"server_id":308,"name":"Uncletopia | Frankfurt | 3 | All Maps","name_short":"frk-3","host":"frk-1.de.uncletopia.com","port":27035,"enabled":true,"region":"eu","cc":"de","latitude":50.110924,"longitude":8.682127,"reserved":0,"last_update":"0001-01-01T00:00:00Z","name_a2s":"Uncletopia | Frankfurt | 3 | All Maps","protocol":17,"map":"pl_barnblitz","folder":"tf","game":"Team Fortress","app_id":440,"player_count":24,"max_players":24,"Bots":0,"server_type":"Dedicated","server_os":"Linux","password":true,"vac":true,"version":"7961495","steam_id":85568392924504274,"keywords":["nocrits","nodmgspread","payload","uncletopia"],"game_id":440,"stv_port":27036,"stv_name":"Uncletopia | Frankfurt | 3 | All Maps | STV","players":[{"user_id":460,"name":"sunshine","steam_id":76561198084597975,"connected_time":4714000000000,"state":"active","ping":51},{"user_id":530,"name":"KingPotatoChips","steam_id":76561198035156465,"connected_time":1100000000000,"state":"active","ping":60},{"user_id":514,"name":"klabautermann-67","steam_id":76561199054888931,"connected_time":1823000000000,"state":"active","ping":48},{"user_id":481,"name":"Hulio Sanchez","steam_id":76561198831413561,"connected_time":3807000000000,"state":"active","ping":74},{"user_id":521,"name":"skeleton_archer_1","steam_id":76561198407636430,"connected_time":1323000000000,"state":"active","ping":91},{"user_id":515,"name":"tf2 snake","steam_id":76561198193971167,"connected_time":1763000000000,"state":"active","ping":54},{"user_id":522,"name":"Victoria NyaNya","steam_id":76561198386462300,"connected_time":1321000000000,"state":"active","ping":104},{"user_id":531,"name":"Silver","steam_id":76561198175238807,"connected_time":933000000000,"state":"active","ping":66},{"user_id":487,"name":"BELADIT","steam_id":76561198011911501,"connected_time":2907000000000,"state":"active","ping":74},{"user_id":523,"name":"The Entire Population of Canada","steam_id":76561198090187112,"connected_time":1313000000000,"state":"active","ping":137},{"user_id":532,"name":"Dolcelatte","steam_id":76561198038501770,"connected_time":844000000000,"state":"active","ping":59},{"user_id":450,"name":"testiculartorsiontom","steam_id":76561199401705232,"connected_time":5729000000000,"state":"active","ping":76},{"user_id":524,"name":"NANI?!?!?!","steam_id":76561198172078559,"connected_time":1272000000000,"state":"active","ping":77},{"user_id":444,"name":"bapab","steam_id":76561198307556377,"connected_time":5874000000000,"state":"active","ping":66},{"user_id":504,"name":"Zeppelin","steam_id":76561198154867991,"connected_time":2329000000000,"state":"active","ping":48},{"user_id":525,"name":"Dkz","steam_id":76561197970673402,"connected_time":1258000000000,"state":"active","ping":51},{"user_id":518,"name":"breeze rock tribute computer","steam_id":76561198979579915,"connected_time":1617000000000,"state":"active","ping":79},{"user_id":526,"name":"Jack Communist","steam_id":76561198029767238,"connected_time":1223000000000,"state":"active","ping":107},{"user_id":512,"name":"gneeda","steam_id":76561198147249160,"connected_time":1997000000000,"state":"active","ping":97},{"user_id":527,"name":"Glenn Quagmire","steam_id":76561199348527880,"connected_time":1223000000000,"state":"active","ping":90},{"user_id":482,"name":"PelikaanEi","steam_id":76561198129780959,"connected_time":3789000000000,"state":"active","ping":58},{"user_id":528,"name":"Delcup","steam_id":76561199006338376,"connected_time":1222000000000,"state":"active","ping":127},{"user_id":449,"name":"cargo_conductor_754","steam_id":76561198165604007,"connected_time":5817000000000,"state":"active","ping":62},{"user_id":529,"name":"Max","steam_id":76561198138959361,"connected_time":1200000000000,"state":"active","ping":60}]},{"server_id":309,"name":"Uncletopia | Frankfurt | 4 | All Maps","name_short":"frk-4","host":"frk-1.de.uncletopia.com","port":27045,"enabled":true,"region":"eu","cc":"de","latitude":50.110924,"longitude":8.682127,"reserved":0,"last_update":"0001-01-01T00:00:00Z","name_a2s":"Uncletopia | Frankfurt | 4 | All Maps","protocol":17,"map":"pl_badwater","folder":"tf","game":"Team Fortress","app_id":440,"player_count":24,"max_players":24,"Bots":0,"server_type":"Dedicated","server_os":"Linux","password":true,"vac":true,"version":"7961495","steam_id":85568392924504275,"keywords":["nocrits","nodmgspread","payload","uncletopia"],"game_id":440,"stv_port":27046,"stv_name":"Uncletopia | Frankfurt | 4 | All Maps | STV","players":[{"user_id":340,"name":"unmute me plz TwT","steam_id":76561198134378108,"connected_time":1056000000000,"state":"active","ping":108},{"user_id":315,"name":"Ross from F.R.I.E.N.D.S.","steam_id":76561198008511665,"connected_time":2899000000000,"state":"active","ping":60},{"user_id":341,"name":"heal","steam_id":76561198046754534,"connected_time":1027000000000,"state":"active","ping":77},{"user_id":339,"name":"Perci","steam_id":76561198097789669,"connected_time":1078000000000,"state":"active","ping":59},{"user_id":332,"name":"Ed geen","steam_id":76561198184360615,"connected_time":2141000000000,"state":"active","ping":90},{"user_id":338,"name":"gosi","steam_id":76561198084111532,"connected_time":1107000000000,"state":"active","ping":60},{"user_id":311,"name":"Rigby","steam_id":76561198021552128,"connected_time":3036000000000,"state":"active","ping":100},{"user_id":345,"name":"f√©nix","steam_id":76561198083199151,"connected_time":462000000000,"state":"active","ping":60},{"user_id":274,"name":"fuck you specifically","steam_id":76561198873663460,"connected_time":6013000000000,"state":"active","ping":89},{"user_id":337,"name":"[T]aKer","steam_id":76561198001778013,"connected_time":1120000000000,"state":"active","ping":51},{"user_id":310,"name":"Valheim","steam_id":76561198044199912,"connected_time":3178000000000,"state":"active","ping":83},{"user_id":316,"name":"Fiurius","steam_id":76561198151910950,"connected_time":2865000000000,"state":"active","ping":62},{"user_id":318,"name":"Eddy Merckx 2","steam_id":76561198150009727,"connected_time":2843000000000,"state":"active","ping":68},{"user_id":283,"name":"Happy Cat","steam_id":76561198405359788,"connected_time":5736000000000,"state":"active","ping":92},{"user_id":319,"name":"Bob the notorious taker of shit","steam_id":76561198873306107,"connected_time":2841000000000,"state":"active","ping":46},{"user_id":301,"name":"sogg√§h","steam_id":76561198046694824,"connected_time":4365000000000,"state":"active","ping":50},{"user_id":323,"name":"Master Of Noob","steam_id":76561198217926783,"connected_time":2672000000000,"state":"active","ping":73},{"user_id":300,"name":"Magiccomplex","steam_id":76561199203555188,"connected_time":4414000000000,"state":"active","ping":45},{"user_id":322,"name":"randompixel","steam_id":76561198003941207,"connected_time":2783000000000,"state":"active","ping":74},{"user_id":321,"name":"mohemmedmokhter2005","steam_id":76561199197650506,"connected_time":2798000000000,"state":"active","ping":104},{"user_id":333,"name":"TidB","steam_id":76561198055342304,"connected_time":2004000000000,"state":"active","ping":54},{"user_id":324,"name":"Max Power","steam_id":76561198019269089,"connected_time":2590000000000,"state":"active","ping":52},{"user_id":344,"name":"PAWGZILLA","steam_id":76561197995048229,"connected_time":991000000000,"state":"active","ping":80},{"user_id":227,"name":"TheEventGuy","steam_id":76561197972797744,"connected_time":9378000000000,"state":"active","ping":71}]},{"server_id":310,"name":"Uncletopia | Frankfurt | 5 | All Maps","name_short":"frk-5","host":"frk-1.de.uncletopia.com","port":27055,"enabled":true,"region":"eu","cc":"de","latitude":50.110924,"longitude":8.682127,"reserved":0,"last_update":"0001-01-01T00:00:00Z","name_a2s":"Uncletopia | Frankfurt | 5 | All Maps","protocol":17,"map":"pl_thundermountain","folder":"tf","game":"Team Fortress","app_id":440,"player_count":24,"max_players":24,"Bots":0,"server_type":"Dedicated","server_os":"Linux","password":true,"vac":true,"version":"7961495","steam_id":85568392924504277,"keywords":["nocrits","nodmgspread","payload","uncletopia"],"game_id":440,"stv_port":27056,"stv_name":"Uncletopia | Frankfurt | 5 | All Maps | STV","players":[{"user_id":398,"name":"Mish","steam_id":76561198302973642,"connected_time":803000000000,"state":"active","ping":96},{"user_id":403,"name":"equalizer","steam_id":76561198095672945,"connected_time":7000000000,"state":"spawning","ping":105},{"user_id":367,"name":"garymg","steam_id":76561198028368190,"connected_time":4072000000000,"state":"active","ping":107},{"user_id":399,"name":"cult","steam_id":76561198188647690,"connected_time":766000000000,"state":"active","ping":74},{"user_id":344,"name":"smaller columbo","steam_id":76561198065516212,"connected_time":5958000000000,"state":"active","ping":84},{"user_id":395,"name":"Flint","steam_id":76561197995920776,"connected_time":1379000000000,"state":"active","ping":42},{"user_id":383,"name":"COTHuK","steam_id":76561198330633932,"connected_time":2243000000000,"state":"active","ping":74},{"user_id":342,"name":"EGirl | Klarra","steam_id":76561198077745407,"connected_time":5982000000000,"state":"active","ping":71},{"user_id":370,"name":"grrokr","steam_id":76561199003462804,"connected_time":3951000000000,"state":"active","ping":83},{"user_id":343,"name":"Eaglet01","steam_id":76561198405491601,"connected_time":5963000000000,"state":"active","ping":88},{"user_id":362,"name":"Ottetal","steam_id":76561198018528609,"connected_time":4737000000000,"state":"active","ping":73},{"user_id":400,"name":"–®–∞–ø–∫–∞ #TF2Center","steam_id":76561198368792603,"connected_time":320000000000,"state":"active","ping":74},{"user_id":377,"name":"mkwii","steam_id":76561198062507768,"connected_time":3185000000000,"state":"active","ping":60},{"user_id":369,"name":"Bullet magnet (FIN)","steam_id":76561197975715220,"connected_time":4067000000000,"state":"active","ping":84},{"user_id":392,"name":"FOX","steam_id":76561199118103398,"connected_time":1517000000000,"state":"active","ping":81},{"user_id":352,"name":"Jessica","steam_id":76561198137106459,"connected_time":5533000000000,"state":"active","ping":74},{"user_id":390,"name":"etc","steam_id":76561197998394797,"connected_time":1577000000000,"state":"active","ping":59},{"user_id":305,"name":"Anri Okita's Massive Milkers","steam_id":76561199186352720,"connected_time":8041000000000,"state":"active","ping":82},{"user_id":379,"name":"flave","steam_id":76561198056372101,"connected_time":2981000000000,"state":"active","ping":67},{"user_id":401,"name":"Qdarks","steam_id":76561198013391340,"connected_time":64000000000,"state":"active","ping":145},{"user_id":349,"name":"fat c’Ωnt","steam_id":76561198845550388,"connected_time":5879000000000,"state":"active","ping":117},{"user_id":359,"name":"‰Ω†ÂñúÊ¨¢ÂÆÉ?","steam_id":76561198201424726,"connected_time":5058000000000,"state":"active","ping":163},{"user_id":397,"name":"lore","steam_id":76561198120984188,"connected_time":843000000000,"state":"active","ping":59},{"user_id":306,"name":"cuzimlatin2704","steam_id":76561199094752899,"connected_time":8040000000000,"state":"active","ping":154}]},{"server_id":311,"name":"Uncletopia | Frankfurt | 6 | All Maps","name_short":"frk-6","host":"frk-1.de.uncletopia.com","port":27065,"enabled":true,"region":"eu","cc":"de","latitude":50.110924,"longitude":8.682127,"reserved":0,"last_update":"0001-01-01T00:00:00Z","name_a2s":"Uncletopia | Frankfurt | 6 | All Maps","protocol":17,"map":"cp_sunshine","folder":"tf","game":"Team Fortress","app_id":440,"player_count":24,"max_players":24,"Bots":0,"server_type":"Dedicated","server_os":"Linux","password":true,"vac":true,"version":"7961495","steam_id":85568392924504278,"keywords":["cp","nocrits","nodmgspread","uncletopia"],"game_id":440,"stv_port":27066,"stv_name":"Uncletopia | Frankfurt | 6 | All Maps | STV","players":[{"user_id":536,"name":"Kamikrazy","steam_id":76561198044254918,"connected_time":656000000000,"state":"active","ping":69},{"user_id":532,"name":"chillrend_morphs_high_lod6","steam_id":76561198452963141,"connected_time":928000000000,"state":"active","ping":75},{"user_id":520,"name":"you (DK)","steam_id":76561198061472971,"connected_time":1847000000000,"state":"active","ping":53},{"user_id":527,"name":"D√•vid","steam_id":76561198184135755,"connected_time":1649000000000,"state":"active","ping":60},{"user_id":443,"name":"Kreos","steam_id":76561198094772516,"connected_time":6735000000000,"state":"active","ping":51},{"user_id":521,"name":"i do hard drugs on the regular","steam_id":76561198263228457,"connected_time":1825000000000,"state":"active","ping":90},{"user_id":533,"name":"Star in a pond","steam_id":76561198205501279,"connected_time":905000000000,"state":"active","ping":101},{"user_id":537,"name":"Mega","steam_id":76561197970389664,"connected_time":638000000000,"state":"active","ping":47},{"user_id":541,"name":"Sirocco","steam_id":76561198068857858,"connected_time":460000000000,"state":"active","ping":114},{"user_id":514,"name":"Carrot Arc","steam_id":76561198164957006,"connected_time":2588000000000,"state":"active","ping":85},{"user_id":524,"name":"TylowStar","steam_id":76561198357107806,"connected_time":1791000000000,"state":"active","ping":60},{"user_id":471,"name":"RebirthInFire","steam_id":76561198200555755,"connected_time":5327000000000,"state":"active","ping":58},{"user_id":476,"name":"antlionguard","steam_id":76561198072747143,"connected_time":5039000000000,"state":"active","ping":90},{"user_id":516,"name":"Nonok","steam_id":76561199480685498,"connected_time":2532000000000,"state":"active","ping":72},{"user_id":498,"name":"Gosman","steam_id":76561198062956955,"connected_time":3406000000000,"state":"active","ping":74},{"user_id":542,"name":"Lukas","steam_id":76561198009118452,"connected_time":148000000000,"state":"active","ping":54},{"user_id":501,"name":"Syd","steam_id":76561198020515027,"connected_time":3236000000000,"state":"active","ping":63},{"user_id":525,"name":"Losre","steam_id":76561198071393125,"connected_time":1761000000000,"state":"active","ping":71},{"user_id":526,"name":"The SexHaver Gamer","steam_id":76561198093735871,"connected_time":1752000000000,"state":"active","ping":58},{"user_id":538,"name":"felanmalan","steam_id":76561198115691074,"connected_time":620000000000,"state":"active","ping":72},{"user_id":467,"name":"roblan11","steam_id":76561198066839258,"connected_time":5694000000000,"state":"active","ping":48},{"user_id":535,"name":"Rin-Nakaret","steam_id":76561197971051188,"connected_time":897000000000,"state":"active","ping":64},{"user_id":417,"name":"Ewelinka Zniszczenia","steam_id":76561198307374456,"connected_time":8210000000000,"state":"active","ping":65},{"user_id":419,"name":"Kaishakunin","steam_id":76561198028123874,"connected_time":8167000000000,"state":"active","ping":101}]},{"server_id":23,"name":"Uncletopia | Frankfurt | 7 | Stopwatch Beta","name_short":"frk-7","host":"frk-1.de.uncletopia.com","port":27075,"enabled":true,"region":"eu","cc":"de","latitude":50.110924,"longitude":8.682127,"reserved":0,"last_update":"0001-01-01T00:00:00Z","name_a2s":"Uncletopia | Frankfurt | 7 | Stopwatch Beta","protocol":17,"map":"workshop/koth_ashville_final.ugc2130459942","folder":"tf","game":"Team Fortress","app_id":440,"player_count":0,"max_players":24,"Bots":0,"server_type":"Dedicated","server_os":"Linux","password":true,"vac":true,"version":"7961495","steam_id":85568392924742827,"keywords":["cp","nocrits","nodmgspread","uncletopia"],"game_id":440,"stv_port":27076,"stv_name":"Uncletopia | Frankfurt | 7 | Stopwatch Beta | STV","players":null},{"server_id":24,"name":"Uncletopia | Frankfurt | 8 | Community","name_short":"frk-8","host":"frk-1.de.uncletopia.com","port":27085,"enabled":true,"region":"eu","cc":"de","latitude":50.110924,"longitude":8.682127,"reserved":0,"last_update":"0001-01-01T00:00:00Z","name_a2s":"Uncletopia | Frankfurt | 8 | Community","protocol":17,"map":"workshop/koth_product_final.ugc454272353","folder":"tf","game":"Team Fortress","app_id":440,"player_count":12,"max_players":24,"Bots":0,"server_type":"Dedicated","server_os":"Linux","password":true,"vac":true,"version":"7961495","steam_id":85568392924742828,"keywords":["cp","nocrits","nodmgspread","uncletopia"],"game_id":440,"stv_port":27086,"stv_name":"Uncletopia | Frankfurt | 8 | Community | STV","players":[{"user_id":88,"name":"Jack.Orlando","steam_id":76561198802400236,"connected_time":254000000000,"state":"active","ping":70},{"user_id":83,"name":"DaeNIEL","steam_id":76561198222301068,"connected_time":2734000000000,"state":"active","ping":62},{"user_id":81,"name":"certified roast beaf maniac","steam_id":76561198081766547,"connected_time":3714000000000,"state":"active","ping":71},{"user_id":89,"name":"OMacMacca","steam_id":76561198152547448,"connected_time":235000000000,"state":"active","ping":388},{"user_id":87,"name":"Baron","steam_id":76561198021901783,"connected_time":266000000000,"state":"active","ping":66},{"user_id":90,"name":"Horo","steam_id":76561198009504508,"connected_time":144000000000,"state":"active","ping":56},{"user_id":91,"name":"Dlrow","steam_id":76561198086659946,"connected_time":143000000000,"state":"active","ping":108},{"user_id":92,"name":"Teecho","steam_id":76561197995269610,"connected_time":71000000000,"state":"active","ping":67},{"user_id":93,"name":"Jeƒçmen","steam_id":76561198051617968,"connected_time":33000000000,"state":"active","ping":63},{"user_id":94,"name":"PapaMaxy","steam_id":76561198256362726,"connected_time":22000000000,"state":"active","ping":74},{"user_id":95,"name":"TheEmeraldStar","steam_id":76561198072942529,"connected_time":11000000000,"state":"spawning","ping":95},{"user_id":96,"name":"Pro_100_tak","steam_id":76561198211701039,"connected_time":0,"state":"spawning","ping":22}]},{"server_id":202,"name":"Uncletopia | Hong Kong | 1 | All Maps","name_short":"hgk-1","host":"hgk-1.hk.uncletopia.com","port":27015,"enabled":true,"region":"asia","cc":"hk","latitude":22.302711,"longitude":114.177216,"reserved":0,"last_update":"0001-01-01T00:00:00Z","name_a2s":"Uncletopia | Hong Kong | 1 | All Maps","protocol":17,"map":"ctf_2fort","folder":"tf","game":"Team Fortress","app_id":440,"player_count":0,"max_players":24,"Bots":0,"server_type":"Dedicated","server_os":"Linux","password":true,"vac":true,"version":"7961495","steam_id":85568392924494504,"keywords":["ctf","nocrits","nodmgspread","uncletopia"],"game_id":440,"stv_port":27016,"stv_name":"Uncletopia | Hong Kong | 1 | All Maps | STV","players":null},{"server_id":1,"name":"Uncletopia | Los Angeles | 1 | All Maps","name_short":"lax-1","host":"lax-1.us.uncletopia.com","port":27015,"enabled":true,"region":"us-west","cc":"us","latitude":33.94279,"longitude":-118.41004,"reserved":0,"last_update":"0001-01-01T00:00:00Z","name_a2s":"Uncletopia | Los Angeles | 1 | All Maps","protocol":17,"map":"pl_pier","folder":"tf","game":"Team Fortress","app_id":440,"player_count":24,"max_players":24,"Bots":0,"server_type":"Dedicated","server_os":"Linux","password":true,"vac":true,"version":"7961495","steam_id":85568392924469991,"keywords":["nocrits","nodmgspread","payload","uncletopia"],"game_id":440,"stv_port":27016,"stv_name":"Uncletopia | Los Angeles | 1 | All Maps | STV","players":[{"user_id":187,"name":"JimmY","steam_id":76561198386339252,"connected_time":1099000000000,"state":"active","ping":84},{"user_id":202,"name":"Hungry Man","steam_id":76561198055089667,"connected_time":49000000000,"state":"active","ping":61},{"user_id":180,"name":"shadow wizard money gang","steam_id":76561198418414338,"connected_time":1750000000000,"state":"active","ping":85},{"user_id":185,"name":"Zykron","steam_id":76561199056400800,"connected_time":1257000000000,"state":"active","ping":84},{"user_id":188,"name":"Space360","steam_id":76561198106743284,"connected_time":1060000000000,"state":"active","ping":80},{"user_id":201,"name":"ejschild745","steam_id":76561199013388867,"connected_time":252000000000,"state":"active","ping":104},{"user_id":142,"name":"eggplantgirl‚ô•","steam_id":76561198811515692,"connected_time":4666000000000,"state":"active","ping":45},{"user_id":190,"name":"De Monki","steam_id":76561198964210411,"connected_time":816000000000,"state":"active","ping":65},{"user_id":155,"name":"puffer","steam_id":76561199049164456,"connected_time":3454000000000,"state":"active","ping":69},{"user_id":191,"name":"RocketofPanda(It/They)","steam_id":76561198133133187,"connected_time":801000000000,"state":"active","ping":55},{"user_id":125,"name":"I am just a fish","steam_id":76561198062459671,"connected_time":5546000000000,"state":"active","ping":53},{"user_id":176,"name":"Rock Kickass","steam_id":76561198450510841,"connected_time":2245000000000,"state":"active","ping":84},{"user_id":186,"name":"aintnowaiyboi","steam_id":76561198301372369,"connected_time":1232000000000,"state":"active","ping":60},{"user_id":166,"name":"Coxsackie","steam_id":76561198134492046,"connected_time":2532000000000,"state":"active","ping":46},{"user_id":58,"name":"don't get mad","steam_id":76561198064662875,"connected_time":8821000000000,"state":"active","ping":57},{"user_id":194,"name":"KayDragon","steam_id":76561198085506604,"connected_time":463000000000,"state":"active","ping":59},{"user_id":181,"name":"It's a Doggydog World","steam_id":76561198018232414,"connected_time":1743000000000,"state":"active","ping":74},{"user_id":137,"name":"2Fort Cactus","steam_id":76561199273395913,"connected_time":4736000000000,"state":"active","ping":87},{"user_id":171,"name":"Fightin Cow","steam_id":76561198080941486,"connected_time":2478000000000,"state":"active","ping":92},{"user_id":182,"name":"scrich scrich","steam_id":76561198123287268,"connected_time":1735000000000,"state":"active","ping":102},{"user_id":157,"name":"momus","steam_id":76561198966979196,"connected_time":3335000000000,"state":"active","ping":53},{"user_id":172,"name":"Matches_","steam_id":76561198048925904,"connected_time":2384000000000,"state":"active","ping":61},{"user_id":196,"name":"Anotherordinary1","steam_id":76561199258223335,"connected_time":447000000000,"state":"active","ping":55},{"user_id":198,"name":"Mack","steam_id":76561197970537438,"connected_time":346000000000,"state":"active","ping":113}]},{"server_id":112,"name":"Uncletopia | Los Angeles | 2 | All Maps","name_short":"lax-2","host":"lax-1.us.uncletopia.com","port":27025,"enabled":true,"region":"us-west","cc":"us","latitude":33.94279,"longitude":-118.41004,"reserved":0,"last_update":"0001-01-01T00:00:00Z","name_a2s":"Uncletopia | Los Angeles | 2 | All Maps","protocol":17,"map":"pl_frontier_final","folder":"tf","game":"Team Fortress","app_id":440,"player_count":24,"max_players":24,"Bots":0,"server_type":"Dedicated","server_os":"Linux","password":true,"vac":true,"version":"7961495","steam_id":85568392924469992,"keywords":["nocrits","nodmgspread","payload","uncletopia"],"game_id":440,"stv_port":27026,"stv_name":"Uncletopia | Los Angeles | 2 | All Maps | STV","players":[{"user_id":132,"name":"Mediocre","steam_id":76561198056352693,"connected_time":7000000000,"state":"spawning","ping":30},{"user_id":115,"name":"WOOFWOOFWOOFWOOF","steam_id":76561199208549381,"connected_time":1196000000000,"state":"active","ping":64},{"user_id":59,"name":"A UsedNom","steam_id":76561198402832756,"connected_time":4975000000000,"state":"active","ping":43},{"user_id":116,"name":"El G√ºey","steam_id":76561197970450546,"connected_time":1192000000000,"state":"active","ping":84},{"user_id":130,"name":"The Freak","steam_id":76561198272394205,"connected_time":425000000000,"state":"active","ping":63},{"user_id":105,"name":"Sasuri","steam_id":76561198404769732,"connected_time":2201000000000,"state":"active","ping":50},{"user_id":117,"name":"Brisk","steam_id":76561198114461925,"connected_time":1180000000000,"state":"active","ping":108},{"user_id":118,"name":"eddieibarranorton","steam_id":76561199229418999,"connected_time":1164000000000,"state":"active","ping":69},{"user_id":126,"name":"ConfusedLemon","steam_id":76561198327055556,"connected_time":916000000000,"state":"active","ping":86},{"user_id":110,"name":"Nubbo","steam_id":76561198980221190,"connected_time":1823000000000,"state":"active","ping":78},{"user_id":131,"name":"Eric4bz","steam_id":76561198054439606,"connected_time":119000000000,"state":"active","ping":84},{"user_id":128,"name":"triph","steam_id":76561198067196509,"connected_time":776000000000,"state":"active","ping":45},{"user_id":104,"name":"DonoC","steam_id":76561198274473338,"connected_time":2261000000000,"state":"active","ping":108},{"user_id":96,"name":"doge","steam_id":76561198280088862,"connected_time":2587000000000,"state":"active","ping":69},{"user_id":121,"name":"FireQuiz","steam_id":76561198107357249,"connected_time":1116000000000,"state":"active","ping":71},{"user_id":102,"name":"SomeRandomPerson (f2p)","steam_id":76561198977045933,"connected_time":2335000000000,"state":"active","ping":143},{"user_id":85,"name":"ilun","steam_id":76561198042913843,"connected_time":3436000000000,"state":"active","ping":89},{"user_id":122,"name":"wafflehamster2000","steam_id":76561198849161820,"connected_time":1113000000000,"state":"active","ping":118},{"user_id":31,"name":"Starkiller","steam_id":76561198101643120,"connected_time":6670000000000,"state":"active","ping":92},{"user_id":78,"name":"a cat plushie","steam_id":76561198080046542,"connected_time":3937000000000,"state":"active","ping":66},{"user_id":108,"name":"Squashead","steam_id":76561198813564287,"connected_time":1848000000000,"state":"active","ping":59},{"user_id":83,"name":"AstronautPug","steam_id":76561198162372709,"connected_time":3771000000000,"state":"active","ping":110},{"user_id":124,"name":"samuraibender","steam_id":76561198336389126,"connected_time":1099000000000,"state":"active","ping":112},{"user_id":127,"name":"srf_1124","steam_id":76561198434714748,"connected_time":875000000000,"state":"active","ping":57}]},{"server_id":324,"name":"Uncletopia | Los Angeles | 3 | All Maps","name_short":"lax-3","host":"lax-1.us.uncletopia.com","port":27035,"enabled":true,"region":"us-west","cc":"us","latitude":33.94279,"longitude":-118.41004,"reserved":0,"last_update":"0001-01-01T00:00:00Z","name_a2s":"Uncletopia | Los Angeles | 3 | All Maps","protocol":17,"map":"cp_process_final","folder":"tf","game":"Team Fortress","app_id":440,"player_count":0,"max_players":24,"Bots":0,"server_type":"Dedicated","server_os":"Linux","password":true,"vac":true,"version":"7961495","steam_id":85568392924510198,"keywords":["cp","nocrits","nodmgspread","uncletopia"],"game_id":440,"stv_port":27036,"stv_name":"Uncletopia | Los Angeles | 3 | All Maps | STV","players":null},{"server_id":25,"name":"Uncletopia | Los Angeles | 4 | Stopwatch Beta","name_short":"lax-4","host":"lax-1.us.uncletopia.com","port":27045,"enabled":true,"region":"us-west","cc":"us","latitude":33.94279,"longitude":-118.41004,"reserved":0,"last_update":"0001-01-01T00:00:00Z","name_a2s":"Uncletopia | Los Angeles | 4 | Stopwatch Beta","protocol":17,"map":"pl_frontier_final","folder":"tf","game":"Team Fortress","app_id":440,"player_count":0,"max_players":24,"Bots":0,"server_type":"Dedicated","server_os":"Linux","password":true,"vac":true,"version":"7961495","steam_id":85568392924510199,"keywords":["nocrits","nodmgspread","payload","uncletopia"],"game_id":440,"stv_port":27046,"stv_name":"Uncletopia | Los Angeles | 4 | Stopwatch Beta | STV","players":null},{"server_id":11,"name":"Uncletopia | London | 1 | All Maps","name_short":"lon-1","host":"lon-1.uk.uncletopia.com","port":27015,"enabled":true,"region":"eu","cc":"gb","latitude":51.509865,"longitude":-0.118092,"reserved":0,"last_update":"0001-01-01T00:00:00Z","name_a2s":"Uncletopia | London | 1 | All Maps","protocol":17,"map":"pl_pier","folder":"tf","game":"Team Fortress","app_id":440,"player_count":24,"max_players":24,"Bots":0,"server_type":"Dedicated","server_os":"Linux","password":true,"vac":true,"version":"7961495","steam_id":85568392924367362,"keywords":["nocrits","nodmgspread","payload","uncletopia"],"game_id":440,"stv_port":27016,"stv_name":"Uncletopia | London | 1 | All Maps | STV","players":[{"user_id":686,"name":"Voidbane","steam_id":76561198060591741,"connected_time":3122000000000,"state":"active","ping":162},{"user_id":704,"name":"going bananas","steam_id":76561199480942903,"connected_time":1375000000000,"state":"active","ping":70},{"user_id":677,"name":"Adam","steam_id":76561199103777436,"connected_time":3758000000000,"state":"active","ping":76},{"user_id":672,"name":"bigpro21god","steam_id":76561198047359132,"connected_time":3940000000000,"state":"active","ping":74},{"user_id":641,"name":"Badrock 1","steam_id":76561198368513115,"connected_time":6212000000000,"state":"active","ping":119},{"user_id":690,"name":"Kahvi","steam_id":76561198723244199,"connected_time":3023000000000,"state":"active","ping":75},{"user_id":706,"name":"2BCD","steam_id":76561198178254946,"connected_time":1345000000000,"state":"active","ping":68},{"user_id":680,"name":"Joseph Stalin","steam_id":76561198033199746,"connected_time":3554000000000,"state":"active","ping":47},{"user_id":707,"name":"Not A Fake Uncletopia Server","steam_id":76561198152871288,"connected_time":1288000000000,"state":"active","ping":61},{"user_id":676,"name":"alan","steam_id":76561198306947435,"connected_time":3890000000000,"state":"active","ping":117},{"user_id":688,"name":"fence_","steam_id":76561198150386379,"connected_time":3079000000000,"state":"active","ping":45},{"user_id":692,"name":"Bradders","steam_id":76561198072225758,"connected_time":2842000000000,"state":"active","ping":44},{"user_id":702,"name":"flr","steam_id":76561198249327786,"connected_time":1389000000000,"state":"active","ping":60},{"user_id":691,"name":"The_Jaystone","steam_id":76561198126280691,"connected_time":2969000000000,"state":"active","ping":31},{"user_id":703,"name":"Waffle","steam_id":76561198397024973,"connected_time":1385000000000,"state":"active","ping":44},{"user_id":675,"name":"Niko","steam_id":76561198436817109,"connected_time":3894000000000,"state":"active","ping":59},{"user_id":670,"name":"ROX","steam_id":76561198272289320,"connected_time":3978000000000,"state":"active","ping":68},{"user_id":705,"name":"Tengen","steam_id":76561199356990346,"connected_time":1374000000000,"state":"active","ping":103},{"user_id":701,"name":"Cap","steam_id":76561197993692648,"connected_time":1560000000000,"state":"active","ping":99},{"user_id":657,"name":"S.T. Inckee","steam_id":76561197973053298,"connected_time":4704000000000,"state":"active","ping":46},{"user_id":694,"name":"rat exterminator","steam_id":76561199278252995,"connected_time":2752000000000,"state":"active","ping":66},{"user_id":682,"name":"dec","steam_id":76561198009660168,"connected_time":3312000000000,"state":"active","ping":58},{"user_id":708,"name":"Memph","steam_id":76561198093280341,"connected_time":1128000000000,"state":"active","ping":32},{"user_id":679,"name":"Iountzul","steam_id":76561198956308470,"connected_time":3662000000000,"state":"active","ping":84}]},{"server_id":114,"name":"Uncletopia | London | 2 | All Maps","name_short":"lon-2","host":"lon-1.uk.uncletopia.com","port":27025,"enabled":true,"region":"eu","cc":"gb","latitude":51.509865,"longitude":-0.118092,"reserved":0,"last_update":"0001-01-01T00:00:00Z","name_a2s":"Uncletopia | London | 2 | All Maps","protocol":17,"map":"pl_barnblitz","folder":"tf","game":"Team Fortress","app_id":440,"player_count":25,"max_players":24,"Bots":0,"server_type":"Dedicated","server_os":"Linux","password":true,"vac":true,"version":"7961495","steam_id":85568392924470941,"keywords":["nocrits","nodmgspread","payload","uncletopia"],"game_id":440,"stv_port":27026,"stv_name":"Uncletopia | London | 2 | All Maps | STV","players":[{"user_id":738,"name":"Soup","steam_id":76561199081651572,"connected_time":4053000000000,"state":"active","ping":61},{"user_id":756,"name":"LivEssense","steam_id":76561198052476979,"connected_time":3344000000000,"state":"active","ping":77},{"user_id":769,"name":"Naix","steam_id":76561198053893077,"connected_time":2202000000000,"state":"active","ping":53},{"user_id":787,"name":"\u003c blank \u003e","steam_id":76561198059375315,"connected_time":254000000000,"state":"active","ping":78},{"user_id":727,"name":"Mr.O #deletesniper","steam_id":76561198039567498,"connected_time":4468000000000,"state":"active","ping":54},{"user_id":789,"name":"omnibombulator","steam_id":76561198025858897,"connected_time":91000000000,"state":"active","ping":49},{"user_id":779,"name":"General Lee","steam_id":76561198306295023,"connected_time":1370000000000,"state":"active","ping":84},{"user_id":748,"name":"AFairFew","steam_id":76561198194484645,"connected_time":3497000000000,"state":"active","ping":56},{"user_id":786,"name":"Clark","steam_id":76561197998520785,"connected_time":289000000000,"state":"active","ping":77},{"user_id":773,"name":"Sixie","steam_id":76561198251675360,"connected_time":1556000000000,"state":"active","ping":56},{"user_id":774,"name":"Craig Crusade","steam_id":76561199225918086,"connected_time":1526000000000,"state":"active","ping":63},{"user_id":766,"name":"FoOzTV","steam_id":76561197998636728,"connected_time":2678000000000,"state":"active","ping":71},{"user_id":775,"name":"I sell exotic parrots","steam_id":76561199192434258,"connected_time":1519000000000,"state":"active","ping":105},{"user_id":767,"name":"Nornia","steam_id":76561198040509712,"connected_time":2678000000000,"state":"active","ping":60},{"user_id":783,"name":"gibb (official)","steam_id":76561198074097655,"connected_time":903000000000,"state":"active","ping":42},{"user_id":761,"name":"Puss in Boots","steam_id":76561198211599767,"connected_time":2785000000000,"state":"active","ping":54},{"user_id":778,"name":"pablo","steam_id":76561198089285014,"connected_time":1398000000000,"state":"active","ping":74},{"user_id":780,"name":"KLAMA  ‚ù§","steam_id":76561198351549661,"connected_time":1366000000000,"state":"active","ping":75},{"user_id":788,"name":"KrevTiz","steam_id":76561199043366861,"connected_time":254000000000,"state":"active","ping":93},{"user_id":765,"name":"Roachy","steam_id":76561198004508448,"connected_time":2712000000000,"state":"active","ping":44},{"user_id":782,"name":"pizzaboob","steam_id":76561198097507847,"connected_time":1308000000000,"state":"active","ping":86},{"user_id":768,"name":"wal","steam_id":76561198066043883,"connected_time":2567000000000,"state":"active","ping":46},{"user_id":790,"name":"MewZe","steam_id":76561198293664673,"connected_time":8000000000,"state":"spawning","ping":56},{"user_id":754,"name":"Bobo","steam_id":76561198052308399,"connected_time":3409000000000,"state":"active","ping":73},{"user_id":791,"name":"Dr ADHD MD","steam_id":76561198025252995,"connected_time":8000000000,"state":"spawning","ping":43}]},{"server_id":320,"name":"Uncletopia | London | 3 | All Maps","name_short":"lon-3","host":"lon-1.uk.uncletopia.com","port":27035,"enabled":true,"region":"eu","cc":"gb","latitude":51.509865,"longitude":-0.118092,"reserved":0,"last_update":"0001-01-01T00:00:00Z","name_a2s":"Uncletopia | London | 3 | All Maps","protocol":17,"map":"pl_badwater","folder":"tf","game":"Team Fortress","app_id":440,"player_count":24,"max_players":24,"Bots":0,"server_type":"Dedicated","server_os":"Linux","password":true,"vac":true,"version":"7961495","steam_id":85568392924510192,"keywords":["nocrits","nodmgspread","payload","uncletopia"],"game_id":440,"stv_port":27036,"stv_name":"Uncletopia | London | 3 | All Maps | STV","players":[{"user_id":606,"name":"Foreskin Gamer","steam_id":76561198283106341,"connected_time":445000000000,"state":"active","ping":54},{"user_id":590,"name":"irritable vowel syndrome","steam_id":76561198117033273,"connected_time":1346000000000,"state":"active","ping":46},{"user_id":608,"name":"Thors","steam_id":76561197968739075,"connected_time":16000000000,"state":"active","ping":37},{"user_id":610,"name":"mint isnt funny","steam_id":76561199229533711,"connected_time":2000000000,"state":"spawning","ping":50},{"user_id":605,"name":"Hey, I¬¥m Andy!","steam_id":76561198060337777,"connected_time":465000000000,"state":"active","ping":82},{"user_id":582,"name":"Chish n' Fips","steam_id":76561198012300440,"connected_time":1943000000000,"state":"active","ping":48},{"user_id":554,"name":"BenteBent","steam_id":76561198297920637,"connected_time":3858000000000,"state":"active","ping":27},{"user_id":602,"name":"Woman (Real)","steam_id":76561199151823932,"connected_time":536000000000,"state":"active","ping":87},{"user_id":607,"name":"sex haver","steam_id":76561198798892497,"connected_time":359000000000,"state":"active","ping":48},{"user_id":595,"name":"generic alias","steam_id":76561198271607226,"connected_time":635000000000,"state":"active","ping":86},{"user_id":560,"name":"Aroo","steam_id":76561198132601368,"connected_time":3669000000000,"state":"active","ping":78},{"user_id":593,"name":"LiterallyRyanGosling","steam_id":76561199017856691,"connected_time":1095000000000,"state":"active","ping":46},{"user_id":609,"name":"Buddy","steam_id":76561198050185582,"connected_time":15000000000,"state":"active","ping":51},{"user_id":598,"name":"jawA","steam_id":76561198070341774,"connected_time":609000000000,"state":"active","ping":87},{"user_id":600,"name":"highest noon","steam_id":76561199103959197,"connected_time":581000000000,"state":"active","ping":95},{"user_id":577,"name":"pentium gaming","steam_id":76561198806968871,"connected_time":2481000000000,"state":"active","ping":87},{"user_id":566,"name":"mink","steam_id":76561198199117446,"connected_time":3427000000000,"state":"active","ping":51},{"user_id":594,"name":"MaxRub","steam_id":76561198163762990,"connected_time":675000000000,"state":"active","ping":45},{"user_id":568,"name":"flamingosaurus","steam_id":76561198051455397,"connected_time":3372000000000,"state":"active","ping":40},{"user_id":585,"name":"Icelander","steam_id":76561197967295872,"connected_time":1843000000000,"state":"active","ping":55},{"user_id":580,"name":"Doohickey mechanic","steam_id":76561198146180114,"connected_time":2112000000000,"state":"active","ping":92},{"user_id":406,"name":"Gaxkang","steam_id":76561198125768571,"connected_time":15063000000000,"state":"active","ping":50},{"user_id":589,"name":"Akkie.","steam_id":76561198017619091,"connected_time":1565000000000,"state":"active","ping":52},{"user_id":604,"name":"‚ô•Û†Ä°Û†Ä°Û†Ä°‚Åß‚ÅßMystJess","steam_id":76561198091640630,"connected_time":503000000000,"state":"active","ping":51}]},{"server_id":321,"name":"Uncletopia | London | 4 | All Maps","name_short":"lon-4","host":"lon-1.uk.uncletopia.com","port":27045,"enabled":true,"region":"eu","cc":"gb","latitude":51.509865,"longitude":-0.118092,"reserved":0,"last_update":"0001-01-01T00:00:00Z","name_a2s":"Uncletopia | London | 4 | All Maps","protocol":17,"map":"ctf_landfall","folder":"tf","game":"Team Fortress","app_id":440,"player_count":24,"max_players":24,"Bots":0,"server_type":"Dedicated","server_os":"Linux","password":true,"vac":true,"version":"7961495","steam_id":85568392924510193,"keywords":["ctf","nocrits","nodmgspread","uncletopia"],"game_id":440,"stv_port":27046,"stv_name":"Uncletopia | London | 4 | All Maps | STV","players":[{"user_id":354,"name":"The Corsair","steam_id":76561198065486102,"connected_time":435000000000,"state":"active","ping":59},{"user_id":329,"name":"Purpurea","steam_id":76561198075376419,"connected_time":1544000000000,"state":"active","ping":56},{"user_id":348,"name":"ack","steam_id":76561198139796077,"connected_time":712000000000,"state":"active","ping":60},{"user_id":338,"name":"N.","steam_id":76561198017274851,"connected_time":1038000000000,"state":"active","ping":34},{"user_id":299,"name":"A Succulent Chinese Meal","steam_id":76561198069472440,"connected_time":3111000000000,"state":"active","ping":107},{"user_id":256,"name":"soup","steam_id":76561198386933065,"connected_time":5805000000000,"state":"active","ping":73},{"user_id":359,"name":"MrSPY123","steam_id":76561198803380049,"connected_time":216000000000,"state":"active","ping":90},{"user_id":352,"name":"Fwebbie","steam_id":76561199006875621,"connected_time":495000000000,"state":"active","ping":56},{"user_id":360,"name":"Harri Lalies","steam_id":76561198194420078,"connected_time":213000000000,"state":"active","ping":48},{"user_id":320,"name":"0","steam_id":76561199334880197,"connected_time":2047000000000,"state":"active","ping":58},{"user_id":355,"name":"Mr. Watch","steam_id":76561198276103501,"connected_time":403000000000,"state":"active","ping":84},{"user_id":38,"name":":3","steam_id":76561198169471853,"connected_time":22289000000000,"state":"active","ping":43},{"user_id":323,"name":"Ricord","steam_id":76561198104369167,"connected_time":1740000000000,"state":"active","ping":43},{"user_id":339,"name":"hipster_doofus","steam_id":76561197970902697,"connected_time":1031000000000,"state":"active","ping":55},{"user_id":353,"name":"Unbridled","steam_id":76561198113089831,"connected_time":476000000000,"state":"active","ping":90},{"user_id":321,"name":"Cotton Eye Joe","steam_id":76561198080594207,"connected_time":2022000000000,"state":"active","ping":55},{"user_id":345,"name":"jj","steam_id":76561198079200985,"connected_time":873000000000,"state":"active","ping":52},{"user_id":325,"name":"Alegz","steam_id":76561198287810139,"connected_time":1689000000000,"state":"active","ping":64},{"user_id":326,"name":"Twingo","steam_id":76561198207042812,"connected_time":1683000000000,"state":"active","ping":83},{"user_id":363,"name":"tomi","steam_id":76561198001769573,"connected_time":162000000000,"state":"active","ping":76},{"user_id":293,"name":"Sexx Co.","steam_id":76561198881000162,"connected_time":3523000000000,"state":"active","ping":153},{"user_id":344,"name":"stonemonkey","steam_id":76561199478378377,"connected_time":876000000000,"state":"active","ping":55},{"user_id":364,"name":"Prome","steam_id":76561199050383942,"connected_time":62000000000,"state":"active","ping":56},{"user_id":337,"name":"Invoker-sama","steam_id":76561198128470403,"connected_time":1123000000000,"state":"active","ping":114}]},{"server_id":21,"name":"Uncletopia | London | 5 | All Maps","name_short":"lon-5","host":"lon-1.uk.uncletopia.com","port":27055,"enabled":true,"region":"eu","cc":"gb","latitude":51.509865,"longitude":-0.118092,"reserved":0,"last_update":"0001-01-01T00:00:00Z","name_a2s":"Uncletopia | London | 5 | All Maps","protocol":17,"map":"pl_frontier_final","folder":"tf","game":"Team Fortress","app_id":440,"player_count":24,"max_players":24,"Bots":0,"server_type":"Dedicated","server_os":"Linux","password":true,"vac":true,"version":"7961495","steam_id":85568392924742829,"keywords":["nocrits","nodmgspread","payload","uncletopia"],"game_id":440,"stv_port":27056,"stv_name":"Uncletopia | London | 5 | All Maps | STV","players":[{"user_id":499,"name":"ran is running","steam_id":76561199443185667,"connected_time":460000000000,"state":"active","ping":135},{"user_id":463,"name":"Valoxi","steam_id":76561197995042938,"connected_time":1822000000000,"state":"active","ping":62},{"user_id":498,"name":"Random","steam_id":76561199116602799,"connected_time":558000000000,"state":"active","ping":47},{"user_id":501,"name":"Dr. Funkenstein","steam_id":76561197977816210,"connected_time":429000000000,"state":"active","ping":65},{"user_id":413,"name":"GetCremeEgged","steam_id":76561199123415870,"connected_time":4773000000000,"state":"active","ping":65},{"user_id":497,"name":"Owie!!!","steam_id":76561198215391429,"connected_time":573000000000,"state":"active","ping":45},{"user_id":460,"name":"Genesis","steam_id":76561198999652040,"connected_time":1996000000000,"state":"active","ping":51},{"user_id":490,"name":"Proto-arc","steam_id":76561198012776747,"connected_time":1006000000000,"state":"active","ping":46},{"user_id":491,"name":"Milk","steam_id":76561198125876588,"connected_time":919000000000,"state":"active","ping":42},{"user_id":467,"name":"R3inis","steam_id":76561199030393569,"connected_time":1650000000000,"state":"active","ping":87},{"user_id":468,"name":"76561198255576760","steam_id":76561198255576760,"connected_time":1623000000000,"state":"active","ping":60},{"user_id":469,"name":"Mineran","steam_id":76561198357224424,"connected_time":1556000000000,"state":"active","ping":95},{"user_id":470,"name":"ShireDN","steam_id":76561199060272542,"connected_time":1539000000000,"state":"active","ping":67},{"user_id":471,"name":"Top Geezaaa","steam_id":76561198267857927,"connected_time":1514000000000,"state":"active","ping":46},{"user_id":472,"name":"Josef Frauenknecht X","steam_id":76561198061578783,"connected_time":1502000000000,"state":"active","ping":82},{"user_id":500,"name":"8 Ball","steam_id":76561197960988736,"connected_time":446000000000,"state":"active","ping":49},{"user_id":485,"name":"Implywood (they/them)","steam_id":76561198096762648,"connected_time":1116000000000,"state":"active","ping":51},{"user_id":486,"name":"Piellino","steam_id":76561198156873276,"connected_time":1110000000000,"state":"active","ping":105},{"user_id":489,"name":"Femboy gaming","steam_id":76561199213196547,"connected_time":1026000000000,"state":"active","ping":51},{"user_id":478,"name":"peej","steam_id":76561198971475518,"connected_time":1345000000000,"state":"active","ping":54},{"user_id":480,"name":"kryhu","steam_id":76561198293327713,"connected_time":1270000000000,"state":"active","ping":76},{"user_id":428,"name":"Personano","steam_id":76561198994355577,"connected_time":4346000000000,"state":"active","ping":55},{"user_id":330,"name":"Ixsus\u003c3","steam_id":76561198094756869,"connected_time":10811000000000,"state":"active","ping":60},{"user_id":492,"name":"RockFrenzy","steam_id":76561198005428050,"connected_time":917000000000,"state":"active","ping":73}]},{"server_id":22,"name":"Uncletopia | London | 6 | All Maps","name_short":"lon-6","host":"lon-1.uk.uncletopia.com","port":27065,"enabled":true,"region":"eu","cc":"gb","latitude":51.509865,"longitude":-0.118092,"reserved":0,"last_update":"0001-01-01T00:00:00Z","name_a2s":"Uncletopia | London | 6 | All Maps","protocol":17,"map":"koth_cascade","folder":"tf","game":"Team Fortress","app_id":440,"player_count":3,"max_players":24,"Bots":0,"server_type":"Dedicated","server_os":"Linux","password":true,"vac":true,"version":"7961495","steam_id":85568392924742830,"keywords":["cp","nocrits","nodmgspread","uncletopia"],"game_id":440,"stv_port":27066,"stv_name":"Uncletopia | London | 6 | All Maps | STV","players":[{"user_id":40,"name":"big heavy is heavy heavy","steam_id":76561198300059652,"connected_time":164000000000,"state":"active","ping":71},{"user_id":38,"name":"meat man","steam_id":76561199135835032,"connected_time":250000000000,"state":"active","ping":102},{"user_id":39,"name":"schocky_panzer","steam_id":76561197965924454,"connected_time":232000000000,"state":"active","ping":59}]},{"server_id":40,"name":"Uncletopia | London | 7 | No Payload","name_short":"lon-7","host":"lon-1.uk.uncletopia.com","port":27075,"enabled":true,"region":"eu","cc":"gb","latitude":51.509865,"longitude":-0.118092,"reserved":0,"last_update":"0001-01-01T00:00:00Z","name_a2s":"Uncletopia | London | 7 | No Payload","protocol":17,"map":"cp_mountainlab","folder":"tf","game":"Team Fortress","app_id":440,"player_count":24,"max_players":24,"Bots":0,"server_type":"Dedicated","server_os":"Linux","password":true,"vac":true,"version":"7961495","steam_id":85568392924964314,"keywords":["cp","nocrits","nodmgspread","uncletopia"],"game_id":440,"stv_port":27076,"stv_name":"Uncletopia | London | 7 | No Payload | STV","players":[{"user_id":211,"name":"Miss Bari","steam_id":76561198365286092,"connected_time":796000000000,"state":"active","ping":43},{"user_id":204,"name":"Adopted?","steam_id":76561198118667043,"connected_time":1956000000000,"state":"active","ping":45},{"user_id":212,"name":"monitor kernel access (REAL)","steam_id":76561198883869325,"connected_time":779000000000,"state":"active","ping":58},{"user_id":221,"name":"[taurine]","steam_id":76561199181821779,"connected_time":573000000000,"state":"active","ping":56},{"user_id":222,"name":"Mak≈Çowicz","steam_id":76561198281831506,"connected_time":475000000000,"state":"active","ping":86},{"user_id":213,"name":"pampel mouss","steam_id":76561198062850102,"connected_time":741000000000,"state":"active","ping":61},{"user_id":214,"name":"Quentin67700","steam_id":76561198052942055,"connected_time":738000000000,"state":"active","ping":60},{"user_id":197,"name":"mge brother","steam_id":76561198996092998,"connected_time":2431000000000,"state":"active","ping":94},{"user_id":137,"name":"kluri","steam_id":76561198084518962,"connected_time":6362000000000,"state":"active","ping":75},{"user_id":198,"name":"DoomerDodie","steam_id":76561198177853490,"connected_time":2307000000000,"state":"active","ping":67},{"user_id":178,"name":"old dumpster","steam_id":76561198251951544,"connected_time":3255000000000,"state":"active","ping":120},{"user_id":122,"name":"dash.","steam_id":76561198084796149,"connected_time":7581000000000,"state":"active","ping":46},{"user_id":215,"name":"Sensei","steam_id":76561198383582429,"connected_time":735000000000,"state":"active","ping":89},{"user_id":203,"name":"TheH@cker","steam_id":76561198172701090,"connected_time":2019000000000,"state":"active","ping":84},{"user_id":135,"name":"m909","steam_id":76561198279621400,"connected_time":6409000000000,"state":"active","ping":85},{"user_id":202,"name":"all g","steam_id":76561198139729249,"connected_time":2049000000000,"state":"active","ping":92},{"user_id":209,"name":"Brent","steam_id":76561198010769596,"connected_time":1342000000000,"state":"active","ping":56},{"user_id":138,"name":"collin","steam_id":76561198067030681,"connected_time":6353000000000,"state":"active","ping":45},{"user_id":194,"name":"Beep_74 (Duck Gaming)","steam_id":76561199129284969,"connected_time":2492000000000,"state":"active","ping":176},{"user_id":216,"name":"kilikia","steam_id":76561198350261670,"connected_time":724000000000,"state":"active","ping":111},{"user_id":217,"name":"Mixednuts","steam_id":76561199104812195,"connected_time":717000000000,"state":"active","ping":147},{"user_id":218,"name":"POOTIS #saveTF2","steam_id":76561198384735957,"connected_time":711000000000,"state":"active","ping":61},{"user_id":220,"name":"rets","steam_id":76561198061551392,"connected_time":596000000000,"state":"active","ping":56},{"user_id":196,"name":"jill sandwich","steam_id":76561198075068529,"connected_time":2442000000000,"state":"active","ping":61}]},{"server_id":41,"name":"Uncletopia | London | 8 | Community","name_short":"lon-8","host":"lon-1.uk.uncletopia.com","port":27085,"enabled":true,"region":"eu","cc":"gb","latitude":51.509865,"longitude":-0.118092,"reserved":0,"last_update":"0001-01-01T00:00:00Z","name_a2s":"Uncletopia | London | 8 | Community","protocol":17,"map":"workshop/koth_ramjam_rc1.ugc459778887","folder":"tf","game":"Team Fortress","app_id":440,"player_count":0,"max_players":24,"Bots":0,"server_type":"Dedicated","server_os":"Linux","password":true,"vac":true,"version":"7961495","steam_id":85568392924964315,"keywords":["cp","nocrits","nodmgspread","uncletopia"],"game_id":440,"stv_port":27086,"stv_name":"Uncletopia | London | 8 | Community | STV","players":null},{"server_id":300,"name":"Uncletopia | Montr√©al | 1 | All Maps","name_short":"mtl-1","host":"mtl-1.ca.uncletopia.com","port":27015,"enabled":true,"region":"us-east","cc":"ca","latitude":45.50889,"longitude":-73.56167,"reserved":0,"last_update":"0001-01-01T00:00:00Z","name_a2s":"Uncletopia | Montr√©al | 1 | All Maps","protocol":17,"map":"pl_barnblitz","folder":"tf","game":"Team Fortress","app_id":440,"player_count":0,"max_players":24,"Bots":0,"server_type":"Dedicated","server_os":"Linux","password":true,"vac":true,"version":"7961495","steam_id":85568392924500087,"keywords":["nocrits","nodmgspread","payload","uncletopia"],"game_id":440,"stv_port":27016,"stv_name":"Uncletopia | Montr√©al | 1 | All Maps | STV","players":null},{"server_id":301,"name":"Uncletopia | Montr√©al | 2 | All Maps","name_short":"mtl-2","host":"mtl-1.ca.uncletopia.com","port":27025,"enabled":true,"region":"us-east","cc":"ca","latitude":45.50889,"longitude":-73.56167,"reserved":0,"last_update":"0001-01-01T00:00:00Z","name_a2s":"Uncletopia | Montr√©al | 2 | All Maps","protocol":17,"map":"koth_viaduct","folder":"tf","game":"Team Fortress","app_id":440,"player_count":0,"max_players":24,"Bots":0,"server_type":"Dedicated","server_os":"Linux","password":true,"vac":true,"version":"7961495","steam_id":85568392924500088,"keywords":["cp","nocrits","nodmgspread","uncletopia"],"game_id":440,"stv_port":27026,"stv_name":"Uncletopia | Montr√©al | 2 | All Maps | STV","players":null},{"server_id":302,"name":"Uncletopia | Montr√©al | 3 | All Maps","name_short":"mtl-3","host":"mtl-1.ca.uncletopia.com","port":27035,"enabled":true,"region":"us-east","cc":"ca","latitude":45.50889,"longitude":-73.56167,"reserved":0,"last_update":"0001-01-01T00:00:00Z","name_a2s":"Uncletopia | Montr√©al | 3 | All Maps","protocol":17,"map":"cp_mountainlab","folder":"tf","game":"Team Fortress","app_id":440,"player_count":0,"max_players":24,"Bots":0,"server_type":"Dedicated","server_os":"Linux","password":true,"vac":true,"version":"7961495","steam_id":85568392924500089,"keywords":["cp","nocrits","nodmgspread","uncletopia"],"game_id":440,"stv_port":27036,"stv_name":"Uncletopia | Montr√©al | 3 | All Maps | STV","players":null},{"server_id":303,"name":"Uncletopia | Montr√©al | 4 | No Payload","name_short":"mtl-4","host":"mtl-1.ca.uncletopia.com","port":27045,"enabled":true,"region":"us-east","cc":"ca","latitude":45.50889,"longitude":-73.56167,"reserved":0,"last_update":"0001-01-01T00:00:00Z","name_a2s":"Uncletopia | Montr√©al | 4 | No Payload","protocol":17,"map":"plr_pipeline","folder":"tf","game":"Team Fortress","app_id":440,"player_count":9,"max_players":24,"Bots":0,"server_type":"Dedicated","server_os":"Linux","password":true,"vac":true,"version":"7961495","steam_id":85568392924500090,"keywords":["nocrits","nodmgspread","payload","uncletopia"],"game_id":440,"stv_port":27046,"stv_name":"Uncletopia | Montr√©al | 4 | No Payload | STV","players":[{"user_id":5,"name":"Massepower","steam_id":76561198017545173,"connected_time":1114000000000,"state":"active","ping":140},{"user_id":6,"name":"Poke poke poke poke poke","steam_id":76561197991192335,"connected_time":1055000000000,"state":"active","ping":142},{"user_id":7,"name":"Apocalypto","steam_id":76561198013402915,"connected_time":1052000000000,"state":"active","ping":133},{"user_id":8,"name":"Egobrain","steam_id":76561198028157385,"connected_time":1049000000000,"state":"active","ping":140},{"user_id":9,"name":"Athrus","steam_id":76561197972486794,"connected_time":1035000000000,"state":"active","ping":141},{"user_id":10,"name":"Loriel","steam_id":76561198000139585,"connected_time":873000000000,"state":"active","ping":139},{"user_id":11,"name":"Shikyo","steam_id":76561198017118666,"connected_time":721000000000,"state":"active","ping":254},{"user_id":13,"name":"TPScout","steam_id":76561198353808504,"connected_time":309000000000,"state":"active","ping":82},{"user_id":14,"name":"everslnce","steam_id":76561199073895018,"connected_time":122000000000,"state":"active","ping":98}]},{"server_id":13,"name":"Uncletopia | New York City | 1 | All Maps","name_short":"nyc-1","host":"nyc-1.us.uncletopia.com","port":27015,"enabled":true,"region":"us-east","cc":"us","latitude":40.73061,"longitude":-73.93524,"reserved":0,"last_update":"0001-01-01T00:00:00Z","name_a2s":"Uncletopia | New York City | 1 | All Maps","protocol":17,"map":"koth_nucleus","folder":"tf","game":"Team Fortress","app_id":440,"player_count":24,"max_players":24,"Bots":0,"server_type":"Dedicated","server_os":"Linux","password":true,"vac":true,"version":"7961495","steam_id":85568392924469993,"keywords":["cp","nocrits","nodmgspread","uncletopia"],"game_id":440,"stv_port":27016,"stv_name":"Uncletopia | New York City | 1 | All Maps | STV","players":[{"user_id":398,"name":"vadim_kotler","steam_id":76561199016634369,"connected_time":3479000000000,"state":"active","ping":174},{"user_id":426,"name":"AwakenedLaser","steam_id":76561198881657823,"connected_time":1451000000000,"state":"active","ping":134},{"user_id":430,"name":"k3ramb1t","steam_id":76561198097880352,"connected_time":1339000000000,"state":"active","ping":58},{"user_id":367,"name":"Monsieur l'INGENIEUR","steam_id":76561198090504334,"connected_time":4097000000000,"state":"active","ping":60},{"user_id":438,"name":"acid","steam_id":76561198055855408,"connected_time":532000000000,"state":"active","ping":63},{"user_id":435,"name":"Doofenshmirtz Evil Inc.","steam_id":76561198439793697,"connected_time":599000000000,"state":"active","ping":82},{"user_id":414,"name":"Penis Chopper","steam_id":76561199016999537,"connected_time":2244000000000,"state":"active","ping":92},{"user_id":436,"name":"Flashtasm","steam_id":76561198026635660,"connected_time":582000000000,"state":"active","ping":74},{"user_id":427,"name":"GodOfBeefy","steam_id":76561198796420092,"connected_time":1449000000000,"state":"active","ping":122},{"user_id":407,"name":"you forgot the sauce","steam_id":76561198387016713,"connected_time":2489000000000,"state":"active","ping":58},{"user_id":433,"name":"bInky","steam_id":76561198968337022,"connected_time":616000000000,"state":"active","ping":53},{"user_id":440,"name":"Dude, error.","steam_id":76561198046705420,"connected_time":319000000000,"state":"active","ping":76},{"user_id":437,"name":"Pixel","steam_id":76561198156746320,"connected_time":579000000000,"state":"active","ping":61},{"user_id":417,"name":"Bratty Chicken","steam_id":76561198194397398,"connected_time":2223000000000,"state":"active","ping":49},{"user_id":439,"name":"Orca?","steam_id":76561198164341099,"connected_time":388000000000,"state":"active","ping":100},{"user_id":442,"name":"Crab Rangoon","steam_id":76561198059310510,"connected_time":265000000000,"state":"active","ping":44},{"user_id":441,"name":"Toast","steam_id":76561198234616616,"connected_time":311000000000,"state":"active","ping":81},{"user_id":411,"name":"Si1entSn1pa","steam_id":76561198170095479,"connected_time":2300000000000,"state":"active","ping":84},{"user_id":424,"name":"Bulk","steam_id":76561199009814535,"connected_time":1752000000000,"state":"active","ping":45},{"user_id":392,"name":"I'mWalkerHere","steam_id":76561199310055450,"connected_time":3670000000000,"state":"active","ping":79},{"user_id":444,"name":"Riven","steam_id":76561198091701349,"connected_time":9000000000,"state":"spawning","ping":59},{"user_id":405,"name":"GossamerMoon{{SHE/HER}}","steam_id":76561198216909469,"connected_time":2717000000000,"state":"active","ping":85},{"user_id":401,"name":"LittleFieryOne","steam_id":76561198107463724,"connected_time":3334000000000,"state":"active","ping":74},{"user_id":422,"name":"DefaultKoala","steam_id":76561198059141147,"connected_time":1996000000000,"state":"active","ping":95}]},{"server_id":14,"name":"Uncletopia | New York City | 2 | All Maps","name_short":"nyc-2","host":"nyc-1.us.uncletopia.com","port":27025,"enabled":true,"region":"us-east","cc":"us","latitude":40.73061,"longitude":-73.93524,"reserved":0,"last_update":"0001-01-01T00:00:00Z","name_a2s":"Uncletopia | New York City | 2 | All Maps","protocol":17,"map":"pl_badwater","folder":"tf","game":"Team Fortress","app_id":440,"player_count":24,"max_players":24,"Bots":0,"server_type":"Dedicated","server_os":"Linux","password":true,"vac":true,"version":"7961495","steam_id":85568392924469994,"keywords":["nocrits","nodmgspread","payload","uncletopia"],"game_id":440,"stv_port":27026,"stv_name":"Uncletopia | New York City | 2 | All Maps | STV","players":[{"user_id":337,"name":"Elliot","steam_id":76561198052843856,"connected_time":24000000000,"state":"active","ping":54},{"user_id":308,"name":"King Spaghetti","steam_id":76561198027067890,"connected_time":2310000000000,"state":"active","ping":61},{"user_id":338,"name":"‚Ä∫‚Ä∫  spidops","steam_id":76561198065248152,"connected_time":21000000000,"state":"active","ping":119},{"user_id":274,"name":"Arjen PSN 23","steam_id":76561198963682232,"connected_time":4823000000000,"state":"active","ping":44},{"user_id":297,"name":"The Fiend","steam_id":76561199229771413,"connected_time":2777000000000,"state":"active","ping":88},{"user_id":336,"name":"TreekoGamer","steam_id":76561198799225120,"connected_time":100000000000,"state":"active","ping":47},{"user_id":315,"name":"cyberas","steam_id":76561198257092290,"connected_time":1663000000000,"state":"active","ping":68},{"user_id":306,"name":"sunny","steam_id":76561198069380992,"connected_time":2365000000000,"state":"active","ping":104},{"user_id":331,"name":"Zepkyr","steam_id":76561198254690609,"connected_time":975000000000,"state":"active","ping":122},{"user_id":279,"name":"Red Hot Fish Princess [Dexgod]","steam_id":76561198017130786,"connected_time":4517000000000,"state":"active","ping":69},{"user_id":329,"name":"Vibrantword3732","steam_id":76561198916638641,"connected_time":1115000000000,"state":"active","ping":115},{"user_id":327,"name":"Comfy!","steam_id":76561198008818346,"connected_time":1244000000000,"state":"active","ping":37},{"user_id":324,"name":"cognitiveAfflatus","steam_id":76561198295181426,"connected_time":1271000000000,"state":"active","ping":55},{"user_id":335,"name":"KBoneski ‚ô°","steam_id":76561198307409065,"connected_time":557000000000,"state":"active","ping":72},{"user_id":333,"name":"Dragon Kid","steam_id":76561198397873029,"connected_time":941000000000,"state":"active","ping":63},{"user_id":240,"name":"Virtual Zorua","steam_id":76561198196180302,"connected_time":8297000000000,"state":"active","ping":85},{"user_id":332,"name":"A Puppy","steam_id":76561198828184456,"connected_time":952000000000,"state":"active","ping":47},{"user_id":325,"name":"pulaski2007","steam_id":76561199174801196,"connected_time":1267000000000,"state":"active","ping":57},{"user_id":334,"name":"corn_d0g","steam_id":76561199023742190,"connected_time":708000000000,"state":"active","ping":80},{"user_id":319,"name":"Cheerio","steam_id":76561198123422657,"connected_time":1521000000000,"state":"active","ping":71},{"user_id":339,"name":"danny","steam_id":76561198185057642,"connected_time":15000000000,"state":"spawning","ping":120},{"user_id":318,"name":"HTML","steam_id":76561198099061153,"connected_time":1593000000000,"state":"active","ping":106},{"user_id":340,"name":"reii","steam_id":76561198134442912,"connected_time":15000000000,"state":"spawning","ping":91},{"user_id":305,"name":"tooth","steam_id":76561197986437643,"connected_time":2378000000000,"state":"active","ping":57}]},{"server_id":15,"name":"Uncletopia | New York City | 3 | Stopwatch Beta","name_short":"nyc-3","host":"nyc-1.us.uncletopia.com","port":27035,"enabled":true,"region":"us-east","cc":"us","latitude":40.73061,"longitude":-73.93524,"reserved":0,"last_update":"0001-01-01T00:00:00Z","name_a2s":"Uncletopia | New York City | 3 | Stopwatch Beta","protocol":17,"map":"cp_sunshine","folder":"tf","game":"Team Fortress","app_id":440,"player_count":24,"max_players":24,"Bots":0,"server_type":"Dedicated","server_os":"Linux","password":true,"vac":true,"version":"7961495","steam_id":85568392924742820,"keywords":["cp","nocrits","nodmgspread","uncletopia"],"game_id":440,"stv_port":27036,"stv_name":"Uncletopia | New York City | 3 | Stopwatch Beta | STV","players":[{"user_id":156,"name":"Athoth","steam_id":76561199003843824,"connected_time":3265000000000,"state":"active","ping":48},{"user_id":211,"name":"VenANON","steam_id":76561198055676240,"connected_time":760000000000,"state":"active","ping":72},{"user_id":158,"name":"Corpokev","steam_id":76561198180884222,"connected_time":3227000000000,"state":"active","ping":52},{"user_id":207,"name":"BLANK3T (They/He) | RGL.gg","steam_id":76561198028875624,"connected_time":848000000000,"state":"active","ping":114},{"user_id":215,"name":"tlm","steam_id":76561198178457461,"connected_time":565000000000,"state":"active","ping":89},{"user_id":194,"name":"antknee","steam_id":76561198263793809,"connected_time":1003000000000,"state":"active","ping":70},{"user_id":214,"name":"RICE A RONI JABRONI","steam_id":76561198251653444,"connected_time":579000000000,"state":"active","ping":70},{"user_id":184,"name":"HÃ∂ÕíÃçÕÖÃ™ÕñÃôiÃ∏ÃâÃçÕÜÃæÕÅÃæ\ufffd","steam_id":76561198056871257,"connected_time":1581000000000,"state":"active","ping":45},{"user_id":166,"name":"TheGhostThatWas","steam_id":76561198055836483,"connected_time":2852000000000,"state":"active","ping":45},{"user_id":221,"name":"Slob and Sup","steam_id":76561198123441203,"connected_time":488000000000,"state":"active","ping":75},{"user_id":182,"name":"Kinda_Clownish","steam_id":76561198309111836,"connected_time":1626000000000,"state":"active","ping":118},{"user_id":208,"name":"novu","steam_id":76561198886997024,"connected_time":844000000000,"state":"active","ping":83},{"user_id":216,"name":"Prowox","steam_id":76561198032606089,"connected_time":541000000000,"state":"active","ping":143},{"user_id":222,"name":"capeeKo","steam_id":76561197970346623,"connected_time":310000000000,"state":"active","ping":53},{"user_id":217,"name":"Waveshift","steam_id":76561199030125662,"connected_time":533000000000,"state":"active","ping":70},{"user_id":223,"name":"Rudy","steam_id":76561198013456828,"connected_time":193000000000,"state":"active","ping":55},{"user_id":213,"name":"MTGbigdog","steam_id":76561198838760637,"connected_time":709000000000,"state":"active","ping":64},{"user_id":199,"name":"Not_Douglas","steam_id":76561199024184136,"connected_time":967000000000,"state":"active","ping":75},{"user_id":220,"name":"b4rry","steam_id":76561198365887154,"connected_time":515000000000,"state":"active","ping":54},{"user_id":173,"name":"sc67","steam_id":76561199302471485,"connected_time":2159000000000,"state":"active","ping":51},{"user_id":225,"name":"Yatchi.","steam_id":76561198878073232,"connected_time":20000000000,"state":"spawning","ping":150},{"user_id":174,"name":"rqru","steam_id":76561198856016840,"connected_time":2154000000000,"state":"active","ping":53},{"user_id":218,"name":"cheeeeet","steam_id":76561198224614084,"connected_time":531000000000,"state":"active","ping":60},{"user_id":219,"name":"Wizard Lizard","steam_id":76561198940710906,"connected_time":529000000000,"state":"active","ping":70}]},{"server_id":16,"name":"Uncletopia | New York City | 4 | Community","name_short":"nyc-4","host":"nyc-1.us.uncletopia.com","port":27045,"enabled":true,"region":"us-east","cc":"us","latitude":40.73061,"longitude":-73.93524,"reserved":0,"last_update":"0001-01-01T00:00:00Z","name_a2s":"Uncletopia | New York City | 4 | Community","protocol":17,"map":"workshop/koth_slaughter_rc1.ugc1712845210","folder":"tf","game":"Team Fortress","app_id":440,"player_count":0,"max_players":24,"Bots":0,"server_type":"Dedicated","server_os":"Linux","password":true,"vac":true,"version":"7961495","steam_id":85568392924742821,"keywords":["cp","nocrits","nodmgspread","uncletopia"],"game_id":440,"stv_port":27046,"stv_name":"Uncletopia | New York City | 4 | Community | STV","players":null},{"server_id":142,"name":"Uncletopia | S√£o Paulo | 1 | All Maps","name_short":"sao-1","host":"sao-1.br.uncletopia.com","port":27015,"enabled":true,"region":"sa","cc":"br","latitude":-23.533773,"longitude":-46.62529,"reserved":0,"last_update":"0001-01-01T00:00:00Z","name_a2s":"Uncletopia | S√£o Paulo | 1 | All Maps","protocol":17,"map":"ctf_2fort","folder":"tf","game":"Team Fortress","app_id":440,"player_count":2,"max_players":24,"Bots":0,"server_type":"Dedicated","server_os":"Linux","password":true,"vac":true,"version":"7961495","steam_id":85568392924469996,"keywords":["ctf","nocrits","nodmgspread","uncletopia"],"game_id":440,"stv_port":27016,"stv_name":"Uncletopia | S√£o Paulo | 1 | All Maps | STV","players":[{"user_id":36,"name":"Tj","steam_id":76561199144268605,"connected_time":1138000000000,"state":"active","ping":68},{"user_id":37,"name":"goofy gupp buttercup","steam_id":76561198391399039,"connected_time":1138000000000,"state":"active","ping":63}]},{"server_id":143,"name":"Uncletopia | S√£o Paulo | 2 | All Maps","name_short":"sao-2","host":"sao-2.br.uncletopia.com","port":27015,"enabled":true,"region":"sa","cc":"br","latitude":-23.533773,"longitude":-46.62529,"reserved":0,"last_update":"0001-01-01T00:00:00Z","name_a2s":"Uncletopia | S√£o Paulo | 2 | All Maps","protocol":17,"map":"koth_brazil","folder":"tf","game":"Team Fortress","app_id":440,"player_count":11,"max_players":24,"Bots":0,"server_type":"Dedicated","server_os":"Linux","password":true,"vac":true,"version":"7961495","steam_id":85568392924485349,"keywords":["cp","nocrits","nodmgspread","uncletopia"],"game_id":440,"stv_port":27016,"stv_name":"Uncletopia | S√£o Paulo | 2 | All Maps | STV","players":[{"user_id":80,"name":"Daisy Le Nerd","steam_id":76561198149350087,"connected_time":1104000000000,"state":"active","ping":38},{"user_id":82,"name":"LinkLG","steam_id":76561198137217895,"connected_time":1054000000000,"state":"active","ping":90},{"user_id":83,"name":"Aycey Spacey","steam_id":76561198862522941,"connected_time":1040000000000,"state":"active","ping":195},{"user_id":92,"name":"Hazmat","steam_id":76561199188918789,"connected_time":119000000000,"state":"active","ping":54},{"user_id":73,"name":"K. Montozo","steam_id":76561198892462260,"connected_time":1368000000000,"state":"active","ping":74},{"user_id":75,"name":"anaheisenberg","steam_id":76561198304847307,"connected_time":1288000000000,"state":"active","ping":57},{"user_id":44,"name":"Shad√©chet","steam_id":76561198290546763,"connected_time":4591000000000,"state":"active","ping":73},{"user_id":77,"name":"Alexsander Cesar","steam_id":76561198391932423,"connected_time":1221000000000,"state":"active","ping":41},{"user_id":90,"name":"„ÅÑ„Åì","steam_id":76561198965538287,"connected_time":347000000000,"state":"active","ping":51},{"user_id":43,"name":"matheus whatsapp","steam_id":76561199359501901,"connected_time":4695000000000,"state":"active","ping":39},{"user_id":68,"name":"vacaloca25","steam_id":76561198082683352,"connected_time":1991000000000,"state":"active","ping":60}]},{"server_id":7,"name":"Uncletopia | Seattle | 1 | All Maps","name_short":"sea-1","host":"sea-1.us.uncletopia.com","port":27015,"enabled":true,"region":"us-west","cc":"us","latitude":47.608013,"longitude":-122.33517,"reserved":0,"last_update":"0001-01-01T00:00:00Z","name_a2s":"Uncletopia | Seattle | 1 | All Maps","protocol":17,"map":"pl_badwater","folder":"tf","game":"Team Fortress","app_id":440,"player_count":24,"max_players":24,"Bots":0,"server_type":"Dedicated","server_os":"Linux","password":true,"vac":true,"version":"7961495","steam_id":85568392924469997,"keywords":["nocrits","nodmgspread","payload","uncletopia"],"game_id":440,"stv_port":27016,"stv_name":"Uncletopia | Seattle | 1 | All Maps | STV","players":[{"user_id":169,"name":"bladees realest, saddest verse","steam_id":76561198098099826,"connected_time":674000000000,"state":"active","ping":87},{"user_id":174,"name":"A Fruit","steam_id":76561198951830050,"connected_time":439000000000,"state":"active","ping":90},{"user_id":158,"name":"TheCowledWiz","steam_id":76561198016735868,"connected_time":1242000000000,"state":"active","ping":51},{"user_id":167,"name":"[Bandit]","steam_id":76561197986919852,"connected_time":725000000000,"state":"active","ping":51},{"user_id":162,"name":"Frostwind","steam_id":76561198152611087,"connected_time":1027000000000,"state":"active","ping":90},{"user_id":140,"name":"Brap","steam_id":76561198410520287,"connected_time":2677000000000,"state":"active","ping":117},{"user_id":138,"name":"Dimple #TF2Center","steam_id":76561198980324190,"connected_time":3211000000000,"state":"active","ping":51},{"user_id":175,"name":"Yasumi","steam_id":76561198089021933,"connected_time":417000000000,"state":"active","ping":40},{"user_id":102,"name":"rad killl raccoon","steam_id":76561198980975595,"connected_time":6905000000000,"state":"active","ping":68},{"user_id":126,"name":"lynks disease no sound","steam_id":76561198043465434,"connected_time":4434000000000,"state":"active","ping":75},{"user_id":154,"name":"Mr. Ravioli","steam_id":76561197996625649,"connected_time":1580000000000,"state":"active","ping":60},{"user_id":157,"name":"april foos day prankster","steam_id":76561198175741741,"connected_time":1327000000000,"state":"active","ping":68},{"user_id":136,"name":"pizzalover_2014","steam_id":76561198870649125,"connected_time":3366000000000,"state":"active","ping":85},{"user_id":127,"name":"jayeskae","steam_id":76561198144220801,"connected_time":4172000000000,"state":"active","ping":45},{"user_id":170,"name":"mocer","steam_id":76561198329367716,"connected_time":649000000000,"state":"active","ping":89},{"user_id":152,"name":"Defeat","steam_id":76561198065203818,"connected_time":1613000000000,"state":"active","ping":39},{"user_id":177,"name":"Drilly22","steam_id":76561198068838338,"connected_time":106000000000,"state":"active","ping":116},{"user_id":171,"name":"BlazedBunny","steam_id":76561198243610560,"connected_time":560000000000,"state":"active","ping":72},{"user_id":176,"name":"Donny Q","steam_id":76561198020901703,"connected_time":300000000000,"state":"active","ping":61},{"user_id":132,"name":"Sovereign","steam_id":76561198018841787,"connected_time":4061000000000,"state":"active","ping":44},{"user_id":144,"name":"UnusualTofu","steam_id":76561198060103750,"connected_time":2615000000000,"state":"active","ping":89},{"user_id":146,"name":"L√© Mon","steam_id":76561198078626283,"connected_time":2493000000000,"state":"active","ping":127},{"user_id":166,"name":"griffy","steam_id":76561198858732642,"connected_time":762000000000,"state":"active","ping":64},{"user_id":153,"name":"Saint Pablo","steam_id":76561198083300159,"connected_time":1612000000000,"state":"active","ping":77}]},{"server_id":119,"name":"Uncletopia | Seattle | 2 | All Maps","name_short":"sea-2","host":"sea-1.us.uncletopia.com","port":27025,"enabled":true,"region":"us-west","cc":"us","latitude":47.608013,"longitude":-122.33517,"reserved":0,"last_update":"0001-01-01T00:00:00Z","name_a2s":"Uncletopia | Seattle | 2 | All Maps","protocol":17,"map":"cp_process_final","folder":"tf","game":"Team Fortress","app_id":440,"player_count":24,"max_players":24,"Bots":0,"server_type":"Dedicated","server_os":"Linux","password":true,"vac":true,"version":"7961495","steam_id":85568392924469998,"keywords":["cp","nocrits","nodmgspread","uncletopia"],"game_id":440,"stv_port":27026,"stv_name":"Uncletopia | Seattle | 2 | All Maps | STV","players":[{"user_id":140,"name":"RainboomCrash","steam_id":76561198065612273,"connected_time":1343000000000,"state":"active","ping":45},{"user_id":151,"name":"They could be starlings","steam_id":76561198441020995,"connected_time":709000000000,"state":"active","ping":75},{"user_id":95,"name":"Pneumo.","steam_id":76561197987911883,"connected_time":5403000000000,"state":"active","ping":74},{"user_id":102,"name":"rosable ‚òÜ","steam_id":76561199164371592,"connected_time":4575000000000,"state":"active","ping":122},{"user_id":152,"name":"Bone","steam_id":76561198207057567,"connected_time":650000000000,"state":"active","ping":64},{"user_id":61,"name":"cubibluer","steam_id":76561198197405295,"connected_time":6560000000000,"state":"active","ping":55},{"user_id":128,"name":"Gerbias","steam_id":76561198001002427,"connected_time":2983000000000,"state":"active","ping":73},{"user_id":153,"name":"Regular player #SaveTF2","steam_id":76561198036806850,"connected_time":388000000000,"state":"active","ping":64},{"user_id":143,"name":"DOPEam1ne","steam_id":76561198112204774,"connected_time":1314000000000,"state":"active","ping":63},{"user_id":139,"name":"Sweatpants","steam_id":76561198097188001,"connected_time":1404000000000,"state":"active","ping":39},{"user_id":129,"name":"The Sydney Sleeper Itself","steam_id":76561198180251763,"connected_time":2963000000000,"state":"active","ping":102},{"user_id":147,"name":"Wheaty","steam_id":76561198003553412,"connected_time":1211000000000,"state":"active","ping":54},{"user_id":149,"name":"Sheev Palpatine","steam_id":76561198252332430,"connected_time":1012000000000,"state":"active","ping":94},{"user_id":98,"name":"LederBoy","steam_id":76561198051822369,"connected_time":5185000000000,"state":"active","ping":70},{"user_id":144,"name":"YahYeeterson","steam_id":76561198120480906,"connected_time":1307000000000,"state":"active","ping":62},{"user_id":155,"name":"Mocha Josie","steam_id":76561198066452726,"connected_time":330000000000,"state":"active","ping":85},{"user_id":92,"name":"Dunkle","steam_id":76561198041903573,"connected_time":5815000000000,"state":"active","ping":45},{"user_id":130,"name":"taxman","steam_id":76561198249211638,"connected_time":2959000000000,"state":"active","ping":44},{"user_id":54,"name":"Clit Yeastwood","steam_id":76561199042672094,"connected_time":7638000000000,"state":"active","ping":66},{"user_id":117,"name":"Elfy","steam_id":76561199166448617,"connected_time":4188000000000,"state":"active","ping":60},{"user_id":154,"name":"Mint Widget","steam_id":76561198036875245,"connected_time":363000000000,"state":"active","ping":78},{"user_id":146,"name":"CK403","steam_id":76561198322241201,"connected_time":1283000000000,"state":"active","ping":50},{"user_id":148,"name":"blueboy23","steam_id":76561199121889873,"connected_time":1131000000000,"state":"active","ping":48},{"user_id":101,"name":"VascoLeder","steam_id":76561198035813854,"connected_time":4813000000000,"state":"active","ping":80}]},{"server_id":406,"name":"Uncletopia | Seattle | 3 | Stopwatch Beta","name_short":"sea-3","host":"sea-1.us.uncletopia.com","port":27035,"enabled":true,"region":"us-west","cc":"us","latitude":47.608013,"longitude":-122.33517,"reserved":0,"last_update":"0001-01-01T00:00:00Z","name_a2s":"Uncletopia | Seattle | 3 | Stopwatch Beta","protocol":17,"map":"cp_mountainlab","folder":"tf","game":"Team Fortress","app_id":440,"player_count":0,"max_players":24,"Bots":0,"server_type":"Dedicated","server_os":"Linux","password":true,"vac":true,"version":"7961495","steam_id":85568392924515217,"keywords":["cp","nocrits","nodmgspread","uncletopia"],"game_id":440,"stv_port":27036,"stv_name":"Uncletopia | Seattle | 3 | Stopwatch Beta | STV","players":null},{"server_id":17,"name":"Uncletopia | San Francisco | 1 | All Maps","name_short":"sfo-1","host":"sfo-1.us.uncletopia.com","port":27015,"enabled":true,"region":"us-west","cc":"us","latitude":37.77397,"longitude":-122.4313,"reserved":0,"last_update":"0001-01-01T00:00:00Z","name_a2s":"Uncletopia | San Francisco | 1 | All Maps","protocol":17,"map":"pl_frontier_final","folder":"tf","game":"Team Fortress","app_id":440,"player_count":0,"max_players":24,"Bots":0,"server_type":"Dedicated","server_os":"Linux","password":true,"vac":true,"version":"7932396","steam_id":85568392924469999,"keywords":["nocrits","nodmgspread","payload","uncletopia"],"game_id":440,"stv_port":27016,"stv_name":"Uncletopia | San Francisco | 1 | All Maps | STV","players":null},{"server_id":18,"name":"Uncletopia | San Francisco | 2 | All Maps","name_short":"sfo-2","host":"sfo-1.us.uncletopia.com","port":27025,"enabled":true,"region":"us-west","cc":"us","latitude":37.77397,"longitude":-122.4313,"reserved":0,"last_update":"0001-01-01T00:00:00Z","name_a2s":"Uncletopia | San Francisco | 2 | All Maps","protocol":17,"map":"cp_snakewater_final1","folder":"tf","game":"Team Fortress","app_id":440,"player_count":0,"max_players":24,"Bots":0,"server_type":"Dedicated","server_os":"Linux","password":true,"vac":true,"version":"7932396","steam_id":85568392924470000,"keywords":["cp","nocrits","nodmgspread","uncletopia"],"game_id":440,"stv_port":27026,"stv_name":"Uncletopia | San Francisco | 2 | All Maps | STV","players":null},{"server_id":19,"name":"Uncletopia | San Francisco | 3 | Stopwatch Beta","name_short":"sfo-3","host":"sfo-1.us.uncletopia.com","port":27035,"enabled":true,"region":"us-west","cc":"us","latitude":37.77397,"longitude":-122.4313,"reserved":0,"last_update":"0001-01-01T00:00:00Z","name_a2s":"Uncletopia | San Francisco | 3 | Stopwatch Beta","protocol":17,"map":"koth_lakeside_final","folder":"tf","game":"Team Fortress","app_id":440,"player_count":0,"max_players":24,"Bots":0,"server_type":"Dedicated","server_os":"Linux","password":true,"vac":true,"version":"7932396","steam_id":85568392924742824,"keywords":["cp","nocrits","nodmgspread","uncletopia"],"game_id":440,"stv_port":27036,"stv_name":"Uncletopia | San Francisco | 3 | Stopwatch Beta | STV","players":null},{"server_id":20,"name":"Uncletopia | San Francisco | 4 | Community","name_short":"sfo-4","host":"sfo-1.us.uncletopia.com","port":27045,"enabled":true,"region":"us-west","cc":"us","latitude":37.77397,"longitude":-122.4313,"reserved":0,"last_update":"0001-01-01T00:00:00Z","name_a2s":"Uncletopia | San Francisco | 4 | Community","protocol":17,"map":"pl_borneo","folder":"tf","game":"Team Fortress","app_id":440,"player_count":0,"max_players":24,"Bots":0,"server_type":"Dedicated","server_os":"Linux","password":true,"vac":true,"version":"7932396","steam_id":85568392924742826,"keywords":["nocrits","nodmgspread","payload","uncletopia"],"game_id":440,"stv_port":27046,"stv_name":"Uncletopia | San Francisco | 4 | Community | STV","players":null},{"server_id":141,"name":"Uncletopia | Sydney | 1 | All Maps","name_short":"syd-1","host":"syd-1.au.uncletopia.com","port":27015,"enabled":true,"region":"au","cc":"au","latitude":-33.865143,"longitude":151.2099,"reserved":0,"last_update":"0001-01-01T00:00:00Z","name_a2s":"Uncletopia | Sydney | 1 | All Maps","protocol":17,"map":"pl_snowycoast","folder":"tf","game":"Team Fortress","app_id":440,"player_count":0,"max_players":24,"Bots":0,"server_type":"Dedicated","server_os":"Linux","password":true,"vac":true,"version":"7961495","steam_id":85568392924470001,"keywords":["nocrits","nodmgspread","payload","uncletopia"],"game_id":440,"stv_port":27016,"stv_name":"Uncletopia | Sydney | 1 | All Maps | STV","players":null},{"server_id":123,"name":"Uncletopia | Sydney | 2 | All Maps","name_short":"syd-2","host":"syd-1.au.uncletopia.com","port":27025,"enabled":true,"region":"au","cc":"au","latitude":-33.865143,"longitude":151.2099,"reserved":0,"last_update":"0001-01-01T00:00:00Z","name_a2s":"Uncletopia | Sydney | 2 | All Maps","protocol":17,"map":"koth_viaduct","folder":"tf","game":"Team Fortress","app_id":440,"player_count":0,"max_players":24,"Bots":0,"server_type":"Dedicated","server_os":"Linux","password":true,"vac":true,"version":"7961495","steam_id":85568392924470002,"keywords":["cp","nocrits","nodmgspread","uncletopia"],"game_id":440,"stv_port":27026,"stv_name":"Uncletopia | Sydney | 2 | All Maps | STV","players":null},{"server_id":395,"name":"Uncletopia | Sydney | 3 | All Maps","name_short":"syd-3","host":"syd-1.au.uncletopia.com","port":27035,"enabled":true,"region":"au","cc":"au","latitude":-33.865143,"longitude":151.2099,"reserved":0,"last_update":"0001-01-01T00:00:00Z","name_a2s":"Uncletopia | Sydney | 3 | All Maps","protocol":17,"map":"cp_dustbowl","folder":"tf","game":"Team Fortress","app_id":440,"player_count":0,"max_players":24,"Bots":0,"server_type":"Dedicated","server_os":"Linux","password":true,"vac":true,"version":"7961495","steam_id":85568392925194467,"keywords":["cp","nocrits","nodmgspread","uncletopia"],"game_id":440,"stv_port":27036,"stv_name":"Uncletopia | Sydney | 3 | All Maps | STV","players":null},{"server_id":396,"name":"Uncletopia | Sydney | 4 | All Maps","name_short":"syd-4","host":"syd-1.au.uncletopia.com","port":27045,"enabled":true,"region":"au","cc":"au","latitude":-33.865143,"longitude":151.2099,"reserved":0,"last_update":"0001-01-01T00:00:00Z","name_a2s":"Uncletopia | Sydney | 4 | All Maps","protocol":17,"map":"koth_cascade","folder":"tf","game":"Team Fortress","app_id":440,"player_count":0,"max_players":24,"Bots":0,"server_type":"Dedicated","server_os":"Linux","password":true,"vac":true,"version":"7961495","steam_id":85568392925397958,"keywords":["cp","nocrits","nodmgspread","uncletopia"],"game_id":440,"stv_port":27046,"stv_name":"Uncletopia | Sydney | 4 | All Maps | STV","players":null},{"server_id":58,"name":"Uncletopia | Sydney | 5 | Stopwatch Beta","name_short":"syd-5","host":"syd-1.au.uncletopia.com","port":27055,"enabled":true,"region":"au","cc":"au","latitude":-33.865143,"longitude":151.2099,"reserved":0,"last_update":"0001-01-01T00:00:00Z","name_a2s":"Uncletopia | Sydney | 5 | Stopwatch Beta","protocol":17,"map":"koth_viaduct","folder":"tf","game":"Team Fortress","app_id":440,"player_count":0,"max_players":24,"Bots":0,"server_type":"Dedicated","server_os":"Linux","password":true,"vac":true,"version":"7961495","steam_id":85568392925397959,"keywords":["cp","nocrits","nodmgspread","uncletopia"],"game_id":440,"stv_port":27056,"stv_name":"Uncletopia | Sydney | 5 | Stopwatch Beta | STV","players":null},{"server_id":59,"name":"Uncletopia | Sydney | 6 | Community","name_short":"syd-6","host":"syd-1.au.uncletopia.com","port":27065,"enabled":true,"region":"au","cc":"au","latitude":-33.865143,"longitude":151.2099,"reserved":0,"last_update":"0001-01-01T00:00:00Z","name_a2s":"Uncletopia | Sydney | 6 | Community","protocol":17,"map":"pl_barnblitz","folder":"tf","game":"Team Fortress","app_id":440,"player_count":0,"max_players":24,"Bots":0,"server_type":"Dedicated","server_os":"Linux","password":true,"vac":true,"version":"7961495","steam_id":85568392925397960,"keywords":["nocrits","nodmgspread","payload","uncletopia"],"game_id":440,"stv_port":27066,"stv_name":"Uncletopia | Sydney | 6 | Community | STV","players":null},{"server_id":49,"name":"Uncletopia | Warsaw | 1 | All Maps","name_short":"waw-1","host":"waw-1.pl.uncletopia.com","port":27015,"enabled":true,"region":"eu","cc":"pl","latitude":52.2297,"longitude":21.017532,"reserved":0,"last_update":"0001-01-01T00:00:00Z","name_a2s":"","protocol":0,"map":"","folder":"","game":"","app_id":0,"player_count":0,"max_players":0,"Bots":0,"server_type":"","server_os":"","password":false,"vac":false,"version":"","steam_id":0,"keywords":null,"game_id":0,"stv_port":0,"stv_name":"","players":null},{"server_id":50,"name":"Uncletopia | Warsaw | 2 | All Maps","name_short":"waw-2","host":"waw-1.pl.uncletopia.com","port":27025,"enabled":true,"region":"eu","cc":"pl","latitude":52.2297,"longitude":21.017532,"reserved":0,"last_update":"0001-01-01T00:00:00Z","name_a2s":"Uncletopia | Warsaw | 2 | All Maps","protocol":17,"map":"koth_cascade","folder":"tf","game":"Team Fortress","app_id":440,"player_count":0,"max_players":24,"Bots":0,"server_type":"Dedicated","server_os":"Linux","password":true,"vac":true,"version":"7961495","steam_id":85568392925397851,"keywords":["cp","nocrits","nodmgspread","uncletopia"],"game_id":440,"stv_port":27026,"stv_name":"Uncletopia | Warsaw | 2 | All Maps | STV","players":null},{"server_id":51,"name":"Uncletopia | Warsaw | 3 | All Maps","name_short":"waw-3","host":"waw-1.pl.uncletopia.com","port":27035,"enabled":true,"region":"eu","cc":"pl","latitude":52.2297,"longitude":21.017532,"reserved":0,"last_update":"0001-01-01T00:00:00Z","name_a2s":"Uncletopia | Warsaw | 3 | All Maps","protocol":17,"map":"pl_borneo","folder":"tf","game":"Team Fortress","app_id":440,"player_count":24,"max_players":24,"Bots":0,"server_type":"Dedicated","server_os":"Linux","password":true,"vac":true,"version":"7961495","steam_id":85568392925397852,"keywords":["nocrits","nodmgspread","payload","uncletopia"],"game_id":440,"stv_port":27036,"stv_name":"Uncletopia | Warsaw | 3 | All Maps | STV","players":[{"user_id":152,"name":"miiq130","steam_id":76561198188010666,"connected_time":454000000000,"state":"active","ping":59},{"user_id":155,"name":"–¢—Ä—É–ø –í–æ–ª–æ–¥—è","steam_id":76561198035718457,"connected_time":167000000000,"state":"active","ping":89},{"user_id":127,"name":"Ekon","steam_id":76561199145447699,"connected_time":1694000000000,"state":"active","ping":96},{"user_id":83,"name":"stefanbejenari","steam_id":76561199466718294,"connected_time":6377000000000,"state":"active","ping":85},{"user_id":120,"name":"‚ô•HuHi‚ô•","steam_id":76561198286149089,"connected_time":3287000000000,"state":"active","ping":91},{"user_id":132,"name":"siarczan (VI) miedzi (II)","steam_id":76561198327848460,"connected_time":1158000000000,"state":"active","ping":48},{"user_id":154,"name":"Dark Wizart","steam_id":76561198377689439,"connected_time":329000000000,"state":"active","ping":91},{"user_id":156,"name":"DocterDeez","steam_id":76561198164592120,"connected_time":69000000000,"state":"active","ping":72},{"user_id":151,"name":"klaus","steam_id":76561198150394201,"connected_time":478000000000,"state":"active","ping":63},{"user_id":135,"name":"I am the one who's sus","steam_id":76561198344435644,"connected_time":1033000000000,"state":"active","ping":82},{"user_id":133,"name":"Eidolon","steam_id":76561198043919565,"connected_time":1128000000000,"state":"active","ping":98},{"user_id":134,"name":"lacurio","steam_id":76561198059701776,"connected_time":1116000000000,"state":"active","ping":59},{"user_id":138,"name":"404 bomb","steam_id":76561198115755832,"connected_time":919000000000,"state":"active","ping":114},{"user_id":139,"name":"dog","steam_id":76561198098065932,"connected_time":917000000000,"state":"active","ping":68},{"user_id":140,"name":"Winter","steam_id":76561198073954274,"connected_time":917000000000,"state":"active","ping":71},{"user_id":141,"name":"Mike Doe","steam_id":76561198331251922,"connected_time":898000000000,"state":"active","ping":77},{"user_id":142,"name":"raz","steam_id":76561198086124865,"connected_time":710000000000,"state":"active","ping":75},{"user_id":143,"name":"Churchilla","steam_id":76561198317915810,"connected_time":648000000000,"state":"active","ping":163},{"user_id":157,"name":"maslak","steam_id":76561198803969176,"connected_time":65000000000,"state":"active","ping":62},{"user_id":153,"name":"Pepsi Man","steam_id":76561198061835461,"connected_time":414000000000,"state":"active","ping":90},{"user_id":146,"name":"NhouBrane","steam_id":76561198293577735,"connected_time":620000000000,"state":"active","ping":65},{"user_id":148,"name":"TiakOner","steam_id":76561199060934433,"connected_time":560000000000,"state":"active","ping":77},{"user_id":149,"name":"vi hava en usel regering","steam_id":76561198037978654,"connected_time":541000000000,"state":"active","ping":87},{"user_id":150,"name":"galaxy","steam_id":76561198075450477,"connected_time":541000000000,"state":"active","ping":83}]},{"server_id":52,"name":"Uncletopia | Warsaw | 4 | All Maps","name_short":"waw-4","host":"waw-1.pl.uncletopia.com","port":27045,"enabled":true,"region":"eu","cc":"pl","latitude":52.2297,"longitude":21.017532,"reserved":0,"last_update":"0001-01-01T00:00:00Z","name_a2s":"Uncletopia | Warsaw | 4 | All Maps","protocol":17,"map":"pl_swiftwater_final1","folder":"tf","game":"Team Fortress","app_id":440,"player_count":7,"max_players":24,"Bots":0,"server_type":"Dedicated","server_os":"Linux","password":true,"vac":true,"version":"7961495","steam_id":85568392925397853,"keywords":["nocrits","nodmgspread","payload","uncletopia"],"game_id":440,"stv_port":27046,"stv_name":"Uncletopia | Warsaw | 4 | All Maps | STV","players":[{"user_id":4,"name":"The Sewer r4t","steam_id":76561199028541854,"connected_time":4984000000000,"state":"active","ping":75},{"user_id":13,"name":"Twitch.tv/frostsnail","steam_id":76561197989859175,"connected_time":393000000000,"state":"active","ping":74},{"user_id":11,"name":"bigboyjr","steam_id":76561199069881249,"connected_time":488000000000,"state":"active","ping":117},{"user_id":12,"name":"Intruder","steam_id":76561198156128173,"connected_time":485000000000,"state":"active","ping":90},{"user_id":14,"name":"Bucket","steam_id":76561199165494885,"connected_time":361000000000,"state":"active","ping":220},{"user_id":18,"name":"GobThisKnob","steam_id":76561198122020886,"connected_time":0,"state":"spawning","ping":87},{"user_id":17,"name":"Biscuit","steam_id":76561198034318885,"connected_time":99000000000,"state":"active","ping":74}]},{"server_id":53,"name":"Uncletopia | Warsaw | 5 | Stopwatch Beta","name_short":"waw-5","host":"waw-1.pl.uncletopia.com","port":27055,"enabled":true,"region":"eu","cc":"pl","latitude":52.2297,"longitude":21.017532,"reserved":0,"last_update":"0001-01-01T00:00:00Z","name_a2s":"Uncletopia | Warsaw | 5 | Stopwatch Beta","protocol":17,"map":"workshop/koth_ashville_final.ugc2130459942","folder":"tf","game":"Team Fortress","app_id":440,"player_count":0,"max_players":24,"Bots":0,"server_type":"Dedicated","server_os":"Linux","password":true,"vac":true,"version":"7961495","steam_id":85568392925397854,"keywords":["cp","nocrits","nodmgspread","uncletopia"],"game_id":440,"stv_port":27056,"stv_name":"Uncletopia | Warsaw | 5 | Stopwatch Beta | STV","players":null},{"server_id":54,"name":"Uncletopia | Warsaw | 6 | Community","name_short":"waw-6","host":"waw-1.pl.uncletopia.com","port":27065,"enabled":true,"region":"eu","cc":"pl","latitude":52.2297,"longitude":21.017532,"reserved":0,"last_update":"0001-01-01T00:00:00Z","name_a2s":"Uncletopia | Warsaw | 6 | Community","protocol":17,"map":"workshop/cp_indulge.ugc528106646","folder":"tf","game":"Team Fortress","app_id":440,"player_count":0,"max_players":24,"Bots":0,"server_type":"Dedicated","server_os":"Linux","password":true,"vac":true,"version":"7961495","steam_id":85568392925397856,"keywords":["cp","nocrits","nodmgspread","uncletopia"],"game_id":440,"stv_port":27066,"stv_name":"Uncletopia | Warsaw | 6 | Community | STV","players":null}]}