{"status":true,"message":"","result":[{"server_id":9,"name":"Uncletopia | Atlanta | 1 | All Maps","name_short":"atl-1","host":"atl-1.us.uncletopia.com","port":27015,"enabled":true,"region":"us-east","cc":"us","latitude":33.753746,"longitude":-84.38633,"reserved":0,"last_update":"0001-01-01T00:00:00Z","name_a2s":"Uncletopia | Atlanta | 1 | All Maps","protocol":17,"map":"koth_cascade","folder":"tf","game":"Team Fortress","app_id":440,"player_count":0,"max_players":24,"Bots":0,"server_type":"Dedicated","server_os":"Linux","password":true,"vac":true,"version":"7695204","steam_id":85568392924469982,"keywords":["cp","nocrits","nodmgspread","uncletopia"],"game_id":440,"stv_port":0,"stv_name":"","players":null},{"server_id":400,"name":"Uncletopia | Atlanta | 3 | All Maps","name_short":"atl-3","host":"atl-1.us.uncletopia.com","port":27035,"enabled":true,"region":"us-east","cc":"us","latitude":33.753746,"longitude":-84.38633,"reserved":0,"last_update":"0001-01-01T00:00:00Z","name_a2s":"Uncletopia | Atlanta | 3 | All Maps","protocol":17,"map":"pl_frontier_final","folder":"tf","game":"Team Fortress","app_id":440,"player_count":0,"max_players":24,"Bots":0,"server_type":"Dedicated","server_os":"Linux","password":true,"vac":true,"version":"7695204","steam_id":85568392924515187,"keywords":["nocrits","nodmgspread","payload","uncletopia"],"game_id":440,"stv_port":0,"stv_name":"","players":null},{"server_id":401,"name":"Uncletopia | Atlanta | 4 | No Payload","name_short":"atl-4","host":"atl-1.us.uncletopia.com","port":27045,"enabled":true,"region":"us-east","cc":"us","latitude":33.753746,"longitude":-84.38633,"reserved":0,"last_update":"0001-01-01T00:00:00Z","name_a2s":"Uncletopia | Atlanta | 4 | No Payload","protocol":17,"map":"cp_snakewater_final1","folder":"tf","game":"Team Fortress","app_id":440,"player_count":0,"max_players":24,"Bots":0,"server_type":"Dedicated","server_os":"Linux","password":true,"vac":true,"version":"7695204","steam_id":85568392924515188,"keywords":["cp","nocrits","nodmgspread","uncletopia"],"game_id":440,"stv_port":0,"stv_name":"","players":null},{"server_id":2,"name":"Uncletopia | Chicago | 1 | All Maps","name_short":"chi-1","host":"chi-1.us.uncletopia.com","port":27015,"enabled":true,"region":"us-central","cc":"us","latitude":41.881832,"longitude":-87.62318,"reserved":0,"last_update":"0001-01-01T00:00:00Z","name_a2s":"Uncletopia | Chicago | 1 | All Maps","protocol":17,"map":"pl_swiftwater_final1","folder":"tf","game":"Team Fortress","app_id":440,"player_count":24,"max_players":24,"Bots":0,"server_type":"Dedicated","server_os":"Linux","password":true,"vac":true,"version":"7695204","steam_id":85568392924469984,"keywords":["nocrits","nodmgspread","payload","uncletopia"],"game_id":440,"stv_port":27016,"stv_name":"Uncletopia | Chicago | 1 | All Maps | STV","players":[{"user_id":44,"name":"rat gets the cheese","steam_id":76561198031234032,"connected_time":5924000000000,"state":"active","ping":50},{"user_id":114,"name":"gonko","steam_id":76561198343447995,"connected_time":1709000000000,"state":"active","ping":67},{"user_id":125,"name":"Vem","steam_id":76561198117273112,"connected_time":392000000000,"state":"active","ping":64},{"user_id":115,"name":"jorjor wells","steam_id":76561199073429082,"connected_time":1699000000000,"state":"active","ping":61},{"user_id":129,"name":"Pixeled","steam_id":76561198088917077,"connected_time":379000000000,"state":"active","ping":80},{"user_id":111,"name":"Sputnix","steam_id":76561198236857310,"connected_time":1757000000000,"state":"active","ping":51},{"user_id":93,"name":"fudo myoo","steam_id":76561198456258164,"connected_time":3621000000000,"state":"active","ping":71},{"user_id":132,"name":"Braixen","steam_id":76561198354314389,"connected_time":355000000000,"state":"active","ping":77},{"user_id":46,"name":"1111111111111111111111111111111","steam_id":76561198325306660,"connected_time":5875000000000,"state":"active","ping":100},{"user_id":123,"name":"vŒªughn","steam_id":76561198144165856,"connected_time":906000000000,"state":"active","ping":80},{"user_id":124,"name":"VV01F_","steam_id":76561199096941744,"connected_time":695000000000,"state":"active","ping":47},{"user_id":130,"name":"owlbortch","steam_id":76561198042849350,"connected_time":378000000000,"state":"active","ping":75},{"user_id":113,"name":"Odin","steam_id":76561199417970238,"connected_time":1754000000000,"state":"active","ping":158},{"user_id":119,"name":"Kiss Master","steam_id":76561198289572271,"connected_time":1416000000000,"state":"active","ping":77},{"user_id":131,"name":"festive delky","steam_id":76561198035504258,"connected_time":366000000000,"state":"active","ping":68},{"user_id":134,"name":"–≥—Ä—É—Å—Ç–Ω—ã–π","steam_id":76561198274550638,"connected_time":14000000000,"state":"active","ping":66},{"user_id":102,"name":"Stronk","steam_id":76561198314043450,"connected_time":3245000000000,"state":"active","ping":80},{"user_id":94,"name":"Mattron1","steam_id":76561198012270524,"connected_time":3487000000000,"state":"active","ping":69},{"user_id":117,"name":"NotFionn","steam_id":76561198890525176,"connected_time":1593000000000,"state":"active","ping":158},{"user_id":120,"name":"zzz","steam_id":76561198034560063,"connected_time":1250000000000,"state":"active","ping":100},{"user_id":121,"name":"J The Jounin","steam_id":76561198034583622,"connected_time":1157000000000,"state":"active","ping":75},{"user_id":122,"name":"blobb","steam_id":76561198950448488,"connected_time":982000000000,"state":"active","ping":53},{"user_id":108,"name":"The Homelander","steam_id":76561198087874483,"connected_time":2975000000000,"state":"active","ping":139},{"user_id":126,"name":"hidden_games","steam_id":76561198149683392,"connected_time":392000000000,"state":"active","ping":54}]},{"server_id":106,"name":"Uncletopia | Chicago | 2 | All Maps","name_short":"chi-2","host":"chi-1.us.uncletopia.com","port":27025,"enabled":true,"region":"us-central","cc":"us","latitude":41.881832,"longitude":-87.62318,"reserved":0,"last_update":"0001-01-01T00:00:00Z","name_a2s":"Uncletopia | Chicago | 2 | All Maps","protocol":17,"map":"cp_process_final","folder":"tf","game":"Team Fortress","app_id":440,"player_count":0,"max_players":24,"Bots":0,"server_type":"Dedicated","server_os":"Linux","password":true,"vac":true,"version":"7695204","steam_id":85568392924469985,"keywords":["cp","nocrits","nodmgspread","uncletopia"],"game_id":440,"stv_port":0,"stv_name":"","players":null},{"server_id":402,"name":"Uncletopia | Chicago | 3 | All Maps","name_short":"chi-3","host":"chi-1.us.uncletopia.com","port":27035,"enabled":true,"region":"us-central","cc":"us","latitude":41.881832,"longitude":-87.62318,"reserved":0,"last_update":"0001-01-01T00:00:00Z","name_a2s":"Uncletopia | Chicago | 3 | All Maps","protocol":17,"map":"pl_upward","folder":"tf","game":"Team Fortress","app_id":440,"player_count":3,"max_players":24,"Bots":0,"server_type":"Dedicated","server_os":"Linux","password":true,"vac":true,"version":"7695204","steam_id":85568392924515191,"keywords":["nocrits","nodmgspread","payload","uncletopia"],"game_id":440,"stv_port":0,"stv_name":"","players":[{"user_id":4,"name":"Recarsonated","steam_id":76561198171454785,"connected_time":264000000000,"state":"active","ping":60},{"user_id":5,"name":"John Darksoul","steam_id":76561198999712284,"connected_time":84000000000,"state":"active","ping":61},{"user_id":6,"name":"trans gaming troll (she/her)","steam_id":76561198085410622,"connected_time":34000000000,"state":"active","ping":92}]},{"server_id":403,"name":"Uncletopia | Chicago | 4 | All Maps","name_short":"chi-4","host":"chi-1.us.uncletopia.com","port":27045,"enabled":true,"region":"us-central","cc":"us","latitude":41.881832,"longitude":-87.62318,"reserved":0,"last_update":"0001-01-01T00:00:00Z","name_a2s":"Uncletopia | Chicago | 4 | All Maps","protocol":17,"map":"koth_highpass","folder":"tf","game":"Team Fortress","app_id":440,"player_count":0,"max_players":24,"Bots":0,"server_type":"Dedicated","server_os":"Linux","password":true,"vac":true,"version":"7695204","steam_id":85568392924515193,"keywords":["cp","nocrits","nodmgspread","uncletopia"],"game_id":440,"stv_port":0,"stv_name":"","players":null},{"server_id":36,"name":"Uncletopia | Chicago | 5 | All Maps","name_short":"chi-5","host":"chi-2.us.uncletopia.com","port":27015,"enabled":true,"region":"us-central","cc":"us","latitude":41.881832,"longitude":-87.62318,"reserved":0,"last_update":"0001-01-01T00:00:00Z","name_a2s":"Uncletopia | Chicago | 5 | All Maps","protocol":17,"map":"cp_altitude","folder":"tf","game":"Team Fortress","app_id":440,"player_count":0,"max_players":24,"Bots":0,"server_type":"Dedicated","server_os":"Linux","password":true,"vac":true,"version":"7695204","steam_id":85568392924866362,"keywords":["cp","nocrits","nodmgspread","uncletopia"],"game_id":440,"stv_port":0,"stv_name":"","players":null},{"server_id":37,"name":"Uncletopia | Chicago | 6 | All Maps","name_short":"chi-6","host":"chi-2.us.uncletopia.com","port":27025,"enabled":true,"region":"us-central","cc":"us","latitude":41.881832,"longitude":-87.62318,"reserved":0,"last_update":"0001-01-01T00:00:00Z","name_a2s":"Uncletopia | Chicago | 6 | All Maps","protocol":17,"map":"cp_snakewater_final1","folder":"tf","game":"Team Fortress","app_id":440,"player_count":0,"max_players":24,"Bots":0,"server_type":"Dedicated","server_os":"Linux","password":true,"vac":true,"version":"7695204","steam_id":85568392924866363,"keywords":["cp","nocrits","nodmgspread","uncletopia"],"game_id":440,"stv_port":0,"stv_name":"","players":null},{"server_id":38,"name":"Uncletopia | Chicago | 7 | No Payload","name_short":"chi-7","host":"chi-2.us.uncletopia.com","port":27035,"enabled":true,"region":"us-central","cc":"us","latitude":41.881832,"longitude":-87.62318,"reserved":0,"last_update":"0001-01-01T00:00:00Z","name_a2s":"Uncletopia | Chicago | 7 | No Payload","protocol":17,"map":"cp_metalworks","folder":"tf","game":"Team Fortress","app_id":440,"player_count":0,"max_players":24,"Bots":0,"server_type":"Dedicated","server_os":"Linux","password":true,"vac":true,"version":"7695204","steam_id":85568392924866364,"keywords":["cp","nocrits","nodmgspread","uncletopia"],"game_id":440,"stv_port":27036,"stv_name":"Uncletopia | Chicago | 7 | No Payload | STV","players":null},{"server_id":39,"name":"Uncletopia | Chicago | 8 | Community","name_short":"chi-8","host":"chi-2.us.uncletopia.com","port":27045,"enabled":true,"region":"us-central","cc":"us","latitude":41.881832,"longitude":-87.62318,"reserved":0,"last_update":"0001-01-01T00:00:00Z","name_a2s":"Uncletopia | Chicago | 8 | Community","protocol":17,"map":"cp_altitude","folder":"tf","game":"Team Fortress","app_id":440,"player_count":0,"max_players":24,"Bots":0,"server_type":"Dedicated","server_os":"Linux","password":true,"vac":true,"version":"7695204","steam_id":85568392924866365,"keywords":["cp","nocrits","nodmgspread","uncletopia"],"game_id":440,"stv_port":0,"stv_name":"","players":null},{"server_id":8,"name":"Uncletopia | Dallas | 1 | All Maps","name_short":"dal-1","host":"dal-1.us.uncletopia.com","port":27015,"enabled":true,"region":"us-central","cc":"us","latitude":32.779167,"longitude":-96.80889,"reserved":0,"last_update":"0001-01-01T00:00:00Z","name_a2s":"Uncletopia | Dallas | 1 | All Maps","protocol":17,"map":"pl_snowycoast","folder":"tf","game":"Team Fortress","app_id":440,"player_count":0,"max_players":24,"Bots":0,"server_type":"Dedicated","server_os":"Linux","password":true,"vac":true,"version":"7695204","steam_id":85568392924469986,"keywords":["nocrits","nodmgspread","payload","uncletopia"],"game_id":440,"stv_port":0,"stv_name":"","players":null},{"server_id":108,"name":"Uncletopia | Dallas | 2 | All Maps","name_short":"dal-2","host":"dal-1.us.uncletopia.com","port":27025,"enabled":true,"region":"us-central","cc":"us","latitude":32.779167,"longitude":-96.80889,"reserved":0,"last_update":"0001-01-01T00:00:00Z","name_a2s":"Uncletopia | Dallas | 2 | All Maps","protocol":17,"map":"cp_mountainlab","folder":"tf","game":"Team Fortress","app_id":440,"player_count":0,"max_players":24,"Bots":0,"server_type":"Dedicated","server_os":"Linux","password":true,"vac":true,"version":"7695204","steam_id":85568392924469988,"keywords":["cp","nocrits","nodmgspread","uncletopia"],"game_id":440,"stv_port":0,"stv_name":"","players":null},{"server_id":5,"name":"Uncletopia | Frankfurt | 1 | All Maps","name_short":"frk-1","host":"frk-1.de.uncletopia.com","port":27015,"enabled":true,"region":"eu","cc":"de","latitude":50.110924,"longitude":8.682127,"reserved":0,"last_update":"0001-01-01T00:00:00Z","name_a2s":"Uncletopia | Frankfurt | 1 | All Maps","protocol":17,"map":"pl_badwater","folder":"tf","game":"Team Fortress","app_id":440,"player_count":24,"max_players":24,"Bots":0,"server_type":"Dedicated","server_os":"Linux","password":true,"vac":true,"version":"7695204","steam_id":85568392924469989,"keywords":["nocrits","nodmgspread","payload","uncletopia"],"game_id":440,"stv_port":27016,"stv_name":"Uncletopia | Frankfurt | 1 | All Maps | STV","players":[{"user_id":338,"name":"sentry man","steam_id":76561197993103138,"connected_time":65000000000,"state":"active","ping":48},{"user_id":315,"name":"Rohlc","steam_id":76561199056443047,"connected_time":1077000000000,"state":"active","ping":57},{"user_id":326,"name":"Gutsu_PRO","steam_id":76561198253321253,"connected_time":354000000000,"state":"active","ping":96},{"user_id":314,"name":"pizza time","steam_id":76561199015899793,"connected_time":1083000000000,"state":"active","ping":57},{"user_id":318,"name":"BEAST MODE 24/7","steam_id":76561198089227864,"connected_time":875000000000,"state":"active","ping":55},{"user_id":336,"name":"Sodemo","steam_id":76561198074987146,"connected_time":91000000000,"state":"active","ping":52},{"user_id":290,"name":"K√∏t","steam_id":76561198067962188,"connected_time":2051000000000,"state":"active","ping":46},{"user_id":319,"name":"Caskye","steam_id":76561198165430888,"connected_time":847000000000,"state":"active","ping":73},{"user_id":312,"name":"banditcamp.com","steam_id":76561198142514751,"connected_time":1248000000000,"state":"active","ping":66},{"user_id":337,"name":"Rin-Nakaret","steam_id":76561197971051188,"connected_time":75000000000,"state":"active","ping":69},{"user_id":320,"name":"Diogenes Aghori","steam_id":76561198061625751,"connected_time":845000000000,"state":"active","ping":73},{"user_id":339,"name":"Iulian","steam_id":76561198382497842,"connected_time":24000000000,"state":"active","ping":82},{"user_id":310,"name":"Nomad994","steam_id":76561198051908201,"connected_time":1363000000000,"state":"active","ping":87},{"user_id":323,"name":"Umbro","steam_id":76561198087930438,"connected_time":612000000000,"state":"active","ping":70},{"user_id":322,"name":"ambatukam!!!","steam_id":76561198197304886,"connected_time":663000000000,"state":"active","ping":111},{"user_id":317,"name":"joe (real)","steam_id":76561198875409640,"connected_time":951000000000,"state":"active","ping":59},{"user_id":300,"name":"officer coleman","steam_id":76561198377533237,"connected_time":1828000000000,"state":"active","ping":70},{"user_id":198,"name":"jorj3821","steam_id":76561198844794367,"connected_time":10623000000000,"state":"active","ping":61},{"user_id":302,"name":"Deacon Dracul","steam_id":76561198046880663,"connected_time":1747000000000,"state":"active","ping":113},{"user_id":316,"name":"Temp0_ ‚ô•","steam_id":76561198162068639,"connected_time":1074000000000,"state":"active","ping":61},{"user_id":287,"name":"Lyell","steam_id":76561198350329389,"connected_time":2424000000000,"state":"active","ping":78},{"user_id":307,"name":"1ggy","steam_id":76561199051285912,"connected_time":1385000000000,"state":"active","ping":83},{"user_id":309,"name":"7blak ‚ôø","steam_id":76561198078928120,"connected_time":1377000000000,"state":"active","ping":83},{"user_id":325,"name":"Toaster1337","steam_id":76561198103706881,"connected_time":512000000000,"state":"active","ping":56}]},{"server_id":110,"name":"Uncletopia | Frankfurt | 2 | All Maps","name_short":"frk-2","host":"frk-1.de.uncletopia.com","port":27025,"enabled":true,"region":"eu","cc":"de","latitude":50.110924,"longitude":8.682127,"reserved":0,"last_update":"0001-01-01T00:00:00Z","name_a2s":"Uncletopia | Frankfurt | 2 | All Maps","protocol":17,"map":"cp_dustbowl","folder":"tf","game":"Team Fortress","app_id":440,"player_count":23,"max_players":24,"Bots":0,"server_type":"Dedicated","server_os":"Linux","password":true,"vac":true,"version":"7695204","steam_id":85568392924469990,"keywords":["cp","nocrits","nodmgspread","uncletopia"],"game_id":440,"stv_port":27026,"stv_name":"Uncletopia | Frankfurt | 2 | All Maps | STV","players":[{"user_id":103,"name":"VIN WEASEL","steam_id":76561198014387066,"connected_time":2146000000000,"state":"active","ping":42},{"user_id":77,"name":"45 mg","steam_id":76561198864329072,"connected_time":3726000000000,"state":"active","ping":102},{"user_id":136,"name":"Jouppi","steam_id":76561198063725468,"connected_time":426000000000,"state":"active","ping":97},{"user_id":58,"name":"pandeux","steam_id":76561198343527617,"connected_time":5196000000000,"state":"active","ping":54},{"user_id":87,"name":"Wrabchev* Just_Smile","steam_id":76561198040645344,"connected_time":3154000000000,"state":"active","ping":73},{"user_id":110,"name":"Nick","steam_id":76561198036109469,"connected_time":1386000000000,"state":"active","ping":89},{"user_id":114,"name":"BlobsOfWax","steam_id":76561198041752402,"connected_time":1309000000000,"state":"active","ping":54},{"user_id":21,"name":"Hexagon","steam_id":76561198151205758,"connected_time":6743000000000,"state":"active","ping":50},{"user_id":94,"name":"JoghurtTheKiller","steam_id":76561198063647918,"connected_time":2731000000000,"state":"active","ping":52},{"user_id":133,"name":"Mr. Mundy","steam_id":76561198132008918,"connected_time":690000000000,"state":"active","ping":81},{"user_id":137,"name":"The Man From U.N.C.L.E","steam_id":76561199024168373,"connected_time":117000000000,"state":"active","ping":79},{"user_id":97,"name":"HalvstorFisk","steam_id":76561198046223315,"connected_time":2681000000000,"state":"active","ping":72},{"user_id":138,"name":"mat","steam_id":76561198824697295,"connected_time":99000000000,"state":"active","ping":64},{"user_id":120,"name":"yunii","steam_id":76561198373991964,"connected_time":1220000000000,"state":"active","ping":76},{"user_id":134,"name":"joe","steam_id":76561198382533813,"connected_time":661000000000,"state":"active","ping":65},{"user_id":121,"name":"roman","steam_id":76561198202415728,"connected_time":1204000000000,"state":"active","ping":50},{"user_id":122,"name":"DIZ","steam_id":76561199065119525,"connected_time":1202000000000,"state":"active","ping":151},{"user_id":127,"name":"Miguelliesen","steam_id":76561198830624218,"connected_time":924000000000,"state":"active","ping":49},{"user_id":124,"name":"tealoverr.190","steam_id":76561199028497703,"connected_time":1171000000000,"state":"active","ping":102},{"user_id":125,"name":"Kalosz","steam_id":76561198152153729,"connected_time":1170000000000,"state":"active","ping":72},{"user_id":135,"name":"gamer_","steam_id":76561198094125769,"connected_time":634000000000,"state":"active","ping":78},{"user_id":90,"name":"cowdwogh","steam_id":76561197960509452,"connected_time":2966000000000,"state":"active","ping":60},{"user_id":100,"name":".fetisov","steam_id":76561199402489568,"connected_time":2670000000000,"state":"active","ping":60}]},{"server_id":308,"name":"Uncletopia | Frankfurt | 3 | All Maps","name_short":"frk-3","host":"frk-1.de.uncletopia.com","port":27035,"enabled":true,"region":"eu","cc":"de","latitude":50.110924,"longitude":8.682127,"reserved":0,"last_update":"0001-01-01T00:00:00Z","name_a2s":"Uncletopia | Frankfurt | 3 | All Maps","protocol":17,"map":"pl_goldrush","folder":"tf","game":"Team Fortress","app_id":440,"player_count":24,"max_players":24,"Bots":0,"server_type":"Dedicated","server_os":"Linux","password":true,"vac":true,"version":"7695204","steam_id":85568392924504274,"keywords":["nocrits","nodmgspread","payload","uncletopia"],"game_id":440,"stv_port":27036,"stv_name":"Uncletopia | Frankfurt | 3 | All Maps | STV","players":[{"user_id":139,"name":"benifis163","steam_id":76561198420973492,"connected_time":4052000000000,"state":"active","ping":95},{"user_id":191,"name":"moki","steam_id":76561198314358032,"connected_time":17000000000,"state":"active","ping":83},{"user_id":171,"name":"Grote piemel","steam_id":76561198166357571,"connected_time":1579000000000,"state":"active","ping":50},{"user_id":183,"name":"squikkel3","steam_id":76561198286393699,"connected_time":774000000000,"state":"active","ping":78},{"user_id":180,"name":"JP3","steam_id":76561197970963576,"connected_time":972000000000,"state":"active","ping":61},{"user_id":90,"name":"marken","steam_id":76561198311282846,"connected_time":8655000000000,"state":"active","ping":68},{"user_id":157,"name":"Stepoface","steam_id":76561198091569863,"connected_time":3091000000000,"state":"active","ping":60},{"user_id":160,"name":"Dommy","steam_id":76561197990864747,"connected_time":2879000000000,"state":"active","ping":45},{"user_id":188,"name":"Revenge Ridden Scootz","steam_id":76561198018491455,"connected_time":117000000000,"state":"active","ping":63},{"user_id":92,"name":"tacgod (read backwards)","steam_id":76561198312739604,"connected_time":8580000000000,"state":"active","ping":75},{"user_id":187,"name":"partizan","steam_id":76561198440837262,"connected_time":136000000000,"state":"active","ping":62},{"user_id":179,"name":"Flawless","steam_id":76561198090517464,"connected_time":1007000000000,"state":"active","ping":64},{"user_id":144,"name":"Yoyo12","steam_id":76561198931770279,"connected_time":3877000000000,"state":"active","ping":60},{"user_id":185,"name":"Madoga0 EU","steam_id":76561198102371701,"connected_time":154000000000,"state":"active","ping":83},{"user_id":173,"name":"DOCTOR SEX","steam_id":76561199210767484,"connected_time":1528000000000,"state":"active","ping":66},{"user_id":182,"name":"jaime8D","steam_id":76561197980590671,"connected_time":827000000000,"state":"active","ping":76},{"user_id":174,"name":"LOBZIK","steam_id":76561198114830120,"connected_time":1522000000000,"state":"active","ping":75},{"user_id":146,"name":"Untermenshh","steam_id":76561198284636705,"connected_time":3852000000000,"state":"active","ping":86},{"user_id":184,"name":"meat","steam_id":76561198093290934,"connected_time":200000000000,"state":"active","ping":58},{"user_id":167,"name":"Mapus Lepoldus","steam_id":76561198067705233,"connected_time":2226000000000,"state":"active","ping":59},{"user_id":149,"name":"hawkblob","steam_id":76561198803720565,"connected_time":3839000000000,"state":"active","ping":70},{"user_id":192,"name":"Alice can't hit pipes","steam_id":76561198052410860,"connected_time":0,"state":"spawning","ping":37},{"user_id":189,"name":"Greed","steam_id":76561198034264020,"connected_time":101000000000,"state":"active","ping":114},{"user_id":151,"name":"night.s","steam_id":76561198326287823,"connected_time":3799000000000,"state":"active","ping":82}]},{"server_id":309,"name":"Uncletopia | Frankfurt | 4 | All Maps","name_short":"frk-4","host":"frk-1.de.uncletopia.com","port":27045,"enabled":true,"region":"eu","cc":"de","latitude":50.110924,"longitude":8.682127,"reserved":0,"last_update":"0001-01-01T00:00:00Z","name_a2s":"Uncletopia | Frankfurt | 4 | All Maps","protocol":17,"map":"koth_highpass","folder":"tf","game":"Team Fortress","app_id":440,"player_count":0,"max_players":24,"Bots":0,"server_type":"Dedicated","server_os":"Linux","password":true,"vac":true,"version":"7695204","steam_id":85568392924504275,"keywords":["cp","nocrits","nodmgspread","uncletopia"],"game_id":440,"stv_port":0,"stv_name":"","players":null},{"server_id":310,"name":"Uncletopia | Frankfurt | 5 | All Maps","name_short":"frk-5","host":"frk-1.de.uncletopia.com","port":27055,"enabled":true,"region":"eu","cc":"de","latitude":50.110924,"longitude":8.682127,"reserved":0,"last_update":"0001-01-01T00:00:00Z","name_a2s":"Uncletopia | Frankfurt | 5 | All Maps","protocol":17,"map":"cp_sunshine","folder":"tf","game":"Team Fortress","app_id":440,"player_count":0,"max_players":24,"Bots":0,"server_type":"Dedicated","server_os":"Linux","password":true,"vac":true,"version":"7695204","steam_id":85568392924504277,"keywords":["cp","nocrits","nodmgspread","uncletopia"],"game_id":440,"stv_port":27056,"stv_name":"Uncletopia | Frankfurt | 5 | All Maps | STV","players":null},{"server_id":311,"name":"Uncletopia | Frankfurt | 6 | All Maps","name_short":"frk-6","host":"frk-1.de.uncletopia.com","port":27065,"enabled":true,"region":"eu","cc":"de","latitude":50.110924,"longitude":8.682127,"reserved":0,"last_update":"0001-01-01T00:00:00Z","name_a2s":"Uncletopia | Frankfurt | 6 | All Maps","protocol":17,"map":"pl_barnblitz","folder":"tf","game":"Team Fortress","app_id":440,"player_count":24,"max_players":24,"Bots":0,"server_type":"Dedicated","server_os":"Linux","password":true,"vac":true,"version":"7695204","steam_id":85568392924504278,"keywords":["nocrits","nodmgspread","payload","uncletopia"],"game_id":440,"stv_port":27066,"stv_name":"Uncletopia | Frankfurt | 6 | All Maps | STV","players":[{"user_id":231,"name":"Mogwai","steam_id":76561198078832314,"connected_time":558000000000,"state":"active","ping":75},{"user_id":220,"name":"swallowed 10 pennies please hel","steam_id":76561198055816412,"connected_time":1602000000000,"state":"active","ping":72},{"user_id":230,"name":"big boi","steam_id":76561198033467299,"connected_time":568000000000,"state":"active","ping":124},{"user_id":223,"name":"Moon","steam_id":76561198047535132,"connected_time":1396000000000,"state":"active","ping":65},{"user_id":228,"name":"Karewa.","steam_id":76561198201109002,"connected_time":1019000000000,"state":"active","ping":88},{"user_id":218,"name":"RazOverdrive","steam_id":76561198000794210,"connected_time":1714000000000,"state":"active","ping":49},{"user_id":76,"name":"XfarisGamerX","steam_id":76561198367579380,"connected_time":14439000000000,"state":"active","ping":124},{"user_id":225,"name":"guiseppe","steam_id":76561198046129681,"connected_time":1349000000000,"state":"active","ping":102},{"user_id":229,"name":"9/11 is a myth","steam_id":76561198081673615,"connected_time":814000000000,"state":"active","ping":90},{"user_id":226,"name":"Chocofrolik","steam_id":76561198454779847,"connected_time":1337000000000,"state":"active","ping":64},{"user_id":242,"name":"jeff","steam_id":76561198357104319,"connected_time":212000000000,"state":"active","ping":71},{"user_id":214,"name":"terrine de poisson","steam_id":76561198182874945,"connected_time":2130000000000,"state":"active","ping":58},{"user_id":227,"name":"Zazou","steam_id":76561198028076362,"connected_time":1298000000000,"state":"active","ping":51},{"user_id":183,"name":"goofy goober","steam_id":76561198013237629,"connected_time":5276000000000,"state":"active","ping":90},{"user_id":215,"name":"üíÄ Francis_Elric üíÄ","steam_id":76561198063002471,"connected_time":2043000000000,"state":"active","ping":60},{"user_id":217,"name":"Jeremy Clarkson","steam_id":76561198264708239,"connected_time":1787000000000,"state":"active","ping":56},{"user_id":208,"name":"Andersexe","steam_id":76561198383864449,"connected_time":2694000000000,"state":"active","ping":62},{"user_id":232,"name":"I love watermelons","steam_id":76561199067173157,"connected_time":551000000000,"state":"active","ping":58},{"user_id":202,"name":"Nope","steam_id":76561198069066522,"connected_time":2771000000000,"state":"active","ping":79},{"user_id":164,"name":"Devil hater","steam_id":76561198110470565,"connected_time":6729000000000,"state":"active","ping":104},{"user_id":203,"name":"Supercle26","steam_id":76561199027147631,"connected_time":2758000000000,"state":"active","ping":53},{"user_id":243,"name":"Kaiser","steam_id":76561198145421612,"connected_time":181000000000,"state":"active","ping":81},{"user_id":238,"name":"outlaw","steam_id":76561198323805289,"connected_time":309000000000,"state":"active","ping":58},{"user_id":233,"name":"Puro ‚ô•","steam_id":76561198039016765,"connected_time":512000000000,"state":"active","ping":91}]},{"server_id":23,"name":"Uncletopia | Frankfurt | 7 | No Payload","name_short":"frk-7","host":"frk-1.de.uncletopia.com","port":27075,"enabled":true,"region":"eu","cc":"de","latitude":50.110924,"longitude":8.682127,"reserved":0,"last_update":"0001-01-01T00:00:00Z","name_a2s":"Uncletopia | Frankfurt | 7 | No Payload","protocol":17,"map":"ctf_2fort","folder":"tf","game":"Team Fortress","app_id":440,"player_count":24,"max_players":24,"Bots":0,"server_type":"Dedicated","server_os":"Linux","password":true,"vac":true,"version":"7695204","steam_id":85568392924742827,"keywords":["ctf","nocrits","nodmgspread","uncletopia"],"game_id":440,"stv_port":27076,"stv_name":"Uncletopia | Frankfurt | 7 | No Payload | STV","players":[{"user_id":287,"name":"'Tis but a scratch","steam_id":76561198118517671,"connected_time":345000000000,"state":"active","ping":163},{"user_id":252,"name":"Alien","steam_id":76561198984102084,"connected_time":2661000000000,"state":"active","ping":116},{"user_id":277,"name":"SirHex","steam_id":76561198368766889,"connected_time":661000000000,"state":"active","ping":83},{"user_id":280,"name":"OSwaldd","steam_id":76561199078712899,"connected_time":517000000000,"state":"active","ping":73},{"user_id":266,"name":"Kokas","steam_id":76561197996786353,"connected_time":1273000000000,"state":"active","ping":64},{"user_id":279,"name":"theActualPest","steam_id":76561198055327695,"connected_time":532000000000,"state":"active","ping":164},{"user_id":295,"name":"sHIFTINGvORTEX","steam_id":76561198231648332,"connected_time":87000000000,"state":"active","ping":75},{"user_id":296,"name":"Icarus300","steam_id":76561198015125766,"connected_time":82000000000,"state":"active","ping":83},{"user_id":226,"name":"Toasty5050","steam_id":76561198073540881,"connected_time":4003000000000,"state":"active","ping":45},{"user_id":282,"name":"default enjoyer","steam_id":76561198097789669,"connected_time":485000000000,"state":"active","ping":59},{"user_id":267,"name":"Dzieciol","steam_id":76561198160237556,"connected_time":1270000000000,"state":"active","ping":69},{"user_id":292,"name":"szabomartin105","steam_id":76561199440260747,"connected_time":196000000000,"state":"active","ping":63},{"user_id":290,"name":"Vilnius","steam_id":76561199027409859,"connected_time":235000000000,"state":"active","ping":86},{"user_id":210,"name":"John Daly","steam_id":76561197993849325,"connected_time":5398000000000,"state":"active","ping":68},{"user_id":297,"name":"viziborju","steam_id":76561199145340529,"connected_time":55000000000,"state":"active","ping":75},{"user_id":285,"name":"PingouinPoilu","steam_id":76561198025089253,"connected_time":433000000000,"state":"active","ping":57},{"user_id":293,"name":"Ben UFO","steam_id":76561198001648348,"connected_time":191000000000,"state":"active","ping":53},{"user_id":251,"name":"M2rtRa","steam_id":76561198111036466,"connected_time":2739000000000,"state":"active","ping":62},{"user_id":298,"name":"bebul","steam_id":76561198140281896,"connected_time":34000000000,"state":"spawning","ping":61},{"user_id":242,"name":"noob_with_source","steam_id":76561198870362103,"connected_time":3414000000000,"state":"active","ping":63},{"user_id":262,"name":"kamu","steam_id":76561198367337443,"connected_time":1599000000000,"state":"active","ping":116},{"user_id":294,"name":"SvbK","steam_id":76561198201478866,"connected_time":132000000000,"state":"active","ping":79},{"user_id":197,"name":"Rimx","steam_id":76561198053034840,"connected_time":6250000000000,"state":"active","ping":89},{"user_id":245,"name":"topstrudla","steam_id":76561199014345971,"connected_time":3092000000000,"state":"active","ping":116}]},{"server_id":24,"name":"Uncletopia | Frankfurt | 8 | Community","name_short":"frk-8","host":"frk-1.de.uncletopia.com","port":27085,"enabled":true,"region":"eu","cc":"de","latitude":50.110924,"longitude":8.682127,"reserved":0,"last_update":"0001-01-01T00:00:00Z","name_a2s":"Uncletopia | Frankfurt | 8 | Community","protocol":17,"map":"koth_lakeside_final","folder":"tf","game":"Team Fortress","app_id":440,"player_count":0,"max_players":24,"Bots":0,"server_type":"Dedicated","server_os":"Linux","password":true,"vac":true,"version":"7695204","steam_id":85568392924742828,"keywords":["cp","nocrits","nodmgspread","uncletopia"],"game_id":440,"stv_port":0,"stv_name":"","players":null},{"server_id":202,"name":"Uncletopia | Hong Kong | 1 | All Maps","name_short":"hgk-1","host":"hgk-1.hk.uncletopia.com","port":27015,"enabled":true,"region":"asia","cc":"hk","latitude":22.302711,"longitude":114.177216,"reserved":0,"last_update":"0001-01-01T00:00:00Z","name_a2s":"Uncletopia | Hong Kong | 1 | All Maps","protocol":17,"map":"pl_pier","folder":"tf","game":"Team Fortress","app_id":440,"player_count":15,"max_players":24,"Bots":0,"server_type":"Dedicated","server_os":"Linux","password":true,"vac":true,"version":"7695204","steam_id":85568392924494504,"keywords":["nocrits","nodmgspread","payload","uncletopia"],"game_id":440,"stv_port":27016,"stv_name":"Uncletopia | Hong Kong | 1 | All Maps | STV","players":[{"user_id":791,"name":"Speedie","steam_id":76561199094590287,"connected_time":1580000000000,"state":"active","ping":88},{"user_id":793,"name":"Tribal Mana","steam_id":76561198011757567,"connected_time":1515000000000,"state":"active","ping":91},{"user_id":801,"name":"Violezine","steam_id":76561199000502615,"connected_time":652000000000,"state":"active","ping":75},{"user_id":802,"name":"Caleb(maximum lung cancer)","steam_id":76561199245927029,"connected_time":540000000000,"state":"active","ping":91},{"user_id":804,"name":"deezers","steam_id":76561199199118750,"connected_time":302000000000,"state":"active","ping":110},{"user_id":805,"name":"TomProPlayer","steam_id":76561199223292521,"connected_time":258000000000,"state":"active","ping":67},{"user_id":806,"name":"+W+","steam_id":76561197997220367,"connected_time":244000000000,"state":"active","ping":37},{"user_id":807,"name":"Buttman","steam_id":76561198044693388,"connected_time":218000000000,"state":"active","ping":50},{"user_id":808,"name":"Jesse TF2EASY.COM","steam_id":76561199153474215,"connected_time":189000000000,"state":"active","ping":76},{"user_id":809,"name":"Cartoon","steam_id":76561199215858531,"connected_time":122000000000,"state":"active","ping":90},{"user_id":810,"name":"23286629809","steam_id":76561199184927159,"connected_time":31000000000,"state":"active","ping":70},{"user_id":773,"name":"ÊØç„ÅÆËÇâÂõ£Â≠ê","steam_id":76561198069561896,"connected_time":2412000000000,"state":"active","ping":36},{"user_id":765,"name":"lk‚ùÜ","steam_id":76561199077602424,"connected_time":3367000000000,"state":"active","ping":54},{"user_id":783,"name":"Paragon","steam_id":76561197983816430,"connected_time":2142000000000,"state":"active","ping":130},{"user_id":785,"name":"Asuka Sohryu Langley","steam_id":76561198895193247,"connected_time":2123000000000,"state":"active","ping":112}]},{"server_id":1,"name":"Uncletopia | Los Angeles | 1 | All Maps","name_short":"lax-1","host":"lax-1.us.uncletopia.com","port":27015,"enabled":true,"region":"us-west","cc":"us","latitude":33.94279,"longitude":-118.41004,"reserved":0,"last_update":"0001-01-01T00:00:00Z","name_a2s":"Uncletopia | Los Angeles | 1 | All Maps","protocol":17,"map":"cp_sunshine","folder":"tf","game":"Team Fortress","app_id":440,"player_count":0,"max_players":24,"Bots":0,"server_type":"Dedicated","server_os":"Linux","password":true,"vac":true,"version":"7695204","steam_id":85568392924469991,"keywords":["cp","nocrits","nodmgspread","uncletopia"],"game_id":440,"stv_port":0,"stv_name":"","players":null},{"server_id":112,"name":"Uncletopia | Los Angeles | 2 | All Maps","name_short":"lax-2","host":"lax-1.us.uncletopia.com","port":27025,"enabled":true,"region":"us-west","cc":"us","latitude":33.94279,"longitude":-118.41004,"reserved":0,"last_update":"0001-01-01T00:00:00Z","name_a2s":"Uncletopia | Los Angeles | 2 | All Maps","protocol":17,"map":"cp_dustbowl","folder":"tf","game":"Team Fortress","app_id":440,"player_count":0,"max_players":24,"Bots":0,"server_type":"Dedicated","server_os":"Linux","password":true,"vac":true,"version":"7695204","steam_id":85568392924469992,"keywords":["cp","nocrits","nodmgspread","uncletopia"],"game_id":440,"stv_port":0,"stv_name":"","players":null},{"server_id":324,"name":"Uncletopia | Los Angeles | 3 | All Maps","name_short":"lax-3","host":"lax-1.us.uncletopia.com","port":27035,"enabled":true,"region":"us-west","cc":"us","latitude":33.94279,"longitude":-118.41004,"reserved":0,"last_update":"0001-01-01T00:00:00Z","name_a2s":"Uncletopia | Los Angeles | 3 | All Maps","protocol":17,"map":"cp_mountainlab","folder":"tf","game":"Team Fortress","app_id":440,"player_count":0,"max_players":24,"Bots":0,"server_type":"Dedicated","server_os":"Linux","password":true,"vac":true,"version":"7695204","steam_id":85568392924510198,"keywords":["cp","nocrits","nodmgspread","uncletopia"],"game_id":440,"stv_port":0,"stv_name":"","players":null},{"server_id":25,"name":"Uncletopia | Los Angeles | 4 | No Payload","name_short":"lax-4","host":"lax-1.us.uncletopia.com","port":27045,"enabled":true,"region":"us-west","cc":"us","latitude":33.94279,"longitude":-118.41004,"reserved":0,"last_update":"0001-01-01T00:00:00Z","name_a2s":"Uncletopia | Los Angeles | 4 | No Payload","protocol":17,"map":"pl_barnblitz","folder":"tf","game":"Team Fortress","app_id":440,"player_count":0,"max_players":24,"Bots":0,"server_type":"Dedicated","server_os":"Linux","password":true,"vac":true,"version":"7695204","steam_id":85568392924510199,"keywords":["nocrits","nodmgspread","payload","uncletopia"],"game_id":440,"stv_port":0,"stv_name":"","players":null},{"server_id":11,"name":"Uncletopia | London | 1 | All Maps","name_short":"lon-1","host":"lon-1.uk.uncletopia.com","port":27015,"enabled":true,"region":"eu","cc":"gb","latitude":51.509865,"longitude":-0.118092,"reserved":0,"last_update":"0001-01-01T00:00:00Z","name_a2s":"Uncletopia | London | 1 | All Maps","protocol":17,"map":"pl_goldrush","folder":"tf","game":"Team Fortress","app_id":440,"player_count":24,"max_players":24,"Bots":0,"server_type":"Dedicated","server_os":"Linux","password":true,"vac":true,"version":"7695204","steam_id":85568392924367362,"keywords":["nocrits","nodmgspread","payload","uncletopia"],"game_id":440,"stv_port":27016,"stv_name":"Uncletopia | London | 1 | All Maps | STV","players":[{"user_id":10,"name":"Fred","steam_id":76561198107137362,"connected_time":8778000000000,"state":"active","ping":51},{"user_id":120,"name":"Karsapaali","steam_id":76561198322322739,"connected_time":1388000000000,"state":"active","ping":76},{"user_id":148,"name":"doodgie","steam_id":76561198264934115,"connected_time":33000000000,"state":"spawning","ping":59},{"user_id":134,"name":"m4tt","steam_id":76561198267909813,"connected_time":511000000000,"state":"active","ping":69},{"user_id":77,"name":"Hkitchen","steam_id":76561198194779526,"connected_time":4128000000000,"state":"active","ping":39},{"user_id":142,"name":"DarthPaul8181","steam_id":76561198373050455,"connected_time":370000000000,"state":"active","ping":47},{"user_id":106,"name":"DarkFloy | Bomboclat Player","steam_id":76561198070650206,"connected_time":2250000000000,"state":"active","ping":87},{"user_id":127,"name":"Zerg","steam_id":76561198084881626,"connected_time":593000000000,"state":"active","ping":71},{"user_id":146,"name":"xanderomeister","steam_id":76561198882550389,"connected_time":125000000000,"state":"active","ping":53},{"user_id":133,"name":"ramedlaV^^","steam_id":76561198074352339,"connected_time":534000000000,"state":"active","ping":68},{"user_id":135,"name":"1965tobydowd","steam_id":76561198858551969,"connected_time":498000000000,"state":"active","ping":179},{"user_id":144,"name":"asti50","steam_id":76561198092247738,"connected_time":255000000000,"state":"active","ping":57},{"user_id":102,"name":"Micha≈Ç","steam_id":76561198320346362,"connected_time":2366000000000,"state":"active","ping":72},{"user_id":108,"name":"Senior","steam_id":76561198065014164,"connected_time":2200000000000,"state":"active","ping":48},{"user_id":145,"name":"somey","steam_id":76561198083366012,"connected_time":209000000000,"state":"active","ping":112},{"user_id":138,"name":"Omni","steam_id":76561198054543912,"connected_time":472000000000,"state":"active","ping":74},{"user_id":92,"name":"murderwow","steam_id":76561198024566944,"connected_time":2964000000000,"state":"active","ping":106},{"user_id":149,"name":"MantyPanty","steam_id":76561198995301099,"connected_time":22000000000,"state":"active","ping":64},{"user_id":105,"name":"Ansari","steam_id":76561198074982971,"connected_time":2313000000000,"state":"active","ping":48},{"user_id":93,"name":"Smag","steam_id":76561198153675141,"connected_time":2917000000000,"state":"active","ping":51},{"user_id":147,"name":"CHEESE","steam_id":76561199119597456,"connected_time":84000000000,"state":"active","ping":74},{"user_id":141,"name":"ReDsinat0r","steam_id":76561198365973345,"connected_time":450000000000,"state":"active","ping":71},{"user_id":150,"name":"Akirus","steam_id":76561198369831090,"connected_time":22000000000,"state":"active","ping":139},{"user_id":114,"name":"nudjura","steam_id":76561198281986139,"connected_time":2021000000000,"state":"active","ping":42}]},{"server_id":114,"name":"Uncletopia | London | 2 | All Maps","name_short":"lon-2","host":"lon-1.uk.uncletopia.com","port":27025,"enabled":true,"region":"eu","cc":"gb","latitude":51.509865,"longitude":-0.118092,"reserved":0,"last_update":"0001-01-01T00:00:00Z","name_a2s":"Uncletopia | London | 2 | All Maps","protocol":17,"map":"pl_pier","folder":"tf","game":"Team Fortress","app_id":440,"player_count":24,"max_players":24,"Bots":0,"server_type":"Dedicated","server_os":"Linux","password":true,"vac":true,"version":"7695204","steam_id":85568392924470941,"keywords":["nocrits","nodmgspread","payload","uncletopia"],"game_id":440,"stv_port":27026,"stv_name":"Uncletopia | London | 2 | All Maps | STV","players":[{"user_id":159,"name":"EaTtussy","steam_id":76561199235376543,"connected_time":570000000000,"state":"active","ping":66},{"user_id":155,"name":"Kazakhstan BEST!!!","steam_id":76561198094111415,"connected_time":819000000000,"state":"active","ping":75},{"user_id":156,"name":"Craftosaur","steam_id":76561198087010552,"connected_time":606000000000,"state":"active","ping":68},{"user_id":153,"name":"Sad Slut","steam_id":76561198838277022,"connected_time":1091000000000,"state":"active","ping":92},{"user_id":169,"name":"‚ô¶Silvia‚ô¶","steam_id":76561198373039444,"connected_time":306000000000,"state":"active","ping":94},{"user_id":136,"name":"sks ÀÖÀÖ","steam_id":76561197996485230,"connected_time":1956000000000,"state":"active","ping":72},{"user_id":98,"name":"Scarlet","steam_id":76561198075966579,"connected_time":4642000000000,"state":"active","ping":42},{"user_id":137,"name":"stars.","steam_id":76561198092355604,"connected_time":1948000000000,"state":"active","ping":95},{"user_id":18,"name":"VK2124 :D","steam_id":76561198111130688,"connected_time":9907000000000,"state":"active","ping":59},{"user_id":164,"name":"alien","steam_id":76561197968892194,"connected_time":504000000000,"state":"active","ping":46},{"user_id":163,"name":"Tyco","steam_id":76561197978414167,"connected_time":547000000000,"state":"active","ping":144},{"user_id":158,"name":"coachnetworkoperared514","steam_id":76561198236015392,"connected_time":593000000000,"state":"active","ping":135},{"user_id":128,"name":"Kodutah","steam_id":76561198203405574,"connected_time":2275000000000,"state":"active","ping":66},{"user_id":84,"name":"Mike","steam_id":76561198055459984,"connected_time":6198000000000,"state":"active","ping":46},{"user_id":170,"name":"Udinese Dion","steam_id":76561198067931573,"connected_time":81000000000,"state":"active","ping":60},{"user_id":157,"name":"lulu","steam_id":76561199147764133,"connected_time":605000000000,"state":"active","ping":74},{"user_id":160,"name":"Fran","steam_id":76561199070516960,"connected_time":568000000000,"state":"active","ping":72},{"user_id":154,"name":":3","steam_id":76561198117784431,"connected_time":1089000000000,"state":"active","ping":72},{"user_id":161,"name":"Mondocane","steam_id":76561199233979726,"connected_time":564000000000,"state":"active","ping":96},{"user_id":162,"name":"Qwertuss","steam_id":76561198026305366,"connected_time":553000000000,"state":"active","ping":53},{"user_id":147,"name":"s a i","steam_id":76561197970379754,"connected_time":1687000000000,"state":"active","ping":60},{"user_id":50,"name":"nyanezt","steam_id":76561198253734265,"connected_time":9057000000000,"state":"active","ping":105},{"user_id":63,"name":"Jafoul","steam_id":76561199383437138,"connected_time":7876000000000,"state":"active","ping":369},{"user_id":121,"name":"\"Dominus.\"","steam_id":76561199065917088,"connected_time":3211000000000,"state":"active","ping":65}]},{"server_id":320,"name":"Uncletopia | London | 3 | All Maps","name_short":"lon-3","host":"lon-1.uk.uncletopia.com","port":27035,"enabled":true,"region":"eu","cc":"gb","latitude":51.509865,"longitude":-0.118092,"reserved":0,"last_update":"0001-01-01T00:00:00Z","name_a2s":"Uncletopia | London | 3 | All Maps","protocol":17,"map":"pl_pier","folder":"tf","game":"Team Fortress","app_id":440,"player_count":24,"max_players":24,"Bots":0,"server_type":"Dedicated","server_os":"Linux","password":true,"vac":true,"version":"7695204","steam_id":85568392924510192,"keywords":["nocrits","nodmgspread","payload","uncletopia"],"game_id":440,"stv_port":27036,"stv_name":"Uncletopia | London | 3 | All Maps | STV","players":[{"user_id":412,"name":"sin","steam_id":76561198193416785,"connected_time":955000000000,"state":"active","ping":65},{"user_id":413,"name":"dude","steam_id":76561198299412035,"connected_time":913000000000,"state":"active","ping":70},{"user_id":363,"name":"maakgis","steam_id":76561198851703804,"connected_time":3569000000000,"state":"active","ping":126},{"user_id":414,"name":"fierce_A2","steam_id":76561198301836443,"connected_time":911000000000,"state":"active","ping":119},{"user_id":416,"name":"Prox","steam_id":76561198351490981,"connected_time":800000000000,"state":"active","ping":38},{"user_id":379,"name":"JohnTraveltime","steam_id":76561199244281754,"connected_time":2958000000000,"state":"active","ping":70},{"user_id":348,"name":"Flare","steam_id":76561198039098320,"connected_time":4804000000000,"state":"active","ping":51},{"user_id":415,"name":"BiasedAcorn","steam_id":76561198970772881,"connected_time":910000000000,"state":"active","ping":64},{"user_id":399,"name":"SkyNet-","steam_id":76561199048059547,"connected_time":1700000000000,"state":"active","ping":60},{"user_id":367,"name":"PowerlessCube","steam_id":76561198020974405,"connected_time":3491000000000,"state":"active","ping":57},{"user_id":384,"name":"Mean Green Peen","steam_id":76561198228455736,"connected_time":2628000000000,"state":"active","ping":46},{"user_id":408,"name":"triple!!!","steam_id":76561198119449463,"connected_time":1326000000000,"state":"active","ping":61},{"user_id":417,"name":"Ohio final boss","steam_id":76561199116882319,"connected_time":611000000000,"state":"active","ping":42},{"user_id":304,"name":"Ôº≤ ÔºØ Ôº¢ Ôº¢ Ôº• Ôº≤ Ôº¥","steam_id":76561198134404830,"connected_time":7344000000000,"state":"active","ping":141},{"user_id":319,"name":"Bottomest","steam_id":76561198091734693,"connected_time":6683000000000,"state":"active","ping":50},{"user_id":339,"name":"soil.dirt.earth","steam_id":76561198014377623,"connected_time":5644000000000,"state":"active","ping":53},{"user_id":389,"name":"Jela331","steam_id":76561198112625107,"connected_time":2181000000000,"state":"active","ping":74},{"user_id":374,"name":"TheBeardedM1G","steam_id":76561198040208946,"connected_time":3002000000000,"state":"active","ping":46},{"user_id":375,"name":"NonProphet","steam_id":76561198280149820,"connected_time":3001000000000,"state":"active","ping":57},{"user_id":409,"name":"ziemniaki ‚ô°UœâU‚ô°","steam_id":76561198314919758,"connected_time":1191000000000,"state":"active","ping":78},{"user_id":411,"name":"–ó–∞–¥–Ω–µ–ø—Ä–æ—Ö–æ–¥–µ—Ü","steam_id":76561198059741978,"connected_time":975000000000,"state":"active","ping":87},{"user_id":385,"name":"–ö–æ—Ä–Ω—ñ—à–æ–Ω","steam_id":76561197968575924,"connected_time":2525000000000,"state":"active","ping":54},{"user_id":396,"name":"Dummy","steam_id":76561198349741126,"connected_time":1783000000000,"state":"active","ping":67},{"user_id":403,"name":"Small Goodman","steam_id":76561198881753718,"connected_time":1632000000000,"state":"active","ping":78}]},{"server_id":321,"name":"Uncletopia | London | 4 | All Maps","name_short":"lon-4","host":"lon-1.uk.uncletopia.com","port":27045,"enabled":true,"region":"eu","cc":"gb","latitude":51.509865,"longitude":-0.118092,"reserved":0,"last_update":"0001-01-01T00:00:00Z","name_a2s":"Uncletopia | London | 4 | All Maps","protocol":17,"map":"koth_king","folder":"tf","game":"Team Fortress","app_id":440,"player_count":0,"max_players":24,"Bots":0,"server_type":"Dedicated","server_os":"Linux","password":true,"vac":true,"version":"7695204","steam_id":85568392924510193,"keywords":["cp","nocrits","nodmgspread","uncletopia"],"game_id":440,"stv_port":27046,"stv_name":"Uncletopia | London | 4 | All Maps | STV","players":null},{"server_id":21,"name":"Uncletopia | London | 5 | All Maps","name_short":"lon-5","host":"lon-1.uk.uncletopia.com","port":27055,"enabled":true,"region":"eu","cc":"gb","latitude":51.509865,"longitude":-0.118092,"reserved":0,"last_update":"0001-01-01T00:00:00Z","name_a2s":"Uncletopia | London | 5 | All Maps","protocol":17,"map":"koth_harvest_final","folder":"tf","game":"Team Fortress","app_id":440,"player_count":3,"max_players":24,"Bots":0,"server_type":"Dedicated","server_os":"Linux","password":true,"vac":true,"version":"7695204","steam_id":85568392924742829,"keywords":["cp","nocrits","nodmgspread","uncletopia"],"game_id":440,"stv_port":27056,"stv_name":"Uncletopia | London | 5 | All Maps | STV","players":[{"user_id":11,"name":"Vashontrash99","steam_id":76561199250946319,"connected_time":998000000000,"state":"active","ping":122},{"user_id":21,"name":"Hnreeee","steam_id":76561198332936466,"connected_time":127000000000,"state":"active","ping":29},{"user_id":22,"name":"Joashie","steam_id":76561198245170822,"connected_time":93000000000,"state":"active","ping":43}]},{"server_id":22,"name":"Uncletopia | London | 6 | All Maps","name_short":"lon-6","host":"lon-1.uk.uncletopia.com","port":27065,"enabled":true,"region":"eu","cc":"gb","latitude":51.509865,"longitude":-0.118092,"reserved":0,"last_update":"0001-01-01T00:00:00Z","name_a2s":"Uncletopia | London | 6 | All Maps","protocol":17,"map":"pl_frontier_final","folder":"tf","game":"Team Fortress","app_id":440,"player_count":0,"max_players":24,"Bots":0,"server_type":"Dedicated","server_os":"Linux","password":true,"vac":true,"version":"7695204","steam_id":85568392924742830,"keywords":["nocrits","nodmgspread","payload","uncletopia"],"game_id":440,"stv_port":27066,"stv_name":"Uncletopia | London | 6 | All Maps | STV","players":null},{"server_id":40,"name":"Uncletopia | London | 7 | No Payload","name_short":"lon-7","host":"lon-1.uk.uncletopia.com","port":27075,"enabled":true,"region":"eu","cc":"gb","latitude":51.509865,"longitude":-0.118092,"reserved":0,"last_update":"0001-01-01T00:00:00Z","name_a2s":"Uncletopia | London | 7 | No Payload","protocol":17,"map":"koth_lakeside_final","folder":"tf","game":"Team Fortress","app_id":440,"player_count":0,"max_players":24,"Bots":0,"server_type":"Dedicated","server_os":"Linux","password":true,"vac":true,"version":"7695204","steam_id":85568392924964314,"keywords":["cp","nocrits","nodmgspread","uncletopia"],"game_id":440,"stv_port":27076,"stv_name":"Uncletopia | London | 7 | No Payload | STV","players":null},{"server_id":41,"name":"Uncletopia | London | 8 | Community","name_short":"lon-8","host":"lon-1.uk.uncletopia.com","port":27085,"enabled":true,"region":"eu","cc":"gb","latitude":51.509865,"longitude":-0.118092,"reserved":0,"last_update":"0001-01-01T00:00:00Z","name_a2s":"Uncletopia | London | 8 | Community","protocol":17,"map":"cp_dustbowl","folder":"tf","game":"Team Fortress","app_id":440,"player_count":0,"max_players":24,"Bots":0,"server_type":"Dedicated","server_os":"Linux","password":true,"vac":true,"version":"7695204","steam_id":85568392924964315,"keywords":["cp","nocrits","nodmgspread","uncletopia"],"game_id":440,"stv_port":0,"stv_name":"","players":null},{"server_id":300,"name":"Uncletopia | Montr√©al | 1 | All Maps","name_short":"mtl-1","host":"mtl-1.ca.uncletopia.com","port":27015,"enabled":true,"region":"us-east","cc":"ca","latitude":45.50889,"longitude":-73.56167,"reserved":0,"last_update":"0001-01-01T00:00:00Z","name_a2s":"Uncletopia | Montr√©al | 1 | All Maps","protocol":17,"map":"cp_dustbowl","folder":"tf","game":"Team Fortress","app_id":440,"player_count":0,"max_players":24,"Bots":0,"server_type":"Dedicated","server_os":"Linux","password":true,"vac":true,"version":"7695204","steam_id":85568392924500087,"keywords":["cp","nocrits","nodmgspread","uncletopia"],"game_id":440,"stv_port":0,"stv_name":"","players":null},{"server_id":301,"name":"Uncletopia | Montr√©al | 2 | All Maps","name_short":"mtl-2","host":"mtl-1.ca.uncletopia.com","port":27025,"enabled":true,"region":"us-east","cc":"ca","latitude":45.50889,"longitude":-73.56167,"reserved":0,"last_update":"0001-01-01T00:00:00Z","name_a2s":"Uncletopia | Montr√©al | 2 | All Maps","protocol":17,"map":"pl_snowycoast","folder":"tf","game":"Team Fortress","app_id":440,"player_count":0,"max_players":24,"Bots":0,"server_type":"Dedicated","server_os":"Linux","password":true,"vac":true,"version":"7695204","steam_id":85568392924500088,"keywords":["nocrits","nodmgspread","payload","uncletopia"],"game_id":440,"stv_port":0,"stv_name":"","players":null},{"server_id":302,"name":"Uncletopia | Montr√©al | 3 | All Maps","name_short":"mtl-3","host":"mtl-1.ca.uncletopia.com","port":27035,"enabled":true,"region":"us-east","cc":"ca","latitude":45.50889,"longitude":-73.56167,"reserved":0,"last_update":"0001-01-01T00:00:00Z","name_a2s":"Uncletopia | Montr√©al | 3 | All Maps","protocol":17,"map":"koth_viaduct","folder":"tf","game":"Team Fortress","app_id":440,"player_count":0,"max_players":24,"Bots":0,"server_type":"Dedicated","server_os":"Linux","password":true,"vac":true,"version":"7695204","steam_id":85568392924500089,"keywords":["cp","nocrits","nodmgspread","uncletopia"],"game_id":440,"stv_port":0,"stv_name":"","players":null},{"server_id":303,"name":"Uncletopia | Montr√©al | 4 | No Payload","name_short":"mtl-4","host":"mtl-1.ca.uncletopia.com","port":27045,"enabled":true,"region":"us-east","cc":"ca","latitude":45.50889,"longitude":-73.56167,"reserved":0,"last_update":"0001-01-01T00:00:00Z","name_a2s":"Uncletopia | Montr√©al | 4 | No Payload","protocol":17,"map":"cp_dustbowl","folder":"tf","game":"Team Fortress","app_id":440,"player_count":0,"max_players":24,"Bots":0,"server_type":"Dedicated","server_os":"Linux","password":true,"vac":true,"version":"7695204","steam_id":85568392924500090,"keywords":["cp","nocrits","nodmgspread","uncletopia"],"game_id":440,"stv_port":0,"stv_name":"","players":null},{"server_id":13,"name":"Uncletopia | New York City | 1 | All Maps","name_short":"nyc-1","host":"nyc-1.us.uncletopia.com","port":27015,"enabled":true,"region":"us-east","cc":"us","latitude":40.73061,"longitude":-73.93524,"reserved":0,"last_update":"0001-01-01T00:00:00Z","name_a2s":"Uncletopia | New York City | 1 | All Maps","protocol":17,"map":"cp_altitude","folder":"tf","game":"Team Fortress","app_id":440,"player_count":0,"max_players":24,"Bots":0,"server_type":"Dedicated","server_os":"Linux","password":true,"vac":true,"version":"7695204","steam_id":85568392924469993,"keywords":["cp","nocrits","nodmgspread","uncletopia"],"game_id":440,"stv_port":27016,"stv_name":"Uncletopia | New York City | 1 | All Maps | STV","players":null},{"server_id":14,"name":"Uncletopia | New York City | 2 | All Maps","name_short":"nyc-2","host":"nyc-1.us.uncletopia.com","port":27025,"enabled":true,"region":"us-east","cc":"us","latitude":40.73061,"longitude":-73.93524,"reserved":0,"last_update":"0001-01-01T00:00:00Z","name_a2s":"Uncletopia | New York City | 2 | All Maps","protocol":17,"map":"pl_borneo","folder":"tf","game":"Team Fortress","app_id":440,"player_count":0,"max_players":24,"Bots":0,"server_type":"Dedicated","server_os":"Linux","password":true,"vac":true,"version":"7695204","steam_id":85568392924469994,"keywords":["nocrits","nodmgspread","payload","uncletopia"],"game_id":440,"stv_port":0,"stv_name":"","players":null},{"server_id":15,"name":"Uncletopia | New York City | 3 | All Maps","name_short":"nyc-3","host":"nyc-1.us.uncletopia.com","port":27035,"enabled":true,"region":"us-east","cc":"us","latitude":40.73061,"longitude":-73.93524,"reserved":0,"last_update":"0001-01-01T00:00:00Z","name_a2s":"Uncletopia | New York City | 3 | All Maps","protocol":17,"map":"pl_snowycoast","folder":"tf","game":"Team Fortress","app_id":440,"player_count":0,"max_players":24,"Bots":0,"server_type":"Dedicated","server_os":"Linux","password":true,"vac":true,"version":"7695204","steam_id":85568392924742820,"keywords":["nocrits","nodmgspread","payload","uncletopia"],"game_id":440,"stv_port":0,"stv_name":"","players":null},{"server_id":16,"name":"Uncletopia | New York City | 4 | Community","name_short":"nyc-4","host":"nyc-1.us.uncletopia.com","port":27045,"enabled":true,"region":"us-east","cc":"us","latitude":40.73061,"longitude":-73.93524,"reserved":0,"last_update":"0001-01-01T00:00:00Z","name_a2s":"Uncletopia | New York City | 4 | Community","protocol":17,"map":"pl_barnblitz","folder":"tf","game":"Team Fortress","app_id":440,"player_count":0,"max_players":24,"Bots":0,"server_type":"Dedicated","server_os":"Linux","password":true,"vac":true,"version":"7695204","steam_id":85568392924742821,"keywords":["nocrits","nodmgspread","payload","uncletopia"],"game_id":440,"stv_port":0,"stv_name":"","players":null},{"server_id":142,"name":"Uncletopia | S√£o Paulo | 1 | All Maps","name_short":"sao-1","host":"sao-1.br.uncletopia.com","port":27015,"enabled":true,"region":"sa","cc":"br","latitude":-23.533773,"longitude":-46.62529,"reserved":0,"last_update":"0001-01-01T00:00:00Z","name_a2s":"Uncletopia | S√£o Paulo | 1 | All Maps","protocol":17,"map":"koth_cascade","folder":"tf","game":"Team Fortress","app_id":440,"player_count":0,"max_players":24,"Bots":0,"server_type":"Dedicated","server_os":"Linux","password":true,"vac":true,"version":"7695204","steam_id":85568392924469996,"keywords":["cp","nocrits","nodmgspread","uncletopia"],"game_id":440,"stv_port":0,"stv_name":"","players":null},{"server_id":143,"name":"Uncletopia | S√£o Paulo | 2 | All Maps","name_short":"sao-2","host":"sao-2.br.uncletopia.com","port":27015,"enabled":true,"region":"sa","cc":"br","latitude":-23.533773,"longitude":-46.62529,"reserved":0,"last_update":"0001-01-01T00:00:00Z","name_a2s":"Uncletopia | S√£o Paulo | 2 | All Maps","protocol":17,"map":"cp_dustbowl","folder":"tf","game":"Team Fortress","app_id":440,"player_count":4,"max_players":24,"Bots":0,"server_type":"Dedicated","server_os":"Linux","password":true,"vac":true,"version":"7695204","steam_id":85568392924485349,"keywords":["cp","nocrits","nodmgspread","uncletopia"],"game_id":440,"stv_port":27016,"stv_name":"Uncletopia | S√£o Paulo | 2 | All Maps | STV","players":[{"user_id":17,"name":"I love spawn timer","steam_id":76561199277846603,"connected_time":215000000000,"state":"active","ping":58},{"user_id":6,"name":"ortipianinho","steam_id":76561199053319260,"connected_time":1615000000000,"state":"active","ping":60},{"user_id":18,"name":"PrÂÖ¨ÈÅì„É¨„Éº„Çπ","steam_id":76561198976110673,"connected_time":31000000000,"state":"spawning","ping":73},{"user_id":8,"name":"YekkuUwU","steam_id":76561199349215012,"connected_time":1457000000000,"state":"active","ping":38}]},{"server_id":7,"name":"Uncletopia | Seattle | 1 | All Maps","name_short":"sea-1","host":"sea-1.us.uncletopia.com","port":27015,"enabled":true,"region":"us-west","cc":"us","latitude":47.608013,"longitude":-122.33517,"reserved":0,"last_update":"0001-01-01T00:00:00Z","name_a2s":"Uncletopia | Seattle | 1 | All Maps","protocol":17,"map":"pl_snowycoast","folder":"tf","game":"Team Fortress","app_id":440,"player_count":0,"max_players":24,"Bots":0,"server_type":"Dedicated","server_os":"Linux","password":true,"vac":true,"version":"7695204","steam_id":85568392924469997,"keywords":["nocrits","nodmgspread","payload","uncletopia"],"game_id":440,"stv_port":0,"stv_name":"","players":null},{"server_id":119,"name":"Uncletopia | Seattle | 2 | All Maps","name_short":"sea-2","host":"sea-1.us.uncletopia.com","port":27025,"enabled":true,"region":"us-west","cc":"us","latitude":47.608013,"longitude":-122.33517,"reserved":0,"last_update":"0001-01-01T00:00:00Z","name_a2s":"Uncletopia | Seattle | 2 | All Maps","protocol":17,"map":"koth_lakeside_final","folder":"tf","game":"Team Fortress","app_id":440,"player_count":0,"max_players":24,"Bots":0,"server_type":"Dedicated","server_os":"Linux","password":true,"vac":true,"version":"7695204","steam_id":85568392924469998,"keywords":["cp","nocrits","nodmgspread","uncletopia"],"game_id":440,"stv_port":0,"stv_name":"","players":null},{"server_id":17,"name":"Uncletopia | San Francisco | 1 | All Maps","name_short":"sfo-1","host":"sfo-1.us.uncletopia.com","port":27015,"enabled":true,"region":"us-west","cc":"us","latitude":37.77397,"longitude":-122.4313,"reserved":0,"last_update":"0001-01-01T00:00:00Z","name_a2s":"Uncletopia | San Francisco | 1 | All Maps","protocol":17,"map":"cp_sunshine","folder":"tf","game":"Team Fortress","app_id":440,"player_count":23,"max_players":24,"Bots":0,"server_type":"Dedicated","server_os":"Linux","password":true,"vac":true,"version":"7695204","steam_id":85568392924469999,"keywords":["cp","nocrits","nodmgspread","uncletopia"],"game_id":440,"stv_port":0,"stv_name":"","players":[{"user_id":2,"name":"Don william","steam_id":76561199066025998,"connected_time":1823000000000,"state":"active","ping":151},{"user_id":3,"name":"la loveiathenne","steam_id":76561198046394237,"connected_time":1821000000000,"state":"active","ping":56},{"user_id":4,"name":"Antreuse","steam_id":76561198219721132,"connected_time":1821000000000,"state":"active","ping":58},{"user_id":5,"name":"THE NUT","steam_id":76561198067813626,"connected_time":1821000000000,"state":"active","ping":62},{"user_id":6,"name":"Omega\"Hell's Wall\"EXE","steam_id":76561198395291970,"connected_time":1820000000000,"state":"active","ping":60},{"user_id":7,"name":"Meatyard","steam_id":76561198049896089,"connected_time":1809000000000,"state":"active","ping":111},{"user_id":75,"name":"IPlayGamez","steam_id":76561198041387508,"connected_time":0,"state":"spawning","ping":52},{"user_id":9,"name":"twitch.tv/HelloAnon_","steam_id":76561198109740776,"connected_time":1793000000000,"state":"active","ping":61},{"user_id":11,"name":"Raian","steam_id":76561199138048671,"connected_time":1781000000000,"state":"active","ping":48},{"user_id":12,"name":"PROFILE NAME","steam_id":76561199438851854,"connected_time":1767000000000,"state":"active","ping":62},{"user_id":13,"name":"Chad","steam_id":76561198007048233,"connected_time":1762000000000,"state":"active","ping":62},{"user_id":15,"name":"Qavier umang De Marlo Windlebug","steam_id":76561198799299193,"connected_time":1735000000000,"state":"active","ping":67},{"user_id":16,"name":"BIG HOG","steam_id":76561198079923652,"connected_time":1734000000000,"state":"active","ping":89},{"user_id":19,"name":"aqua","steam_id":76561199407709552,"connected_time":1721000000000,"state":"active","ping":91},{"user_id":18,"name":"TigeR","steam_id":76561198087673124,"connected_time":1725000000000,"state":"active","ping":91},{"user_id":20,"name":"rideli","steam_id":76561198155443297,"connected_time":1713000000000,"state":"active","ping":116},{"user_id":35,"name":"no vc no c","steam_id":76561197989503095,"connected_time":1233000000000,"state":"active","ping":139},{"user_id":22,"name":"Lord Scrubling","steam_id":76561198263744445,"connected_time":1674000000000,"state":"active","ping":78},{"user_id":23,"name":"WONDER.","steam_id":76561198092527854,"connected_time":1656000000000,"state":"active","ping":48},{"user_id":43,"name":"CoherentCarpet („Éé‡≤†Áõä‡≤†)\ufffd\ufffd","steam_id":76561198045625360,"connected_time":1036000000000,"state":"active","ping":87},{"user_id":25,"name":"Kritzon Treatz","steam_id":76561198880665077,"connected_time":1542000000000,"state":"active","ping":42},{"user_id":66,"name":"tminator64","steam_id":76561197997576273,"connected_time":270000000000,"state":"active","ping":116},{"user_id":30,"name":"Room_237","steam_id":76561199135081315,"connected_time":1368000000000,"state":"active","ping":122}]},{"server_id":18,"name":"Uncletopia | San Francisco | 2 | All Maps","name_short":"sfo-2","host":"sfo-1.us.uncletopia.com","port":27025,"enabled":true,"region":"us-west","cc":"us","latitude":37.77397,"longitude":-122.4313,"reserved":0,"last_update":"0001-01-01T00:00:00Z","name_a2s":"Uncletopia | San Francisco | 2 | All Maps","protocol":17,"map":"pl_badwater","folder":"tf","game":"Team Fortress","app_id":440,"player_count":0,"max_players":24,"Bots":0,"server_type":"Dedicated","server_os":"Linux","password":true,"vac":true,"version":"7695204","steam_id":85568392924470000,"keywords":["nocrits","nodmgspread","payload","uncletopia"],"game_id":440,"stv_port":0,"stv_name":"","players":null},{"server_id":19,"name":"Uncletopia | San Francisco | 3 | No Payload","name_short":"sfo-3","host":"sfo-1.us.uncletopia.com","port":27035,"enabled":true,"region":"us-west","cc":"us","latitude":37.77397,"longitude":-122.4313,"reserved":0,"last_update":"0001-01-01T00:00:00Z","name_a2s":"Uncletopia | San Francisco | 3 | No Payload","protocol":17,"map":"cp_snakewater_final1","folder":"tf","game":"Team Fortress","app_id":440,"player_count":0,"max_players":24,"Bots":0,"server_type":"Dedicated","server_os":"Linux","password":true,"vac":true,"version":"7695204","steam_id":85568392924742824,"keywords":["cp","nocrits","nodmgspread","uncletopia"],"game_id":440,"stv_port":0,"stv_name":"","players":null},{"server_id":20,"name":"Uncletopia | San Francisco | 4 | Community","name_short":"sfo-4","host":"sfo-1.us.uncletopia.com","port":27045,"enabled":true,"region":"us-west","cc":"us","latitude":37.77397,"longitude":-122.4313,"reserved":0,"last_update":"0001-01-01T00:00:00Z","name_a2s":"Uncletopia | San Francisco | 4 | Community","protocol":17,"map":"koth_highpass","folder":"tf","game":"Team Fortress","app_id":440,"player_count":0,"max_players":24,"Bots":0,"server_type":"Dedicated","server_os":"Linux","password":true,"vac":true,"version":"7695204","steam_id":85568392924742826,"keywords":["cp","nocrits","nodmgspread","uncletopia"],"game_id":440,"stv_port":0,"stv_name":"","players":null},{"server_id":141,"name":"Uncletopia | Sydney | 1 | All Maps","name_short":"syd-1","host":"syd-1.au.uncletopia.com","port":27015,"enabled":true,"region":"au","cc":"au","latitude":-33.865143,"longitude":151.2099,"reserved":0,"last_update":"0001-01-01T00:00:00Z","name_a2s":"Uncletopia | Sydney | 1 | All Maps","protocol":17,"map":"cp_process_final","folder":"tf","game":"Team Fortress","app_id":440,"player_count":0,"max_players":24,"Bots":0,"server_type":"Dedicated","server_os":"Linux","password":true,"vac":true,"version":"7695204","steam_id":85568392924470001,"keywords":["cp","nocrits","nodmgspread","uncletopia"],"game_id":440,"stv_port":27016,"stv_name":"Uncletopia | Sydney | 1 | All Maps | STV","players":null},{"server_id":123,"name":"Uncletopia | Sydney | 2 | All Maps","name_short":"syd-2","host":"syd-1.au.uncletopia.com","port":27025,"enabled":true,"region":"au","cc":"au","latitude":-33.865143,"longitude":151.2099,"reserved":0,"last_update":"0001-01-01T00:00:00Z","name_a2s":"Uncletopia | Sydney | 2 | All Maps","protocol":17,"map":"pl_snowycoast","folder":"tf","game":"Team Fortress","app_id":440,"player_count":6,"max_players":24,"Bots":0,"server_type":"Dedicated","server_os":"Linux","password":true,"vac":true,"version":"7695204","steam_id":85568392924470002,"keywords":["nocrits","nodmgspread","payload","uncletopia"],"game_id":440,"stv_port":27026,"stv_name":"Uncletopia | Sydney | 2 | All Maps | STV","players":[{"user_id":398,"name":"Jad","steam_id":76561198453862581,"connected_time":3369000000000,"state":"active","ping":74},{"user_id":422,"name":"hyak","steam_id":76561198175700625,"connected_time":1528000000000,"state":"active","ping":87},{"user_id":389,"name":"BURD","steam_id":76561197963763869,"connected_time":4046000000000,"state":"active","ping":65},{"user_id":390,"name":"The Crust","steam_id":76561198029406708,"connected_time":4040000000000,"state":"active","ping":51},{"user_id":403,"name":"Awesomeguy002","steam_id":76561198070497067,"connected_time":3032000000000,"state":"active","ping":48},{"user_id":368,"name":"A threat unbeknownst","steam_id":76561198293776102,"connected_time":5857000000000,"state":"active","ping":45}]},{"server_id":395,"name":"Uncletopia | Sydney | 3 | All Maps","name_short":"syd-3","host":"syd-1.au.uncletopia.com","port":27035,"enabled":true,"region":"au","cc":"au","latitude":-33.865143,"longitude":151.2099,"reserved":0,"last_update":"0001-01-01T00:00:00Z","name_a2s":"Uncletopia | Sydney | 3 | All Maps","protocol":17,"map":"pl_badwater","folder":"tf","game":"Team Fortress","app_id":440,"player_count":0,"max_players":24,"Bots":0,"server_type":"Dedicated","server_os":"Linux","password":true,"vac":true,"version":"7695204","steam_id":85568392925194467,"keywords":["nocrits","nodmgspread","payload","uncletopia"],"game_id":440,"stv_port":27036,"stv_name":"Uncletopia | Sydney | 3 | All Maps | STV","players":null},{"server_id":396,"name":"Uncletopia | Sydney | 4 | All Maps","name_short":"syd-4","host":"syd-1.au.uncletopia.com","port":27045,"enabled":true,"region":"au","cc":"au","latitude":-33.865143,"longitude":151.2099,"reserved":0,"last_update":"0001-01-01T00:00:00Z","name_a2s":"Uncletopia | Sydney | 4 | All Maps","protocol":17,"map":"koth_highpass","folder":"tf","game":"Team Fortress","app_id":440,"player_count":0,"max_players":24,"Bots":0,"server_type":"Dedicated","server_os":"Linux","password":true,"vac":true,"version":"7695204","steam_id":85568392925397958,"keywords":["cp","nocrits","nodmgspread","uncletopia"],"game_id":440,"stv_port":27046,"stv_name":"Uncletopia | Sydney | 4 | All Maps | STV","players":null},{"server_id":58,"name":"Uncletopia | Sydney | 5 | No Payload","name_short":"syd-5","host":"syd-1.au.uncletopia.com","port":27055,"enabled":true,"region":"au","cc":"au","latitude":-33.865143,"longitude":151.2099,"reserved":0,"last_update":"0001-01-01T00:00:00Z","name_a2s":"Uncletopia | Sydney | 5 | No Payload","protocol":17,"map":"koth_viaduct","folder":"tf","game":"Team Fortress","app_id":440,"player_count":0,"max_players":24,"Bots":0,"server_type":"Dedicated","server_os":"Linux","password":true,"vac":true,"version":"7695204","steam_id":85568392925397959,"keywords":["cp","nocrits","nodmgspread","uncletopia"],"game_id":440,"stv_port":0,"stv_name":"","players":null},{"server_id":59,"name":"Uncletopia | Sydney | 6 | Community","name_short":"syd-6","host":"syd-1.au.uncletopia.com","port":27065,"enabled":true,"region":"au","cc":"au","latitude":-33.865143,"longitude":151.2099,"reserved":0,"last_update":"0001-01-01T00:00:00Z","name_a2s":"Uncletopia | Sydney | 6 | Community","protocol":17,"map":"workshop/koth_bagel_rc5.ugc2514036946","folder":"tf","game":"Team Fortress","app_id":440,"player_count":0,"max_players":24,"Bots":0,"server_type":"Dedicated","server_os":"Linux","password":true,"vac":true,"version":"7695204","steam_id":85568392925397960,"keywords":["cp","nocrits","nodmgspread","uncletopia"],"game_id":440,"stv_port":27066,"stv_name":"Uncletopia | Sydney | 6 | Community | STV","players":null},{"server_id":49,"name":"Uncletopia | Warsaw | 1 | All Maps","name_short":"waw-1","host":"waw-1.pl.uncletopia.com","port":27015,"enabled":true,"region":"eu","cc":"pl","latitude":52.2297,"longitude":21.017532,"reserved":0,"last_update":"0001-01-01T00:00:00Z","name_a2s":"Uncletopia | Warsaw | 1 | All Maps","protocol":17,"map":"pl_badwater","folder":"tf","game":"Team Fortress","app_id":440,"player_count":0,"max_players":24,"Bots":0,"server_type":"Dedicated","server_os":"Linux","password":true,"vac":true,"version":"7695204","steam_id":85568392925397850,"keywords":["nocrits","nodmgspread","payload","uncletopia"],"game_id":440,"stv_port":27016,"stv_name":"Uncletopia | Warsaw | 1 | All Maps | STV","players":null},{"server_id":50,"name":"Uncletopia | Warsaw | 2 | All Maps","name_short":"waw-2","host":"waw-1.pl.uncletopia.com","port":27025,"enabled":true,"region":"eu","cc":"pl","latitude":52.2297,"longitude":21.017532,"reserved":0,"last_update":"0001-01-01T00:00:00Z","name_a2s":"Uncletopia | Warsaw | 2 | All Maps","protocol":17,"map":"cp_mountainlab","folder":"tf","game":"Team Fortress","app_id":440,"player_count":0,"max_players":24,"Bots":0,"server_type":"Dedicated","server_os":"Linux","password":true,"vac":true,"version":"7695204","steam_id":85568392925397851,"keywords":["cp","nocrits","nodmgspread","uncletopia"],"game_id":440,"stv_port":27026,"stv_name":"Uncletopia | Warsaw | 2 | All Maps | STV","players":null},{"server_id":51,"name":"Uncletopia | Warsaw | 3 | All Maps","name_short":"waw-3","host":"waw-1.pl.uncletopia.com","port":27035,"enabled":true,"region":"eu","cc":"pl","latitude":52.2297,"longitude":21.017532,"reserved":0,"last_update":"0001-01-01T00:00:00Z","name_a2s":"Uncletopia | Warsaw | 3 | All Maps","protocol":17,"map":"cp_process_final","folder":"tf","game":"Team Fortress","app_id":440,"player_count":0,"max_players":24,"Bots":0,"server_type":"Dedicated","server_os":"Linux","password":true,"vac":true,"version":"7695204","steam_id":85568392925397852,"keywords":["cp","nocrits","nodmgspread","uncletopia"],"game_id":440,"stv_port":27036,"stv_name":"Uncletopia | Warsaw | 3 | All Maps | STV","players":null},{"server_id":52,"name":"Uncletopia | Warsaw | 4 | All Maps","name_short":"waw-4","host":"waw-1.pl.uncletopia.com","port":27045,"enabled":true,"region":"eu","cc":"pl","latitude":52.2297,"longitude":21.017532,"reserved":0,"last_update":"0001-01-01T00:00:00Z","name_a2s":"Uncletopia | Warsaw | 4 | All Maps","protocol":17,"map":"cp_altitude","folder":"tf","game":"Team Fortress","app_id":440,"player_count":0,"max_players":24,"Bots":0,"server_type":"Dedicated","server_os":"Linux","password":true,"vac":true,"version":"7695204","steam_id":85568392925397853,"keywords":["cp","nocrits","nodmgspread","uncletopia"],"game_id":440,"stv_port":0,"stv_name":"","players":null},{"server_id":53,"name":"Uncletopia | Warsaw | 5 | No Payload","name_short":"waw-5","host":"waw-1.pl.uncletopia.com","port":27055,"enabled":true,"region":"eu","cc":"pl","latitude":52.2297,"longitude":21.017532,"reserved":0,"last_update":"0001-01-01T00:00:00Z","name_a2s":"Uncletopia | Warsaw | 5 | No Payload","protocol":17,"map":"cp_well","folder":"tf","game":"Team Fortress","app_id":440,"player_count":22,"max_players":24,"Bots":0,"server_type":"Dedicated","server_os":"Linux","password":true,"vac":true,"version":"7695204","steam_id":85568392925397854,"keywords":["cp","nocrits","nodmgspread","uncletopia"],"game_id":440,"stv_port":27056,"stv_name":"Uncletopia | Warsaw | 5 | No Payload | STV","players":[{"user_id":130,"name":"Happy Di Piero","steam_id":76561199206603810,"connected_time":4439000000000,"state":"active","ping":96},{"user_id":160,"name":"Swedde","steam_id":76561198297296440,"connected_time":2316000000000,"state":"active","ping":92},{"user_id":159,"name":"G@MBIT","steam_id":76561198015600224,"connected_time":2486000000000,"state":"active","ping":44},{"user_id":42,"name":"Viperense","steam_id":76561198036206811,"connected_time":9481000000000,"state":"active","ping":78},{"user_id":183,"name":"‡∂ûbominasus 2137  #SaveTF2","steam_id":76561198030062981,"connected_time":999000000000,"state":"active","ping":44},{"user_id":153,"name":"Crimea a bridge","steam_id":76561198030898371,"connected_time":2952000000000,"state":"active","ping":92},{"user_id":197,"name":"Qest333","steam_id":76561198020000877,"connected_time":129000000000,"state":"active","ping":39},{"user_id":144,"name":"Fat Pigeon","steam_id":76561198817940142,"connected_time":3330000000000,"state":"active","ping":72},{"user_id":134,"name":"JSX #savetf2","steam_id":76561198039097662,"connected_time":4332000000000,"state":"active","ping":82},{"user_id":23,"name":"Boobs rater","steam_id":76561198066977580,"connected_time":10440000000000,"state":"active","ping":63},{"user_id":196,"name":"Filemon320","steam_id":76561199201787876,"connected_time":303000000000,"state":"active","ping":57},{"user_id":175,"name":"Felix","steam_id":76561198151095598,"connected_time":1313000000000,"state":"active","ping":64},{"user_id":139,"name":"Herzeleid","steam_id":76561198148668665,"connected_time":3790000000000,"state":"active","ping":97},{"user_id":146,"name":"Loading","steam_id":76561198419201273,"connected_time":3284000000000,"state":"active","ping":95},{"user_id":168,"name":"Senator Armstrong","steam_id":76561198984346408,"connected_time":1659000000000,"state":"active","ping":54},{"user_id":147,"name":"Phiphler","steam_id":76561197994055715,"connected_time":3174000000000,"state":"active","ping":84},{"user_id":157,"name":"denji741games","steam_id":76561198067499762,"connected_time":2684000000000,"state":"active","ping":75},{"user_id":185,"name":"xXdoge gaming 42069Xx","steam_id":76561198372971096,"connected_time":849000000000,"state":"active","ping":90},{"user_id":186,"name":"Raatel","steam_id":76561198370703651,"connected_time":835000000000,"state":"active","ping":103},{"user_id":149,"name":"Meh","steam_id":76561198148030229,"connected_time":3153000000000,"state":"active","ping":101},{"user_id":181,"name":"Bargon","steam_id":76561198964641940,"connected_time":1119000000000,"state":"active","ping":93},{"user_id":176,"name":"The Stig","steam_id":76561198103908668,"connected_time":1250000000000,"state":"active","ping":58}]},{"server_id":54,"name":"Uncletopia | Warsaw | 6 | Community","name_short":"waw-6","host":"waw-1.pl.uncletopia.com","port":27065,"enabled":true,"region":"eu","cc":"pl","latitude":52.2297,"longitude":21.017532,"reserved":0,"last_update":"0001-01-01T00:00:00Z","name_a2s":"Uncletopia | Warsaw | 6 | Community","protocol":17,"map":"pl_barnblitz","folder":"tf","game":"Team Fortress","app_id":440,"player_count":4,"max_players":24,"Bots":0,"server_type":"Dedicated","server_os":"Linux","password":true,"vac":true,"version":"7695204","steam_id":85568392925397856,"keywords":["nocrits","nodmgspread","payload","uncletopia"],"game_id":440,"stv_port":0,"stv_name":"","players":[{"user_id":3,"name":"Flaffian","steam_id":76561198261614764,"connected_time":987000000000,"state":"active","ping":55},{"user_id":4,"name":"–ö—Ä–∞—Ö –º—É–∂–µ—Å—Ç–≤–∞","steam_id":76561198251356426,"connected_time":848000000000,"state":"active","ping":98},{"user_id":5,"name":"peitelmihkel","steam_id":76561199180916773,"connected_time":647000000000,"state":"active","ping":59},{"user_id":7,"name":"El Teodore","steam_id":76561197998400977,"connected_time":220000000000,"state":"active","ping":57}]}]}