{"status":true,"message":"","result":[{"server_id":9,"name":"Uncletopia | Atlanta | 1 | All Maps","name_short":"atl-1","host":"atl-1.us.uncletopia.com","port":27015,"enabled":true,"region":"us-east","cc":"us","latitude":33.753746,"longitude":-84.38633,"reserved":0,"last_update":"0001-01-01T00:00:00Z","name_a2s":"Uncletopia | Atlanta | 1 | All Maps","protocol":17,"map":"pl_barnblitz","folder":"tf","game":"Team Fortress","app_id":440,"player_count":24,"max_players":24,"Bots":0,"server_type":"Dedicated","server_os":"Linux","password":true,"vac":true,"version":"7882260","steam_id":85568392924469982,"keywords":["nocrits","nodmgspread","payload","uncletopia"],"game_id":440,"stv_port":27016,"stv_name":"Uncletopia | Atlanta | 1 | All Maps | STV","players":[{"user_id":347,"name":"AllMyProblemsAreBecauseOfSociet","steam_id":76561198081617990,"connected_time":454000000000,"state":"active","ping":114},{"user_id":320,"name":"pool shark","steam_id":76561198130191179,"connected_time":3181000000000,"state":"active","ping":101},{"user_id":319,"name":"O'Keearns","steam_id":76561198042213797,"connected_time":3185000000000,"state":"active","ping":43},{"user_id":344,"name":"--_Cook_--","steam_id":76561198080855748,"connected_time":937000000000,"state":"active","ping":45},{"user_id":318,"name":"AlcoholicDad454","steam_id":76561198157414556,"connected_time":3220000000000,"state":"active","ping":65},{"user_id":337,"name":"t.tv/ibbKitty‚àë:3","steam_id":76561198110858518,"connected_time":1547000000000,"state":"active","ping":76},{"user_id":305,"name":"Voyager","steam_id":76561199128786637,"connected_time":4159000000000,"state":"active","ping":83},{"user_id":297,"name":"The Horselords and Animal Gods","steam_id":76561197975094050,"connected_time":5169000000000,"state":"active","ping":103},{"user_id":342,"name":"freaking","steam_id":76561198148132163,"connected_time":1171000000000,"state":"active","ping":84},{"user_id":340,"name":"V!CT!M","steam_id":76561198962721502,"connected_time":1429000000000,"state":"active","ping":93},{"user_id":280,"name":"Grand Piano Tuna","steam_id":76561198135137213,"connected_time":7079000000000,"state":"active","ping":52},{"user_id":269,"name":"Paleo","steam_id":76561198053493855,"connected_time":7939000000000,"state":"active","ping":69},{"user_id":323,"name":"Ezakt","steam_id":76561199099132304,"connected_time":3143000000000,"state":"active","ping":59},{"user_id":343,"name":"SparkStorm","steam_id":76561198095817025,"connected_time":938000000000,"state":"active","ping":37},{"user_id":304,"name":"Mailer","steam_id":76561198062690074,"connected_time":4873000000000,"state":"active","ping":153},{"user_id":338,"name":"Purply","steam_id":76561199204779865,"connected_time":1540000000000,"state":"active","ping":76},{"user_id":339,"name":"DuckMann","steam_id":76561198197058638,"connected_time":1539000000000,"state":"active","ping":47},{"user_id":341,"name":"Ashes!","steam_id":76561197998475441,"connected_time":1315000000000,"state":"active","ping":78},{"user_id":333,"name":"InchMan","steam_id":76561198272658825,"connected_time":1806000000000,"state":"active","ping":73},{"user_id":336,"name":"bottl","steam_id":76561198119873148,"connected_time":1551000000000,"state":"active","ping":77},{"user_id":299,"name":"Yosh","steam_id":76561198027078899,"connected_time":5148000000000,"state":"active","ping":91},{"user_id":301,"name":"Yam Jazzy Jim","steam_id":76561198000788950,"connected_time":5082000000000,"state":"active","ping":78},{"user_id":317,"name":"Onyx","steam_id":76561198275349640,"connected_time":3275000000000,"state":"active","ping":76},{"user_id":346,"name":"Vladikr1","steam_id":76561198401495362,"connected_time":623000000000,"state":"active","ping":89}]},{"server_id":104,"name":"Uncletopia | Atlanta | 2 | All Maps","name_short":"atl-2","host":"atl-1.us.uncletopia.com","port":27025,"enabled":true,"region":"us-east","cc":"us","latitude":33.753746,"longitude":-84.38633,"reserved":0,"last_update":"0001-01-01T00:00:00Z","name_a2s":"Uncletopia | Atlanta | 2 | All Maps","protocol":17,"map":"pl_barnblitz","folder":"tf","game":"Team Fortress","app_id":440,"player_count":23,"max_players":24,"Bots":0,"server_type":"Dedicated","server_os":"Linux","password":true,"vac":true,"version":"7882260","steam_id":85568392924469983,"keywords":["nocrits","nodmgspread","payload","uncletopia"],"game_id":440,"stv_port":27026,"stv_name":"Uncletopia | Atlanta | 2 | All Maps | STV","players":[{"user_id":216,"name":"FancyBones","steam_id":76561198180198885,"connected_time":15000000000,"state":"spawning","ping":78},{"user_id":215,"name":"minecraft","steam_id":76561198104345201,"connected_time":136000000000,"state":"active","ping":54},{"user_id":213,"name":"Spooky Android","steam_id":76561198101671207,"connected_time":379000000000,"state":"active","ping":66},{"user_id":168,"name":"sock","steam_id":76561199117597830,"connected_time":3663000000000,"state":"active","ping":43},{"user_id":169,"name":"The Poop Dealer","steam_id":76561198141198352,"connected_time":3653000000000,"state":"active","ping":62},{"user_id":195,"name":"tulpa","steam_id":76561198013253513,"connected_time":2273000000000,"state":"active","ping":55},{"user_id":207,"name":"adda","steam_id":76561198309013410,"connected_time":781000000000,"state":"active","ping":72},{"user_id":161,"name":"sine","steam_id":76561198012038088,"connected_time":4361000000000,"state":"active","ping":71},{"user_id":188,"name":"nnobi","steam_id":76561198878729277,"connected_time":2965000000000,"state":"active","ping":61},{"user_id":209,"name":"Takumi Fujiwara","steam_id":76561198146281101,"connected_time":660000000000,"state":"active","ping":75},{"user_id":210,"name":"Slashes","steam_id":76561197968573499,"connected_time":643000000000,"state":"active","ping":57},{"user_id":196,"name":"Big Tonka","steam_id":76561198891584971,"connected_time":1814000000000,"state":"active","ping":74},{"user_id":106,"name":"ThatOneGuy831","steam_id":76561198000422558,"connected_time":7271000000000,"state":"active","ping":80},{"user_id":197,"name":"Mehman","steam_id":76561199020244051,"connected_time":1631000000000,"state":"active","ping":91},{"user_id":178,"name":"Soju","steam_id":76561198044130442,"connected_time":3480000000000,"state":"active","ping":86},{"user_id":198,"name":"Mindstrain","steam_id":76561199274044215,"connected_time":1620000000000,"state":"active","ping":110},{"user_id":180,"name":"TastyWheat","steam_id":76561198855061918,"connected_time":3462000000000,"state":"active","ping":116},{"user_id":203,"name":"Eloquent","steam_id":76561198049205194,"connected_time":1359000000000,"state":"active","ping":73},{"user_id":205,"name":"Dreysidel","steam_id":76561198056496183,"connected_time":1309000000000,"state":"active","ping":87},{"user_id":212,"name":"Lex","steam_id":76561198069948353,"connected_time":554000000000,"state":"active","ping":96},{"user_id":200,"name":"serendipity","steam_id":76561198095087127,"connected_time":1479000000000,"state":"active","ping":51},{"user_id":189,"name":"Raptoria","steam_id":76561198105613110,"connected_time":2657000000000,"state":"active","ping":75},{"user_id":193,"name":"scapegoat","steam_id":76561198188722751,"connected_time":2645000000000,"state":"active","ping":101}]},{"server_id":400,"name":"Uncletopia | Atlanta | 3 | Community","name_short":"atl-3","host":"atl-1.us.uncletopia.com","port":27035,"enabled":true,"region":"us-east","cc":"us","latitude":33.753746,"longitude":-84.38633,"reserved":0,"last_update":"0001-01-01T00:00:00Z","name_a2s":"Uncletopia | Atlanta | 3 | Community","protocol":17,"map":"workshop/pl_cactuscanyon_redux_final2.ugc2579644293","folder":"tf","game":"Team Fortress","app_id":440,"player_count":0,"max_players":24,"Bots":0,"server_type":"Dedicated","server_os":"Linux","password":true,"vac":true,"version":"7882260","steam_id":85568392924515187,"keywords":["nocrits","nodmgspread","payload","uncletopia"],"game_id":440,"stv_port":27036,"stv_name":"Uncletopia | Atlanta | 3 | Community | STV","players":null},{"server_id":401,"name":"Uncletopia | Atlanta | 4 | No Payload","name_short":"atl-4","host":"atl-1.us.uncletopia.com","port":27045,"enabled":true,"region":"us-east","cc":"us","latitude":33.753746,"longitude":-84.38633,"reserved":0,"last_update":"0001-01-01T00:00:00Z","name_a2s":"","protocol":0,"map":"","folder":"","game":"","app_id":0,"player_count":0,"max_players":0,"Bots":0,"server_type":"","server_os":"","password":false,"vac":false,"version":"","steam_id":0,"keywords":null,"game_id":0,"stv_port":0,"stv_name":"","players":null},{"server_id":2,"name":"Uncletopia | Chicago | 1 | All Maps","name_short":"chi-1","host":"chi-1.us.uncletopia.com","port":27015,"enabled":true,"region":"us-central","cc":"us","latitude":41.881832,"longitude":-87.62318,"reserved":0,"last_update":"0001-01-01T00:00:00Z","name_a2s":"Uncletopia | Chicago | 1 | All Maps","protocol":17,"map":"ctf_2fort","folder":"tf","game":"Team Fortress","app_id":440,"player_count":20,"max_players":24,"Bots":0,"server_type":"Dedicated","server_os":"Linux","password":true,"vac":true,"version":"7882260","steam_id":85568392924469984,"keywords":["ctf","nocrits","nodmgspread","uncletopia"],"game_id":440,"stv_port":27016,"stv_name":"Uncletopia | Chicago | 1 | All Maps | STV","players":[{"user_id":564,"name":"Ripheart","steam_id":76561198089661561,"connected_time":52000000000,"state":"active","ping":60},{"user_id":534,"name":"Chode Mode","steam_id":76561198353840477,"connected_time":1472000000000,"state":"active","ping":56},{"user_id":565,"name":"Kattnesta","steam_id":76561198210927551,"connected_time":51000000000,"state":"active","ping":59},{"user_id":554,"name":"real HintShot (real)","steam_id":76561198400058665,"connected_time":468000000000,"state":"active","ping":71},{"user_id":535,"name":"twizted","steam_id":76561197960407274,"connected_time":1471000000000,"state":"active","ping":73},{"user_id":566,"name":"goblino","steam_id":76561198068260422,"connected_time":43000000000,"state":"active","ping":47},{"user_id":553,"name":"Snom","steam_id":76561198333827920,"connected_time":490000000000,"state":"active","ping":92},{"user_id":509,"name":"jrdoran","steam_id":76561197984753094,"connected_time":3588000000000,"state":"active","ping":64},{"user_id":567,"name":"fresco","steam_id":76561199101199477,"connected_time":38000000000,"state":"active","ping":60},{"user_id":568,"name":"dirty dank","steam_id":76561198360904432,"connected_time":35000000000,"state":"active","ping":65},{"user_id":562,"name":"Pop","steam_id":76561199012562851,"connected_time":59000000000,"state":"active","ping":84},{"user_id":569,"name":"sun","steam_id":76561198011329825,"connected_time":30000000000,"state":"active","ping":64},{"user_id":570,"name":"The_Man","steam_id":76561199194890696,"connected_time":28000000000,"state":"spawning","ping":80},{"user_id":560,"name":"Tarnation Bob","steam_id":76561198107382571,"connected_time":68000000000,"state":"active","ping":138},{"user_id":551,"name":"threethree","steam_id":76561198177354155,"connected_time":737000000000,"state":"active","ping":54},{"user_id":561,"name":"b√ºddeh","steam_id":76561198070735936,"connected_time":66000000000,"state":"active","ping":42},{"user_id":519,"name":"AkkiAdachi","steam_id":76561198071164077,"connected_time":2981000000000,"state":"active","ping":70},{"user_id":556,"name":"Maverick","steam_id":76561198322829814,"connected_time":216000000000,"state":"active","ping":76},{"user_id":526,"name":"aiming with drawing tablet","steam_id":76561198397662124,"connected_time":2124000000000,"state":"active","ping":82},{"user_id":544,"name":"theconqueror","steam_id":76561199229806456,"connected_time":1312000000000,"state":"active","ping":70}]},{"server_id":106,"name":"Uncletopia | Chicago | 2 | All Maps","name_short":"chi-2","host":"chi-1.us.uncletopia.com","port":27025,"enabled":true,"region":"us-central","cc":"us","latitude":41.881832,"longitude":-87.62318,"reserved":0,"last_update":"0001-01-01T00:00:00Z","name_a2s":"Uncletopia | Chicago | 2 | All Maps","protocol":17,"map":"cp_altitude","folder":"tf","game":"Team Fortress","app_id":440,"player_count":24,"max_players":24,"Bots":0,"server_type":"Dedicated","server_os":"Linux","password":true,"vac":true,"version":"7882260","steam_id":85568392924469985,"keywords":["cp","nocrits","nodmgspread","uncletopia"],"game_id":440,"stv_port":27026,"stv_name":"Uncletopia | Chicago | 2 | All Maps | STV","players":[{"user_id":100,"name":"Riis","steam_id":76561199345210632,"connected_time":1924000000000,"state":"active","ping":86},{"user_id":110,"name":"ultralisk52","steam_id":76561198051666604,"connected_time":1120000000000,"state":"active","ping":60},{"user_id":112,"name":"Letters","steam_id":76561198035508148,"connected_time":934000000000,"state":"active","ping":100},{"user_id":113,"name":"momb","steam_id":76561198142234038,"connected_time":925000000000,"state":"active","ping":88},{"user_id":128,"name":"kiv","steam_id":76561198838223023,"connected_time":22000000000,"state":"active","ping":46},{"user_id":97,"name":"Clit Connoisseur","steam_id":76561198166880794,"connected_time":2330000000000,"state":"active","ping":49},{"user_id":114,"name":"Bongos","steam_id":76561198865285465,"connected_time":900000000000,"state":"active","ping":105},{"user_id":127,"name":"Axities","steam_id":76561198278008225,"connected_time":187000000000,"state":"active","ping":75},{"user_id":108,"name":"its joever","steam_id":76561198213521937,"connected_time":1150000000000,"state":"active","ping":59},{"user_id":76,"name":"katryna","steam_id":76561198023440304,"connected_time":4758000000000,"state":"active","ping":55},{"user_id":78,"name":"Skeleton Hotel","steam_id":76561198041704727,"connected_time":4537000000000,"state":"active","ping":46},{"user_id":106,"name":"Famelegion","steam_id":76561198958341424,"connected_time":1361000000000,"state":"active","ping":100},{"user_id":123,"name":"YesMargaret","steam_id":76561198127971751,"connected_time":772000000000,"state":"active","ping":60},{"user_id":44,"name":"tay k out of prison","steam_id":76561198253731826,"connected_time":6241000000000,"state":"active","ping":49},{"user_id":46,"name":"Infinity","steam_id":76561199134919099,"connected_time":6176000000000,"state":"active","ping":71},{"user_id":129,"name":"gorf?","steam_id":76561198142286417,"connected_time":8000000000,"state":"active","ping":179},{"user_id":118,"name":"Forehead","steam_id":76561198124151399,"connected_time":850000000000,"state":"active","ping":70},{"user_id":103,"name":"Papy_rat","steam_id":76561198088207937,"connected_time":1878000000000,"state":"active","ping":80},{"user_id":126,"name":"Slugger01","steam_id":76561198975798014,"connected_time":257000000000,"state":"active","ping":46},{"user_id":120,"name":"carrot cake","steam_id":76561198055174915,"connected_time":821000000000,"state":"active","ping":66},{"user_id":121,"name":"üÖúüÖîüÖîüÖöüÖ¢üÖ£üÖî\ufffd\ufffd\ufffd","steam_id":76561197999748343,"connected_time":820000000000,"state":"active","ping":65},{"user_id":122,"name":"Charles Barkley","steam_id":76561198047845399,"connected_time":818000000000,"state":"active","ping":71},{"user_id":124,"name":"Flubby","steam_id":76561198069171252,"connected_time":754000000000,"state":"active","ping":60},{"user_id":81,"name":"‚éæ Ethereal ‚èå","steam_id":76561199385170644,"connected_time":4443000000000,"state":"active","ping":45}]},{"server_id":402,"name":"Uncletopia | Chicago | 3 | All Maps","name_short":"chi-3","host":"chi-1.us.uncletopia.com","port":27035,"enabled":true,"region":"us-central","cc":"us","latitude":41.881832,"longitude":-87.62318,"reserved":0,"last_update":"0001-01-01T00:00:00Z","name_a2s":"Uncletopia | Chicago | 3 | All Maps","protocol":17,"map":"cp_badlands","folder":"tf","game":"Team Fortress","app_id":440,"player_count":24,"max_players":24,"Bots":0,"server_type":"Dedicated","server_os":"Linux","password":true,"vac":true,"version":"7882260","steam_id":85568392924515191,"keywords":["cp","nocrits","nodmgspread","uncletopia"],"game_id":440,"stv_port":27036,"stv_name":"Uncletopia | Chicago | 3 | All Maps | STV","players":[{"user_id":300,"name":"Navis","steam_id":76561198996230924,"connected_time":426000000000,"state":"active","ping":56},{"user_id":304,"name":"Rick Yeti","steam_id":76561198025462553,"connected_time":283000000000,"state":"active","ping":58},{"user_id":301,"name":"ikeepitfeed6","steam_id":76561198202843510,"connected_time":321000000000,"state":"active","ping":62},{"user_id":302,"name":"eat Pant","steam_id":76561197974965536,"connected_time":315000000000,"state":"active","ping":60},{"user_id":305,"name":"Dean","steam_id":76561198028619513,"connected_time":268000000000,"state":"active","ping":70},{"user_id":258,"name":"PyroEagle","steam_id":76561198296434231,"connected_time":2783000000000,"state":"active","ping":64},{"user_id":292,"name":"M249 | Spectre","steam_id":76561198118334485,"connected_time":862000000000,"state":"active","ping":73},{"user_id":270,"name":"„ÄåMage„Äç","steam_id":76561198150620467,"connected_time":2095000000000,"state":"active","ping":56},{"user_id":282,"name":"Solivisor","steam_id":76561198846866721,"connected_time":1275000000000,"state":"active","ping":94},{"user_id":314,"name":"jpuzza","steam_id":76561198035535731,"connected_time":38000000000,"state":"active","ping":70},{"user_id":284,"name":"Pettifogging Milksop","steam_id":76561198074560331,"connected_time":1258000000000,"state":"active","ping":89},{"user_id":315,"name":"an inebriated newt fancier","steam_id":76561197985428155,"connected_time":35000000000,"state":"active","ping":60},{"user_id":303,"name":"lexi","steam_id":76561198176299759,"connected_time":313000000000,"state":"active","ping":73},{"user_id":285,"name":"NoHands46","steam_id":76561199086357052,"connected_time":1149000000000,"state":"active","ping":55},{"user_id":277,"name":"sad hominem","steam_id":76561198838282369,"connected_time":1870000000000,"state":"active","ping":72},{"user_id":316,"name":"CloudVic","steam_id":76561198118868716,"connected_time":28000000000,"state":"active","ping":77},{"user_id":293,"name":"anarcho bidenist","steam_id":76561198097588802,"connected_time":793000000000,"state":"active","ping":45},{"user_id":259,"name":"smog","steam_id":76561198072179483,"connected_time":2694000000000,"state":"active","ping":90},{"user_id":268,"name":"terrapieseven","steam_id":76561198072062415,"connected_time":2217000000000,"state":"active","ping":70},{"user_id":279,"name":"lost in spaaaaace","steam_id":76561199085974120,"connected_time":1620000000000,"state":"active","ping":72},{"user_id":307,"name":"CaptiveRice","steam_id":76561198120686340,"connected_time":264000000000,"state":"active","ping":80},{"user_id":294,"name":"God (horny)","steam_id":76561198131089513,"connected_time":788000000000,"state":"active","ping":46},{"user_id":289,"name":"scrapheap","steam_id":76561198202407087,"connected_time":1081000000000,"state":"active","ping":80},{"user_id":313,"name":"gromit","steam_id":76561198037746805,"connected_time":129000000000,"state":"active","ping":74}]},{"server_id":403,"name":"Uncletopia | Chicago | 4 | All Maps","name_short":"chi-4","host":"chi-1.us.uncletopia.com","port":27045,"enabled":true,"region":"us-central","cc":"us","latitude":41.881832,"longitude":-87.62318,"reserved":0,"last_update":"0001-01-01T00:00:00Z","name_a2s":"Uncletopia | Chicago | 4 | All Maps","protocol":17,"map":"pl_upward","folder":"tf","game":"Team Fortress","app_id":440,"player_count":24,"max_players":24,"Bots":0,"server_type":"Dedicated","server_os":"Linux","password":true,"vac":true,"version":"7882260","steam_id":85568392924515193,"keywords":["nocrits","nodmgspread","payload","uncletopia"],"game_id":440,"stv_port":27046,"stv_name":"Uncletopia | Chicago | 4 | All Maps | STV","players":[{"user_id":458,"name":"8bean","steam_id":76561198239138132,"connected_time":1078000000000,"state":"active","ping":71},{"user_id":472,"name":"anotherl2","steam_id":76561198354418895,"connected_time":615000000000,"state":"active","ping":81},{"user_id":484,"name":"viaodmsergsk","steam_id":76561198025295263,"connected_time":98000000000,"state":"active","ping":76},{"user_id":460,"name":"skithiryx","steam_id":76561199239926014,"connected_time":1021000000000,"state":"active","ping":50},{"user_id":453,"name":"roflol","steam_id":76561198148059714,"connected_time":1328000000000,"state":"active","ping":58},{"user_id":431,"name":"123","steam_id":76561198106308056,"connected_time":3124000000000,"state":"active","ping":91},{"user_id":473,"name":"I AM Malik","steam_id":76561198322021485,"connected_time":550000000000,"state":"active","ping":62},{"user_id":469,"name":"trobin120","steam_id":76561199122420273,"connected_time":727000000000,"state":"active","ping":62},{"user_id":442,"name":"good soup guy","steam_id":76561199210237835,"connected_time":2846000000000,"state":"active","ping":69},{"user_id":470,"name":"VividDragon","steam_id":76561198050659285,"connected_time":711000000000,"state":"active","ping":68},{"user_id":441,"name":"EmmetsPage","steam_id":76561198850070336,"connected_time":2864000000000,"state":"active","ping":69},{"user_id":455,"name":"Weerk","steam_id":76561199209543551,"connected_time":1223000000000,"state":"active","ping":83},{"user_id":478,"name":"JustCallMeNoahffs","steam_id":76561198085170243,"connected_time":224000000000,"state":"active","ping":72},{"user_id":474,"name":"Lo-Pan","steam_id":76561198085670133,"connected_time":531000000000,"state":"active","ping":80},{"user_id":475,"name":"zero two","steam_id":76561199058650117,"connected_time":521000000000,"state":"active","ping":94},{"user_id":476,"name":"Captain_Shorts","steam_id":76561199097598023,"connected_time":516000000000,"state":"active","ping":93},{"user_id":465,"name":"Mc_Sausen","steam_id":76561198065716881,"connected_time":961000000000,"state":"active","ping":93},{"user_id":479,"name":"don't play chess past bedtime","steam_id":76561198986534519,"connected_time":206000000000,"state":"active","ping":83},{"user_id":443,"name":"StarLy","steam_id":76561198174428289,"connected_time":2843000000000,"state":"active","ping":76},{"user_id":457,"name":"ElChuchoXf","steam_id":76561199235124146,"connected_time":1217000000000,"state":"active","ping":154},{"user_id":446,"name":"esoobac","steam_id":76561198010370396,"connected_time":2456000000000,"state":"active","ping":47},{"user_id":463,"name":"stevert99","steam_id":76561198116762032,"connected_time":995000000000,"state":"active","ping":63},{"user_id":481,"name":"Epicus Lusor","steam_id":76561198271981088,"connected_time":154000000000,"state":"active","ping":74},{"user_id":482,"name":"¬øskitt1eS?","steam_id":76561198330093211,"connected_time":153000000000,"state":"active","ping":65}]},{"server_id":36,"name":"Uncletopia | Chicago | 5 | All Maps","name_short":"chi-5","host":"chi-2.us.uncletopia.com","port":27015,"enabled":true,"region":"us-central","cc":"us","latitude":41.881832,"longitude":-87.62318,"reserved":0,"last_update":"0001-01-01T00:00:00Z","name_a2s":"Uncletopia | Chicago | 5 | All Maps","protocol":17,"map":"pl_upward","folder":"tf","game":"Team Fortress","app_id":440,"player_count":6,"max_players":24,"Bots":0,"server_type":"Dedicated","server_os":"Linux","password":true,"vac":true,"version":"7882260","steam_id":85568392924866362,"keywords":["nocrits","nodmgspread","payload","uncletopia"],"game_id":440,"stv_port":27016,"stv_name":"Uncletopia | Chicago | 5 | All Maps | STV","players":[{"user_id":21,"name":"2","steam_id":76561198116821551,"connected_time":387000000000,"state":"active","ping":59},{"user_id":22,"name":"Gnome Caught on Camera *REAL*","steam_id":76561198120710051,"connected_time":375000000000,"state":"active","ping":80},{"user_id":23,"name":"Chicken","steam_id":76561198163690511,"connected_time":333000000000,"state":"active","ping":82},{"user_id":24,"name":"gummygeek","steam_id":76561198244543486,"connected_time":94000000000,"state":"active","ping":105},{"user_id":26,"name":"Yoshimelon","steam_id":76561198253054325,"connected_time":70000000000,"state":"active","ping":60},{"user_id":27,"name":"ketchup","steam_id":76561197990543589,"connected_time":58000000000,"state":"active","ping":55}]},{"server_id":37,"name":"Uncletopia | Chicago | 6 | All Maps","name_short":"chi-6","host":"chi-2.us.uncletopia.com","port":27025,"enabled":true,"region":"us-central","cc":"us","latitude":41.881832,"longitude":-87.62318,"reserved":0,"last_update":"0001-01-01T00:00:00Z","name_a2s":"Uncletopia | Chicago | 6 | All Maps","protocol":17,"map":"koth_viaduct","folder":"tf","game":"Team Fortress","app_id":440,"player_count":0,"max_players":24,"Bots":0,"server_type":"Dedicated","server_os":"Linux","password":true,"vac":true,"version":"7882260","steam_id":85568392924866363,"keywords":["cp","nocrits","nodmgspread","uncletopia"],"game_id":440,"stv_port":27026,"stv_name":"Uncletopia | Chicago | 6 | All Maps | STV","players":null},{"server_id":38,"name":"Uncletopia | Chicago | 7 | Stopwatch Beta","name_short":"chi-7","host":"chi-2.us.uncletopia.com","port":27035,"enabled":true,"region":"us-central","cc":"us","latitude":41.881832,"longitude":-87.62318,"reserved":0,"last_update":"0001-01-01T00:00:00Z","name_a2s":"Uncletopia | Chicago | 7 | Stopwatch Beta","protocol":17,"map":"pl_upward","folder":"tf","game":"Team Fortress","app_id":440,"player_count":0,"max_players":24,"Bots":0,"server_type":"Dedicated","server_os":"Linux","password":true,"vac":true,"version":"7882260","steam_id":85568392924866364,"keywords":["nocrits","nodmgspread","payload","uncletopia"],"game_id":440,"stv_port":27036,"stv_name":"Uncletopia | Chicago | 7 | Stopwatch Beta | STV","players":null},{"server_id":39,"name":"Uncletopia | Chicago | 8 | Community","name_short":"chi-8","host":"chi-2.us.uncletopia.com","port":27045,"enabled":true,"region":"us-central","cc":"us","latitude":41.881832,"longitude":-87.62318,"reserved":0,"last_update":"0001-01-01T00:00:00Z","name_a2s":"Uncletopia | Chicago | 8 | Community","protocol":17,"map":"workshop/cp_alloy_rc3.ugc592805587","folder":"tf","game":"Team Fortress","app_id":440,"player_count":0,"max_players":24,"Bots":0,"server_type":"Dedicated","server_os":"Linux","password":true,"vac":true,"version":"7882260","steam_id":85568392924866365,"keywords":["cp","nocrits","nodmgspread","uncletopia"],"game_id":440,"stv_port":27046,"stv_name":"Uncletopia | Chicago | 8 | Community | STV","players":null},{"server_id":8,"name":"Uncletopia | Dallas | 1 | All Maps","name_short":"dal-1","host":"dal-1.us.uncletopia.com","port":27015,"enabled":true,"region":"us-central","cc":"us","latitude":32.779167,"longitude":-96.80889,"reserved":0,"last_update":"0001-01-01T00:00:00Z","name_a2s":"Uncletopia | Dallas | 1 | All Maps","protocol":17,"map":"pl_hoodoo_final","folder":"tf","game":"Team Fortress","app_id":440,"player_count":24,"max_players":24,"Bots":0,"server_type":"Dedicated","server_os":"Linux","password":true,"vac":true,"version":"7882260","steam_id":85568392924469986,"keywords":["nocrits","nodmgspread","payload","uncletopia"],"game_id":440,"stv_port":27016,"stv_name":"Uncletopia | Dallas | 1 | All Maps | STV","players":[{"user_id":473,"name":"Chunk Stuffer","steam_id":76561198856508573,"connected_time":6933000000000,"state":"active","ping":46},{"user_id":530,"name":"Asura","steam_id":76561198197227615,"connected_time":3214000000000,"state":"active","ping":87},{"user_id":426,"name":"Unlock The Shock (She/They)","steam_id":76561198823616667,"connected_time":8991000000000,"state":"active","ping":55},{"user_id":542,"name":"B.","steam_id":76561198040445907,"connected_time":2215000000000,"state":"active","ping":74},{"user_id":531,"name":"The Duck","steam_id":76561199362841212,"connected_time":3170000000000,"state":"active","ping":70},{"user_id":543,"name":"The Snake Doctor","steam_id":76561198125037828,"connected_time":2203000000000,"state":"active","ping":79},{"user_id":539,"name":"Squiliam","steam_id":76561198025278006,"connected_time":2337000000000,"state":"active","ping":43},{"user_id":529,"name":"cope","steam_id":76561199086211518,"connected_time":3415000000000,"state":"active","ping":63},{"user_id":472,"name":"Jesse Bear","steam_id":76561198217075305,"connected_time":7229000000000,"state":"active","ping":97},{"user_id":537,"name":"pabloramirez1998@gmail.com","steam_id":76561198969675306,"connected_time":2511000000000,"state":"active","ping":75},{"user_id":554,"name":"Blue‚õßMelon","steam_id":76561197970926435,"connected_time":744000000000,"state":"active","ping":88},{"user_id":546,"name":"Pharmaceutical Enthusiast","steam_id":76561198344998550,"connected_time":1473000000000,"state":"active","ping":100},{"user_id":536,"name":"waowaowao","steam_id":76561198068804538,"connected_time":2533000000000,"state":"active","ping":77},{"user_id":551,"name":"White_Wizard_Named_Corona","steam_id":76561198055652735,"connected_time":1114000000000,"state":"active","ping":67},{"user_id":545,"name":"Analogous","steam_id":76561198242842394,"connected_time":1852000000000,"state":"active","ping":52},{"user_id":538,"name":"SaturnSeven777","steam_id":76561199468889421,"connected_time":2392000000000,"state":"active","ping":148},{"user_id":517,"name":"sassy loli","steam_id":76561198402316065,"connected_time":3848000000000,"state":"active","ping":69},{"user_id":521,"name":"Snoopy","steam_id":76561198273735974,"connected_time":3676000000000,"state":"active","ping":73},{"user_id":555,"name":"FanaticSalt","steam_id":76561199380123059,"connected_time":546000000000,"state":"active","ping":54},{"user_id":490,"name":"Fightin Cow","steam_id":76561198080941486,"connected_time":6289000000000,"state":"active","ping":60},{"user_id":482,"name":"cypherzero","steam_id":76561199182960322,"connected_time":6588000000000,"state":"active","ping":49},{"user_id":489,"name":"BurningKev","steam_id":76561198057688837,"connected_time":6291000000000,"state":"active","ping":78},{"user_id":541,"name":"TurkeyJuice","steam_id":76561198193109422,"connected_time":2229000000000,"state":"active","ping":68},{"user_id":556,"name":"MINILEGOLAS","steam_id":76561198859362058,"connected_time":508000000000,"state":"active","ping":85}]},{"server_id":108,"name":"Uncletopia | Dallas | 2 | All Maps","name_short":"dal-2","host":"dal-1.us.uncletopia.com","port":27025,"enabled":true,"region":"us-central","cc":"us","latitude":32.779167,"longitude":-96.80889,"reserved":0,"last_update":"0001-01-01T00:00:00Z","name_a2s":"Uncletopia | Dallas | 2 | All Maps","protocol":17,"map":"pl_swiftwater_final1","folder":"tf","game":"Team Fortress","app_id":440,"player_count":24,"max_players":24,"Bots":0,"server_type":"Dedicated","server_os":"Linux","password":true,"vac":true,"version":"7882260","steam_id":85568392924469988,"keywords":["nocrits","nodmgspread","payload","uncletopia"],"game_id":440,"stv_port":27026,"stv_name":"Uncletopia | Dallas | 2 | All Maps | STV","players":[{"user_id":249,"name":"scrotal recall","steam_id":76561198135945598,"connected_time":93000000000,"state":"active","ping":74},{"user_id":217,"name":"Gad","steam_id":76561198020792373,"connected_time":2343000000000,"state":"active","ping":62},{"user_id":220,"name":"sammy -bt","steam_id":76561199001307670,"connected_time":2329000000000,"state":"active","ping":105},{"user_id":168,"name":"MeMyBongusAndTheGreatOutdoors","steam_id":76561198097708978,"connected_time":5186000000000,"state":"active","ping":57},{"user_id":246,"name":"legofan23478","steam_id":76561199067183075,"connected_time":230000000000,"state":"active","ping":101},{"user_id":222,"name":"l","steam_id":76561199011185438,"connected_time":2287000000000,"state":"active","ping":69},{"user_id":210,"name":"ShawnLmao","steam_id":76561198350691501,"connected_time":2834000000000,"state":"active","ping":97},{"user_id":250,"name":"Puffsticker","steam_id":76561199194309588,"connected_time":77000000000,"state":"active","ping":63},{"user_id":238,"name":"squish","steam_id":76561198186417941,"connected_time":1112000000000,"state":"active","ping":67},{"user_id":236,"name":"LtK","steam_id":76561197993180943,"connected_time":1158000000000,"state":"active","ping":41},{"user_id":247,"name":"OwlNoir","steam_id":76561198331895751,"connected_time":219000000000,"state":"active","ping":87},{"user_id":209,"name":"Rowdyshark101","steam_id":76561199019123695,"connected_time":3066000000000,"state":"active","ping":56},{"user_id":241,"name":"lil homie gay ass","steam_id":76561198044804626,"connected_time":576000000000,"state":"active","ping":61},{"user_id":242,"name":"Major_Pippy","steam_id":76561198004482878,"connected_time":508000000000,"state":"active","ping":100},{"user_id":243,"name":"Edgeiv","steam_id":76561198074539334,"connected_time":499000000000,"state":"active","ping":115},{"user_id":239,"name":"chiswola","steam_id":76561198046920142,"connected_time":627000000000,"state":"active","ping":100},{"user_id":244,"name":"ArnoldGamingÔæ†Ÿ¥","steam_id":76561198040140247,"connected_time":486000000000,"state":"active","ping":106},{"user_id":190,"name":"D(b) Hell","steam_id":76561198067869016,"connected_time":4231000000000,"state":"active","ping":73},{"user_id":248,"name":"Sirgioblayde","steam_id":76561198059445113,"connected_time":175000000000,"state":"active","ping":69},{"user_id":245,"name":"Hunky McManpie","steam_id":76561197996694877,"connected_time":404000000000,"state":"active","ping":99},{"user_id":224,"name":"TheSmokingMan","steam_id":76561198032652995,"connected_time":1838000000000,"state":"active","ping":64},{"user_id":221,"name":"Superbacon24","steam_id":76561198121223443,"connected_time":2316000000000,"state":"active","ping":130},{"user_id":204,"name":"Tri-Dot","steam_id":76561199075186597,"connected_time":3555000000000,"state":"active","ping":86},{"user_id":235,"name":"wubber","steam_id":76561198286627157,"connected_time":1207000000000,"state":"active","ping":81}]},{"server_id":5,"name":"Uncletopia | Frankfurt | 1 | All Maps","name_short":"frk-1","host":"frk-1.de.uncletopia.com","port":27015,"enabled":true,"region":"eu","cc":"de","latitude":50.110924,"longitude":8.682127,"reserved":0,"last_update":"0001-01-01T00:00:00Z","name_a2s":"Uncletopia | Frankfurt | 1 | All Maps","protocol":17,"map":"pl_borneo","folder":"tf","game":"Team Fortress","app_id":440,"player_count":24,"max_players":24,"Bots":0,"server_type":"Dedicated","server_os":"Linux","password":true,"vac":true,"version":"7882260","steam_id":85568392924469989,"keywords":["nocrits","nodmgspread","payload","uncletopia"],"game_id":440,"stv_port":27016,"stv_name":"Uncletopia | Frankfurt | 1 | All Maps | STV","players":[{"user_id":699,"name":"Matteo Il Biondo","steam_id":76561198315389475,"connected_time":541000000000,"state":"active","ping":74},{"user_id":700,"name":"Dewotter","steam_id":76561198007653168,"connected_time":537000000000,"state":"active","ping":65},{"user_id":705,"name":"mp1mp2mp3","steam_id":76561198088967665,"connected_time":176000000000,"state":"active","ping":91},{"user_id":617,"name":"üòà COCKDESTROYER üòà","steam_id":76561198042846999,"connected_time":6280000000000,"state":"active","ping":63},{"user_id":643,"name":"finbar","steam_id":76561198056812396,"connected_time":5030000000000,"state":"active","ping":79},{"user_id":670,"name":"Vavrys","steam_id":76561198275852025,"connected_time":2276000000000,"state":"active","ping":65},{"user_id":675,"name":"Delta Melta","steam_id":76561198283391403,"connected_time":2127000000000,"state":"active","ping":73},{"user_id":694,"name":"EkkiHinrik","steam_id":76561198078791141,"connected_time":1485000000000,"state":"active","ping":95},{"user_id":579,"name":"KeTlEr","steam_id":76561198100957443,"connected_time":8539000000000,"state":"active","ping":74},{"user_id":697,"name":"albania is Greece teritory","steam_id":76561198094433147,"connected_time":660000000000,"state":"active","ping":78},{"user_id":680,"name":"kloada","steam_id":76561198082113271,"connected_time":1896000000000,"state":"active","ping":69},{"user_id":685,"name":"JAN","steam_id":76561198367404568,"connected_time":1676000000000,"state":"active","ping":70},{"user_id":655,"name":"Lewylow","steam_id":76561198005425686,"connected_time":3805000000000,"state":"active","ping":67},{"user_id":707,"name":"V·¥Ä ü·¥ÄÍú∞·¥Ä Ä","steam_id":76561198069723799,"connected_time":17000000000,"state":"active","ping":50},{"user_id":698,"name":"Gryoss","steam_id":76561197999837111,"connected_time":651000000000,"state":"active","ping":103},{"user_id":706,"name":"La-Li-Lu-Le-Lo","steam_id":76561198047990600,"connected_time":157000000000,"state":"active","ping":56},{"user_id":639,"name":"tallen","steam_id":76561198061708595,"connected_time":5431000000000,"state":"active","ping":80},{"user_id":630,"name":"Mati [EST]","steam_id":76561197994743813,"connected_time":5784000000000,"state":"active","ping":101},{"user_id":696,"name":"Yorian","steam_id":76561198082518719,"connected_time":882000000000,"state":"active","ping":60},{"user_id":703,"name":"peso enjoyer","steam_id":76561198798177799,"connected_time":356000000000,"state":"active","ping":79},{"user_id":690,"name":"Edge","steam_id":76561198065735485,"connected_time":1598000000000,"state":"active","ping":78},{"user_id":691,"name":"roaceru","steam_id":76561198072288452,"connected_time":1579000000000,"state":"active","ping":88},{"user_id":629,"name":"Tonne","steam_id":76561197970856766,"connected_time":5849000000000,"state":"active","ping":82},{"user_id":582,"name":"hlug2340","steam_id":76561198087970118,"connected_time":8525000000000,"state":"active","ping":101}]},{"server_id":110,"name":"Uncletopia | Frankfurt | 2 | All Maps","name_short":"frk-2","host":"frk-1.de.uncletopia.com","port":27025,"enabled":true,"region":"eu","cc":"de","latitude":50.110924,"longitude":8.682127,"reserved":0,"last_update":"0001-01-01T00:00:00Z","name_a2s":"Uncletopia | Frankfurt | 2 | All Maps","protocol":17,"map":"pl_badwater","folder":"tf","game":"Team Fortress","app_id":440,"player_count":24,"max_players":24,"Bots":0,"server_type":"Dedicated","server_os":"Linux","password":true,"vac":true,"version":"7882260","steam_id":85568392924469990,"keywords":["nocrits","nodmgspread","payload","uncletopia"],"game_id":440,"stv_port":27026,"stv_name":"Uncletopia | Frankfurt | 2 | All Maps | STV","players":[{"user_id":706,"name":"Paladin","steam_id":76561198042593027,"connected_time":1940000000000,"state":"active","ping":91},{"user_id":643,"name":"Toasty5050","steam_id":76561198073540881,"connected_time":8692000000000,"state":"active","ping":44},{"user_id":713,"name":"puffled","steam_id":76561198894774140,"connected_time":969000000000,"state":"active","ping":59},{"user_id":717,"name":"ackermann","steam_id":76561199129801006,"connected_time":920000000000,"state":"active","ping":45},{"user_id":721,"name":"JAZZ COMMANDO","steam_id":76561198031766068,"connected_time":697000000000,"state":"active","ping":53},{"user_id":667,"name":"Accident","steam_id":76561198115160396,"connected_time":6461000000000,"state":"active","ping":65},{"user_id":644,"name":"Rimx","steam_id":76561198053034840,"connected_time":8635000000000,"state":"active","ping":96},{"user_id":712,"name":"63756d","steam_id":76561198808699024,"connected_time":1008000000000,"state":"active","ping":63},{"user_id":723,"name":"The Mask...","steam_id":76561198052402891,"connected_time":310000000000,"state":"active","ping":60},{"user_id":722,"name":"farded farding fardoodoo fardon","steam_id":76561199098960193,"connected_time":615000000000,"state":"active","ping":71},{"user_id":695,"name":"Mr.O #deletesniper","steam_id":76561198039567498,"connected_time":3708000000000,"state":"active","ping":62},{"user_id":689,"name":"PP_master69420","steam_id":76561199019913910,"connected_time":4520000000000,"state":"active","ping":67},{"user_id":655,"name":"Wade Wilson's Spoilt C4","steam_id":76561198013884709,"connected_time":7988000000000,"state":"active","ping":82},{"user_id":696,"name":"Rheto","steam_id":76561198113355122,"connected_time":3283000000000,"state":"active","ping":50},{"user_id":724,"name":"smell_my_cheese","steam_id":76561198008517427,"connected_time":218000000000,"state":"active","ping":66},{"user_id":663,"name":"Zoe","steam_id":76561198055380605,"connected_time":6990000000000,"state":"active","ping":70},{"user_id":715,"name":"Plop_","steam_id":76561198112567921,"connected_time":956000000000,"state":"active","ping":50},{"user_id":725,"name":"Potato","steam_id":76561198115604238,"connected_time":75000000000,"state":"active","ping":60},{"user_id":700,"name":"porkchop","steam_id":76561198353047916,"connected_time":2567000000000,"state":"active","ping":80},{"user_id":703,"name":"plaz","steam_id":76561198394017103,"connected_time":2526000000000,"state":"active","ping":59},{"user_id":692,"name":"StealthCat","steam_id":76561198068937412,"connected_time":4260000000000,"state":"active","ping":34},{"user_id":719,"name":"bad farter","steam_id":76561198261853441,"connected_time":910000000000,"state":"active","ping":60},{"user_id":704,"name":"w+m1","steam_id":76561198010428082,"connected_time":2476000000000,"state":"active","ping":86},{"user_id":683,"name":"Gangwolf","steam_id":76561198043868575,"connected_time":5268000000000,"state":"active","ping":55}]},{"server_id":308,"name":"Uncletopia | Frankfurt | 3 | All Maps","name_short":"frk-3","host":"frk-1.de.uncletopia.com","port":27035,"enabled":true,"region":"eu","cc":"de","latitude":50.110924,"longitude":8.682127,"reserved":0,"last_update":"0001-01-01T00:00:00Z","name_a2s":"Uncletopia | Frankfurt | 3 | All Maps","protocol":17,"map":"koth_highpass","folder":"tf","game":"Team Fortress","app_id":440,"player_count":0,"max_players":24,"Bots":0,"server_type":"Dedicated","server_os":"Linux","password":true,"vac":true,"version":"7882260","steam_id":85568392924504274,"keywords":["cp","nocrits","nodmgspread","uncletopia"],"game_id":440,"stv_port":27036,"stv_name":"Uncletopia | Frankfurt | 3 | All Maps | STV","players":null},{"server_id":309,"name":"Uncletopia | Frankfurt | 4 | All Maps","name_short":"frk-4","host":"frk-1.de.uncletopia.com","port":27045,"enabled":true,"region":"eu","cc":"de","latitude":50.110924,"longitude":8.682127,"reserved":0,"last_update":"0001-01-01T00:00:00Z","name_a2s":"Uncletopia | Frankfurt | 4 | All Maps","protocol":17,"map":"pl_badwater","folder":"tf","game":"Team Fortress","app_id":440,"player_count":0,"max_players":24,"Bots":0,"server_type":"Dedicated","server_os":"Linux","password":true,"vac":true,"version":"7882260","steam_id":85568392924504275,"keywords":["nocrits","nodmgspread","payload","uncletopia"],"game_id":440,"stv_port":27046,"stv_name":"Uncletopia | Frankfurt | 4 | All Maps | STV","players":null},{"server_id":310,"name":"Uncletopia | Frankfurt | 5 | All Maps","name_short":"frk-5","host":"frk-1.de.uncletopia.com","port":27055,"enabled":true,"region":"eu","cc":"de","latitude":50.110924,"longitude":8.682127,"reserved":0,"last_update":"0001-01-01T00:00:00Z","name_a2s":"Uncletopia | Frankfurt | 5 | All Maps","protocol":17,"map":"pl_borneo","folder":"tf","game":"Team Fortress","app_id":440,"player_count":24,"max_players":24,"Bots":0,"server_type":"Dedicated","server_os":"Linux","password":true,"vac":true,"version":"7882260","steam_id":85568392924504277,"keywords":["nocrits","nodmgspread","payload","uncletopia"],"game_id":440,"stv_port":27056,"stv_name":"Uncletopia | Frankfurt | 5 | All Maps | STV","players":[{"user_id":34,"name":"The_Jaystone","steam_id":76561198126280691,"connected_time":3852000000000,"state":"active","ping":59},{"user_id":84,"name":"pourin up","steam_id":76561198273358760,"connected_time":415000000000,"state":"active","ping":61},{"user_id":85,"name":"shrug ü§®","steam_id":76561198079365986,"connected_time":372000000000,"state":"active","ping":54},{"user_id":86,"name":"Cognitionis","steam_id":76561198236287734,"connected_time":326000000000,"state":"active","ping":56},{"user_id":67,"name":"Raulca25","steam_id":76561199068256964,"connected_time":2617000000000,"state":"active","ping":87},{"user_id":40,"name":"ANGELFISH","steam_id":76561198027536466,"connected_time":3566000000000,"state":"active","ping":96},{"user_id":41,"name":"TrollSechsMann1941","steam_id":76561198150569669,"connected_time":3527000000000,"state":"active","ping":100},{"user_id":87,"name":"Superiumentarius","steam_id":76561198081642249,"connected_time":317000000000,"state":"active","ping":52},{"user_id":88,"name":"Mr Barnes","steam_id":76561198260410888,"connected_time":306000000000,"state":"active","ping":67},{"user_id":76,"name":"Hercules","steam_id":76561198041164170,"connected_time":1748000000000,"state":"active","ping":61},{"user_id":45,"name":"Doctor Marijuana","steam_id":76561198288289879,"connected_time":3354000000000,"state":"active","ping":66},{"user_id":69,"name":"4","steam_id":76561197964945192,"connected_time":1977000000000,"state":"active","ping":57},{"user_id":47,"name":"Portello","steam_id":76561198002959134,"connected_time":3310000000000,"state":"active","ping":59},{"user_id":89,"name":"flr","steam_id":76561198249327786,"connected_time":277000000000,"state":"active","ping":60},{"user_id":90,"name":"Irgend so n Trottel","steam_id":76561197997126444,"connected_time":144000000000,"state":"active","ping":63},{"user_id":81,"name":"TEEEFTWOO","steam_id":76561198282952165,"connected_time":1131000000000,"state":"active","ping":75},{"user_id":91,"name":"law of regression","steam_id":76561198038748489,"connected_time":141000000000,"state":"active","ping":75},{"user_id":77,"name":"Syd","steam_id":76561198020515027,"connected_time":1624000000000,"state":"active","ping":81},{"user_id":92,"name":"I sell exotic parrots","steam_id":76561199192434258,"connected_time":121000000000,"state":"active","ping":77},{"user_id":72,"name":"astigmatic","steam_id":76561199103959197,"connected_time":1951000000000,"state":"active","ping":95},{"user_id":79,"name":"TidB","steam_id":76561198055342304,"connected_time":1240000000000,"state":"active","ping":59},{"user_id":93,"name":"Flame‚ò†","steam_id":76561198192163673,"connected_time":96000000000,"state":"active","ping":54},{"user_id":83,"name":"BenchOhBoi","steam_id":76561198089687243,"connected_time":759000000000,"state":"active","ping":91},{"user_id":63,"name":"HwK!","steam_id":76561198287835588,"connected_time":2985000000000,"state":"active","ping":85}]},{"server_id":311,"name":"Uncletopia | Frankfurt | 6 | All Maps","name_short":"frk-6","host":"frk-1.de.uncletopia.com","port":27065,"enabled":true,"region":"eu","cc":"de","latitude":50.110924,"longitude":8.682127,"reserved":0,"last_update":"0001-01-01T00:00:00Z","name_a2s":"Uncletopia | Frankfurt | 6 | All Maps","protocol":17,"map":"pl_frontier_final","folder":"tf","game":"Team Fortress","app_id":440,"player_count":24,"max_players":24,"Bots":0,"server_type":"Dedicated","server_os":"Linux","password":true,"vac":true,"version":"7882260","steam_id":85568392924504278,"keywords":["nocrits","nodmgspread","payload","uncletopia"],"game_id":440,"stv_port":27066,"stv_name":"Uncletopia | Frankfurt | 6 | All Maps | STV","players":[{"user_id":142,"name":"I Don't Know","steam_id":76561198841011430,"connected_time":446000000000,"state":"active","ping":69},{"user_id":96,"name":"Pootis","steam_id":76561198823265247,"connected_time":2531000000000,"state":"active","ping":70},{"user_id":129,"name":"HARU404","steam_id":76561198964152048,"connected_time":858000000000,"state":"active","ping":90},{"user_id":112,"name":"Pilgram1308","steam_id":76561199082760934,"connected_time":1996000000000,"state":"active","ping":68},{"user_id":132,"name":"Vestige","steam_id":76561198255752919,"connected_time":809000000000,"state":"active","ping":56},{"user_id":117,"name":"eeeeee","steam_id":76561198017786875,"connected_time":1882000000000,"state":"active","ping":49},{"user_id":133,"name":"noble","steam_id":76561197987688539,"connected_time":781000000000,"state":"active","ping":76},{"user_id":145,"name":"Delusion","steam_id":76561198067347430,"connected_time":251000000000,"state":"active","ping":100},{"user_id":150,"name":"Doctor Rudy G. Numpad","steam_id":76561198440881106,"connected_time":22000000000,"state":"active","ping":71},{"user_id":140,"name":"√∞jl√´√±√±g√∏√∞x","steam_id":76561198028713119,"connected_time":652000000000,"state":"active","ping":57},{"user_id":130,"name":"Smaug [Ger]","steam_id":76561198853461583,"connected_time":855000000000,"state":"active","ping":69},{"user_id":137,"name":"creator of yiff","steam_id":76561198305806575,"connected_time":707000000000,"state":"active","ping":72},{"user_id":135,"name":"49.3 lover","steam_id":76561198084056439,"connected_time":737000000000,"state":"active","ping":45},{"user_id":144,"name":"moneyb√§nger","steam_id":76561198026951600,"connected_time":304000000000,"state":"active","ping":72},{"user_id":109,"name":"Krocon","steam_id":76561198084906316,"connected_time":2137000000000,"state":"active","ping":81},{"user_id":118,"name":"Carrotcracker","steam_id":76561198034862396,"connected_time":1876000000000,"state":"active","ping":67},{"user_id":139,"name":"zherny","steam_id":76561198027033926,"connected_time":662000000000,"state":"active","ping":67},{"user_id":141,"name":"tomase mul√©re","steam_id":76561198044609085,"connected_time":651000000000,"state":"active","ping":71},{"user_id":119,"name":"DuskDragon911","steam_id":76561198996036702,"connected_time":1875000000000,"state":"active","ping":71},{"user_id":146,"name":"Michael","steam_id":76561198097224892,"connected_time":238000000000,"state":"active","ping":69},{"user_id":147,"name":"Dan","steam_id":76561198868810675,"connected_time":186000000000,"state":"active","ping":132},{"user_id":111,"name":"Meliodas","steam_id":76561199041315595,"connected_time":2083000000000,"state":"active","ping":59},{"user_id":120,"name":"pAftAq","steam_id":76561198359966356,"connected_time":1844000000000,"state":"active","ping":107},{"user_id":124,"name":"Deckard","steam_id":76561198004704647,"connected_time":953000000000,"state":"active","ping":78}]},{"server_id":23,"name":"Uncletopia | Frankfurt | 7 | Stopwatch Beta","name_short":"frk-7","host":"frk-1.de.uncletopia.com","port":27075,"enabled":true,"region":"eu","cc":"de","latitude":50.110924,"longitude":8.682127,"reserved":0,"last_update":"0001-01-01T00:00:00Z","name_a2s":"Uncletopia | Frankfurt | 7 | Stopwatch Beta","protocol":17,"map":"workshop/koth_clearcut_b15.ugc2107050255","folder":"tf","game":"Team Fortress","app_id":440,"player_count":0,"max_players":24,"Bots":0,"server_type":"Dedicated","server_os":"Linux","password":true,"vac":true,"version":"7882260","steam_id":85568392924742827,"keywords":["cp","nocrits","nodmgspread","uncletopia"],"game_id":440,"stv_port":27076,"stv_name":"Uncletopia | Frankfurt | 7 | Stopwatch Beta | STV","players":null},{"server_id":24,"name":"Uncletopia | Frankfurt | 8 | Community","name_short":"frk-8","host":"frk-1.de.uncletopia.com","port":27085,"enabled":true,"region":"eu","cc":"de","latitude":50.110924,"longitude":8.682127,"reserved":0,"last_update":"0001-01-01T00:00:00Z","name_a2s":"Uncletopia | Frankfurt | 8 | Community","protocol":17,"map":"workshop/pl_boundary_final1.ugc456799153","folder":"tf","game":"Team Fortress","app_id":440,"player_count":24,"max_players":24,"Bots":0,"server_type":"Dedicated","server_os":"Linux","password":true,"vac":true,"version":"7882260","steam_id":85568392924742828,"keywords":["nocrits","nodmgspread","payload","uncletopia"],"game_id":440,"stv_port":27086,"stv_name":"Uncletopia | Frankfurt | 8 | Community | STV","players":[{"user_id":544,"name":"Vershal Smershal","steam_id":76561198116223995,"connected_time":1228000000000,"state":"active","ping":59},{"user_id":547,"name":"Max Power","steam_id":76561198019269089,"connected_time":151000000000,"state":"active","ping":52},{"user_id":545,"name":"Ava9","steam_id":76561198975869024,"connected_time":1175000000000,"state":"active","ping":86},{"user_id":546,"name":"wicked","steam_id":76561198164376035,"connected_time":483000000000,"state":"active","ping":67},{"user_id":530,"name":"Huru_mies30","steam_id":76561199240991587,"connected_time":2568000000000,"state":"active","ping":57},{"user_id":507,"name":"HOI","steam_id":76561198061182117,"connected_time":3449000000000,"state":"active","ping":62},{"user_id":527,"name":"Gun Spy","steam_id":76561198112689672,"connected_time":2634000000000,"state":"active","ping":52},{"user_id":548,"name":"Tea guy","steam_id":76561198797847641,"connected_time":93000000000,"state":"spawning","ping":256},{"user_id":534,"name":"Scipionemiliano","steam_id":76561198027646559,"connected_time":2222000000000,"state":"active","ping":118},{"user_id":509,"name":"God's Goofiest Goober","steam_id":76561198103175187,"connected_time":3429000000000,"state":"active","ping":63},{"user_id":494,"name":"medic slut :3","steam_id":76561198988363799,"connected_time":4726000000000,"state":"active","ping":74},{"user_id":549,"name":"BD[PL]","steam_id":76561198115995871,"connected_time":63000000000,"state":"active","ping":69},{"user_id":514,"name":"M2rtRa","steam_id":76561198111036466,"connected_time":3321000000000,"state":"active","ping":70},{"user_id":515,"name":"Flonne","steam_id":76561198080168182,"connected_time":3287000000000,"state":"active","ping":81},{"user_id":522,"name":"Li√∏nHeart","steam_id":76561198081370704,"connected_time":3021000000000,"state":"active","ping":51},{"user_id":542,"name":"Bajas","steam_id":76561198179339326,"connected_time":1317000000000,"state":"active","ping":77},{"user_id":539,"name":"Pet354","steam_id":76561198867294144,"connected_time":1588000000000,"state":"active","ping":47},{"user_id":537,"name":"Astyloblatta","steam_id":76561199222909666,"connected_time":1802000000000,"state":"active","ping":61},{"user_id":541,"name":"Mi Manchi","steam_id":76561198171573129,"connected_time":1444000000000,"state":"active","ping":57},{"user_id":529,"name":"Hetmanych","steam_id":76561198870926865,"connected_time":2598000000000,"state":"active","ping":49},{"user_id":533,"name":"Envy","steam_id":76561198132723219,"connected_time":2367000000000,"state":"active","ping":92},{"user_id":484,"name":"jawA","steam_id":76561198070341774,"connected_time":5462000000000,"state":"active","ping":75},{"user_id":543,"name":"xavier","steam_id":76561198076494034,"connected_time":1305000000000,"state":"active","ping":57},{"user_id":496,"name":"Roza The Catgirl","steam_id":76561198303232001,"connected_time":4586000000000,"state":"active","ping":75}]},{"server_id":202,"name":"Uncletopia | Hong Kong | 1 | All Maps","name_short":"hgk-1","host":"hgk-1.hk.uncletopia.com","port":27015,"enabled":true,"region":"asia","cc":"hk","latitude":22.302711,"longitude":114.177216,"reserved":0,"last_update":"0001-01-01T00:00:00Z","name_a2s":"Uncletopia | Hong Kong | 1 | All Maps","protocol":17,"map":"koth_viaduct","folder":"tf","game":"Team Fortress","app_id":440,"player_count":0,"max_players":24,"Bots":0,"server_type":"Dedicated","server_os":"Linux","password":true,"vac":true,"version":"7882260","steam_id":85568392924494504,"keywords":["cp","nocrits","nodmgspread","uncletopia"],"game_id":440,"stv_port":27016,"stv_name":"Uncletopia | Hong Kong | 1 | All Maps | STV","players":null},{"server_id":1,"name":"Uncletopia | Los Angeles | 1 | All Maps","name_short":"lax-1","host":"lax-1.us.uncletopia.com","port":27015,"enabled":true,"region":"us-west","cc":"us","latitude":33.94279,"longitude":-118.41004,"reserved":0,"last_update":"0001-01-01T00:00:00Z","name_a2s":"Uncletopia | Los Angeles | 1 | All Maps","protocol":17,"map":"koth_highpass","folder":"tf","game":"Team Fortress","app_id":440,"player_count":4,"max_players":24,"Bots":0,"server_type":"Dedicated","server_os":"Linux","password":true,"vac":true,"version":"7882260","steam_id":85568392924469991,"keywords":["cp","nocrits","nodmgspread","uncletopia"],"game_id":440,"stv_port":27016,"stv_name":"Uncletopia | Los Angeles | 1 | All Maps | STV","players":[{"user_id":16,"name":"Wackydavo","steam_id":76561197990094209,"connected_time":271000000000,"state":"active","ping":86},{"user_id":15,"name":"ani (scho-ka-kola enjoyer)","steam_id":76561198047786061,"connected_time":947000000000,"state":"active","ping":70},{"user_id":14,"name":"Chickenwing","steam_id":76561199347103141,"connected_time":1568000000000,"state":"active","ping":77},{"user_id":17,"name":"flo rida","steam_id":76561198226169704,"connected_time":215000000000,"state":"active","ping":53}]},{"server_id":112,"name":"Uncletopia | Los Angeles | 2 | All Maps","name_short":"lax-2","host":"lax-1.us.uncletopia.com","port":27025,"enabled":true,"region":"us-west","cc":"us","latitude":33.94279,"longitude":-118.41004,"reserved":0,"last_update":"0001-01-01T00:00:00Z","name_a2s":"Uncletopia | Los Angeles | 2 | All Maps","protocol":17,"map":"koth_cascade","folder":"tf","game":"Team Fortress","app_id":440,"player_count":0,"max_players":24,"Bots":0,"server_type":"Dedicated","server_os":"Linux","password":true,"vac":true,"version":"7882260","steam_id":85568392924469992,"keywords":["cp","nocrits","nodmgspread","uncletopia"],"game_id":440,"stv_port":27026,"stv_name":"Uncletopia | Los Angeles | 2 | All Maps | STV","players":null},{"server_id":324,"name":"Uncletopia | Los Angeles | 3 | All Maps","name_short":"lax-3","host":"lax-1.us.uncletopia.com","port":27035,"enabled":true,"region":"us-west","cc":"us","latitude":33.94279,"longitude":-118.41004,"reserved":0,"last_update":"0001-01-01T00:00:00Z","name_a2s":"Uncletopia | Los Angeles | 3 | All Maps","protocol":17,"map":"koth_cascade","folder":"tf","game":"Team Fortress","app_id":440,"player_count":0,"max_players":24,"Bots":0,"server_type":"Dedicated","server_os":"Linux","password":true,"vac":true,"version":"7882260","steam_id":85568392924510198,"keywords":["cp","nocrits","nodmgspread","uncletopia"],"game_id":440,"stv_port":27036,"stv_name":"Uncletopia | Los Angeles | 3 | All Maps | STV","players":null},{"server_id":25,"name":"Uncletopia | Los Angeles | 4 | Stopwatch Beta","name_short":"lax-4","host":"lax-1.us.uncletopia.com","port":27045,"enabled":true,"region":"us-west","cc":"us","latitude":33.94279,"longitude":-118.41004,"reserved":0,"last_update":"0001-01-01T00:00:00Z","name_a2s":"Uncletopia | Los Angeles | 4 | Stopwatch Beta","protocol":17,"map":"koth_viaduct","folder":"tf","game":"Team Fortress","app_id":440,"player_count":0,"max_players":24,"Bots":0,"server_type":"Dedicated","server_os":"Linux","password":true,"vac":true,"version":"7882260","steam_id":85568392924510199,"keywords":["cp","nocrits","nodmgspread","uncletopia"],"game_id":440,"stv_port":27046,"stv_name":"Uncletopia | Los Angeles | 4 | Stopwatch Beta | STV","players":null},{"server_id":11,"name":"Uncletopia | London | 1 | All Maps","name_short":"lon-1","host":"lon-1.uk.uncletopia.com","port":27015,"enabled":true,"region":"eu","cc":"gb","latitude":51.509865,"longitude":-0.118092,"reserved":0,"last_update":"0001-01-01T00:00:00Z","name_a2s":"Uncletopia | London | 1 | All Maps","protocol":17,"map":"pl_upward","folder":"tf","game":"Team Fortress","app_id":440,"player_count":24,"max_players":24,"Bots":0,"server_type":"Dedicated","server_os":"Linux","password":true,"vac":true,"version":"7882260","steam_id":85568392924367362,"keywords":["nocrits","nodmgspread","payload","uncletopia"],"game_id":440,"stv_port":27016,"stv_name":"Uncletopia | London | 1 | All Maps | STV","players":[{"user_id":752,"name":"Fish","steam_id":76561198152128484,"connected_time":1293000000000,"state":"active","ping":48},{"user_id":751,"name":"Prome","steam_id":76561199050383942,"connected_time":1340000000000,"state":"active","ping":60},{"user_id":743,"name":"Kahvi","steam_id":76561198723244199,"connected_time":3284000000000,"state":"active","ping":78},{"user_id":747,"name":"trite","steam_id":76561197983765323,"connected_time":1529000000000,"state":"active","ping":48},{"user_id":654,"name":"KnugenIV","steam_id":76561198127091993,"connected_time":11058000000000,"state":"active","ping":61},{"user_id":517,"name":"‚ô•aura‚ô•","steam_id":76561198066258544,"connected_time":21482000000000,"state":"active","ping":59},{"user_id":693,"name":"unconditional love","steam_id":76561199026097466,"connected_time":7506000000000,"state":"active","ping":70},{"user_id":756,"name":"Niko (She/They)","steam_id":76561198436817109,"connected_time":647000000000,"state":"active","ping":54},{"user_id":755,"name":"aminoxsos","steam_id":76561198839741609,"connected_time":1010000000000,"state":"active","ping":73},{"user_id":753,"name":"Explosive Poptart","steam_id":76561198023918830,"connected_time":1164000000000,"state":"active","ping":44},{"user_id":761,"name":"big poo","steam_id":76561198129157178,"connected_time":587000000000,"state":"active","ping":83},{"user_id":698,"name":"Codex","steam_id":76561198068748584,"connected_time":7114000000000,"state":"active","ping":45},{"user_id":737,"name":"Sky‚ô°","steam_id":76561199209906710,"connected_time":3607000000000,"state":"active","ping":46},{"user_id":757,"name":"JOHN GAMING (#1 gunspy)","steam_id":76561199085822219,"connected_time":625000000000,"state":"active","ping":80},{"user_id":762,"name":"Bobo","steam_id":76561198052308399,"connected_time":360000000000,"state":"active","ping":70},{"user_id":758,"name":"being silly rn","steam_id":76561198048453764,"connected_time":624000000000,"state":"active","ping":52},{"user_id":745,"name":"Gubbly Bubbins","steam_id":76561198101451654,"connected_time":1542000000000,"state":"active","ping":52},{"user_id":759,"name":"Yugibeaux2","steam_id":76561199448697659,"connected_time":623000000000,"state":"active","ping":134},{"user_id":744,"name":"owo","steam_id":76561198158209651,"connected_time":3077000000000,"state":"active","ping":60},{"user_id":738,"name":"dec","steam_id":76561198009660168,"connected_time":3599000000000,"state":"active","ping":57},{"user_id":750,"name":"flappi","steam_id":76561198072892783,"connected_time":1429000000000,"state":"active","ping":72},{"user_id":739,"name":"SOPHIIEE","steam_id":76561198443798981,"connected_time":3596000000000,"state":"active","ping":56},{"user_id":760,"name":"an evolved camera","steam_id":76561198977420882,"connected_time":621000000000,"state":"active","ping":44},{"user_id":746,"name":"KPhii","steam_id":76561198970587061,"connected_time":1541000000000,"state":"active","ping":60}]},{"server_id":114,"name":"Uncletopia | London | 2 | All Maps","name_short":"lon-2","host":"lon-1.uk.uncletopia.com","port":27025,"enabled":true,"region":"eu","cc":"gb","latitude":51.509865,"longitude":-0.118092,"reserved":0,"last_update":"0001-01-01T00:00:00Z","name_a2s":"Uncletopia | London | 2 | All Maps","protocol":17,"map":"pl_upward","folder":"tf","game":"Team Fortress","app_id":440,"player_count":24,"max_players":24,"Bots":0,"server_type":"Dedicated","server_os":"Linux","password":true,"vac":true,"version":"7882260","steam_id":85568392924470941,"keywords":["nocrits","nodmgspread","payload","uncletopia"],"game_id":440,"stv_port":27026,"stv_name":"Uncletopia | London | 2 | All Maps | STV","players":[{"user_id":566,"name":"dunduu","steam_id":76561198875240717,"connected_time":815000000000,"state":"active","ping":77},{"user_id":514,"name":"Voks_","steam_id":76561198159687785,"connected_time":5848000000000,"state":"active","ping":59},{"user_id":560,"name":"Julen","steam_id":76561198371879846,"connected_time":889000000000,"state":"active","ping":90},{"user_id":552,"name":"Old Shep","steam_id":76561198028017390,"connected_time":2561000000000,"state":"active","ping":82},{"user_id":554,"name":"Soaya","steam_id":76561199101510855,"connected_time":2236000000000,"state":"active","ping":45},{"user_id":557,"name":"Rask","steam_id":76561198052934944,"connected_time":940000000000,"state":"active","ping":87},{"user_id":570,"name":"creature of steel","steam_id":76561198311044984,"connected_time":397000000000,"state":"active","ping":71},{"user_id":551,"name":"cister0","steam_id":76561198130195469,"connected_time":2675000000000,"state":"active","ping":82},{"user_id":538,"name":"Snake-chan","steam_id":76561199044755854,"connected_time":3821000000000,"state":"active","ping":77},{"user_id":568,"name":"Sylvanas","steam_id":76561198154904165,"connected_time":606000000000,"state":"active","ping":106},{"user_id":499,"name":"jona3838","steam_id":76561199097658195,"connected_time":7244000000000,"state":"active","ping":100},{"user_id":539,"name":"„Çπ„Éî„Éº„Ç≠„É™ [spkry]","steam_id":76561198370526969,"connected_time":3563000000000,"state":"active","ping":81},{"user_id":561,"name":"Kamanie","steam_id":76561198135448255,"connected_time":888000000000,"state":"active","ping":66},{"user_id":556,"name":"can of lager","steam_id":76561198163081194,"connected_time":1697000000000,"state":"active","ping":45},{"user_id":553,"name":"LiquidSoft","steam_id":76561198377979111,"connected_time":2343000000000,"state":"active","ping":72},{"user_id":571,"name":"Bungus Stormblessed","steam_id":76561198121357619,"connected_time":136000000000,"state":"active","ping":169},{"user_id":569,"name":"Germanium_Ge","steam_id":76561198130561775,"connected_time":597000000000,"state":"active","ping":54},{"user_id":563,"name":"Purps","steam_id":76561198053886680,"connected_time":877000000000,"state":"active","ping":38},{"user_id":564,"name":"yoursbzt","steam_id":76561198201866574,"connected_time":874000000000,"state":"active","ping":75},{"user_id":532,"name":"GinoFastidio","steam_id":76561198075830259,"connected_time":3963000000000,"state":"active","ping":133},{"user_id":565,"name":"Mysterious Stranger","steam_id":76561198061580505,"connected_time":871000000000,"state":"active","ping":56},{"user_id":567,"name":"benny420","steam_id":76561198116162730,"connected_time":810000000000,"state":"active","ping":86},{"user_id":555,"name":"tone","steam_id":76561197975301462,"connected_time":1787000000000,"state":"active","ping":55},{"user_id":537,"name":"Pipper","steam_id":76561197970326616,"connected_time":3918000000000,"state":"active","ping":76}]},{"server_id":320,"name":"Uncletopia | London | 3 | All Maps","name_short":"lon-3","host":"lon-1.uk.uncletopia.com","port":27035,"enabled":true,"region":"eu","cc":"gb","latitude":51.509865,"longitude":-0.118092,"reserved":0,"last_update":"0001-01-01T00:00:00Z","name_a2s":"Uncletopia | London | 3 | All Maps","protocol":17,"map":"cp_steel","folder":"tf","game":"Team Fortress","app_id":440,"player_count":18,"max_players":24,"Bots":0,"server_type":"Dedicated","server_os":"Linux","password":true,"vac":true,"version":"7882260","steam_id":85568392924510192,"keywords":["cp","nocrits","nodmgspread","uncletopia"],"game_id":440,"stv_port":27036,"stv_name":"Uncletopia | London | 3 | All Maps | STV","players":[{"user_id":138,"name":"Doomsday","steam_id":76561198210559757,"connected_time":5306000000000,"state":"active","ping":57},{"user_id":179,"name":"Meddler","steam_id":76561198033001402,"connected_time":2242000000000,"state":"active","ping":34},{"user_id":212,"name":"okzq","steam_id":76561199105796083,"connected_time":43000000000,"state":"active","ping":81},{"user_id":174,"name":"GroGroudonDu31","steam_id":76561198155106297,"connected_time":2547000000000,"state":"active","ping":59},{"user_id":149,"name":"ethan","steam_id":76561198119495513,"connected_time":4722000000000,"state":"active","ping":40},{"user_id":178,"name":"Lux","steam_id":76561198060417740,"connected_time":2378000000000,"state":"active","ping":47},{"user_id":191,"name":"Creative","steam_id":76561198835034247,"connected_time":1418000000000,"state":"active","ping":83},{"user_id":209,"name":"Vinnidict","steam_id":76561198037087000,"connected_time":583000000000,"state":"active","ping":70},{"user_id":197,"name":"DobreStarachowickie","steam_id":76561198027126737,"connected_time":1258000000000,"state":"active","ping":70},{"user_id":171,"name":"antnt","steam_id":76561198112546748,"connected_time":2705000000000,"state":"active","ping":50},{"user_id":198,"name":"My left foot itches","steam_id":76561198078411001,"connected_time":1170000000000,"state":"active","ping":87},{"user_id":176,"name":"cream gravy","steam_id":76561198973069177,"connected_time":2453000000000,"state":"active","ping":54},{"user_id":213,"name":"Jam","steam_id":76561198010277932,"connected_time":22000000000,"state":"active","ping":56},{"user_id":200,"name":"schocky_panzer","steam_id":76561197965924454,"connected_time":1113000000000,"state":"active","ping":60},{"user_id":193,"name":"Mussolini","steam_id":76561198218384865,"connected_time":1358000000000,"state":"active","ping":104},{"user_id":194,"name":"Cataleptic","steam_id":76561197997966949,"connected_time":1352000000000,"state":"active","ping":59},{"user_id":211,"name":"Soerlssoelss√∂en","steam_id":76561197993060585,"connected_time":531000000000,"state":"active","ping":81},{"user_id":151,"name":"BONA FIDE PISS","steam_id":76561198130020929,"connected_time":4517000000000,"state":"active","ping":45}]},{"server_id":321,"name":"Uncletopia | London | 4 | All Maps","name_short":"lon-4","host":"lon-1.uk.uncletopia.com","port":27045,"enabled":true,"region":"eu","cc":"gb","latitude":51.509865,"longitude":-0.118092,"reserved":0,"last_update":"0001-01-01T00:00:00Z","name_a2s":"Uncletopia | London | 4 | All Maps","protocol":17,"map":"pl_borneo","folder":"tf","game":"Team Fortress","app_id":440,"player_count":22,"max_players":24,"Bots":0,"server_type":"Dedicated","server_os":"Linux","password":true,"vac":true,"version":"7882260","steam_id":85568392924510193,"keywords":["nocrits","nodmgspread","payload","uncletopia"],"game_id":440,"stv_port":27046,"stv_name":"Uncletopia | London | 4 | All Maps | STV","players":[{"user_id":275,"name":"Gry","steam_id":76561198053961616,"connected_time":3318000000000,"state":"active","ping":57},{"user_id":217,"name":"JeanCorben","steam_id":76561197965133561,"connected_time":6767000000000,"state":"active","ping":43},{"user_id":299,"name":"Bull","steam_id":76561199233979726,"connected_time":1814000000000,"state":"active","ping":92},{"user_id":311,"name":"lunaire","steam_id":76561198163344452,"connected_time":1112000000000,"state":"active","ping":99},{"user_id":316,"name":"TobMan","steam_id":76561199132167284,"connected_time":251000000000,"state":"active","ping":64},{"user_id":317,"name":"U1F","steam_id":76561198053700703,"connected_time":154000000000,"state":"active","ping":45},{"user_id":301,"name":"Jos√© Antonio Primo de Rivera","steam_id":76561197981932264,"connected_time":1798000000000,"state":"active","ping":53},{"user_id":295,"name":"Jucatron","steam_id":76561198044259577,"connected_time":2273000000000,"state":"active","ping":80},{"user_id":247,"name":"Dex","steam_id":76561197981134247,"connected_time":4592000000000,"state":"active","ping":40},{"user_id":248,"name":"InjuryTime","steam_id":76561199051209821,"connected_time":4494000000000,"state":"active","ping":52},{"user_id":314,"name":"Ecton","steam_id":76561198025103720,"connected_time":510000000000,"state":"active","ping":53},{"user_id":148,"name":"Zerfesh","steam_id":76561198117534358,"connected_time":12303000000000,"state":"active","ping":103},{"user_id":318,"name":"Jesse on cocainer","steam_id":76561198355545012,"connected_time":28000000000,"state":"active","ping":91},{"user_id":181,"name":"G.R.E","steam_id":76561197979806514,"connected_time":10040000000000,"state":"active","ping":44},{"user_id":319,"name":"sogg√§h","steam_id":76561198046694824,"connected_time":20000000000,"state":"spawning","ping":60},{"user_id":303,"name":"Chen","steam_id":76561198440363619,"connected_time":1785000000000,"state":"active","ping":57},{"user_id":239,"name":"Popop","steam_id":76561198004793795,"connected_time":4887000000000,"state":"active","ping":46},{"user_id":320,"name":"Serbian knight","steam_id":76561199104258881,"connected_time":6000000000,"state":"spawning","ping":79},{"user_id":289,"name":"Mirage","steam_id":76561199013190566,"connected_time":2570000000000,"state":"active","ping":52},{"user_id":313,"name":"Glitch","steam_id":76561198801335846,"connected_time":660000000000,"state":"active","ping":32},{"user_id":305,"name":"giclure :;","steam_id":76561197986362828,"connected_time":1775000000000,"state":"active","ping":54},{"user_id":321,"name":"yeah","steam_id":76561198188642265,"connected_time":2000000000,"state":"spawning","ping":36}]},{"server_id":21,"name":"Uncletopia | London | 5 | All Maps","name_short":"lon-5","host":"lon-1.uk.uncletopia.com","port":27055,"enabled":true,"region":"eu","cc":"gb","latitude":51.509865,"longitude":-0.118092,"reserved":0,"last_update":"0001-01-01T00:00:00Z","name_a2s":"Uncletopia | London | 5 | All Maps","protocol":17,"map":"koth_highpass","folder":"tf","game":"Team Fortress","app_id":440,"player_count":24,"max_players":24,"Bots":0,"server_type":"Dedicated","server_os":"Linux","password":true,"vac":true,"version":"7882260","steam_id":85568392924742829,"keywords":["cp","nocrits","nodmgspread","uncletopia"],"game_id":440,"stv_port":27056,"stv_name":"Uncletopia | London | 5 | All Maps | STV","players":[{"user_id":147,"name":"s a i","steam_id":76561197970379754,"connected_time":7577000000000,"state":"active","ping":61},{"user_id":262,"name":"Human salesman","steam_id":76561198267114673,"connected_time":1313000000000,"state":"active","ping":67},{"user_id":245,"name":"Sarachnid","steam_id":76561198067163856,"connected_time":1769000000000,"state":"active","ping":154},{"user_id":229,"name":"Ham‚Ñ¢","steam_id":76561198057808379,"connected_time":2518000000000,"state":"active","ping":73},{"user_id":251,"name":"Based Gustavus","steam_id":76561198087778884,"connected_time":1650000000000,"state":"active","ping":72},{"user_id":225,"name":"lupe","steam_id":76561198079813788,"connected_time":2794000000000,"state":"active","ping":60},{"user_id":248,"name":"Unculturedswine2","steam_id":76561199088187334,"connected_time":1721000000000,"state":"active","ping":162},{"user_id":252,"name":"drk","steam_id":76561198072399195,"connected_time":1648000000000,"state":"active","ping":60},{"user_id":212,"name":"CJspellsfish","steam_id":76561198277342368,"connected_time":3934000000000,"state":"active","ping":173},{"user_id":217,"name":"r4s1","steam_id":76561198024034917,"connected_time":3795000000000,"state":"active","ping":60},{"user_id":238,"name":"MEGOS","steam_id":76561198172740637,"connected_time":2086000000000,"state":"active","ping":61},{"user_id":267,"name":"laser","steam_id":76561198036030697,"connected_time":260000000000,"state":"active","ping":72},{"user_id":226,"name":"Sarah Obama Michella","steam_id":76561198078996559,"connected_time":2718000000000,"state":"active","ping":86},{"user_id":261,"name":"DDUUCCKK","steam_id":76561198141953050,"connected_time":1372000000000,"state":"active","ping":48},{"user_id":232,"name":"TuffaxVEVO","steam_id":76561198079558729,"connected_time":2394000000000,"state":"active","ping":68},{"user_id":254,"name":"zvekan","steam_id":76561198381101196,"connected_time":1504000000000,"state":"active","ping":67},{"user_id":255,"name":"Adrheus","steam_id":76561198149775630,"connected_time":1493000000000,"state":"active","ping":75},{"user_id":256,"name":"Hecate","steam_id":76561198132806631,"connected_time":1466000000000,"state":"active","ping":87},{"user_id":266,"name":"PerskuleBenener","steam_id":76561198156899375,"connected_time":924000000000,"state":"active","ping":90},{"user_id":258,"name":"manKe","steam_id":76561198008564860,"connected_time":1450000000000,"state":"active","ping":59},{"user_id":259,"name":"Lazuli","steam_id":76561198058636964,"connected_time":1411000000000,"state":"active","ping":51},{"user_id":242,"name":"WiiSportKing","steam_id":76561198114139081,"connected_time":2058000000000,"state":"active","ping":55},{"user_id":263,"name":"ZePequenio","steam_id":76561197968506094,"connected_time":1256000000000,"state":"active","ping":61},{"user_id":264,"name":"Guilty_Toast","steam_id":76561199030023425,"connected_time":1214000000000,"state":"active","ping":49}]},{"server_id":22,"name":"Uncletopia | London | 6 | All Maps","name_short":"lon-6","host":"lon-1.uk.uncletopia.com","port":27065,"enabled":true,"region":"eu","cc":"gb","latitude":51.509865,"longitude":-0.118092,"reserved":0,"last_update":"0001-01-01T00:00:00Z","name_a2s":"Uncletopia | London | 6 | All Maps","protocol":17,"map":"cp_steel","folder":"tf","game":"Team Fortress","app_id":440,"player_count":20,"max_players":24,"Bots":0,"server_type":"Dedicated","server_os":"Linux","password":true,"vac":true,"version":"7882260","steam_id":85568392924742830,"keywords":["cp","nocrits","nodmgspread","uncletopia"],"game_id":440,"stv_port":27066,"stv_name":"Uncletopia | London | 6 | All Maps | STV","players":[{"user_id":170,"name":"cock","steam_id":76561198307522022,"connected_time":786000000000,"state":"active","ping":47},{"user_id":100,"name":"Mc Cheezy","steam_id":76561198834780242,"connected_time":5787000000000,"state":"active","ping":105},{"user_id":171,"name":"darkwater","steam_id":76561197986978738,"connected_time":722000000000,"state":"active","ping":50},{"user_id":172,"name":"Piquesque","steam_id":76561198286763046,"connected_time":712000000000,"state":"active","ping":105},{"user_id":155,"name":"Borat","steam_id":76561198122226417,"connected_time":2790000000000,"state":"active","ping":39},{"user_id":174,"name":"TheAsianMate","steam_id":76561198116111669,"connected_time":699000000000,"state":"active","ping":75},{"user_id":188,"name":"femidiot‚ù§","steam_id":76561198972654736,"connected_time":89000000000,"state":"active","ping":74},{"user_id":147,"name":"Dr.Disrespect","steam_id":76561198043820228,"connected_time":3575000000000,"state":"active","ping":57},{"user_id":176,"name":"woman (rare)","steam_id":76561198274631806,"connected_time":667000000000,"state":"active","ping":48},{"user_id":178,"name":"mentally disabled","steam_id":76561198163362186,"connected_time":595000000000,"state":"active","ping":180},{"user_id":164,"name":"AAlice","steam_id":76561198180361759,"connected_time":1685000000000,"state":"active","ping":45},{"user_id":108,"name":"TheQueenInChess","steam_id":76561199045410906,"connected_time":5616000000000,"state":"active","ping":59},{"user_id":179,"name":"Rapop101","steam_id":76561198125796030,"connected_time":549000000000,"state":"active","ping":93},{"user_id":180,"name":"mkwii","steam_id":76561198062507768,"connected_time":516000000000,"state":"active","ping":62},{"user_id":156,"name":"randompixel","steam_id":76561198003941207,"connected_time":2723000000000,"state":"active","ping":58},{"user_id":181,"name":"Mew Mew Kissy Cutie 2","steam_id":76561198334042273,"connected_time":464000000000,"state":"active","ping":60},{"user_id":182,"name":"The Power","steam_id":76561198060566884,"connected_time":438000000000,"state":"active","ping":41},{"user_id":187,"name":"CrankShaft","steam_id":76561197970750813,"connected_time":159000000000,"state":"active","ping":120},{"user_id":186,"name":"Natpad","steam_id":76561198842124497,"connected_time":315000000000,"state":"active","ping":69},{"user_id":166,"name":"Juiceydough","steam_id":76561197997323419,"connected_time":1617000000000,"state":"active","ping":86}]},{"server_id":40,"name":"Uncletopia | London | 7 | No Payload","name_short":"lon-7","host":"lon-1.uk.uncletopia.com","port":27075,"enabled":true,"region":"eu","cc":"gb","latitude":51.509865,"longitude":-0.118092,"reserved":0,"last_update":"0001-01-01T00:00:00Z","name_a2s":"Uncletopia | London | 7 | No Payload","protocol":17,"map":"cp_fastlane","folder":"tf","game":"Team Fortress","app_id":440,"player_count":17,"max_players":24,"Bots":0,"server_type":"Dedicated","server_os":"Linux","password":true,"vac":true,"version":"7882260","steam_id":85568392924964314,"keywords":["cp","nocrits","nodmgspread","uncletopia"],"game_id":440,"stv_port":27076,"stv_name":"Uncletopia | London | 7 | No Payload | STV","players":[{"user_id":361,"name":"Raymus","steam_id":76561198021330407,"connected_time":4921000000000,"state":"active","ping":59},{"user_id":396,"name":"Thing","steam_id":76561197997904403,"connected_time":2956000000000,"state":"active","ping":102},{"user_id":427,"name":"exelexor","steam_id":76561198091155452,"connected_time":1032000000000,"state":"active","ping":75},{"user_id":429,"name":"Cirox","steam_id":76561198383142404,"connected_time":912000000000,"state":"active","ping":86},{"user_id":414,"name":"Rook","steam_id":76561197995204779,"connected_time":2050000000000,"state":"active","ping":41},{"user_id":434,"name":"Frok","steam_id":76561199213363196,"connected_time":1000000000,"state":"spawning","ping":60},{"user_id":398,"name":"pvtemback","steam_id":76561198887302382,"connected_time":2625000000000,"state":"active","ping":84},{"user_id":404,"name":"name is NOBODY","steam_id":76561198436188791,"connected_time":2413000000000,"state":"active","ping":85},{"user_id":385,"name":"DaKing","steam_id":76561197995935273,"connected_time":3825000000000,"state":"active","ping":116},{"user_id":422,"name":"Slavixi","steam_id":76561198346216149,"connected_time":1773000000000,"state":"active","ping":97},{"user_id":406,"name":"wrpipe","steam_id":76561198854305411,"connected_time":2390000000000,"state":"active","ping":72},{"user_id":359,"name":"hananamanna","steam_id":76561198006570285,"connected_time":5202000000000,"state":"active","ping":116},{"user_id":431,"name":"Drunk russian with pyromania","steam_id":76561198195527328,"connected_time":376000000000,"state":"active","ping":45},{"user_id":355,"name":"Udinese Dion","steam_id":76561198067931573,"connected_time":5476000000000,"state":"active","ping":62},{"user_id":417,"name":"Tin","steam_id":76561198022201818,"connected_time":1916000000000,"state":"active","ping":45},{"user_id":418,"name":"HetNet","steam_id":76561198207584963,"connected_time":1898000000000,"state":"active","ping":73},{"user_id":384,"name":"Cosmetic brain","steam_id":76561198055936410,"connected_time":3888000000000,"state":"active","ping":88}]},{"server_id":41,"name":"Uncletopia | London | 8 | Community","name_short":"lon-8","host":"lon-1.uk.uncletopia.com","port":27085,"enabled":true,"region":"eu","cc":"gb","latitude":51.509865,"longitude":-0.118092,"reserved":0,"last_update":"0001-01-01T00:00:00Z","name_a2s":"Uncletopia | London | 8 | Community","protocol":17,"map":"workshop/koth_trenchfoot_b1a.ugc731436616","folder":"tf","game":"Team Fortress","app_id":440,"player_count":2,"max_players":24,"Bots":0,"server_type":"Dedicated","server_os":"Linux","password":true,"vac":true,"version":"7882260","steam_id":85568392924964315,"keywords":["cp","nocrits","nodmgspread","uncletopia"],"game_id":440,"stv_port":27086,"stv_name":"Uncletopia | London | 8 | Community | STV","players":[{"user_id":27,"name":"Aisforlike","steam_id":76561199482110668,"connected_time":402000000000,"state":"active","ping":138},{"user_id":28,"name":"odacovA","steam_id":76561199383345208,"connected_time":305000000000,"state":"active","ping":138}]},{"server_id":300,"name":"Uncletopia | Montr√©al | 1 | All Maps","name_short":"mtl-1","host":"mtl-1.ca.uncletopia.com","port":27015,"enabled":true,"region":"us-east","cc":"ca","latitude":45.50889,"longitude":-73.56167,"reserved":0,"last_update":"0001-01-01T00:00:00Z","name_a2s":"Uncletopia | Montr√©al | 1 | All Maps","protocol":17,"map":"cp_dustbowl","folder":"tf","game":"Team Fortress","app_id":440,"player_count":0,"max_players":24,"Bots":0,"server_type":"Dedicated","server_os":"Linux","password":true,"vac":true,"version":"7882260","steam_id":85568392924500087,"keywords":["cp","nocrits","nodmgspread","uncletopia"],"game_id":440,"stv_port":27016,"stv_name":"Uncletopia | Montr√©al | 1 | All Maps | STV","players":null},{"server_id":301,"name":"Uncletopia | Montr√©al | 2 | All Maps","name_short":"mtl-2","host":"mtl-1.ca.uncletopia.com","port":27025,"enabled":true,"region":"us-east","cc":"ca","latitude":45.50889,"longitude":-73.56167,"reserved":0,"last_update":"0001-01-01T00:00:00Z","name_a2s":"Uncletopia | Montr√©al | 2 | All Maps","protocol":17,"map":"pl_swiftwater_final1","folder":"tf","game":"Team Fortress","app_id":440,"player_count":0,"max_players":24,"Bots":0,"server_type":"Dedicated","server_os":"Linux","password":true,"vac":true,"version":"7882260","steam_id":85568392924500088,"keywords":["nocrits","nodmgspread","payload","uncletopia"],"game_id":440,"stv_port":27026,"stv_name":"Uncletopia | Montr√©al | 2 | All Maps | STV","players":null},{"server_id":302,"name":"Uncletopia | Montr√©al | 3 | All Maps","name_short":"mtl-3","host":"mtl-1.ca.uncletopia.com","port":27035,"enabled":true,"region":"us-east","cc":"ca","latitude":45.50889,"longitude":-73.56167,"reserved":0,"last_update":"0001-01-01T00:00:00Z","name_a2s":"Uncletopia | Montr√©al | 3 | All Maps","protocol":17,"map":"pl_swiftwater_final1","folder":"tf","game":"Team Fortress","app_id":440,"player_count":0,"max_players":24,"Bots":0,"server_type":"Dedicated","server_os":"Linux","password":true,"vac":true,"version":"7882260","steam_id":85568392924500089,"keywords":["nocrits","nodmgspread","payload","uncletopia"],"game_id":440,"stv_port":27036,"stv_name":"Uncletopia | Montr√©al | 3 | All Maps | STV","players":null},{"server_id":303,"name":"Uncletopia | Montr√©al | 4 | No Payload","name_short":"mtl-4","host":"mtl-1.ca.uncletopia.com","port":27045,"enabled":true,"region":"us-east","cc":"ca","latitude":45.50889,"longitude":-73.56167,"reserved":0,"last_update":"0001-01-01T00:00:00Z","name_a2s":"Uncletopia | Montr√©al | 4 | No Payload","protocol":17,"map":"koth_highpass","folder":"tf","game":"Team Fortress","app_id":440,"player_count":0,"max_players":24,"Bots":0,"server_type":"Dedicated","server_os":"Linux","password":true,"vac":true,"version":"7882260","steam_id":85568392924500090,"keywords":["cp","nocrits","nodmgspread","uncletopia"],"game_id":440,"stv_port":27046,"stv_name":"Uncletopia | Montr√©al | 4 | No Payload | STV","players":null},{"server_id":13,"name":"Uncletopia | New York City | 1 | All Maps","name_short":"nyc-1","host":"nyc-1.us.uncletopia.com","port":27015,"enabled":true,"region":"us-east","cc":"us","latitude":40.73061,"longitude":-73.93524,"reserved":0,"last_update":"0001-01-01T00:00:00Z","name_a2s":"Uncletopia | New York City | 1 | All Maps","protocol":17,"map":"cp_dustbowl","folder":"tf","game":"Team Fortress","app_id":440,"player_count":24,"max_players":24,"Bots":0,"server_type":"Dedicated","server_os":"Linux","password":true,"vac":true,"version":"7882260","steam_id":85568392924469993,"keywords":["cp","nocrits","nodmgspread","uncletopia"],"game_id":440,"stv_port":27016,"stv_name":"Uncletopia | New York City | 1 | All Maps | STV","players":[{"user_id":127,"name":"Justcallmedave","steam_id":76561198013700581,"connected_time":2526000000000,"state":"active","ping":57},{"user_id":134,"name":"yellowcat","steam_id":76561198346054736,"connected_time":1689000000000,"state":"active","ping":61},{"user_id":154,"name":"Jeff the 19th","steam_id":76561198189315491,"connected_time":394000000000,"state":"active","ping":76},{"user_id":93,"name":"CRAZY engineer","steam_id":76561198887937902,"connected_time":5440000000000,"state":"active","ping":51},{"user_id":149,"name":"helen keller","steam_id":76561197979870540,"connected_time":813000000000,"state":"active","ping":60},{"user_id":105,"name":"dak","steam_id":76561198076596506,"connected_time":3629000000000,"state":"active","ping":66},{"user_id":150,"name":"El Bondin","steam_id":76561198820792434,"connected_time":643000000000,"state":"active","ping":99},{"user_id":142,"name":"Hot Milk + Big Slappies","steam_id":76561197988989149,"connected_time":1170000000000,"state":"active","ping":95},{"user_id":160,"name":"Peepster","steam_id":76561198297854733,"connected_time":302000000000,"state":"active","ping":81},{"user_id":79,"name":"A damien","steam_id":76561198174767478,"connected_time":7089000000000,"state":"active","ping":90},{"user_id":151,"name":"The Incident of May 1st","steam_id":76561198159339442,"connected_time":626000000000,"state":"active","ping":69},{"user_id":157,"name":"Half-Alpha","steam_id":76561199274000697,"connected_time":336000000000,"state":"active","ping":65},{"user_id":159,"name":"suger1316","steam_id":76561199079999423,"connected_time":310000000000,"state":"active","ping":61},{"user_id":156,"name":"Cedric","steam_id":76561198072090580,"connected_time":344000000000,"state":"active","ping":89},{"user_id":143,"name":"Robo Boss","steam_id":76561199067098696,"connected_time":1161000000000,"state":"active","ping":87},{"user_id":161,"name":"nycgremlin","steam_id":76561198054685142,"connected_time":298000000000,"state":"active","ping":58},{"user_id":162,"name":"Happy Yaoi Friday","steam_id":76561198111290441,"connected_time":278000000000,"state":"active","ping":44},{"user_id":146,"name":"bungacowa","steam_id":76561198979176018,"connected_time":996000000000,"state":"active","ping":86},{"user_id":163,"name":"Failtastic","steam_id":76561198994009973,"connected_time":256000000000,"state":"active","ping":51},{"user_id":148,"name":"Iman","steam_id":76561198063677510,"connected_time":881000000000,"state":"active","ping":55},{"user_id":147,"name":"nurp","steam_id":76561198071687616,"connected_time":940000000000,"state":"active","ping":61},{"user_id":165,"name":"KcaptainAwesome","steam_id":76561198319689362,"connected_time":248000000000,"state":"active","ping":88},{"user_id":112,"name":"Wahooka","steam_id":76561197962240925,"connected_time":3480000000000,"state":"active","ping":47},{"user_id":153,"name":"a literal slave","steam_id":76561199389283507,"connected_time":472000000000,"state":"active","ping":55}]},{"server_id":14,"name":"Uncletopia | New York City | 2 | All Maps","name_short":"nyc-2","host":"nyc-1.us.uncletopia.com","port":27025,"enabled":true,"region":"us-east","cc":"us","latitude":40.73061,"longitude":-73.93524,"reserved":0,"last_update":"0001-01-01T00:00:00Z","name_a2s":"Uncletopia | New York City | 2 | All Maps","protocol":17,"map":"pl_goldrush","folder":"tf","game":"Team Fortress","app_id":440,"player_count":24,"max_players":24,"Bots":0,"server_type":"Dedicated","server_os":"Linux","password":true,"vac":true,"version":"7882260","steam_id":85568392924469994,"keywords":["nocrits","nodmgspread","payload","uncletopia"],"game_id":440,"stv_port":27026,"stv_name":"Uncletopia | New York City | 2 | All Maps | STV","players":[{"user_id":218,"name":"triple_range_merge","steam_id":76561198991225026,"connected_time":2318000000000,"state":"active","ping":67},{"user_id":200,"name":"Don't Fuckle with Shuckle","steam_id":76561199020102367,"connected_time":3066000000000,"state":"active","ping":90},{"user_id":225,"name":"Haiii :3","steam_id":76561198171466414,"connected_time":1579000000000,"state":"active","ping":72},{"user_id":245,"name":"PageBoiSkull","steam_id":76561198237353578,"connected_time":456000000000,"state":"active","ping":130},{"user_id":181,"name":"brroddyy","steam_id":76561198343540172,"connected_time":3688000000000,"state":"active","ping":93},{"user_id":221,"name":"msay","steam_id":76561198170888029,"connected_time":2034000000000,"state":"active","ping":78},{"user_id":240,"name":"Gh0w0st","steam_id":76561199471261226,"connected_time":873000000000,"state":"active","ping":100},{"user_id":223,"name":"SHADY SWEATER SALESMAN","steam_id":76561198014616865,"connected_time":1790000000000,"state":"active","ping":46},{"user_id":239,"name":"Mossed Ball","steam_id":76561199031256509,"connected_time":894000000000,"state":"active","ping":72},{"user_id":215,"name":"Sableye","steam_id":76561198061247147,"connected_time":2532000000000,"state":"active","ping":67},{"user_id":214,"name":"Pyro Lover 69","steam_id":76561198294761033,"connected_time":2620000000000,"state":"active","ping":65},{"user_id":192,"name":"Bigsumoslammer","steam_id":76561198044505076,"connected_time":3315000000000,"state":"active","ping":48},{"user_id":227,"name":"Weeb","steam_id":76561198333568146,"connected_time":1521000000000,"state":"active","ping":64},{"user_id":234,"name":"Lord_Manship","steam_id":76561198045168765,"connected_time":1345000000000,"state":"active","ping":92},{"user_id":190,"name":"deadmilkshake","steam_id":76561199364235892,"connected_time":3362000000000,"state":"active","ping":69},{"user_id":243,"name":"TJGSASQUATCH","steam_id":76561198077806921,"connected_time":772000000000,"state":"active","ping":71},{"user_id":204,"name":"Ethanol","steam_id":76561198298890887,"connected_time":3057000000000,"state":"active","ping":101},{"user_id":205,"name":"mkhcroy","steam_id":76561198125448762,"connected_time":3054000000000,"state":"active","ping":70},{"user_id":241,"name":"SnickerNoodle","steam_id":76561198064359644,"connected_time":867000000000,"state":"active","ping":54},{"user_id":75,"name":"Gentoo Linux Gaming","steam_id":76561197999657118,"connected_time":11657000000000,"state":"active","ping":68},{"user_id":229,"name":"AverageGloop","steam_id":76561198243395378,"connected_time":1453000000000,"state":"active","ping":43},{"user_id":246,"name":"bingo bango","steam_id":76561198068933412,"connected_time":116000000000,"state":"active","ping":60},{"user_id":242,"name":"Cheesi","steam_id":76561199417190840,"connected_time":858000000000,"state":"active","ping":86},{"user_id":244,"name":"gabaghoulio","steam_id":76561198013650292,"connected_time":715000000000,"state":"active","ping":106}]},{"server_id":15,"name":"Uncletopia | New York City | 3 | Stopwatch Beta","name_short":"nyc-3","host":"nyc-1.us.uncletopia.com","port":27035,"enabled":true,"region":"us-east","cc":"us","latitude":40.73061,"longitude":-73.93524,"reserved":0,"last_update":"0001-01-01T00:00:00Z","name_a2s":"Uncletopia | New York City | 3 | Stopwatch Beta","protocol":17,"map":"pl_borneo","folder":"tf","game":"Team Fortress","app_id":440,"player_count":0,"max_players":24,"Bots":0,"server_type":"Dedicated","server_os":"Linux","password":true,"vac":true,"version":"7882260","steam_id":85568392924742820,"keywords":["nocrits","nodmgspread","payload","uncletopia"],"game_id":440,"stv_port":27036,"stv_name":"Uncletopia | New York City | 3 | Stopwatch Beta | STV","players":null},{"server_id":16,"name":"Uncletopia | New York City | 4 | Community","name_short":"nyc-4","host":"nyc-1.us.uncletopia.com","port":27045,"enabled":true,"region":"us-east","cc":"us","latitude":40.73061,"longitude":-73.93524,"reserved":0,"last_update":"0001-01-01T00:00:00Z","name_a2s":"Uncletopia | New York City | 4 | Community","protocol":17,"map":"cp_altitude","folder":"tf","game":"Team Fortress","app_id":440,"player_count":0,"max_players":24,"Bots":0,"server_type":"Dedicated","server_os":"Linux","password":true,"vac":true,"version":"7882260","steam_id":85568392924742821,"keywords":["cp","nocrits","nodmgspread","uncletopia"],"game_id":440,"stv_port":27046,"stv_name":"Uncletopia | New York City | 4 | Community | STV","players":null},{"server_id":142,"name":"Uncletopia | S√£o Paulo | 1 | All Maps","name_short":"sao-1","host":"sao-1.br.uncletopia.com","port":27015,"enabled":true,"region":"sa","cc":"br","latitude":-23.533773,"longitude":-46.62529,"reserved":0,"last_update":"0001-01-01T00:00:00Z","name_a2s":"Uncletopia | S√£o Paulo | 1 | All Maps","protocol":17,"map":"koth_lakeside_final","folder":"tf","game":"Team Fortress","app_id":440,"player_count":0,"max_players":24,"Bots":0,"server_type":"Dedicated","server_os":"Linux","password":true,"vac":true,"version":"7882260","steam_id":85568392924469996,"keywords":["cp","nocrits","nodmgspread","uncletopia"],"game_id":440,"stv_port":27016,"stv_name":"Uncletopia | S√£o Paulo | 1 | All Maps | STV","players":null},{"server_id":143,"name":"Uncletopia | S√£o Paulo | 2 | All Maps","name_short":"sao-2","host":"sao-2.br.uncletopia.com","port":27015,"enabled":true,"region":"sa","cc":"br","latitude":-23.533773,"longitude":-46.62529,"reserved":0,"last_update":"0001-01-01T00:00:00Z","name_a2s":"Uncletopia | S√£o Paulo | 2 | All Maps","protocol":17,"map":"koth_viaduct","folder":"tf","game":"Team Fortress","app_id":440,"player_count":0,"max_players":24,"Bots":0,"server_type":"Dedicated","server_os":"Linux","password":true,"vac":true,"version":"7882260","steam_id":85568392924485349,"keywords":["cp","nocrits","nodmgspread","uncletopia"],"game_id":440,"stv_port":27016,"stv_name":"Uncletopia | S√£o Paulo | 2 | All Maps | STV","players":null},{"server_id":7,"name":"Uncletopia | Seattle | 1 | All Maps","name_short":"sea-1","host":"sea-1.us.uncletopia.com","port":27015,"enabled":true,"region":"us-west","cc":"us","latitude":47.608013,"longitude":-122.33517,"reserved":0,"last_update":"0001-01-01T00:00:00Z","name_a2s":"Uncletopia | Seattle | 1 | All Maps","protocol":17,"map":"cp_process_final","folder":"tf","game":"Team Fortress","app_id":440,"player_count":24,"max_players":24,"Bots":0,"server_type":"Dedicated","server_os":"Linux","password":true,"vac":true,"version":"7882260","steam_id":85568392924469997,"keywords":["cp","nocrits","nodmgspread","uncletopia"],"game_id":440,"stv_port":27016,"stv_name":"Uncletopia | Seattle | 1 | All Maps | STV","players":[{"user_id":219,"name":"transbian disaster","steam_id":76561198407600762,"connected_time":3719000000000,"state":"active","ping":45},{"user_id":217,"name":"pishnauts","steam_id":76561198960850707,"connected_time":3980000000000,"state":"active","ping":58},{"user_id":245,"name":"Glar","steam_id":76561198341907150,"connected_time":613000000000,"state":"active","ping":38},{"user_id":250,"name":"DaBananaCatOfPower","steam_id":76561198169902353,"connected_time":166000000000,"state":"active","ping":132},{"user_id":228,"name":"club_ted","steam_id":76561197997180003,"connected_time":2168000000000,"state":"active","ping":54},{"user_id":142,"name":"lili","steam_id":76561199391478575,"connected_time":9775000000000,"state":"active","ping":70},{"user_id":209,"name":"Saint Laurent Don","steam_id":76561198116820706,"connected_time":4764000000000,"state":"active","ping":71},{"user_id":248,"name":"1984 bizarre summer","steam_id":76561198068980107,"connected_time":345000000000,"state":"active","ping":32},{"user_id":202,"name":"jayeskae","steam_id":76561198144220801,"connected_time":5540000000000,"state":"active","ping":48},{"user_id":235,"name":"IPlayGamez","steam_id":76561198041387508,"connected_time":1752000000000,"state":"active","ping":119},{"user_id":221,"name":"lox","steam_id":76561198288531493,"connected_time":3359000000000,"state":"active","ping":167},{"user_id":242,"name":"Big Floppa","steam_id":76561199152552589,"connected_time":689000000000,"state":"active","ping":58},{"user_id":215,"name":"Moomin","steam_id":76561198072726213,"connected_time":4322000000000,"state":"active","ping":77},{"user_id":188,"name":"evilOlive","steam_id":76561198106222025,"connected_time":6934000000000,"state":"active","ping":76},{"user_id":240,"name":"Greskrendtregk","steam_id":76561197969553142,"connected_time":792000000000,"state":"active","ping":49},{"user_id":192,"name":"Ruben","steam_id":76561198048508642,"connected_time":6482000000000,"state":"active","ping":50},{"user_id":222,"name":"blozet","steam_id":76561199120161035,"connected_time":3358000000000,"state":"active","ping":84},{"user_id":229,"name":"Strikerbolt","steam_id":76561199095622897,"connected_time":2115000000000,"state":"active","ping":79},{"user_id":243,"name":"SadVeggie","steam_id":76561198163430099,"connected_time":665000000000,"state":"active","ping":151},{"user_id":236,"name":"BlazedBunny","steam_id":76561198243610560,"connected_time":1154000000000,"state":"active","ping":78},{"user_id":238,"name":"Quarter Cheese","steam_id":76561198115814588,"connected_time":820000000000,"state":"active","ping":49},{"user_id":249,"name":"Skabbety","steam_id":76561198168044257,"connected_time":292000000000,"state":"active","ping":45},{"user_id":174,"name":"rat gets the cheese","steam_id":76561198031234032,"connected_time":7423000000000,"state":"active","ping":93},{"user_id":233,"name":"NEBULA","steam_id":76561198086878595,"connected_time":1853000000000,"state":"active","ping":70}]},{"server_id":119,"name":"Uncletopia | Seattle | 2 | All Maps","name_short":"sea-2","host":"sea-1.us.uncletopia.com","port":27025,"enabled":true,"region":"us-west","cc":"us","latitude":47.608013,"longitude":-122.33517,"reserved":0,"last_update":"0001-01-01T00:00:00Z","name_a2s":"Uncletopia | Seattle | 2 | All Maps","protocol":17,"map":"pl_pier","folder":"tf","game":"Team Fortress","app_id":440,"player_count":20,"max_players":24,"Bots":0,"server_type":"Dedicated","server_os":"Linux","password":true,"vac":true,"version":"7882260","steam_id":85568392924469998,"keywords":["nocrits","nodmgspread","payload","uncletopia"],"game_id":440,"stv_port":27026,"stv_name":"Uncletopia | Seattle | 2 | All Maps | STV","players":[{"user_id":199,"name":"vandeer","steam_id":76561198120124007,"connected_time":596000000000,"state":"active","ping":129},{"user_id":193,"name":"Mr Bones","steam_id":76561198148667535,"connected_time":768000000000,"state":"active","ping":45},{"user_id":187,"name":"judesro","steam_id":76561198352244888,"connected_time":1134000000000,"state":"active","ping":122},{"user_id":207,"name":"SHADOW (he/him)","steam_id":76561198207768148,"connected_time":38000000000,"state":"active","ping":72},{"user_id":201,"name":"SwoopShoot","steam_id":76561199024079388,"connected_time":283000000000,"state":"active","ping":46},{"user_id":200,"name":"Ask Me For Random Trivia!","steam_id":76561198087065165,"connected_time":546000000000,"state":"active","ping":111},{"user_id":153,"name":"Petrivus","steam_id":76561198202152453,"connected_time":3638000000000,"state":"active","ping":48},{"user_id":188,"name":"Frank West","steam_id":76561198388032598,"connected_time":1105000000000,"state":"active","ping":67},{"user_id":195,"name":"LordMorphesus","steam_id":76561198026995104,"connected_time":748000000000,"state":"active","ping":40},{"user_id":170,"name":"Seico Bass","steam_id":76561198123498500,"connected_time":1701000000000,"state":"active","ping":72},{"user_id":203,"name":"girlcock :3","steam_id":76561199057269867,"connected_time":129000000000,"state":"active","ping":45},{"user_id":206,"name":"Wolf.6-4","steam_id":76561198985433828,"connected_time":53000000000,"state":"active","ping":39},{"user_id":164,"name":"nori_420","steam_id":76561199117134203,"connected_time":2764000000000,"state":"active","ping":82},{"user_id":205,"name":"‚òπ","steam_id":76561198804763186,"connected_time":74000000000,"state":"active","ping":115},{"user_id":179,"name":"mari_","steam_id":76561198137855741,"connected_time":1577000000000,"state":"active","ping":82},{"user_id":180,"name":"westward (was/were)","steam_id":76561198805512350,"connected_time":1571000000000,"state":"active","ping":60},{"user_id":208,"name":"AMY ROSE kyaahh","steam_id":76561198097637080,"connected_time":29000000000,"state":"active","ping":125},{"user_id":196,"name":"spiritual surcharge","steam_id":76561198164460801,"connected_time":684000000000,"state":"active","ping":45},{"user_id":78,"name":"b3afy","steam_id":76561198084208649,"connected_time":11008000000000,"state":"active","ping":55},{"user_id":168,"name":"COOL master_9","steam_id":76561198073041151,"connected_time":1867000000000,"state":"active","ping":99}]},{"server_id":406,"name":"Uncletopia | Seattle | 3 | Stopwatch Beta","name_short":"sea-3","host":"sea-1.us.uncletopia.com","port":27035,"enabled":true,"region":"us-west","cc":"us","latitude":47.608013,"longitude":-122.33517,"reserved":0,"last_update":"0001-01-01T00:00:00Z","name_a2s":"Uncletopia | Seattle | 3 | Stopwatch Beta","protocol":17,"map":"koth_viaduct","folder":"tf","game":"Team Fortress","app_id":440,"player_count":0,"max_players":24,"Bots":0,"server_type":"Dedicated","server_os":"Linux","password":true,"vac":true,"version":"7882260","steam_id":85568392924515217,"keywords":["cp","nocrits","nodmgspread","uncletopia"],"game_id":440,"stv_port":27036,"stv_name":"Uncletopia | Seattle | 3 | Stopwatch Beta | STV","players":null},{"server_id":17,"name":"Uncletopia | San Francisco | 1 | All Maps","name_short":"sfo-1","host":"sfo-1.us.uncletopia.com","port":27015,"enabled":true,"region":"us-west","cc":"us","latitude":37.77397,"longitude":-122.4313,"reserved":0,"last_update":"0001-01-01T00:00:00Z","name_a2s":"Uncletopia | San Francisco | 1 | All Maps","protocol":17,"map":"koth_highpass","folder":"tf","game":"Team Fortress","app_id":440,"player_count":24,"max_players":24,"Bots":0,"server_type":"Dedicated","server_os":"Linux","password":true,"vac":true,"version":"7882260","steam_id":85568392924469999,"keywords":["cp","nocrits","nodmgspread","uncletopia"],"game_id":440,"stv_port":27016,"stv_name":"Uncletopia | San Francisco | 1 | All Maps | STV","players":[{"user_id":163,"name":"squilith","steam_id":76561198134923092,"connected_time":3949000000000,"state":"active","ping":56},{"user_id":164,"name":"cat","steam_id":76561198022323054,"connected_time":3943000000000,"state":"active","ping":106},{"user_id":232,"name":"cheese on bread","steam_id":76561198224614084,"connected_time":286000000000,"state":"active","ping":104},{"user_id":215,"name":"RIP LANCE REDDICK","steam_id":76561198099980149,"connected_time":1495000000000,"state":"active","ping":60},{"user_id":192,"name":"crittr","steam_id":76561198014302068,"connected_time":2749000000000,"state":"active","ping":107},{"user_id":216,"name":"Fail Stabber!","steam_id":76561199165731600,"connected_time":1384000000000,"state":"active","ping":120},{"user_id":227,"name":"PinguEnjoyer6","steam_id":76561199186723516,"connected_time":709000000000,"state":"active","ping":44},{"user_id":223,"name":"salad","steam_id":76561198022225618,"connected_time":903000000000,"state":"active","ping":60},{"user_id":231,"name":"Soda","steam_id":76561198219209367,"connected_time":340000000000,"state":"active","ping":62},{"user_id":204,"name":"Teh Lemon","steam_id":76561199223429767,"connected_time":2440000000000,"state":"active","ping":74},{"user_id":228,"name":"eryn üó∫","steam_id":76561198004433070,"connected_time":673000000000,"state":"active","ping":96},{"user_id":196,"name":"Dr. Tropen","steam_id":76561198405271669,"connected_time":2683000000000,"state":"active","ping":102},{"user_id":222,"name":"wuddles","steam_id":76561198025782349,"connected_time":976000000000,"state":"active","ping":58},{"user_id":225,"name":"MegaBron James","steam_id":76561198066091050,"connected_time":850000000000,"state":"active","ping":69},{"user_id":229,"name":"Andy the Hoff","steam_id":76561198043115724,"connected_time":657000000000,"state":"active","ping":90},{"user_id":220,"name":"Fish Lambert","steam_id":76561198098279668,"connected_time":1147000000000,"state":"active","ping":71},{"user_id":234,"name":"King Baldski","steam_id":76561198359568400,"connected_time":90000000000,"state":"active","ping":202},{"user_id":203,"name":"SanitysEdge","steam_id":76561198130732813,"connected_time":2510000000000,"state":"active","ping":54},{"user_id":207,"name":"riSygneD","steam_id":76561198331618687,"connected_time":2331000000000,"state":"active","ping":46},{"user_id":230,"name":"chanoc","steam_id":76561198026734746,"connected_time":621000000000,"state":"active","ping":55},{"user_id":226,"name":"lol","steam_id":76561198026491738,"connected_time":836000000000,"state":"active","ping":68},{"user_id":209,"name":"Byte The Protogen","steam_id":76561199229871383,"connected_time":2198000000000,"state":"active","ping":64},{"user_id":210,"name":"Haminator","steam_id":76561198398918486,"connected_time":2189000000000,"state":"active","ping":123}]},{"server_id":18,"name":"Uncletopia | San Francisco | 2 | All Maps","name_short":"sfo-2","host":"sfo-1.us.uncletopia.com","port":27025,"enabled":true,"region":"us-west","cc":"us","latitude":37.77397,"longitude":-122.4313,"reserved":0,"last_update":"0001-01-01T00:00:00Z","name_a2s":"Uncletopia | San Francisco | 2 | All Maps","protocol":17,"map":"pl_barnblitz","folder":"tf","game":"Team Fortress","app_id":440,"player_count":24,"max_players":24,"Bots":0,"server_type":"Dedicated","server_os":"Linux","password":true,"vac":true,"version":"7882260","steam_id":85568392924470000,"keywords":["nocrits","nodmgspread","payload","uncletopia"],"game_id":440,"stv_port":27026,"stv_name":"Uncletopia | San Francisco | 2 | All Maps | STV","players":[{"user_id":75,"name":"Crayon15k","steam_id":76561199095492569,"connected_time":1967000000000,"state":"active","ping":127},{"user_id":36,"name":"andyiscolorless","steam_id":76561199239870921,"connected_time":4351000000000,"state":"active","ping":173},{"user_id":85,"name":"Sheev Palpatine","steam_id":76561198252332430,"connected_time":721000000000,"state":"active","ping":74},{"user_id":70,"name":"Kelp Sandwich","steam_id":76561198009127286,"connected_time":2145000000000,"state":"active","ping":72},{"user_id":86,"name":"Matt","steam_id":76561198008108521,"connected_time":694000000000,"state":"active","ping":127},{"user_id":96,"name":"superbad","steam_id":76561198065913973,"connected_time":301000000000,"state":"active","ping":45},{"user_id":84,"name":"Commander Craft","steam_id":76561198072620396,"connected_time":1056000000000,"state":"active","ping":96},{"user_id":97,"name":"check like pimpin","steam_id":76561199100342013,"connected_time":260000000000,"state":"active","ping":52},{"user_id":94,"name":"Harley [Ramiel]","steam_id":76561198079510840,"connected_time":348000000000,"state":"active","ping":68},{"user_id":87,"name":"Tankless Water Heater","steam_id":76561198014574925,"connected_time":675000000000,"state":"active","ping":124},{"user_id":88,"name":"JollyVG","steam_id":76561198044919633,"connected_time":649000000000,"state":"active","ping":103},{"user_id":82,"name":"Sonia üíõ ","steam_id":76561198009198502,"connected_time":1153000000000,"state":"active","ping":117},{"user_id":69,"name":"Gentle Opp 3","steam_id":76561198150406851,"connected_time":2759000000000,"state":"active","ping":45},{"user_id":89,"name":"warpig","steam_id":76561199226313309,"connected_time":649000000000,"state":"active","ping":125},{"user_id":72,"name":"Mark","steam_id":76561198855925338,"connected_time":2032000000000,"state":"active","ping":118},{"user_id":30,"name":"Dankest Cat","steam_id":76561198152685045,"connected_time":4526000000000,"state":"active","ping":124},{"user_id":31,"name":"maase","steam_id":76561199215396532,"connected_time":4521000000000,"state":"active","ping":128},{"user_id":32,"name":"DoesZeMason","steam_id":76561198186303547,"connected_time":4506000000000,"state":"active","ping":113},{"user_id":90,"name":"Asolator0","steam_id":76561198095809798,"connected_time":647000000000,"state":"active","ping":72},{"user_id":73,"name":"Huh?","steam_id":76561198054866271,"connected_time":2018000000000,"state":"active","ping":68},{"user_id":92,"name":"jack merridew","steam_id":76561199206622559,"connected_time":452000000000,"state":"active","ping":101},{"user_id":95,"name":"Jacob Hornberger 2016","steam_id":76561198204549723,"connected_time":345000000000,"state":"active","ping":102},{"user_id":66,"name":"Lord Brocktree","steam_id":76561198415527061,"connected_time":3111000000000,"state":"active","ping":69},{"user_id":67,"name":"XX_Scunt_XX","steam_id":76561198165688673,"connected_time":3029000000000,"state":"active","ping":98}]},{"server_id":19,"name":"Uncletopia | San Francisco | 3 | Stopwatch Beta","name_short":"sfo-3","host":"sfo-1.us.uncletopia.com","port":27035,"enabled":true,"region":"us-west","cc":"us","latitude":37.77397,"longitude":-122.4313,"reserved":0,"last_update":"0001-01-01T00:00:00Z","name_a2s":"Uncletopia | San Francisco | 3 | Stopwatch Beta","protocol":17,"map":"workshop/koth_ramjam_rc1.ugc459778887","folder":"tf","game":"Team Fortress","app_id":440,"player_count":0,"max_players":24,"Bots":0,"server_type":"Dedicated","server_os":"Linux","password":true,"vac":true,"version":"7882260","steam_id":85568392924742824,"keywords":["cp","nocrits","nodmgspread","uncletopia"],"game_id":440,"stv_port":27036,"stv_name":"Uncletopia | San Francisco | 3 | Stopwatch Beta | STV","players":null},{"server_id":20,"name":"Uncletopia | San Francisco | 4 | Community","name_short":"sfo-4","host":"sfo-1.us.uncletopia.com","port":27045,"enabled":true,"region":"us-west","cc":"us","latitude":37.77397,"longitude":-122.4313,"reserved":0,"last_update":"0001-01-01T00:00:00Z","name_a2s":"Uncletopia | San Francisco | 4 | Community","protocol":17,"map":"pl_swiftwater_final1","folder":"tf","game":"Team Fortress","app_id":440,"player_count":14,"max_players":24,"Bots":0,"server_type":"Dedicated","server_os":"Linux","password":true,"vac":true,"version":"7882260","steam_id":85568392924742826,"keywords":["nocrits","nodmgspread","payload","uncletopia"],"game_id":440,"stv_port":27046,"stv_name":"Uncletopia | San Francisco | 4 | Community | STV","players":[{"user_id":12,"name":"xerro","steam_id":76561198323340524,"connected_time":1342000000000,"state":"active","ping":101},{"user_id":7,"name":"Victory Fox","steam_id":76561199385254750,"connected_time":1713000000000,"state":"active","ping":107},{"user_id":8,"name":"Dust","steam_id":76561199147682930,"connected_time":1712000000000,"state":"active","ping":100},{"user_id":9,"name":"BeyondHornyLiquidTheMonke","steam_id":76561198390575784,"connected_time":1708000000000,"state":"active","ping":122},{"user_id":13,"name":"I:AM:FULL:OF:FRICKIN:POTASSIUM","steam_id":76561199262432664,"connected_time":1041000000000,"state":"active","ping":84},{"user_id":11,"name":"x333x","steam_id":76561198198527697,"connected_time":1595000000000,"state":"active","ping":102},{"user_id":14,"name":"tactical_wm1","steam_id":76561198131171198,"connected_time":1005000000000,"state":"active","ping":225},{"user_id":16,"name":"bot_tracer","steam_id":76561199034131978,"connected_time":666000000000,"state":"active","ping":199},{"user_id":17,"name":"ramato#SaveTf2","steam_id":76561198028703754,"connected_time":315000000000,"state":"active","ping":442},{"user_id":18,"name":"BennBap","steam_id":76561198171881453,"connected_time":274000000000,"state":"active","ping":92},{"user_id":19,"name":"Le Shrugger","steam_id":76561198009511341,"connected_time":263000000000,"state":"active","ping":108},{"user_id":20,"name":"KaleScrooge","steam_id":76561199229442595,"connected_time":214000000000,"state":"active","ping":158},{"user_id":21,"name":"sama4747_king91","steam_id":76561199117655727,"connected_time":210000000000,"state":"active","ping":98},{"user_id":22,"name":"G‡∂ûMER","steam_id":76561198340389876,"connected_time":179000000000,"state":"active","ping":70}]},{"server_id":141,"name":"Uncletopia | Sydney | 1 | All Maps","name_short":"syd-1","host":"syd-1.au.uncletopia.com","port":27015,"enabled":true,"region":"au","cc":"au","latitude":-33.865143,"longitude":151.2099,"reserved":0,"last_update":"0001-01-01T00:00:00Z","name_a2s":"Uncletopia | Sydney | 1 | All Maps","protocol":17,"map":"koth_viaduct","folder":"tf","game":"Team Fortress","app_id":440,"player_count":0,"max_players":24,"Bots":0,"server_type":"Dedicated","server_os":"Linux","password":true,"vac":true,"version":"7882260","steam_id":85568392924470001,"keywords":["cp","nocrits","nodmgspread","uncletopia"],"game_id":440,"stv_port":27016,"stv_name":"Uncletopia | Sydney | 1 | All Maps | STV","players":null},{"server_id":123,"name":"Uncletopia | Sydney | 2 | All Maps","name_short":"syd-2","host":"syd-1.au.uncletopia.com","port":27025,"enabled":true,"region":"au","cc":"au","latitude":-33.865143,"longitude":151.2099,"reserved":0,"last_update":"0001-01-01T00:00:00Z","name_a2s":"Uncletopia | Sydney | 2 | All Maps","protocol":17,"map":"cp_altitude","folder":"tf","game":"Team Fortress","app_id":440,"player_count":0,"max_players":24,"Bots":0,"server_type":"Dedicated","server_os":"Linux","password":true,"vac":true,"version":"7882260","steam_id":85568392924470002,"keywords":["cp","nocrits","nodmgspread","uncletopia"],"game_id":440,"stv_port":27026,"stv_name":"Uncletopia | Sydney | 2 | All Maps | STV","players":null},{"server_id":395,"name":"Uncletopia | Sydney | 3 | All Maps","name_short":"syd-3","host":"syd-1.au.uncletopia.com","port":27035,"enabled":true,"region":"au","cc":"au","latitude":-33.865143,"longitude":151.2099,"reserved":0,"last_update":"0001-01-01T00:00:00Z","name_a2s":"Uncletopia | Sydney | 3 | All Maps","protocol":17,"map":"koth_viaduct","folder":"tf","game":"Team Fortress","app_id":440,"player_count":0,"max_players":24,"Bots":0,"server_type":"Dedicated","server_os":"Linux","password":true,"vac":true,"version":"7882260","steam_id":85568392925194467,"keywords":["cp","nocrits","nodmgspread","uncletopia"],"game_id":440,"stv_port":27036,"stv_name":"Uncletopia | Sydney | 3 | All Maps | STV","players":null},{"server_id":396,"name":"Uncletopia | Sydney | 4 | All Maps","name_short":"syd-4","host":"syd-1.au.uncletopia.com","port":27045,"enabled":true,"region":"au","cc":"au","latitude":-33.865143,"longitude":151.2099,"reserved":0,"last_update":"0001-01-01T00:00:00Z","name_a2s":"Uncletopia | Sydney | 4 | All Maps","protocol":17,"map":"cp_altitude","folder":"tf","game":"Team Fortress","app_id":440,"player_count":0,"max_players":24,"Bots":0,"server_type":"Dedicated","server_os":"Linux","password":true,"vac":true,"version":"7882260","steam_id":85568392925397958,"keywords":["cp","nocrits","nodmgspread","uncletopia"],"game_id":440,"stv_port":27046,"stv_name":"Uncletopia | Sydney | 4 | All Maps | STV","players":null},{"server_id":58,"name":"Uncletopia | Sydney | 5 | Stopwatch Beta","name_short":"syd-5","host":"syd-1.au.uncletopia.com","port":27055,"enabled":true,"region":"au","cc":"au","latitude":-33.865143,"longitude":151.2099,"reserved":0,"last_update":"0001-01-01T00:00:00Z","name_a2s":"Uncletopia | Sydney | 5 | Stopwatch Beta","protocol":17,"map":"koth_viaduct","folder":"tf","game":"Team Fortress","app_id":440,"player_count":0,"max_players":24,"Bots":0,"server_type":"Dedicated","server_os":"Linux","password":true,"vac":true,"version":"7882260","steam_id":85568392925397959,"keywords":["cp","nocrits","nodmgspread","uncletopia"],"game_id":440,"stv_port":27056,"stv_name":"Uncletopia | Sydney | 5 | Stopwatch Beta | STV","players":null},{"server_id":59,"name":"Uncletopia | Sydney | 6 | Community","name_short":"syd-6","host":"syd-1.au.uncletopia.com","port":27065,"enabled":true,"region":"au","cc":"au","latitude":-33.865143,"longitude":151.2099,"reserved":0,"last_update":"0001-01-01T00:00:00Z","name_a2s":"Uncletopia | Sydney | 6 | Community","protocol":17,"map":"pl_upward","folder":"tf","game":"Team Fortress","app_id":440,"player_count":0,"max_players":24,"Bots":0,"server_type":"Dedicated","server_os":"Linux","password":true,"vac":true,"version":"7882260","steam_id":85568392925397960,"keywords":["nocrits","nodmgspread","payload","uncletopia"],"game_id":440,"stv_port":27066,"stv_name":"Uncletopia | Sydney | 6 | Community | STV","players":null},{"server_id":49,"name":"Uncletopia | Warsaw | 1 | All Maps","name_short":"waw-1","host":"waw-1.pl.uncletopia.com","port":27015,"enabled":true,"region":"eu","cc":"pl","latitude":52.2297,"longitude":21.017532,"reserved":0,"last_update":"0001-01-01T00:00:00Z","name_a2s":"","protocol":0,"map":"","folder":"","game":"","app_id":0,"player_count":0,"max_players":0,"Bots":0,"server_type":"","server_os":"","password":false,"vac":false,"version":"","steam_id":0,"keywords":null,"game_id":0,"stv_port":0,"stv_name":"","players":null},{"server_id":50,"name":"Uncletopia | Warsaw | 2 | All Maps","name_short":"waw-2","host":"waw-1.pl.uncletopia.com","port":27025,"enabled":true,"region":"eu","cc":"pl","latitude":52.2297,"longitude":21.017532,"reserved":0,"last_update":"0001-01-01T00:00:00Z","name_a2s":"Uncletopia | Warsaw | 2 | All Maps","protocol":17,"map":"koth_viaduct","folder":"tf","game":"Team Fortress","app_id":440,"player_count":5,"max_players":24,"Bots":0,"server_type":"Dedicated","server_os":"Linux","password":true,"vac":true,"version":"7882260","steam_id":85568392925397851,"keywords":["cp","nocrits","nodmgspread","uncletopia"],"game_id":440,"stv_port":27026,"stv_name":"Uncletopia | Warsaw | 2 | All Maps | STV","players":[{"user_id":10,"name":"Daikon","steam_id":76561198044017083,"connected_time":1329000000000,"state":"active","ping":75},{"user_id":11,"name":"huffy","steam_id":76561198062827013,"connected_time":1234000000000,"state":"active","ping":59},{"user_id":12,"name":"Brinier","steam_id":76561199012604288,"connected_time":1013000000000,"state":"active","ping":79},{"user_id":13,"name":"myrlejon","steam_id":76561198092480015,"connected_time":837000000000,"state":"active","ping":61},{"user_id":15,"name":"Uno","steam_id":76561198023465646,"connected_time":722000000000,"state":"active","ping":60}]},{"server_id":51,"name":"Uncletopia | Warsaw | 3 | All Maps","name_short":"waw-3","host":"waw-1.pl.uncletopia.com","port":27035,"enabled":true,"region":"eu","cc":"pl","latitude":52.2297,"longitude":21.017532,"reserved":0,"last_update":"0001-01-01T00:00:00Z","name_a2s":"Uncletopia | Warsaw | 3 | All Maps","protocol":17,"map":"pl_snowycoast","folder":"tf","game":"Team Fortress","app_id":440,"player_count":0,"max_players":24,"Bots":0,"server_type":"Dedicated","server_os":"Linux","password":true,"vac":true,"version":"7882260","steam_id":85568392925397852,"keywords":["nocrits","nodmgspread","payload","uncletopia"],"game_id":440,"stv_port":27036,"stv_name":"Uncletopia | Warsaw | 3 | All Maps | STV","players":null},{"server_id":52,"name":"Uncletopia | Warsaw | 4 | All Maps","name_short":"waw-4","host":"waw-1.pl.uncletopia.com","port":27045,"enabled":true,"region":"eu","cc":"pl","latitude":52.2297,"longitude":21.017532,"reserved":0,"last_update":"0001-01-01T00:00:00Z","name_a2s":"Uncletopia | Warsaw | 4 | All Maps","protocol":17,"map":"koth_cascade","folder":"tf","game":"Team Fortress","app_id":440,"player_count":0,"max_players":24,"Bots":0,"server_type":"Dedicated","server_os":"Linux","password":true,"vac":true,"version":"7882260","steam_id":85568392925397853,"keywords":["cp","nocrits","nodmgspread","uncletopia"],"game_id":440,"stv_port":27046,"stv_name":"Uncletopia | Warsaw | 4 | All Maps | STV","players":null},{"server_id":53,"name":"Uncletopia | Warsaw | 5 | Stopwatch Beta","name_short":"waw-5","host":"waw-1.pl.uncletopia.com","port":27055,"enabled":true,"region":"eu","cc":"pl","latitude":52.2297,"longitude":21.017532,"reserved":0,"last_update":"0001-01-01T00:00:00Z","name_a2s":"Uncletopia | Warsaw | 5 | Stopwatch Beta","protocol":17,"map":"cp_gullywash_final1","folder":"tf","game":"Team Fortress","app_id":440,"player_count":0,"max_players":24,"Bots":0,"server_type":"Dedicated","server_os":"Linux","password":true,"vac":true,"version":"7882260","steam_id":85568392925397854,"keywords":["cp","nocrits","nodmgspread","uncletopia"],"game_id":440,"stv_port":27056,"stv_name":"Uncletopia | Warsaw | 5 | Stopwatch Beta | STV","players":null},{"server_id":54,"name":"Uncletopia | Warsaw | 6 | Community","name_short":"waw-6","host":"waw-1.pl.uncletopia.com","port":27065,"enabled":true,"region":"eu","cc":"pl","latitude":52.2297,"longitude":21.017532,"reserved":0,"last_update":"0001-01-01T00:00:00Z","name_a2s":"Uncletopia | Warsaw | 6 | Community","protocol":17,"map":"workshop/cp_mannbase_rc2a.ugc1900737467","folder":"tf","game":"Team Fortress","app_id":440,"player_count":0,"max_players":24,"Bots":0,"server_type":"Dedicated","server_os":"Linux","password":true,"vac":true,"version":"7882260","steam_id":85568392925397856,"keywords":["cp","nocrits","nodmgspread","uncletopia"],"game_id":440,"stv_port":27066,"stv_name":"Uncletopia | Warsaw | 6 | Community | STV","players":null}]}