{"status":true,"message":"","result":[{"server_id":9,"name":"Uncletopia | Atlanta | 1 | All Maps","name_short":"atl-1","host":"atl-1.us.uncletopia.com","port":27015,"enabled":true,"region":"us-east","cc":"us","latitude":33.753746,"longitude":-84.38633,"reserved":0,"last_update":"0001-01-01T00:00:00Z","name_a2s":"Uncletopia | Atlanta | 1 | All Maps","protocol":17,"map":"pl_borneo","folder":"tf","game":"Team Fortress","app_id":440,"player_count":21,"max_players":24,"Bots":0,"server_type":"Dedicated","server_os":"Linux","password":true,"vac":true,"version":"7961495","steam_id":85568392924469982,"keywords":["nocrits","nodmgspread","payload","uncletopia"],"game_id":440,"stv_port":27016,"stv_name":"Uncletopia | Atlanta | 1 | All Maps | STV","players":[{"user_id":72,"name":"BigBubble42","steam_id":76561198136286123,"connected_time":114000000000,"state":"active","ping":46},{"user_id":74,"name":"sork tee bee","steam_id":76561199074852635,"connected_time":18000000000,"state":"spawning","ping":59},{"user_id":15,"name":"SAntOrGrav","steam_id":76561199444957686,"connected_time":3992000000000,"state":"active","ping":141},{"user_id":63,"name":"AllHailTMG","steam_id":76561198447338140,"connected_time":577000000000,"state":"active","ping":101},{"user_id":66,"name":"THOTDADDY","steam_id":76561198069868942,"connected_time":442000000000,"state":"active","ping":76},{"user_id":53,"name":"LargeAll","steam_id":76561198130252456,"connected_time":1234000000000,"state":"active","ping":54},{"user_id":17,"name":"Bean King","steam_id":76561198393621940,"connected_time":3748000000000,"state":"active","ping":46},{"user_id":54,"name":"MrCalmL.I","steam_id":76561198966598137,"connected_time":1228000000000,"state":"active","ping":68},{"user_id":71,"name":"lu","steam_id":76561198080731872,"connected_time":153000000000,"state":"active","ping":73},{"user_id":68,"name":"harold of rock salt kingdom","steam_id":76561199016285746,"connected_time":362000000000,"state":"active","ping":75},{"user_id":73,"name":"get scrongled, idiot","steam_id":76561198115874625,"connected_time":74000000000,"state":"active","ping":87},{"user_id":56,"name":"spinning so fast i generate lif","steam_id":76561198280331687,"connected_time":1221000000000,"state":"active","ping":97},{"user_id":57,"name":"Dark Souls","steam_id":76561198131174016,"connected_time":1205000000000,"state":"active","ping":82},{"user_id":61,"name":"Motorolª","steam_id":76561198358119669,"connected_time":687000000000,"state":"active","ping":115},{"user_id":42,"name":"artichoke","steam_id":76561198980994364,"connected_time":2975000000000,"state":"active","ping":94},{"user_id":43,"name":"dingus deluxe","steam_id":76561198834355366,"connected_time":2937000000000,"state":"active","ping":67},{"user_id":69,"name":"Coersion","steam_id":76561198242842394,"connected_time":310000000000,"state":"active","ping":64},{"user_id":62,"name":"JustADuck","steam_id":76561198311260943,"connected_time":676000000000,"state":"active","ping":60},{"user_id":70,"name":"loot","steam_id":76561198069954956,"connected_time":194000000000,"state":"active","ping":46},{"user_id":60,"name":"TheWorst","steam_id":76561198151241267,"connected_time":959000000000,"state":"active","ping":90},{"user_id":49,"name":"Sunny D+","steam_id":76561197999371052,"connected_time":1906000000000,"state":"active","ping":77}]},{"server_id":104,"name":"Uncletopia | Atlanta | 2 | All Maps","name_short":"atl-2","host":"atl-1.us.uncletopia.com","port":27025,"enabled":true,"region":"us-east","cc":"us","latitude":33.753746,"longitude":-84.38633,"reserved":0,"last_update":"0001-01-01T00:00:00Z","name_a2s":"Uncletopia | Atlanta | 2 | All Maps","protocol":17,"map":"pl_swiftwater_final1","folder":"tf","game":"Team Fortress","app_id":440,"player_count":4,"max_players":24,"Bots":0,"server_type":"Dedicated","server_os":"Linux","password":true,"vac":true,"version":"7961495","steam_id":85568392924469983,"keywords":["nocrits","nodmgspread","payload","uncletopia"],"game_id":440,"stv_port":27026,"stv_name":"Uncletopia | Atlanta | 2 | All Maps | STV","players":[{"user_id":12,"name":"LazyKoala99","steam_id":76561199183623672,"connected_time":337000000000,"state":"active","ping":51},{"user_id":6,"name":"HailedClown","steam_id":76561199225239977,"connected_time":2257000000000,"state":"active","ping":92},{"user_id":10,"name":"Lee Thats It","steam_id":76561199200579913,"connected_time":1018000000000,"state":"active","ping":61},{"user_id":11,"name":"Stan","steam_id":76561198209150708,"connected_time":735000000000,"state":"active","ping":89}]},{"server_id":400,"name":"Uncletopia | Atlanta | 3 | Stopwatch","name_short":"atl-3","host":"atl-1.us.uncletopia.com","port":27035,"enabled":true,"region":"us-east","cc":"us","latitude":33.753746,"longitude":-84.38633,"reserved":0,"last_update":"0001-01-01T00:00:00Z","name_a2s":"Uncletopia | Atlanta | 3 | Stopwatch","protocol":17,"map":"cp_process_final","folder":"tf","game":"Team Fortress","app_id":440,"player_count":0,"max_players":24,"Bots":0,"server_type":"Dedicated","server_os":"Linux","password":true,"vac":true,"version":"7961495","steam_id":85568392924515187,"keywords":["cp","nocrits","nodmgspread","uncletopia"],"game_id":440,"stv_port":27036,"stv_name":"Uncletopia | Atlanta | 3 | Stopwatch | STV","players":null},{"server_id":401,"name":"Uncletopia | Atlanta | 4 | Community","name_short":"atl-4","host":"atl-1.us.uncletopia.com","port":27045,"enabled":true,"region":"us-east","cc":"us","latitude":33.753746,"longitude":-84.38633,"reserved":0,"last_update":"0001-01-01T00:00:00Z","name_a2s":"Uncletopia | Atlanta | 4 | Community","protocol":17,"map":"workshop/koth_bagel_rc6.ugc2514036946","folder":"tf","game":"Team Fortress","app_id":440,"player_count":0,"max_players":24,"Bots":0,"server_type":"Dedicated","server_os":"Linux","password":true,"vac":true,"version":"7961495","steam_id":85568392924515188,"keywords":["cp","nocrits","nodmgspread","uncletopia"],"game_id":440,"stv_port":27046,"stv_name":"Uncletopia | Atlanta | 4 | Community | STV","players":null},{"server_id":2,"name":"Uncletopia | Chicago | 1 | All Maps","name_short":"chi-1","host":"chi-1.us.uncletopia.com","port":27015,"enabled":true,"region":"us-central","cc":"us","latitude":41.881832,"longitude":-87.62318,"reserved":0,"last_update":"0001-01-01T00:00:00Z","name_a2s":"Uncletopia | Chicago | 1 | All Maps","protocol":17,"map":"pl_thundermountain","folder":"tf","game":"Team Fortress","app_id":440,"player_count":24,"max_players":24,"Bots":0,"server_type":"Dedicated","server_os":"Linux","password":true,"vac":true,"version":"7961495","steam_id":85568392924469984,"keywords":["nocrits","nodmgspread","payload","uncletopia"],"game_id":440,"stv_port":27016,"stv_name":"Uncletopia | Chicago | 1 | All Maps | STV","players":[{"user_id":91,"name":"Sir Spinach","steam_id":76561199164337878,"connected_time":1282000000000,"state":"active","ping":85},{"user_id":66,"name":"DuckKey","steam_id":76561198904477889,"connected_time":3900000000000,"state":"active","ping":58},{"user_id":86,"name":"XeroDollars","steam_id":76561198137858047,"connected_time":1997000000000,"state":"active","ping":59},{"user_id":99,"name":"Walkiing","steam_id":76561198074473413,"connected_time":371000000000,"state":"active","ping":44},{"user_id":92,"name":"dietcokefan42","steam_id":76561198135307995,"connected_time":1239000000000,"state":"active","ping":70},{"user_id":69,"name":"Grify","steam_id":76561198012292317,"connected_time":3103000000000,"state":"active","ping":85},{"user_id":96,"name":"Major_Pippy","steam_id":76561198004482878,"connected_time":1057000000000,"state":"active","ping":100},{"user_id":100,"name":"K","steam_id":76561198171446177,"connected_time":234000000000,"state":"active","ping":97},{"user_id":59,"name":"Spectre","steam_id":76561198037535169,"connected_time":4955000000000,"state":"active","ping":76},{"user_id":71,"name":"Onion","steam_id":76561197993583701,"connected_time":3072000000000,"state":"active","ping":71},{"user_id":81,"name":"Fungus","steam_id":76561198085926415,"connected_time":2195000000000,"state":"active","ping":86},{"user_id":104,"name":"ArcticRescue","steam_id":76561198055362404,"connected_time":124000000000,"state":"active","ping":32},{"user_id":90,"name":"Morgster","steam_id":76561198131697761,"connected_time":1381000000000,"state":"active","ping":74},{"user_id":61,"name":"BabyPunter","steam_id":76561199443211026,"connected_time":4845000000000,"state":"active","ping":72},{"user_id":89,"name":"Flvffi","steam_id":76561198119479353,"connected_time":1454000000000,"state":"active","ping":58},{"user_id":85,"name":"wilian","steam_id":76561198085614455,"connected_time":2151000000000,"state":"active","ping":85},{"user_id":88,"name":"BooshWookery","steam_id":76561198038836377,"connected_time":1643000000000,"state":"active","ping":57},{"user_id":68,"name":"ThatGamingKiwi","steam_id":76561199170522237,"connected_time":3379000000000,"state":"active","ping":75},{"user_id":76,"name":"spider_murphy","steam_id":76561198079057101,"connected_time":2878000000000,"state":"active","ping":75},{"user_id":51,"name":"Shirt","steam_id":76561198082386564,"connected_time":6076000000000,"state":"active","ping":58},{"user_id":103,"name":"Robin","steam_id":76561198121165149,"connected_time":186000000000,"state":"active","ping":43},{"user_id":94,"name":"(She/Her)ChaméniTheá","steam_id":76561198114244051,"connected_time":1184000000000,"state":"active","ping":83},{"user_id":95,"name":"ol' musty","steam_id":76561198081075865,"connected_time":1177000000000,"state":"active","ping":70},{"user_id":106,"name":"The Guy","steam_id":76561198799183693,"connected_time":92000000000,"state":"active","ping":84}]},{"server_id":106,"name":"Uncletopia | Chicago | 2 | All Maps","name_short":"chi-2","host":"chi-1.us.uncletopia.com","port":27025,"enabled":true,"region":"us-central","cc":"us","latitude":41.881832,"longitude":-87.62318,"reserved":0,"last_update":"0001-01-01T00:00:00Z","name_a2s":"Uncletopia | Chicago | 2 | All Maps","protocol":17,"map":"pl_frontier_final","folder":"tf","game":"Team Fortress","app_id":440,"player_count":23,"max_players":24,"Bots":0,"server_type":"Dedicated","server_os":"Linux","password":true,"vac":true,"version":"7961495","steam_id":85568392924469985,"keywords":["nocrits","nodmgspread","payload","uncletopia"],"game_id":440,"stv_port":27026,"stv_name":"Uncletopia | Chicago | 2 | All Maps | STV","players":[{"user_id":204,"name":"st0n3mast3r48","steam_id":76561199141431059,"connected_time":687000000000,"state":"active","ping":73},{"user_id":205,"name":"Jeiyo","steam_id":76561199070161957,"connected_time":317000000000,"state":"active","ping":80},{"user_id":206,"name":"Mr. Cheesey","steam_id":76561198153462183,"connected_time":257000000000,"state":"active","ping":64},{"user_id":210,"name":"zemsta banana","steam_id":76561198048946998,"connected_time":70000000000,"state":"active","ping":173},{"user_id":55,"name":"\u003e:J","steam_id":76561198353456379,"connected_time":15017000000000,"state":"active","ping":65},{"user_id":208,"name":"a rabbit with a keyboard","steam_id":76561198129051488,"connected_time":134000000000,"state":"active","ping":66},{"user_id":51,"name":"c","steam_id":76561198881665250,"connected_time":16443000000000,"state":"active","ping":89},{"user_id":187,"name":"grape","steam_id":76561197993980328,"connected_time":2747000000000,"state":"active","ping":116},{"user_id":163,"name":"LerN","steam_id":76561198083463877,"connected_time":4688000000000,"state":"active","ping":58},{"user_id":74,"name":"Sonic Mania 2 [100 Real Leaked","steam_id":76561198062764039,"connected_time":13445000000000,"state":"active","ping":164},{"user_id":191,"name":"VileEvilLevi","steam_id":76561199226291414,"connected_time":1989000000000,"state":"active","ping":85},{"user_id":170,"name":"aureli","steam_id":76561199031411031,"connected_time":4534000000000,"state":"active","ping":70},{"user_id":199,"name":"Bennet","steam_id":76561198194582382,"connected_time":1196000000000,"state":"active","ping":75},{"user_id":201,"name":"Tyth","steam_id":76561198062543298,"connected_time":1100000000000,"state":"active","ping":90},{"user_id":202,"name":"derz","steam_id":76561198010742216,"connected_time":979000000000,"state":"active","ping":52},{"user_id":203,"name":"bob","steam_id":76561198274522348,"connected_time":942000000000,"state":"active","ping":59},{"user_id":194,"name":"Raging Ant1v1rus","steam_id":76561198029438696,"connected_time":1759000000000,"state":"active","ping":86},{"user_id":168,"name":"-W3E- grim10465","steam_id":76561198045698581,"connected_time":4634000000000,"state":"active","ping":50},{"user_id":185,"name":"JonWik2","steam_id":76561198373893302,"connected_time":3275000000000,"state":"active","ping":82},{"user_id":193,"name":"Orange","steam_id":76561198068242218,"connected_time":1953000000000,"state":"active","ping":84},{"user_id":198,"name":"Boo Bear","steam_id":76561197997837665,"connected_time":1454000000000,"state":"active","ping":71},{"user_id":180,"name":"godsdoctor","steam_id":76561198055010413,"connected_time":3934000000000,"state":"active","ping":122},{"user_id":186,"name":"ther","steam_id":76561199191376935,"connected_time":3224000000000,"state":"active","ping":82}]},{"server_id":402,"name":"Uncletopia | Chicago | 3 | All Maps","name_short":"chi-3","host":"chi-1.us.uncletopia.com","port":27035,"enabled":true,"region":"us-central","cc":"us","latitude":41.881832,"longitude":-87.62318,"reserved":0,"last_update":"0001-01-01T00:00:00Z","name_a2s":"Uncletopia | Chicago | 3 | All Maps","protocol":17,"map":"pl_snowycoast","folder":"tf","game":"Team Fortress","app_id":440,"player_count":19,"max_players":24,"Bots":0,"server_type":"Dedicated","server_os":"Linux","password":true,"vac":true,"version":"7961495","steam_id":85568392924515191,"keywords":["nocrits","nodmgspread","payload","uncletopia"],"game_id":440,"stv_port":27036,"stv_name":"Uncletopia | Chicago | 3 | All Maps | STV","players":[{"user_id":196,"name":"The Honorable Sir Knish IV","steam_id":76561198427047948,"connected_time":81000000000,"state":"active","ping":69},{"user_id":197,"name":"Rukks","steam_id":76561197993918954,"connected_time":19000000000,"state":"active","ping":89},{"user_id":195,"name":"ZeN","steam_id":76561199098746585,"connected_time":115000000000,"state":"active","ping":48},{"user_id":194,"name":"stupid dumbo","steam_id":76561199499587098,"connected_time":190000000000,"state":"active","ping":57},{"user_id":170,"name":"Nefy","steam_id":76561198030017316,"connected_time":2544000000000,"state":"active","ping":73},{"user_id":166,"name":"evxjj899","steam_id":76561199231625308,"connected_time":2986000000000,"state":"active","ping":77},{"user_id":185,"name":"Violet","steam_id":76561198199541493,"connected_time":686000000000,"state":"active","ping":203},{"user_id":198,"name":"Poo","steam_id":76561198265144507,"connected_time":1000000000,"state":"spawning","ping":52},{"user_id":159,"name":"Gravy Boy","steam_id":76561198050090297,"connected_time":3247000000000,"state":"active","ping":60},{"user_id":193,"name":"✪Damien","steam_id":76561198053577040,"connected_time":256000000000,"state":"active","ping":67},{"user_id":183,"name":"The Roto Grip Exotic Gem","steam_id":76561197961141994,"connected_time":1098000000000,"state":"active","ping":75},{"user_id":86,"name":"conner","steam_id":76561198052911241,"connected_time":9189000000000,"state":"active","ping":74},{"user_id":186,"name":"oddbilly","steam_id":76561198117082744,"connected_time":636000000000,"state":"active","ping":148},{"user_id":149,"name":"HUESO","steam_id":76561198276383681,"connected_time":4856000000000,"state":"active","ping":100},{"user_id":162,"name":"PoopBob","steam_id":76561198066733892,"connected_time":3148000000000,"state":"active","ping":61},{"user_id":188,"name":"Veratig","steam_id":76561198417576637,"connected_time":556000000000,"state":"active","ping":97},{"user_id":191,"name":"Gutter Driver","steam_id":76561198041475279,"connected_time":315000000000,"state":"active","ping":61},{"user_id":192,"name":"SlurpyTheDog","steam_id":76561198799733154,"connected_time":302000000000,"state":"active","ping":63},{"user_id":187,"name":"Shooter McGavin","steam_id":76561197983040950,"connected_time":585000000000,"state":"active","ping":49}]},{"server_id":403,"name":"Uncletopia | Chicago | 4 | All Maps","name_short":"chi-4","host":"chi-1.us.uncletopia.com","port":27045,"enabled":true,"region":"us-central","cc":"us","latitude":41.881832,"longitude":-87.62318,"reserved":0,"last_update":"0001-01-01T00:00:00Z","name_a2s":"Uncletopia | Chicago | 4 | All Maps","protocol":17,"map":"koth_lazarus","folder":"tf","game":"Team Fortress","app_id":440,"player_count":19,"max_players":24,"Bots":0,"server_type":"Dedicated","server_os":"Linux","password":true,"vac":true,"version":"7961495","steam_id":85568392924515193,"keywords":["cp","nocrits","nodmgspread","uncletopia"],"game_id":440,"stv_port":27046,"stv_name":"Uncletopia | Chicago | 4 | All Maps | STV","players":[{"user_id":50,"name":"the dishtv1605","steam_id":76561198061284371,"connected_time":1401000000000,"state":"active","ping":63},{"user_id":18,"name":"DelphicKnight","steam_id":76561198357846060,"connected_time":3059000000000,"state":"active","ping":70},{"user_id":72,"name":"Peepster","steam_id":76561198297854733,"connected_time":106000000000,"state":"active","ping":67},{"user_id":62,"name":"bocchi is my rock","steam_id":76561198043907258,"connected_time":939000000000,"state":"active","ping":64},{"user_id":70,"name":"X-800","steam_id":76561199077437718,"connected_time":310000000000,"state":"active","ping":114},{"user_id":71,"name":"femboy birb","steam_id":76561199198726572,"connected_time":148000000000,"state":"active","ping":82},{"user_id":56,"name":"Theory-WiFi","steam_id":76561198116419931,"connected_time":1318000000000,"state":"active","ping":107},{"user_id":67,"name":"Boom 13","steam_id":76561198126796502,"connected_time":442000000000,"state":"active","ping":81},{"user_id":25,"name":"Nukem","steam_id":76561198166236574,"connected_time":2398000000000,"state":"active","ping":76},{"user_id":74,"name":"yhoonkers","steam_id":76561198966390815,"connected_time":9000000000,"state":"spawning","ping":59},{"user_id":28,"name":"Koishi","steam_id":76561198054541054,"connected_time":2313000000000,"state":"active","ping":48},{"user_id":29,"name":"LilBruh","steam_id":76561198444876052,"connected_time":2312000000000,"state":"active","ping":109},{"user_id":75,"name":"Flyinglab","steam_id":76561198042161408,"connected_time":6000000000,"state":"spawning","ping":54},{"user_id":53,"name":"Krieg Guardsman #153","steam_id":76561198105538929,"connected_time":1376000000000,"state":"active","ping":58},{"user_id":63,"name":"evnobev","steam_id":76561198038966462,"connected_time":929000000000,"state":"active","ping":50},{"user_id":64,"name":"Carton","steam_id":76561198989473391,"connected_time":841000000000,"state":"active","ping":61},{"user_id":37,"name":"Owl Pacino","steam_id":76561197979970666,"connected_time":2209000000000,"state":"active","ping":49},{"user_id":57,"name":"Obama F. Kennedy","steam_id":76561198282499318,"connected_time":1314000000000,"state":"active","ping":64},{"user_id":69,"name":"Bomb Squirtle™","steam_id":76561197998931145,"connected_time":361000000000,"state":"active","ping":86}]},{"server_id":36,"name":"Uncletopia | Chicago | 5 | All Maps","name_short":"chi-5","host":"chi-2.us.uncletopia.com","port":27015,"enabled":true,"region":"us-central","cc":"us","latitude":41.881832,"longitude":-87.62318,"reserved":0,"last_update":"0001-01-01T00:00:00Z","name_a2s":"Uncletopia | Chicago | 5 | All Maps","protocol":17,"map":"koth_viaduct","folder":"tf","game":"Team Fortress","app_id":440,"player_count":0,"max_players":24,"Bots":0,"server_type":"Dedicated","server_os":"Linux","password":true,"vac":true,"version":"7961495","steam_id":85568392924866362,"keywords":["cp","nocrits","nodmgspread","uncletopia"],"game_id":440,"stv_port":27016,"stv_name":"Uncletopia | Chicago | 5 | All Maps | STV","players":null},{"server_id":37,"name":"Uncletopia | Chicago | 6 | All Maps","name_short":"chi-6","host":"chi-2.us.uncletopia.com","port":27025,"enabled":true,"region":"us-central","cc":"us","latitude":41.881832,"longitude":-87.62318,"reserved":0,"last_update":"0001-01-01T00:00:00Z","name_a2s":"Uncletopia | Chicago | 6 | All Maps","protocol":17,"map":"koth_harvest_final","folder":"tf","game":"Team Fortress","app_id":440,"player_count":24,"max_players":24,"Bots":0,"server_type":"Dedicated","server_os":"Linux","password":true,"vac":true,"version":"7961495","steam_id":85568392924866363,"keywords":["cp","nocrits","nodmgspread","uncletopia"],"game_id":440,"stv_port":27026,"stv_name":"Uncletopia | Chicago | 6 | All Maps | STV","players":[{"user_id":127,"name":"ToastBag","steam_id":76561199221849528,"connected_time":1035000000000,"state":"active","ping":124},{"user_id":138,"name":"Gordon From White Castle (real)","steam_id":76561198364172677,"connected_time":394000000000,"state":"active","ping":83},{"user_id":131,"name":"Scourge Griffith","steam_id":76561198197327722,"connected_time":613000000000,"state":"active","ping":46},{"user_id":141,"name":"fresco","steam_id":76561199101199477,"connected_time":168000000000,"state":"active","ping":59},{"user_id":139,"name":"Rin \"Hindwing\" Redtail","steam_id":76561199074865638,"connected_time":326000000000,"state":"active","ping":73},{"user_id":135,"name":"Asanez3","steam_id":76561198037381436,"connected_time":497000000000,"state":"active","ping":75},{"user_id":108,"name":"Menachem","steam_id":76561198041226420,"connected_time":3177000000000,"state":"active","ping":46},{"user_id":117,"name":"JOOOOOOOOOOOOO!!!!!!","steam_id":76561199101638460,"connected_time":2411000000000,"state":"active","ping":60},{"user_id":14,"name":"Tabby!!!!","steam_id":76561198018288153,"connected_time":10083000000000,"state":"active","ping":36},{"user_id":132,"name":"CopperBox","steam_id":76561198068217248,"connected_time":577000000000,"state":"active","ping":96},{"user_id":124,"name":"Prsm","steam_id":76561198053344995,"connected_time":1169000000000,"state":"active","ping":55},{"user_id":118,"name":"The Terio Lebron","steam_id":76561199085731190,"connected_time":2387000000000,"state":"active","ping":111},{"user_id":125,"name":"big tim","steam_id":76561198075510786,"connected_time":1152000000000,"state":"active","ping":72},{"user_id":116,"name":"Strange Spooky Happenings","steam_id":76561198388405622,"connected_time":2428000000000,"state":"active","ping":74},{"user_id":140,"name":"https://popnmusic.fandom.com","steam_id":76561198061497429,"connected_time":307000000000,"state":"active","ping":58},{"user_id":100,"name":"rice white","steam_id":76561198320732910,"connected_time":3804000000000,"state":"active","ping":75},{"user_id":143,"name":"Marksito14","steam_id":76561199132272437,"connected_time":49000000000,"state":"active","ping":130},{"user_id":120,"name":"DJ Pierce","steam_id":76561198394241466,"connected_time":2350000000000,"state":"active","ping":76},{"user_id":102,"name":"D.A.V.I.D","steam_id":76561199443570634,"connected_time":3623000000000,"state":"active","ping":112},{"user_id":142,"name":"Evil Gimli","steam_id":76561198028533587,"connected_time":70000000000,"state":"active","ping":53},{"user_id":105,"name":"Technomancer","steam_id":76561198137758683,"connected_time":3515000000000,"state":"active","ping":92},{"user_id":121,"name":"| L O S T |","steam_id":76561198062620333,"connected_time":2342000000000,"state":"active","ping":73},{"user_id":136,"name":"ONO","steam_id":76561198045303650,"connected_time":477000000000,"state":"active","ping":58},{"user_id":137,"name":"dubstept","steam_id":76561198884973306,"connected_time":462000000000,"state":"active","ping":92}]},{"server_id":38,"name":"Uncletopia | Chicago | 7 | Stopwatch","name_short":"chi-7","host":"chi-2.us.uncletopia.com","port":27035,"enabled":true,"region":"us-central","cc":"us","latitude":41.881832,"longitude":-87.62318,"reserved":0,"last_update":"0001-01-01T00:00:00Z","name_a2s":"Uncletopia | Chicago | 7 | Stopwatch","protocol":17,"map":"workshop/koth_product_final.ugc454272353","folder":"tf","game":"Team Fortress","app_id":440,"player_count":0,"max_players":24,"Bots":0,"server_type":"Dedicated","server_os":"Linux","password":true,"vac":true,"version":"7961495","steam_id":85568392924866364,"keywords":["cp","nocrits","nodmgspread","uncletopia"],"game_id":440,"stv_port":27036,"stv_name":"Uncletopia | Chicago | 7 | Stopwatch | STV","players":null},{"server_id":39,"name":"Uncletopia | Chicago | 8 | Community","name_short":"chi-8","host":"chi-2.us.uncletopia.com","port":27045,"enabled":true,"region":"us-central","cc":"us","latitude":41.881832,"longitude":-87.62318,"reserved":0,"last_update":"0001-01-01T00:00:00Z","name_a2s":"Uncletopia | Chicago | 8 | Community","protocol":17,"map":"pl_pier","folder":"tf","game":"Team Fortress","app_id":440,"player_count":0,"max_players":24,"Bots":0,"server_type":"Dedicated","server_os":"Linux","password":true,"vac":true,"version":"7961495","steam_id":85568392924866365,"keywords":["nocrits","nodmgspread","payload","uncletopia"],"game_id":440,"stv_port":27046,"stv_name":"Uncletopia | Chicago | 8 | Community | STV","players":null},{"server_id":8,"name":"Uncletopia | Dallas | 1 | All Maps","name_short":"dal-1","host":"dal-1.us.uncletopia.com","port":27015,"enabled":true,"region":"us-central","cc":"us","latitude":32.779167,"longitude":-96.80889,"reserved":0,"last_update":"0001-01-01T00:00:00Z","name_a2s":"Uncletopia | Dallas | 1 | All Maps","protocol":17,"map":"pl_badwater","folder":"tf","game":"Team Fortress","app_id":440,"player_count":24,"max_players":24,"Bots":0,"server_type":"Dedicated","server_os":"Linux","password":true,"vac":true,"version":"7961495","steam_id":85568392924469986,"keywords":["nocrits","nodmgspread","payload","uncletopia"],"game_id":440,"stv_port":27016,"stv_name":"Uncletopia | Dallas | 1 | All Maps | STV","players":[{"user_id":51,"name":"DlTTO","steam_id":76561199427026752,"connected_time":4340000000000,"state":"active","ping":100},{"user_id":33,"name":"jerma but crying and lesbian","steam_id":76561198110661425,"connected_time":5006000000000,"state":"active","ping":75},{"user_id":77,"name":"lynt","steam_id":76561198988333976,"connected_time":1355000000000,"state":"active","ping":59},{"user_id":54,"name":"♣","steam_id":76561198052822168,"connected_time":3903000000000,"state":"active","ping":178},{"user_id":31,"name":"Username","steam_id":76561198198918781,"connected_time":5202000000000,"state":"active","ping":102},{"user_id":61,"name":"Fredrick","steam_id":76561197981419964,"connected_time":3251000000000,"state":"active","ping":86},{"user_id":88,"name":"Tuvok Shakur","steam_id":76561198018875334,"connected_time":236000000000,"state":"active","ping":60},{"user_id":78,"name":"MadGaming","steam_id":76561199047549619,"connected_time":1298000000000,"state":"active","ping":58},{"user_id":83,"name":"Coffeemelon","steam_id":76561198285891257,"connected_time":824000000000,"state":"active","ping":101},{"user_id":36,"name":"You Don't Nomi.","steam_id":76561197969137836,"connected_time":4768000000000,"state":"active","ping":87},{"user_id":68,"name":"John Calibur","steam_id":76561197999986606,"connected_time":2597000000000,"state":"active","ping":75},{"user_id":70,"name":"Kuyumiester","steam_id":76561198126835302,"connected_time":2096000000000,"state":"active","ping":62},{"user_id":89,"name":"Woody","steam_id":76561198020308956,"connected_time":139000000000,"state":"active","ping":60},{"user_id":84,"name":"Birby","steam_id":76561198884009768,"connected_time":729000000000,"state":"active","ping":102},{"user_id":43,"name":"rizzard of oz","steam_id":76561198040907214,"connected_time":4469000000000,"state":"active","ping":60},{"user_id":62,"name":"Rennsellaer","steam_id":76561198096207580,"connected_time":3145000000000,"state":"active","ping":82},{"user_id":67,"name":"TrueGuardian32.kick","steam_id":76561198149985253,"connected_time":2750000000000,"state":"active","ping":56},{"user_id":81,"name":"Pyroids","steam_id":76561199178575029,"connected_time":1193000000000,"state":"active","ping":80},{"user_id":76,"name":"BeautifulDeer","steam_id":76561198119588300,"connected_time":1409000000000,"state":"active","ping":62},{"user_id":90,"name":"Erodplayer","steam_id":76561198183840185,"connected_time":129000000000,"state":"active","ping":49},{"user_id":82,"name":"Jennifer Aniston's Nipples","steam_id":76561198086107548,"connected_time":1133000000000,"state":"active","ping":55},{"user_id":27,"name":"Sergeant Joker #savetf2","steam_id":76561198854616604,"connected_time":5475000000000,"state":"active","ping":90},{"user_id":74,"name":"Rearranging furniture","steam_id":76561199054971009,"connected_time":1682000000000,"state":"active","ping":48},{"user_id":69,"name":"Zano","steam_id":76561198066887048,"connected_time":2186000000000,"state":"active","ping":75}]},{"server_id":108,"name":"Uncletopia | Dallas | 2 | All Maps","name_short":"dal-2","host":"dal-1.us.uncletopia.com","port":27025,"enabled":true,"region":"us-central","cc":"us","latitude":32.779167,"longitude":-96.80889,"reserved":0,"last_update":"0001-01-01T00:00:00Z","name_a2s":"Uncletopia | Dallas | 2 | All Maps","protocol":17,"map":"pl_barnblitz","folder":"tf","game":"Team Fortress","app_id":440,"player_count":0,"max_players":24,"Bots":0,"server_type":"Dedicated","server_os":"Linux","password":true,"vac":true,"version":"7961495","steam_id":85568392924469988,"keywords":["nocrits","nodmgspread","payload","uncletopia"],"game_id":440,"stv_port":27026,"stv_name":"Uncletopia | Dallas | 2 | All Maps | STV","players":null},{"server_id":404,"name":"Uncletopia | Dallas | 3 | All Maps","name_short":"dal-3","host":"dal-1.us.uncletopia.com","port":27035,"enabled":true,"region":"us-central","cc":"us","latitude":32.779167,"longitude":-96.80889,"reserved":0,"last_update":"0001-01-01T00:00:00Z","name_a2s":"Uncletopia | Dallas | 3 | All Maps","protocol":17,"map":"pl_swiftwater_final1","folder":"tf","game":"Team Fortress","app_id":440,"player_count":0,"max_players":24,"Bots":0,"server_type":"Dedicated","server_os":"Linux","password":true,"vac":true,"version":"7961495","steam_id":85568392924515219,"keywords":["nocrits","nodmgspread","payload","uncletopia"],"game_id":440,"stv_port":27036,"stv_name":"Uncletopia | Dallas | 3 | All Maps | STV","players":null},{"server_id":405,"name":"Uncletopia | Dallas | 4 | Community","name_short":"dal-4","host":"dal-1.us.uncletopia.com","port":27045,"enabled":true,"region":"us-central","cc":"us","latitude":32.779167,"longitude":-96.80889,"reserved":0,"last_update":"0001-01-01T00:00:00Z","name_a2s":"Uncletopia | Dallas | 4 | Community","protocol":17,"map":"pl_pier","folder":"tf","game":"Team Fortress","app_id":440,"player_count":0,"max_players":24,"Bots":0,"server_type":"Dedicated","server_os":"Linux","password":true,"vac":true,"version":"7961495","steam_id":85568392924515220,"keywords":["nocrits","nodmgspread","payload","uncletopia"],"game_id":440,"stv_port":27046,"stv_name":"Uncletopia | Dallas | 4 | Community | STV","players":null},{"server_id":5,"name":"Uncletopia | Frankfurt | 1 | All Maps","name_short":"frk-1","host":"frk-1.de.uncletopia.com","port":27015,"enabled":true,"region":"eu","cc":"de","latitude":50.110924,"longitude":8.682127,"reserved":0,"last_update":"0001-01-01T00:00:00Z","name_a2s":"Uncletopia | Frankfurt | 1 | All Maps","protocol":17,"map":"pl_upward","folder":"tf","game":"Team Fortress","app_id":440,"player_count":23,"max_players":24,"Bots":0,"server_type":"Dedicated","server_os":"Linux","password":true,"vac":true,"version":"7961495","steam_id":85568392924469989,"keywords":["nocrits","nodmgspread","payload","uncletopia"],"game_id":440,"stv_port":27016,"stv_name":"Uncletopia | Frankfurt | 1 | All Maps | STV","players":[{"user_id":234,"name":"WIZARD","steam_id":76561198199570742,"connected_time":5130000000000,"state":"active","ping":96},{"user_id":306,"name":"license to lose","steam_id":76561198401241979,"connected_time":626000000000,"state":"active","ping":65},{"user_id":235,"name":"sokige","steam_id":76561198167112371,"connected_time":5129000000000,"state":"active","ping":92},{"user_id":251,"name":"Cowworth","steam_id":76561198081542434,"connected_time":3683000000000,"state":"active","ping":49},{"user_id":318,"name":"Sakata Gintoki","steam_id":76561198339980449,"connected_time":2000000000,"state":"spawning","ping":75},{"user_id":314,"name":"mt","steam_id":76561197961319303,"connected_time":422000000000,"state":"active","ping":53},{"user_id":266,"name":"Gnome Warlord","steam_id":76561199075520017,"connected_time":1961000000000,"state":"active","ping":160},{"user_id":301,"name":"SugipuLaur","steam_id":76561199138556623,"connected_time":722000000000,"state":"active","ping":75},{"user_id":213,"name":"dekrzz","steam_id":76561198157285449,"connected_time":6617000000000,"state":"active","ping":81},{"user_id":287,"name":"Foo.","steam_id":76561198000013666,"connected_time":1138000000000,"state":"active","ping":59},{"user_id":317,"name":"drugs are bad","steam_id":76561199074385102,"connected_time":177000000000,"state":"active","ping":108},{"user_id":273,"name":"MILANO","steam_id":76561198136959681,"connected_time":1493000000000,"state":"active","ping":45},{"user_id":243,"name":"else1","steam_id":76561197996558319,"connected_time":4500000000000,"state":"active","ping":75},{"user_id":308,"name":"Gent","steam_id":76561198037167890,"connected_time":583000000000,"state":"active","ping":79},{"user_id":239,"name":"Driver's drunkest God","steam_id":76561198969373800,"connected_time":4949000000000,"state":"active","ping":70},{"user_id":263,"name":"Caliban","steam_id":76561197999696839,"connected_time":2421000000000,"state":"active","ping":114},{"user_id":316,"name":"non_ai","steam_id":76561198270951938,"connected_time":321000000000,"state":"active","ping":136},{"user_id":295,"name":"heniek","steam_id":76561198938098190,"connected_time":955000000000,"state":"active","ping":70},{"user_id":303,"name":"lieutenant meaw is down meming","steam_id":76561198054313942,"connected_time":700000000000,"state":"active","ping":152},{"user_id":258,"name":"etc","steam_id":76561197998394797,"connected_time":3243000000000,"state":"active","ping":59},{"user_id":298,"name":"aaa","steam_id":76561198322459156,"connected_time":821000000000,"state":"active","ping":58},{"user_id":315,"name":"Soaps","steam_id":76561198354682764,"connected_time":407000000000,"state":"active","ping":78},{"user_id":285,"name":"neophyte78","steam_id":76561198010009076,"connected_time":1224000000000,"state":"active","ping":58}]},{"server_id":110,"name":"Uncletopia | Frankfurt | 2 | All Maps","name_short":"frk-2","host":"frk-1.de.uncletopia.com","port":27025,"enabled":true,"region":"eu","cc":"de","latitude":50.110924,"longitude":8.682127,"reserved":0,"last_update":"0001-01-01T00:00:00Z","name_a2s":"Uncletopia | Frankfurt | 2 | All Maps","protocol":17,"map":"cp_dustbowl","folder":"tf","game":"Team Fortress","app_id":440,"player_count":8,"max_players":24,"Bots":0,"server_type":"Dedicated","server_os":"Linux","password":true,"vac":true,"version":"7961495","steam_id":85568392924469990,"keywords":["cp","nocrits","nodmgspread","uncletopia"],"game_id":440,"stv_port":27026,"stv_name":"Uncletopia | Frankfurt | 2 | All Maps | STV","players":[{"user_id":238,"name":"PANAANI","steam_id":76561198322322739,"connected_time":77000000000,"state":"active","ping":84},{"user_id":222,"name":"Poot Nukem","steam_id":76561198080873343,"connected_time":1055000000000,"state":"active","ping":47},{"user_id":232,"name":"Kieran","steam_id":76561198799248673,"connected_time":213000000000,"state":"active","ping":34},{"user_id":239,"name":"We Can Win","steam_id":76561199177985483,"connected_time":34000000000,"state":"active","ping":74},{"user_id":240,"name":"L4gman","steam_id":76561198048227040,"connected_time":30000000000,"state":"active","ping":81},{"user_id":226,"name":"TARDISxx2459","steam_id":76561199171448594,"connected_time":794000000000,"state":"active","ping":91},{"user_id":241,"name":"Francis","steam_id":76561198987134265,"connected_time":3000000000,"state":"spawning","ping":58},{"user_id":161,"name":"b9njmn","steam_id":76561198068481592,"connected_time":4857000000000,"state":"active","ping":92}]},{"server_id":308,"name":"Uncletopia | Frankfurt | 3 | All Maps","name_short":"frk-3","host":"frk-1.de.uncletopia.com","port":27035,"enabled":true,"region":"eu","cc":"de","latitude":50.110924,"longitude":8.682127,"reserved":0,"last_update":"0001-01-01T00:00:00Z","name_a2s":"Uncletopia | Frankfurt | 3 | All Maps","protocol":17,"map":"pl_barnblitz","folder":"tf","game":"Team Fortress","app_id":440,"player_count":24,"max_players":24,"Bots":0,"server_type":"Dedicated","server_os":"Linux","password":true,"vac":true,"version":"7961495","steam_id":85568392924504274,"keywords":["nocrits","nodmgspread","payload","uncletopia"],"game_id":440,"stv_port":27036,"stv_name":"Uncletopia | Frankfurt | 3 | All Maps | STV","players":[{"user_id":259,"name":"koji","steam_id":76561198051636999,"connected_time":263000000000,"state":"active","ping":51},{"user_id":223,"name":"Desp4","steam_id":76561198040767473,"connected_time":1341000000000,"state":"active","ping":67},{"user_id":239,"name":"CMD_God","steam_id":76561198333037007,"connected_time":945000000000,"state":"active","ping":65},{"user_id":210,"name":"Bumblebee","steam_id":76561198033551105,"connected_time":2049000000000,"state":"active","ping":64},{"user_id":255,"name":"Poggito","steam_id":76561198838001276,"connected_time":290000000000,"state":"active","ping":49},{"user_id":205,"name":"Mj12","steam_id":76561198044346572,"connected_time":2310000000000,"state":"active","ping":89},{"user_id":240,"name":"KSZYSMEN","steam_id":76561198218009493,"connected_time":926000000000,"state":"active","ping":72},{"user_id":232,"name":"PPGamerPL","steam_id":76561198213222133,"connected_time":1069000000000,"state":"active","ping":73},{"user_id":242,"name":"chalupa","steam_id":76561199072435724,"connected_time":631000000000,"state":"active","ping":144},{"user_id":224,"name":"Bullet magnet (FIN)","steam_id":76561197975715220,"connected_time":1284000000000,"state":"active","ping":80},{"user_id":258,"name":"frbuz","steam_id":76561198327135462,"connected_time":276000000000,"state":"active","ping":162},{"user_id":267,"name":"fl1p","steam_id":76561198148565659,"connected_time":15000000000,"state":"spawning","ping":89},{"user_id":244,"name":"Денис Базука","steam_id":76561198835849082,"connected_time":596000000000,"state":"active","ping":105},{"user_id":245,"name":"Phloggers","steam_id":76561198213268633,"connected_time":532000000000,"state":"active","ping":57},{"user_id":246,"name":"Jibus","steam_id":76561197998603820,"connected_time":481000000000,"state":"active","ping":60},{"user_id":238,"name":"Tactical Kerbal","steam_id":76561198212970205,"connected_time":976000000000,"state":"active","ping":68},{"user_id":263,"name":"Toripistefi","steam_id":76561199173353462,"connected_time":228000000000,"state":"active","ping":110},{"user_id":260,"name":"Jormag","steam_id":76561198401018345,"connected_time":259000000000,"state":"active","ping":89},{"user_id":249,"name":"row","steam_id":76561198053400769,"connected_time":430000000000,"state":"active","ping":69},{"user_id":265,"name":"Dolcelatte","steam_id":76561198038501770,"connected_time":168000000000,"state":"active","ping":46},{"user_id":251,"name":"OceanCow","steam_id":76561198343428913,"connected_time":412000000000,"state":"active","ping":74},{"user_id":262,"name":"Royal","steam_id":76561198157621024,"connected_time":249000000000,"state":"active","ping":51},{"user_id":196,"name":"Serg","steam_id":76561198218959001,"connected_time":3140000000000,"state":"active","ping":63},{"user_id":253,"name":"KaiserinoPeperinio","steam_id":76561198017683850,"connected_time":405000000000,"state":"active","ping":71}]},{"server_id":309,"name":"Uncletopia | Frankfurt | 4 | All Maps","name_short":"frk-4","host":"frk-1.de.uncletopia.com","port":27045,"enabled":true,"region":"eu","cc":"de","latitude":50.110924,"longitude":8.682127,"reserved":0,"last_update":"0001-01-01T00:00:00Z","name_a2s":"Uncletopia | Frankfurt | 4 | All Maps","protocol":17,"map":"pl_upward","folder":"tf","game":"Team Fortress","app_id":440,"player_count":24,"max_players":24,"Bots":0,"server_type":"Dedicated","server_os":"Linux","password":true,"vac":true,"version":"7961495","steam_id":85568392924504275,"keywords":["nocrits","nodmgspread","payload","uncletopia"],"game_id":440,"stv_port":27046,"stv_name":"Uncletopia | Frankfurt | 4 | All Maps | STV","players":[{"user_id":389,"name":"Jesus (real)","steam_id":76561199106262610,"connected_time":1376000000000,"state":"active","ping":51},{"user_id":397,"name":"123","steam_id":76561198113733477,"connected_time":726000000000,"state":"active","ping":67},{"user_id":340,"name":"Marcus","steam_id":76561198205027963,"connected_time":3706000000000,"state":"active","ping":62},{"user_id":376,"name":"Qtab","steam_id":76561198979746152,"connected_time":2518000000000,"state":"active","ping":78},{"user_id":396,"name":"Mister","steam_id":76561199049647854,"connected_time":787000000000,"state":"active","ping":50},{"user_id":393,"name":"benjels big day","steam_id":76561198025970709,"connected_time":1241000000000,"state":"active","ping":59},{"user_id":332,"name":"capslocked","steam_id":76561198095960796,"connected_time":3841000000000,"state":"active","ping":54},{"user_id":399,"name":"syme","steam_id":76561197990512752,"connected_time":650000000000,"state":"active","ping":161},{"user_id":410,"name":"one of a kind malewife","steam_id":76561198411069806,"connected_time":155000000000,"state":"active","ping":66},{"user_id":395,"name":"LordTrap.exe","steam_id":76561198318089716,"connected_time":1148000000000,"state":"active","ping":72},{"user_id":402,"name":"DwarfInYou","steam_id":76561198966341795,"connected_time":545000000000,"state":"active","ping":55},{"user_id":390,"name":"Umme","steam_id":76561198053809566,"connected_time":1375000000000,"state":"active","ping":79},{"user_id":411,"name":"CINE191","steam_id":76561198182777486,"connected_time":61000000000,"state":"active","ping":78},{"user_id":412,"name":"mex","steam_id":76561198877745492,"connected_time":53000000000,"state":"active","ping":50},{"user_id":400,"name":"coffee","steam_id":76561198382387303,"connected_time":584000000000,"state":"active","ping":91},{"user_id":404,"name":"Tarikoro","steam_id":76561199149725306,"connected_time":466000000000,"state":"active","ping":59},{"user_id":391,"name":"Mitt","steam_id":76561199011013919,"connected_time":1316000000000,"state":"active","ping":64},{"user_id":401,"name":"Dracodemus","steam_id":76561198079518597,"connected_time":557000000000,"state":"active","ping":172},{"user_id":406,"name":"finbar","steam_id":76561198056812396,"connected_time":310000000000,"state":"active","ping":79},{"user_id":377,"name":"walter","steam_id":76561198021950957,"connected_time":2507000000000,"state":"active","ping":80},{"user_id":364,"name":"I919I","steam_id":76561198141049923,"connected_time":2908000000000,"state":"active","ping":74},{"user_id":407,"name":"Adam Hitlet","steam_id":76561198856537455,"connected_time":295000000000,"state":"active","ping":46},{"user_id":388,"name":"fifrok","steam_id":76561198799267621,"connected_time":1485000000000,"state":"active","ping":68},{"user_id":408,"name":"maly's dog","steam_id":76561198261505536,"connected_time":295000000000,"state":"active","ping":61}]},{"server_id":310,"name":"Uncletopia | Frankfurt | 5 | All Maps","name_short":"frk-5","host":"frk-1.de.uncletopia.com","port":27055,"enabled":true,"region":"eu","cc":"de","latitude":50.110924,"longitude":8.682127,"reserved":0,"last_update":"0001-01-01T00:00:00Z","name_a2s":"Uncletopia | Frankfurt | 5 | All Maps","protocol":17,"map":"pl_borneo","folder":"tf","game":"Team Fortress","app_id":440,"player_count":23,"max_players":24,"Bots":0,"server_type":"Dedicated","server_os":"Linux","password":true,"vac":true,"version":"7961495","steam_id":85568392924504277,"keywords":["nocrits","nodmgspread","payload","uncletopia"],"game_id":440,"stv_port":27056,"stv_name":"Uncletopia | Frankfurt | 5 | All Maps | STV","players":[{"user_id":306,"name":"Niko","steam_id":76561199006295285,"connected_time":312000000000,"state":"active","ping":213},{"user_id":296,"name":"Doriian","steam_id":76561198071438810,"connected_time":964000000000,"state":"active","ping":76},{"user_id":308,"name":"WHO WAS IN PARIS?","steam_id":76561198071502515,"connected_time":236000000000,"state":"active","ping":67},{"user_id":307,"name":"Crunchips","steam_id":76561198004336818,"connected_time":255000000000,"state":"active","ping":94},{"user_id":291,"name":"w presser","steam_id":76561197994600818,"connected_time":1174000000000,"state":"active","ping":45},{"user_id":302,"name":"thegostfac","steam_id":76561199500575310,"connected_time":473000000000,"state":"active","ping":59},{"user_id":277,"name":"autistic luigi","steam_id":76561199218285040,"connected_time":1751000000000,"state":"active","ping":72},{"user_id":278,"name":"H341","steam_id":76561198046754534,"connected_time":1751000000000,"state":"active","ping":78},{"user_id":309,"name":"rotta","steam_id":76561198287191618,"connected_time":173000000000,"state":"active","ping":104},{"user_id":311,"name":"Sivik","steam_id":76561198370329466,"connected_time":119000000000,"state":"active","ping":60},{"user_id":305,"name":"Chloemew","steam_id":76561198042071762,"connected_time":340000000000,"state":"active","ping":53},{"user_id":270,"name":"Tomatipea29","steam_id":76561198136687652,"connected_time":2364000000000,"state":"active","ping":74},{"user_id":310,"name":"Sunkerdink","steam_id":76561197996757446,"connected_time":162000000000,"state":"active","ping":59},{"user_id":273,"name":"the grongle","steam_id":76561198989398023,"connected_time":2079000000000,"state":"active","ping":105},{"user_id":284,"name":"Farmercy","steam_id":76561198000038039,"connected_time":1506000000000,"state":"active","ping":59},{"user_id":293,"name":"dochris.2","steam_id":76561198026478625,"connected_time":1170000000000,"state":"active","ping":45},{"user_id":269,"name":"Ketich","steam_id":76561198021772703,"connected_time":2545000000000,"state":"active","ping":74},{"user_id":294,"name":"Dirocks","steam_id":76561198138494815,"connected_time":1157000000000,"state":"active","ping":75},{"user_id":271,"name":"Princess Fuzz","steam_id":76561198025783000,"connected_time":2174000000000,"state":"active","ping":54},{"user_id":283,"name":"NerdyEnforcement","steam_id":76561198437710820,"connected_time":1539000000000,"state":"active","ping":169},{"user_id":285,"name":"thatdude958","steam_id":76561199086971180,"connected_time":1490000000000,"state":"active","ping":111},{"user_id":259,"name":"Snow","steam_id":76561198246680606,"connected_time":2963000000000,"state":"active","ping":62},{"user_id":295,"name":"sareena","steam_id":76561198810194062,"connected_time":1137000000000,"state":"active","ping":81}]},{"server_id":311,"name":"Uncletopia | Frankfurt | 6 | All Maps","name_short":"frk-6","host":"frk-1.de.uncletopia.com","port":27065,"enabled":true,"region":"eu","cc":"de","latitude":50.110924,"longitude":8.682127,"reserved":0,"last_update":"0001-01-01T00:00:00Z","name_a2s":"Uncletopia | Frankfurt | 6 | All Maps","protocol":17,"map":"pl_borneo","folder":"tf","game":"Team Fortress","app_id":440,"player_count":24,"max_players":24,"Bots":0,"server_type":"Dedicated","server_os":"Linux","password":true,"vac":true,"version":"7961495","steam_id":85568392924504278,"keywords":["nocrits","nodmgspread","payload","uncletopia"],"game_id":440,"stv_port":27066,"stv_name":"Uncletopia | Frankfurt | 6 | All Maps | STV","players":[{"user_id":475,"name":"Nintails","steam_id":76561198075157560,"connected_time":1306000000000,"state":"active","ping":60},{"user_id":472,"name":"FEIX","steam_id":76561197977600910,"connected_time":1500000000000,"state":"active","ping":45},{"user_id":495,"name":"snowii","steam_id":76561198836246326,"connected_time":201000000000,"state":"active","ping":68},{"user_id":476,"name":"Mozzaza","steam_id":76561198156316111,"connected_time":1305000000000,"state":"active","ping":113},{"user_id":498,"name":"digilith","steam_id":76561199106966802,"connected_time":65000000000,"state":"active","ping":89},{"user_id":474,"name":"LizzNom","steam_id":76561198878424036,"connected_time":1432000000000,"state":"active","ping":55},{"user_id":477,"name":"- 84n4n3n8r07 -","steam_id":76561198047887705,"connected_time":1192000000000,"state":"active","ping":62},{"user_id":478,"name":"M2rtRa","steam_id":76561198111036466,"connected_time":1161000000000,"state":"active","ping":74},{"user_id":485,"name":"Kraid","steam_id":76561198082387192,"connected_time":806000000000,"state":"active","ping":102},{"user_id":461,"name":"Weeb exterminator","steam_id":76561198078964973,"connected_time":2832000000000,"state":"active","ping":68},{"user_id":473,"name":"Cheeki breeki","steam_id":76561198155300226,"connected_time":1484000000000,"state":"active","ping":69},{"user_id":480,"name":"C-3PO","steam_id":76561199184282903,"connected_time":1103000000000,"state":"active","ping":72},{"user_id":456,"name":"amort life","steam_id":76561198036730191,"connected_time":3353000000000,"state":"active","ping":57},{"user_id":481,"name":"marky__b","steam_id":76561198002794817,"connected_time":1075000000000,"state":"active","ping":70},{"user_id":482,"name":"tealoverr.190","steam_id":76561199028497703,"connected_time":1053000000000,"state":"active","ping":106},{"user_id":483,"name":"Apollo17","steam_id":76561198886930836,"connected_time":960000000000,"state":"active","ping":82},{"user_id":486,"name":"MrClyde","steam_id":76561198132627420,"connected_time":805000000000,"state":"active","ping":64},{"user_id":493,"name":"Can't outsmart bullet","steam_id":76561199239168617,"connected_time":543000000000,"state":"active","ping":60},{"user_id":487,"name":"whatever","steam_id":76561198095943461,"connected_time":776000000000,"state":"active","ping":69},{"user_id":497,"name":"murderwow","steam_id":76561198024566944,"connected_time":127000000000,"state":"active","ping":105},{"user_id":489,"name":"caramel❤","steam_id":76561198819353867,"connected_time":747000000000,"state":"active","ping":48},{"user_id":490,"name":"Amiriki","steam_id":76561198005050734,"connected_time":737000000000,"state":"active","ping":64},{"user_id":494,"name":"lunaire","steam_id":76561198163344452,"connected_time":443000000000,"state":"active","ping":90},{"user_id":492,"name":"will billiamson","steam_id":76561198317424558,"connected_time":692000000000,"state":"active","ping":71}]},{"server_id":23,"name":"Uncletopia | Frankfurt | 7 | Stopwatch","name_short":"frk-7","host":"frk-1.de.uncletopia.com","port":27075,"enabled":true,"region":"eu","cc":"de","latitude":50.110924,"longitude":8.682127,"reserved":0,"last_update":"0001-01-01T00:00:00Z","name_a2s":"Uncletopia | Frankfurt | 7 | Stopwatch","protocol":17,"map":"workshop/koth_bagel_rc6.ugc2514036946","folder":"tf","game":"Team Fortress","app_id":440,"player_count":0,"max_players":24,"Bots":0,"server_type":"Dedicated","server_os":"Linux","password":true,"vac":true,"version":"7961495","steam_id":85568392924742827,"keywords":["cp","nocrits","nodmgspread","uncletopia"],"game_id":440,"stv_port":27076,"stv_name":"Uncletopia | Frankfurt | 7 | Stopwatch | STV","players":null},{"server_id":24,"name":"Uncletopia | Frankfurt | 8 | Community","name_short":"frk-8","host":"frk-1.de.uncletopia.com","port":27085,"enabled":true,"region":"eu","cc":"de","latitude":50.110924,"longitude":8.682127,"reserved":0,"last_update":"0001-01-01T00:00:00Z","name_a2s":"Uncletopia | Frankfurt | 8 | Community","protocol":17,"map":"workshop/cp_mannbase_rc2a.ugc1900737467","folder":"tf","game":"Team Fortress","app_id":440,"player_count":0,"max_players":24,"Bots":0,"server_type":"Dedicated","server_os":"Linux","password":true,"vac":true,"version":"7961495","steam_id":85568392924742828,"keywords":["cp","nocrits","nodmgspread","uncletopia"],"game_id":440,"stv_port":27086,"stv_name":"Uncletopia | Frankfurt | 8 | Community | STV","players":null},{"server_id":202,"name":"Uncletopia | Hong Kong | 1 | All Maps","name_short":"hgk-1","host":"hgk-1.hk.uncletopia.com","port":27015,"enabled":true,"region":"asia","cc":"hk","latitude":22.302711,"longitude":114.177216,"reserved":0,"last_update":"0001-01-01T00:00:00Z","name_a2s":"Uncletopia | Hong Kong | 1 | All Maps","protocol":17,"map":"pl_pier","folder":"tf","game":"Team Fortress","app_id":440,"player_count":8,"max_players":24,"Bots":0,"server_type":"Dedicated","server_os":"Linux","password":true,"vac":true,"version":"7961495","steam_id":85568392924494504,"keywords":["nocrits","nodmgspread","payload","uncletopia"],"game_id":440,"stv_port":27016,"stv_name":"Uncletopia | Hong Kong | 1 | All Maps | STV","players":[{"user_id":613,"name":"BlackSabbathFan","steam_id":76561198144488816,"connected_time":230000000000,"state":"active","ping":77},{"user_id":605,"name":"v1.","steam_id":76561198037571054,"connected_time":1405000000000,"state":"active","ping":34},{"user_id":616,"name":"TheSimpLord","steam_id":76561199169274715,"connected_time":124000000000,"state":"active","ping":73},{"user_id":494,"name":"Milf (The fan O'Milk)","steam_id":76561198213031155,"connected_time":11236000000000,"state":"active","ping":90},{"user_id":606,"name":"Majula","steam_id":76561198782272275,"connected_time":1389000000000,"state":"active","ping":87},{"user_id":611,"name":"i am a F2P and my aim is shit","steam_id":76561199475974790,"connected_time":746000000000,"state":"active","ping":95},{"user_id":562,"name":"김광만","steam_id":76561198295279503,"connected_time":5323000000000,"state":"active","ping":83},{"user_id":607,"name":"ArcticDolphin","steam_id":76561198203626319,"connected_time":1292000000000,"state":"active","ping":159}]},{"server_id":1,"name":"Uncletopia | Los Angeles | 1 | All Maps","name_short":"lax-1","host":"lax-1.us.uncletopia.com","port":27015,"enabled":true,"region":"us-west","cc":"us","latitude":33.94279,"longitude":-118.41004,"reserved":0,"last_update":"0001-01-01T00:00:00Z","name_a2s":"Uncletopia | Los Angeles | 1 | All Maps","protocol":17,"map":"pl_snowycoast","folder":"tf","game":"Team Fortress","app_id":440,"player_count":1,"max_players":24,"Bots":0,"server_type":"Dedicated","server_os":"Linux","password":true,"vac":true,"version":"7961495","steam_id":85568392924469991,"keywords":["nocrits","nodmgspread","payload","uncletopia"],"game_id":440,"stv_port":27016,"stv_name":"Uncletopia | Los Angeles | 1 | All Maps | STV","players":[{"user_id":6,"name":"xLeoparrd","steam_id":76561198940657194,"connected_time":2000000000,"state":"spawning","ping":64}]},{"server_id":112,"name":"Uncletopia | Los Angeles | 2 | All Maps","name_short":"lax-2","host":"lax-1.us.uncletopia.com","port":27025,"enabled":true,"region":"us-west","cc":"us","latitude":33.94279,"longitude":-118.41004,"reserved":0,"last_update":"0001-01-01T00:00:00Z","name_a2s":"Uncletopia | Los Angeles | 2 | All Maps","protocol":17,"map":"cp_mountainlab","folder":"tf","game":"Team Fortress","app_id":440,"player_count":0,"max_players":24,"Bots":0,"server_type":"Dedicated","server_os":"Linux","password":true,"vac":true,"version":"7961495","steam_id":85568392924469992,"keywords":["cp","nocrits","nodmgspread","uncletopia"],"game_id":440,"stv_port":27026,"stv_name":"Uncletopia | Los Angeles | 2 | All Maps | STV","players":null},{"server_id":324,"name":"Uncletopia | Los Angeles | 3 | All Maps","name_short":"lax-3","host":"lax-1.us.uncletopia.com","port":27035,"enabled":true,"region":"us-west","cc":"us","latitude":33.94279,"longitude":-118.41004,"reserved":0,"last_update":"0001-01-01T00:00:00Z","name_a2s":"Uncletopia | Los Angeles | 3 | All Maps","protocol":17,"map":"pl_frontier_final","folder":"tf","game":"Team Fortress","app_id":440,"player_count":0,"max_players":24,"Bots":0,"server_type":"Dedicated","server_os":"Linux","password":true,"vac":true,"version":"7961495","steam_id":85568392924510198,"keywords":["nocrits","nodmgspread","payload","uncletopia"],"game_id":440,"stv_port":27036,"stv_name":"Uncletopia | Los Angeles | 3 | All Maps | STV","players":null},{"server_id":25,"name":"Uncletopia | Los Angeles | 4 | Stopwatch","name_short":"lax-4","host":"lax-1.us.uncletopia.com","port":27045,"enabled":true,"region":"us-west","cc":"us","latitude":33.94279,"longitude":-118.41004,"reserved":0,"last_update":"0001-01-01T00:00:00Z","name_a2s":"Uncletopia | Los Angeles | 4 | Stopwatch","protocol":17,"map":"pl_barnblitz","folder":"tf","game":"Team Fortress","app_id":440,"player_count":0,"max_players":24,"Bots":0,"server_type":"Dedicated","server_os":"Linux","password":true,"vac":true,"version":"7961495","steam_id":85568392924510199,"keywords":["nocrits","nodmgspread","payload","uncletopia"],"game_id":440,"stv_port":27046,"stv_name":"Uncletopia | Los Angeles | 4 | Stopwatch | STV","players":null},{"server_id":11,"name":"Uncletopia | London | 1 | All Maps","name_short":"lon-1","host":"lon-1.uk.uncletopia.com","port":27015,"enabled":true,"region":"eu","cc":"gb","latitude":51.509865,"longitude":-0.118092,"reserved":0,"last_update":"0001-01-01T00:00:00Z","name_a2s":"Uncletopia | London | 1 | All Maps","protocol":17,"map":"pl_badwater","folder":"tf","game":"Team Fortress","app_id":440,"player_count":24,"max_players":24,"Bots":0,"server_type":"Dedicated","server_os":"Linux","password":true,"vac":true,"version":"7961495","steam_id":85568392924367362,"keywords":["nocrits","nodmgspread","payload","uncletopia"],"game_id":440,"stv_port":27016,"stv_name":"Uncletopia | London | 1 | All Maps | STV","players":[{"user_id":474,"name":"kid bean","steam_id":76561198063328792,"connected_time":4617000000000,"state":"active","ping":102},{"user_id":508,"name":"cas.sierrafamilia","steam_id":76561199230945873,"connected_time":955000000000,"state":"active","ping":131},{"user_id":505,"name":"herbal tea","steam_id":76561198179711137,"connected_time":991000000000,"state":"active","ping":62},{"user_id":496,"name":"Chippo","steam_id":76561198343198306,"connected_time":1704000000000,"state":"active","ping":62},{"user_id":486,"name":"Rx07","steam_id":76561199013720618,"connected_time":3046000000000,"state":"active","ping":88},{"user_id":506,"name":"ImLaochraTTV","steam_id":76561198439645668,"connected_time":983000000000,"state":"active","ping":79},{"user_id":507,"name":"flr","steam_id":76561198249327786,"connected_time":978000000000,"state":"active","ping":60},{"user_id":497,"name":"Chris","steam_id":76561198179791702,"connected_time":1702000000000,"state":"active","ping":177},{"user_id":482,"name":"⸸aura⸸","steam_id":76561198066258544,"connected_time":3449000000000,"state":"active","ping":61},{"user_id":481,"name":"whimsy.","steam_id":76561198878171763,"connected_time":3586000000000,"state":"active","ping":50},{"user_id":436,"name":"SirToast","steam_id":76561199229729107,"connected_time":6976000000000,"state":"active","ping":70},{"user_id":498,"name":"shooer!","steam_id":76561198110531281,"connected_time":1699000000000,"state":"active","ping":70},{"user_id":480,"name":"BigFudge","steam_id":76561199403590127,"connected_time":3598000000000,"state":"active","ping":62},{"user_id":494,"name":"Dr. Cox","steam_id":76561198246629218,"connected_time":2229000000000,"state":"active","ping":108},{"user_id":483,"name":"Filip","steam_id":76561198852826447,"connected_time":3402000000000,"state":"active","ping":72},{"user_id":443,"name":"Trans Femtress 2","steam_id":76561198014056212,"connected_time":6225000000000,"state":"active","ping":71},{"user_id":500,"name":"jimmy bob","steam_id":76561198319583692,"connected_time":1676000000000,"state":"active","ping":60},{"user_id":509,"name":"Skleton","steam_id":76561198238097290,"connected_time":941000000000,"state":"active","ping":67},{"user_id":510,"name":"Mummy","steam_id":76561198076597292,"connected_time":908000000000,"state":"active","ping":80},{"user_id":511,"name":"Cypher","steam_id":76561197996967254,"connected_time":897000000000,"state":"active","ping":71},{"user_id":451,"name":"spl .davi","steam_id":76561198029015952,"connected_time":6079000000000,"state":"active","ping":67},{"user_id":502,"name":"AWildTamim","steam_id":76561198048060652,"connected_time":1603000000000,"state":"active","ping":44},{"user_id":512,"name":"The entirety of Oklahoma","steam_id":76561199182760121,"connected_time":893000000000,"state":"active","ping":123},{"user_id":514,"name":"madhead200","steam_id":76561198119498666,"connected_time":842000000000,"state":"active","ping":71}]},{"server_id":114,"name":"Uncletopia | London | 2 | All Maps","name_short":"lon-2","host":"lon-1.uk.uncletopia.com","port":27025,"enabled":true,"region":"eu","cc":"gb","latitude":51.509865,"longitude":-0.118092,"reserved":0,"last_update":"0001-01-01T00:00:00Z","name_a2s":"Uncletopia | London | 2 | All Maps","protocol":17,"map":"pl_pier","folder":"tf","game":"Team Fortress","app_id":440,"player_count":24,"max_players":24,"Bots":0,"server_type":"Dedicated","server_os":"Linux","password":true,"vac":true,"version":"7961495","steam_id":85568392924470941,"keywords":["nocrits","nodmgspread","payload","uncletopia"],"game_id":440,"stv_port":27026,"stv_name":"Uncletopia | London | 2 | All Maps | STV","players":[{"user_id":349,"name":"Riko","steam_id":76561199057643011,"connected_time":691000000000,"state":"active","ping":40},{"user_id":294,"name":"Tuosan","steam_id":76561198062611429,"connected_time":5065000000000,"state":"active","ping":81},{"user_id":346,"name":"Shoeman","steam_id":76561198126726364,"connected_time":769000000000,"state":"active","ping":61},{"user_id":363,"name":"Slazaa","steam_id":76561197993252446,"connected_time":277000000000,"state":"active","ping":45},{"user_id":348,"name":"BORGETENNISCLUB","steam_id":76561198049343723,"connected_time":703000000000,"state":"active","ping":53},{"user_id":365,"name":"the babadook","steam_id":76561198040168682,"connected_time":239000000000,"state":"active","ping":44},{"user_id":350,"name":"I have","steam_id":76561199184873889,"connected_time":630000000000,"state":"active","ping":68},{"user_id":353,"name":"Guy","steam_id":76561198054734578,"connected_time":596000000000,"state":"active","ping":135},{"user_id":338,"name":"Lag","steam_id":76561198159360376,"connected_time":1076000000000,"state":"active","ping":52},{"user_id":322,"name":"Sam04","steam_id":76561199004535941,"connected_time":2454000000000,"state":"active","ping":86},{"user_id":316,"name":"Jughead","steam_id":76561198000355410,"connected_time":3180000000000,"state":"active","ping":40},{"user_id":351,"name":"Avitz","steam_id":76561197986150359,"connected_time":627000000000,"state":"active","ping":45},{"user_id":361,"name":"ToxicBlonde","steam_id":76561198136633815,"connected_time":318000000000,"state":"active","ping":56},{"user_id":330,"name":"Tunari Taneli","steam_id":76561198045390552,"connected_time":1211000000000,"state":"active","ping":89},{"user_id":352,"name":"yeldad","steam_id":76561198447264153,"connected_time":612000000000,"state":"active","ping":119},{"user_id":366,"name":"Neeeiks","steam_id":76561198009156801,"connected_time":143000000000,"state":"active","ping":84},{"user_id":354,"name":"soda_bitch","steam_id":76561198831626434,"connected_time":541000000000,"state":"active","ping":165},{"user_id":302,"name":"Fidacha","steam_id":76561198003060881,"connected_time":4638000000000,"state":"active","ping":70},{"user_id":356,"name":"Quandale Dingle","steam_id":76561198151981379,"connected_time":523000000000,"state":"active","ping":100},{"user_id":345,"name":"N00BCSF","steam_id":76561198035530934,"connected_time":888000000000,"state":"active","ping":69},{"user_id":329,"name":"technicolour","steam_id":76561198241561594,"connected_time":1562000000000,"state":"active","ping":80},{"user_id":357,"name":"Moter","steam_id":76561197992173015,"connected_time":512000000000,"state":"active","ping":50},{"user_id":358,"name":"Itsagreyarea","steam_id":76561199496467388,"connected_time":475000000000,"state":"active","ping":150},{"user_id":360,"name":"cat gameing","steam_id":76561199407659065,"connected_time":377000000000,"state":"active","ping":131}]},{"server_id":320,"name":"Uncletopia | London | 3 | All Maps","name_short":"lon-3","host":"lon-1.uk.uncletopia.com","port":27035,"enabled":true,"region":"eu","cc":"gb","latitude":51.509865,"longitude":-0.118092,"reserved":0,"last_update":"0001-01-01T00:00:00Z","name_a2s":"Uncletopia | London | 3 | All Maps","protocol":17,"map":"pl_barnblitz","folder":"tf","game":"Team Fortress","app_id":440,"player_count":24,"max_players":24,"Bots":0,"server_type":"Dedicated","server_os":"Linux","password":true,"vac":true,"version":"7961495","steam_id":85568392924510192,"keywords":["nocrits","nodmgspread","payload","uncletopia"],"game_id":440,"stv_port":27036,"stv_name":"Uncletopia | London | 3 | All Maps | STV","players":[{"user_id":295,"name":"Urtaras","steam_id":76561198085604412,"connected_time":1526000000000,"state":"active","ping":50},{"user_id":298,"name":"Pvt. Prinny","steam_id":76561198030278562,"connected_time":1028000000000,"state":"active","ping":42},{"user_id":269,"name":"Diamhair","steam_id":76561198109020178,"connected_time":1942000000000,"state":"active","ping":61},{"user_id":306,"name":"brtaba","steam_id":76561198796334790,"connected_time":239000000000,"state":"active","ping":70},{"user_id":260,"name":"ScampSixteen","steam_id":76561198021771000,"connected_time":2185000000000,"state":"active","ping":51},{"user_id":270,"name":"aQua.Stefan","steam_id":76561199067113256,"connected_time":1915000000000,"state":"active","ping":88},{"user_id":296,"name":"Wilson","steam_id":76561198192843133,"connected_time":1466000000000,"state":"active","ping":57},{"user_id":307,"name":"big beef","steam_id":76561198845046853,"connected_time":7000000000,"state":"spawning","ping":41},{"user_id":304,"name":"STINGL88","steam_id":76561198099968962,"connected_time":662000000000,"state":"active","ping":78},{"user_id":275,"name":"Cool Uncle Bean","steam_id":76561199053506366,"connected_time":1768000000000,"state":"active","ping":62},{"user_id":300,"name":"triplepunk","steam_id":76561198119449463,"connected_time":955000000000,"state":"active","ping":57},{"user_id":237,"name":"Capn. Wing Ding","steam_id":76561198076068424,"connected_time":3781000000000,"state":"active","ping":133},{"user_id":273,"name":"The One (and only)","steam_id":76561198827193499,"connected_time":1851000000000,"state":"active","ping":75},{"user_id":212,"name":":3","steam_id":76561198169471853,"connected_time":6634000000000,"state":"active","ping":40},{"user_id":276,"name":"Ixsus\u003c3","steam_id":76561198094756869,"connected_time":1755000000000,"state":"active","ping":63},{"user_id":302,"name":"John Noob","steam_id":76561197999170026,"connected_time":850000000000,"state":"active","ping":89},{"user_id":268,"name":"Mr Sandman","steam_id":76561198033859261,"connected_time":1980000000000,"state":"active","ping":45},{"user_id":301,"name":"EightyNine","steam_id":76561198248049146,"connected_time":934000000000,"state":"active","ping":63},{"user_id":231,"name":"Anri Okita's Massive Milkers","steam_id":76561199186352720,"connected_time":4199000000000,"state":"active","ping":65},{"user_id":291,"name":"Spoodie","steam_id":76561198981267180,"connected_time":1651000000000,"state":"active","ping":73},{"user_id":282,"name":"Vilmukas","steam_id":76561199106648396,"connected_time":1708000000000,"state":"active","ping":64},{"user_id":297,"name":"Anton Stormbreaker","steam_id":76561198041426778,"connected_time":1284000000000,"state":"active","ping":63},{"user_id":292,"name":"kinimon","steam_id":76561198178453270,"connected_time":1650000000000,"state":"active","ping":35},{"user_id":294,"name":"Ringo tard","steam_id":76561198396496222,"connected_time":1638000000000,"state":"active","ping":147}]},{"server_id":321,"name":"Uncletopia | London | 4 | All Maps","name_short":"lon-4","host":"lon-1.uk.uncletopia.com","port":27045,"enabled":true,"region":"eu","cc":"gb","latitude":51.509865,"longitude":-0.118092,"reserved":0,"last_update":"0001-01-01T00:00:00Z","name_a2s":"Uncletopia | London | 4 | All Maps","protocol":17,"map":"pl_borneo","folder":"tf","game":"Team Fortress","app_id":440,"player_count":19,"max_players":24,"Bots":0,"server_type":"Dedicated","server_os":"Linux","password":true,"vac":true,"version":"7961495","steam_id":85568392924510193,"keywords":["nocrits","nodmgspread","payload","uncletopia"],"game_id":440,"stv_port":27046,"stv_name":"Uncletopia | London | 4 | All Maps | STV","players":[{"user_id":396,"name":"Cabbch","steam_id":76561198045955679,"connected_time":1360000000000,"state":"active","ping":45},{"user_id":319,"name":"bart simpson weed","steam_id":76561198014858762,"connected_time":4637000000000,"state":"active","ping":62},{"user_id":416,"name":"BepisR47","steam_id":76561198084515716,"connected_time":17000000000,"state":"spawning","ping":29},{"user_id":408,"name":"peruna","steam_id":76561198000721196,"connected_time":874000000000,"state":"active","ping":77},{"user_id":402,"name":"Udinese Dion","steam_id":76561198067931573,"connected_time":1133000000000,"state":"active","ping":63},{"user_id":414,"name":"Seail_M","steam_id":76561198002405605,"connected_time":166000000000,"state":"active","ping":66},{"user_id":393,"name":"Odin","steam_id":76561198087800030,"connected_time":1550000000000,"state":"active","ping":30},{"user_id":397,"name":"LOBZIK","steam_id":76561198114830120,"connected_time":1358000000000,"state":"active","ping":84},{"user_id":354,"name":"im a girl","steam_id":76561198101995942,"connected_time":3340000000000,"state":"active","ping":68},{"user_id":411,"name":"Mr. Mundy","steam_id":76561198132008918,"connected_time":464000000000,"state":"active","ping":88},{"user_id":412,"name":"Tavish","steam_id":76561197971486686,"connected_time":381000000000,"state":"active","ping":44},{"user_id":415,"name":"Reimu","steam_id":76561198109301435,"connected_time":153000000000,"state":"active","ping":86},{"user_id":394,"name":"microwavedelights","steam_id":76561199260959455,"connected_time":1543000000000,"state":"active","ping":102},{"user_id":348,"name":"Hexagon","steam_id":76561198151205758,"connected_time":3814000000000,"state":"active","ping":60},{"user_id":410,"name":"[FP] Shiken","steam_id":76561198257905663,"connected_time":695000000000,"state":"active","ping":58},{"user_id":323,"name":"sailor girlboss","steam_id":76561197964754824,"connected_time":4547000000000,"state":"active","ping":68},{"user_id":413,"name":"Schro","steam_id":76561198963378933,"connected_time":350000000000,"state":"active","ping":38},{"user_id":401,"name":"[FP] Rune","steam_id":76561198030842879,"connected_time":1186000000000,"state":"active","ping":32},{"user_id":400,"name":"[FP] Scewtch","steam_id":76561198120500488,"connected_time":1277000000000,"state":"active","ping":56}]},{"server_id":21,"name":"Uncletopia | London | 5 | All Maps","name_short":"lon-5","host":"lon-1.uk.uncletopia.com","port":27055,"enabled":true,"region":"eu","cc":"gb","latitude":51.509865,"longitude":-0.118092,"reserved":0,"last_update":"0001-01-01T00:00:00Z","name_a2s":"Uncletopia | London | 5 | All Maps","protocol":17,"map":"pl_swiftwater_final1","folder":"tf","game":"Team Fortress","app_id":440,"player_count":24,"max_players":24,"Bots":0,"server_type":"Dedicated","server_os":"Linux","password":true,"vac":true,"version":"7961495","steam_id":85568392924742829,"keywords":["nocrits","nodmgspread","payload","uncletopia"],"game_id":440,"stv_port":27056,"stv_name":"Uncletopia | London | 5 | All Maps | STV","players":[{"user_id":152,"name":"Dacon","steam_id":76561198018582112,"connected_time":870000000000,"state":"active","ping":64},{"user_id":133,"name":"Ghost staring in car","steam_id":76561198231934444,"connected_time":1775000000000,"state":"active","ping":84},{"user_id":22,"name":"JayMaloney","steam_id":76561198050173547,"connected_time":8112000000000,"state":"active","ping":65},{"user_id":23,"name":"Grenouillator","steam_id":76561197991694500,"connected_time":8109000000000,"state":"active","ping":83},{"user_id":159,"name":"Headshot King (He/They)","steam_id":76561199480478112,"connected_time":189000000000,"state":"active","ping":31},{"user_id":125,"name":"mr gaming","steam_id":76561198110103308,"connected_time":2193000000000,"state":"active","ping":46},{"user_id":153,"name":"hipster_doofus","steam_id":76561197970902697,"connected_time":832000000000,"state":"active","ping":55},{"user_id":135,"name":"Gruset","steam_id":76561198327512432,"connected_time":1483000000000,"state":"active","ping":75},{"user_id":154,"name":"JENNY","steam_id":76561198072302273,"connected_time":813000000000,"state":"active","ping":55},{"user_id":139,"name":"ChebJeb","steam_id":76561198981377081,"connected_time":1398000000000,"state":"active","ping":137},{"user_id":103,"name":"be gay do crime","steam_id":76561198254450468,"connected_time":3307000000000,"state":"active","ping":89},{"user_id":149,"name":"Average Engineer Enjoyer","steam_id":76561198298618127,"connected_time":1157000000000,"state":"active","ping":61},{"user_id":49,"name":"jekk.97","steam_id":76561198146961838,"connected_time":6529000000000,"state":"active","ping":122},{"user_id":150,"name":"TheEventGuy","steam_id":76561197972797744,"connected_time":1081000000000,"state":"active","ping":76},{"user_id":146,"name":"Jeg","steam_id":76561197994059603,"connected_time":1226000000000,"state":"active","ping":49},{"user_id":155,"name":"kreeekz","steam_id":76561198014431602,"connected_time":805000000000,"state":"active","ping":72},{"user_id":158,"name":"yo g would u make me a sandwich","steam_id":76561199062586342,"connected_time":584000000000,"state":"active","ping":64},{"user_id":144,"name":"Bobo","steam_id":76561198052308399,"connected_time":1335000000000,"state":"active","ping":71},{"user_id":142,"name":"asa004","steam_id":76561198160323444,"connected_time":1361000000000,"state":"active","ping":75},{"user_id":147,"name":"Mike","steam_id":76561198228455736,"connected_time":1212000000000,"state":"active","ping":55},{"user_id":143,"name":"Edla","steam_id":76561198062815315,"connected_time":1354000000000,"state":"active","ping":120},{"user_id":156,"name":"DEFENDOR62","steam_id":76561199386703896,"connected_time":800000000000,"state":"active","ping":63},{"user_id":145,"name":"oskaroku00","steam_id":76561199025360128,"connected_time":1328000000000,"state":"active","ping":74},{"user_id":157,"name":"вaфeльнoe мoрoжeнoe","steam_id":76561199074883856,"connected_time":777000000000,"state":"active","ping":56}]},{"server_id":22,"name":"Uncletopia | London | 6 | All Maps","name_short":"lon-6","host":"lon-1.uk.uncletopia.com","port":27065,"enabled":true,"region":"eu","cc":"gb","latitude":51.509865,"longitude":-0.118092,"reserved":0,"last_update":"0001-01-01T00:00:00Z","name_a2s":"Uncletopia | London | 6 | All Maps","protocol":17,"map":"koth_viaduct","folder":"tf","game":"Team Fortress","app_id":440,"player_count":0,"max_players":24,"Bots":0,"server_type":"Dedicated","server_os":"Linux","password":true,"vac":true,"version":"7961495","steam_id":85568392924742830,"keywords":["cp","nocrits","nodmgspread","uncletopia"],"game_id":440,"stv_port":27066,"stv_name":"Uncletopia | London | 6 | All Maps | STV","players":null},{"server_id":40,"name":"Uncletopia | London | 7 | Stopwatch","name_short":"lon-7","host":"lon-1.uk.uncletopia.com","port":27075,"enabled":true,"region":"eu","cc":"gb","latitude":51.509865,"longitude":-0.118092,"reserved":0,"last_update":"0001-01-01T00:00:00Z","name_a2s":"Uncletopia | London | 7 | Stopwatch","protocol":17,"map":"workshop/koth_bagel_rc6.ugc2514036946","folder":"tf","game":"Team Fortress","app_id":440,"player_count":0,"max_players":24,"Bots":0,"server_type":"Dedicated","server_os":"Linux","password":true,"vac":true,"version":"7961495","steam_id":85568392924964314,"keywords":["cp","nocrits","nodmgspread","uncletopia"],"game_id":440,"stv_port":27076,"stv_name":"Uncletopia | London | 7 | Stopwatch | STV","players":null},{"server_id":41,"name":"Uncletopia | London | 8 | Community","name_short":"lon-8","host":"lon-1.uk.uncletopia.com","port":27085,"enabled":true,"region":"eu","cc":"gb","latitude":51.509865,"longitude":-0.118092,"reserved":0,"last_update":"0001-01-01T00:00:00Z","name_a2s":"Uncletopia | London | 8 | Community","protocol":17,"map":"workshop/koth_ramjam_rc1.ugc459778887","folder":"tf","game":"Team Fortress","app_id":440,"player_count":0,"max_players":24,"Bots":0,"server_type":"Dedicated","server_os":"Linux","password":true,"vac":true,"version":"7961495","steam_id":85568392924964315,"keywords":["cp","nocrits","nodmgspread","uncletopia"],"game_id":440,"stv_port":27086,"stv_name":"Uncletopia | London | 8 | Community | STV","players":null},{"server_id":300,"name":"Uncletopia | Montréal | 1 | One Thousand Uncles","name_short":"mtl-1","host":"mtl-1.ca.uncletopia.com","port":27015,"enabled":true,"region":"us-east","cc":"ca","latitude":45.50889,"longitude":-73.56167,"reserved":0,"last_update":"0001-01-01T00:00:00Z","name_a2s":"","protocol":0,"map":"","folder":"","game":"","app_id":0,"player_count":7,"max_players":0,"Bots":0,"server_type":"","server_os":"","password":false,"vac":false,"version":"","steam_id":0,"keywords":null,"game_id":0,"stv_port":0,"stv_name":"","players":[{"user_id":94,"name":"JoeFalco","steam_id":76561198064005012,"connected_time":5258000000000,"state":"active","ping":88},{"user_id":182,"name":"Weenis","steam_id":76561198991668060,"connected_time":34000000000,"state":"active","ping":48},{"user_id":152,"name":"puffy","steam_id":76561198411347037,"connected_time":1789000000000,"state":"active","ping":58},{"user_id":179,"name":"Old One Eye","steam_id":76561198185598330,"connected_time":928000000000,"state":"active","ping":88},{"user_id":180,"name":"Hektur Salmondchonka","steam_id":76561198136982572,"connected_time":607000000000,"state":"active","ping":119},{"user_id":128,"name":"PiRA","steam_id":76561197962440292,"connected_time":2541000000000,"state":"active","ping":39},{"user_id":156,"name":"BIGMOOD","steam_id":76561199086966716,"connected_time":1517000000000,"state":"active","ping":115}]},{"server_id":301,"name":"Uncletopia | Montréal | 2 | One Thousand Uncles","name_short":"mtl-2","host":"mtl-1.ca.uncletopia.com","port":27025,"enabled":true,"region":"us-east","cc":"ca","latitude":45.50889,"longitude":-73.56167,"reserved":0,"last_update":"0001-01-01T00:00:00Z","name_a2s":"","protocol":0,"map":"","folder":"","game":"","app_id":0,"player_count":0,"max_players":0,"Bots":0,"server_type":"","server_os":"","password":false,"vac":false,"version":"","steam_id":0,"keywords":null,"game_id":0,"stv_port":0,"stv_name":"","players":null},{"server_id":302,"name":"Uncletopia | Montréal | 3 | One Thousand Uncles","name_short":"mtl-3","host":"mtl-1.ca.uncletopia.com","port":27035,"enabled":true,"region":"us-east","cc":"ca","latitude":45.50889,"longitude":-73.56167,"reserved":0,"last_update":"0001-01-01T00:00:00Z","name_a2s":"","protocol":0,"map":"","folder":"","game":"","app_id":0,"player_count":1,"max_players":0,"Bots":0,"server_type":"","server_os":"","password":false,"vac":false,"version":"","steam_id":0,"keywords":null,"game_id":0,"stv_port":0,"stv_name":"","players":[{"user_id":77,"name":"HappyMonkey","steam_id":76561199131602359,"connected_time":8000000000,"state":"spawning","ping":60}]},{"server_id":13,"name":"Uncletopia | New York City | 1 | All Maps","name_short":"nyc-1","host":"nyc-1.us.uncletopia.com","port":27015,"enabled":true,"region":"us-east","cc":"us","latitude":40.73061,"longitude":-73.93524,"reserved":0,"last_update":"0001-01-01T00:00:00Z","name_a2s":"Uncletopia | New York City | 1 | All Maps","protocol":17,"map":"pl_barnblitz","folder":"tf","game":"Team Fortress","app_id":440,"player_count":24,"max_players":24,"Bots":0,"server_type":"Dedicated","server_os":"Linux","password":true,"vac":true,"version":"7961495","steam_id":85568392924469993,"keywords":["nocrits","nodmgspread","payload","uncletopia"],"game_id":440,"stv_port":27016,"stv_name":"Uncletopia | New York City | 1 | All Maps | STV","players":[{"user_id":7,"name":"Fish","steam_id":76561199258053772,"connected_time":2524000000000,"state":"active","ping":84},{"user_id":46,"name":"LePit","steam_id":76561198164154743,"connected_time":471000000000,"state":"active","ping":58},{"user_id":9,"name":"Cheddar","steam_id":76561199069480890,"connected_time":1631000000000,"state":"active","ping":67},{"user_id":15,"name":"freak ya nature","steam_id":76561198310502474,"connected_time":1379000000000,"state":"active","ping":76},{"user_id":11,"name":"Lucille_Bluth","steam_id":76561198206133916,"connected_time":1544000000000,"state":"active","ping":61},{"user_id":12,"name":"dark souls boss","steam_id":76561198316610724,"connected_time":1523000000000,"state":"active","ping":107},{"user_id":38,"name":"you forgot the sauce","steam_id":76561198387016713,"connected_time":495000000000,"state":"active","ping":55},{"user_id":14,"name":"The Creepy9","steam_id":76561198039104966,"connected_time":1494000000000,"state":"active","ping":63},{"user_id":19,"name":"Guillermo","steam_id":76561198041547857,"connected_time":906000000000,"state":"active","ping":118},{"user_id":36,"name":"20 miles for a Quaalude","steam_id":76561198042579477,"connected_time":698000000000,"state":"active","ping":50},{"user_id":21,"name":"Sir Ryan Of Seacrestia","steam_id":76561197999984836,"connected_time":884000000000,"state":"active","ping":78},{"user_id":22,"name":"StormBlessed","steam_id":76561198022668717,"connected_time":881000000000,"state":"active","ping":83},{"user_id":23,"name":"Mury","steam_id":76561198069743049,"connected_time":859000000000,"state":"active","ping":78},{"user_id":24,"name":"TeaMox","steam_id":76561199431651090,"connected_time":859000000000,"state":"active","ping":128},{"user_id":60,"name":"PumpkinThink","steam_id":76561198393830529,"connected_time":193000000000,"state":"active","ping":88},{"user_id":37,"name":"Rocky","steam_id":76561198290193841,"connected_time":681000000000,"state":"active","ping":77},{"user_id":28,"name":"(sh)artist","steam_id":76561199144640325,"connected_time":834000000000,"state":"active","ping":88},{"user_id":29,"name":"d1 bound instigator","steam_id":76561198113990147,"connected_time":823000000000,"state":"active","ping":75},{"user_id":54,"name":"pea ttv/peabeanz","steam_id":76561198119551968,"connected_time":292000000000,"state":"active","ping":72},{"user_id":31,"name":"MiPlatypus","steam_id":76561198210393620,"connected_time":777000000000,"state":"active","ping":67},{"user_id":32,"name":"princess fern \u003c3333","steam_id":76561198881792140,"connected_time":771000000000,"state":"active","ping":58},{"user_id":33,"name":"jamzine","steam_id":76561198186168293,"connected_time":770000000000,"state":"active","ping":59},{"user_id":34,"name":"Mr Happy","steam_id":76561198067689328,"connected_time":749000000000,"state":"active","ping":69},{"user_id":35,"name":"who_dis?","steam_id":76561199156798560,"connected_time":749000000000,"state":"active","ping":94}]},{"server_id":14,"name":"Uncletopia | New York City | 2 | All Maps","name_short":"nyc-2","host":"nyc-1.us.uncletopia.com","port":27025,"enabled":true,"region":"us-east","cc":"us","latitude":40.73061,"longitude":-73.93524,"reserved":0,"last_update":"0001-01-01T00:00:00Z","name_a2s":"Uncletopia | New York City | 2 | All Maps","protocol":17,"map":"pl_frontier_final","folder":"tf","game":"Team Fortress","app_id":440,"player_count":23,"max_players":24,"Bots":0,"server_type":"Dedicated","server_os":"Linux","password":true,"vac":true,"version":"7961495","steam_id":85568392924469994,"keywords":["nocrits","nodmgspread","payload","uncletopia"],"game_id":440,"stv_port":27026,"stv_name":"Uncletopia | New York City | 2 | All Maps | STV","players":[{"user_id":112,"name":"wadsworth dinglecock","steam_id":76561198073269122,"connected_time":214000000000,"state":"active","ping":57},{"user_id":105,"name":"Sweet Jesus","steam_id":76561198060068046,"connected_time":1480000000000,"state":"active","ping":88},{"user_id":91,"name":"phroliax","steam_id":76561198207075529,"connected_time":2269000000000,"state":"active","ping":73},{"user_id":119,"name":"Mr.Eggawott","steam_id":76561199004055684,"connected_time":40000000000,"state":"active","ping":40},{"user_id":111,"name":"Gheeotine","steam_id":76561198010181698,"connected_time":231000000000,"state":"active","ping":72},{"user_id":94,"name":"rumidog","steam_id":76561198046896005,"connected_time":2187000000000,"state":"active","ping":68},{"user_id":116,"name":"Java_Siege_","steam_id":76561199090000728,"connected_time":179000000000,"state":"active","ping":77},{"user_id":101,"name":"kjc105","steam_id":76561198880364422,"connected_time":1700000000000,"state":"active","ping":82},{"user_id":106,"name":"Pablo Cornfield","steam_id":76561198154279297,"connected_time":1138000000000,"state":"active","ping":71},{"user_id":53,"name":"나무 먹는 사람","steam_id":76561198167893972,"connected_time":5777000000000,"state":"active","ping":72},{"user_id":113,"name":"JustShane","steam_id":76561199003156182,"connected_time":212000000000,"state":"active","ping":71},{"user_id":114,"name":"totsnotabot","steam_id":76561198077023364,"connected_time":201000000000,"state":"active","ping":54},{"user_id":120,"name":"Bother","steam_id":76561198336750909,"connected_time":26000000000,"state":"spawning","ping":45},{"user_id":108,"name":"z_blues","steam_id":76561198303296267,"connected_time":536000000000,"state":"active","ping":67},{"user_id":63,"name":"AverageGloop","steam_id":76561198243395378,"connected_time":4493000000000,"state":"active","ping":43},{"user_id":115,"name":"Treeckogeek","steam_id":76561198453328078,"connected_time":195000000000,"state":"active","ping":76},{"user_id":117,"name":"real gamer hours","steam_id":76561198169329362,"connected_time":178000000000,"state":"active","ping":67},{"user_id":109,"name":"x = ( -b ± √( b^2 - 4ac)/ (2","steam_id":76561198059220458,"connected_time":407000000000,"state":"active","ping":44},{"user_id":107,"name":"taigaxx","steam_id":76561198202669250,"connected_time":785000000000,"state":"active","ping":67},{"user_id":118,"name":"potpurrycatcurry","steam_id":76561198349409715,"connected_time":175000000000,"state":"active","ping":86},{"user_id":104,"name":"BooceMaster","steam_id":76561198148520318,"connected_time":1690000000000,"state":"active","ping":55},{"user_id":92,"name":"cool_sean01231","steam_id":76561199501039708,"connected_time":2261000000000,"state":"active","ping":60},{"user_id":78,"name":"DamerDoozle","steam_id":76561199121686201,"connected_time":3366000000000,"state":"active","ping":76}]},{"server_id":15,"name":"Uncletopia | New York City | 3 | Stopwatch","name_short":"nyc-3","host":"nyc-1.us.uncletopia.com","port":27035,"enabled":true,"region":"us-east","cc":"us","latitude":40.73061,"longitude":-73.93524,"reserved":0,"last_update":"0001-01-01T00:00:00Z","name_a2s":"Uncletopia | New York City | 3 | Stopwatch","protocol":17,"map":"koth_lakeside_final","folder":"tf","game":"Team Fortress","app_id":440,"player_count":0,"max_players":24,"Bots":0,"server_type":"Dedicated","server_os":"Linux","password":true,"vac":true,"version":"7961495","steam_id":85568392924742820,"keywords":["cp","nocrits","nodmgspread","uncletopia"],"game_id":440,"stv_port":27036,"stv_name":"Uncletopia | New York City | 3 | Stopwatch | STV","players":null},{"server_id":16,"name":"Uncletopia | New York City | 4 | Community","name_short":"nyc-4","host":"nyc-1.us.uncletopia.com","port":27045,"enabled":true,"region":"us-east","cc":"us","latitude":40.73061,"longitude":-73.93524,"reserved":0,"last_update":"0001-01-01T00:00:00Z","name_a2s":"Uncletopia | New York City | 4 | Community","protocol":17,"map":"workshop/koth_synthetic_rc6a.ugc1549817316","folder":"tf","game":"Team Fortress","app_id":440,"player_count":0,"max_players":24,"Bots":0,"server_type":"Dedicated","server_os":"Linux","password":true,"vac":true,"version":"7961495","steam_id":85568392924742821,"keywords":["cp","nocrits","nodmgspread","uncletopia"],"game_id":440,"stv_port":27046,"stv_name":"Uncletopia | New York City | 4 | Community | STV","players":null},{"server_id":142,"name":"Uncletopia | São Paulo | 1 | All Maps","name_short":"sao-1","host":"sao-1.br.uncletopia.com","port":27015,"enabled":true,"region":"sa","cc":"br","latitude":-23.533773,"longitude":-46.62529,"reserved":0,"last_update":"0001-01-01T00:00:00Z","name_a2s":"Uncletopia | São Paulo | 1 | All Maps","protocol":17,"map":"cp_mountainlab","folder":"tf","game":"Team Fortress","app_id":440,"player_count":0,"max_players":24,"Bots":0,"server_type":"Dedicated","server_os":"Linux","password":true,"vac":true,"version":"7961495","steam_id":85568392924469996,"keywords":["cp","nocrits","nodmgspread","uncletopia"],"game_id":440,"stv_port":27016,"stv_name":"Uncletopia | São Paulo | 1 | All Maps | STV","players":null},{"server_id":143,"name":"Uncletopia | São Paulo | 2 | Community","name_short":"sao-2","host":"sao-2.br.uncletopia.com","port":27015,"enabled":true,"region":"sa","cc":"br","latitude":-23.533773,"longitude":-46.62529,"reserved":0,"last_update":"0001-01-01T00:00:00Z","name_a2s":"Uncletopia | São Paulo | 2 | Community","protocol":17,"map":"workshop/koth_slaughter_rc1.ugc1712845210","folder":"tf","game":"Team Fortress","app_id":440,"player_count":1,"max_players":24,"Bots":0,"server_type":"Dedicated","server_os":"Linux","password":true,"vac":true,"version":"7961495","steam_id":85568392924485349,"keywords":["cp","nocrits","nodmgspread","uncletopia"],"game_id":440,"stv_port":27016,"stv_name":"Uncletopia | São Paulo | 2 | Community | STV","players":[{"user_id":4,"name":"Otaah","steam_id":76561199072374071,"connected_time":2883000000000,"state":"active","ping":78}]},{"server_id":7,"name":"Uncletopia | Seattle | 1 | All Maps","name_short":"sea-1","host":"sea-1.us.uncletopia.com","port":27015,"enabled":true,"region":"us-west","cc":"us","latitude":47.608013,"longitude":-122.33517,"reserved":0,"last_update":"0001-01-01T00:00:00Z","name_a2s":"Uncletopia | Seattle | 1 | All Maps","protocol":17,"map":"koth_highpass","folder":"tf","game":"Team Fortress","app_id":440,"player_count":14,"max_players":24,"Bots":0,"server_type":"Dedicated","server_os":"Linux","password":true,"vac":true,"version":"7961495","steam_id":85568392924469997,"keywords":["cp","nocrits","nodmgspread","uncletopia"],"game_id":440,"stv_port":27016,"stv_name":"Uncletopia | Seattle | 1 | All Maps | STV","players":[{"user_id":10,"name":"DIGGY","steam_id":76561198991238982,"connected_time":1276000000000,"state":"active","ping":57},{"user_id":11,"name":"donke","steam_id":76561198828006787,"connected_time":1112000000000,"state":"active","ping":60},{"user_id":12,"name":"ADMlN!!! he doin it sideways","steam_id":76561198085470745,"connected_time":1085000000000,"state":"active","ping":54},{"user_id":14,"name":"Sleuth","steam_id":76561198418288939,"connected_time":655000000000,"state":"active","ping":63},{"user_id":16,"name":"dust | it/she","steam_id":76561198045218909,"connected_time":526000000000,"state":"active","ping":37},{"user_id":17,"name":"cajun thotsauce","steam_id":76561198101636066,"connected_time":458000000000,"state":"active","ping":60},{"user_id":18,"name":"cozmo","steam_id":76561198043167542,"connected_time":417000000000,"state":"active","ping":32},{"user_id":20,"name":"MINILEGOLAS","steam_id":76561198859362058,"connected_time":364000000000,"state":"active","ping":107},{"user_id":22,"name":"Dimple","steam_id":76561198980324190,"connected_time":307000000000,"state":"active","ping":47},{"user_id":23,"name":"♥ empyrean! ♥","steam_id":76561198014557455,"connected_time":299000000000,"state":"active","ping":100},{"user_id":24,"name":"Svetlan","steam_id":76561199247095754,"connected_time":203000000000,"state":"active","ping":62},{"user_id":29,"name":"owl","steam_id":76561198088403016,"connected_time":127000000000,"state":"active","ping":150},{"user_id":26,"name":"AlbinoRhino ☮","steam_id":76561198005894818,"connected_time":177000000000,"state":"active","ping":74},{"user_id":27,"name":"D(b) Hell","steam_id":76561198067869016,"connected_time":163000000000,"state":"active","ping":74}]},{"server_id":119,"name":"Uncletopia | Seattle | 2 | All Maps","name_short":"sea-2","host":"sea-1.us.uncletopia.com","port":27025,"enabled":true,"region":"us-west","cc":"us","latitude":47.608013,"longitude":-122.33517,"reserved":0,"last_update":"0001-01-01T00:00:00Z","name_a2s":"Uncletopia | Seattle | 2 | All Maps","protocol":17,"map":"pl_pier","folder":"tf","game":"Team Fortress","app_id":440,"player_count":0,"max_players":24,"Bots":0,"server_type":"Dedicated","server_os":"Linux","password":true,"vac":true,"version":"7961495","steam_id":85568392924469998,"keywords":["nocrits","nodmgspread","payload","uncletopia"],"game_id":440,"stv_port":27026,"stv_name":"Uncletopia | Seattle | 2 | All Maps | STV","players":null},{"server_id":406,"name":"Uncletopia | Seattle | 3 | Stopwatch","name_short":"sea-3","host":"sea-1.us.uncletopia.com","port":27035,"enabled":true,"region":"us-west","cc":"us","latitude":47.608013,"longitude":-122.33517,"reserved":0,"last_update":"0001-01-01T00:00:00Z","name_a2s":"Uncletopia | Seattle | 3 | Stopwatch","protocol":17,"map":"pl_pier","folder":"tf","game":"Team Fortress","app_id":440,"player_count":0,"max_players":24,"Bots":0,"server_type":"Dedicated","server_os":"Linux","password":true,"vac":true,"version":"7961495","steam_id":85568392924515217,"keywords":["nocrits","nodmgspread","payload","uncletopia"],"game_id":440,"stv_port":27036,"stv_name":"Uncletopia | Seattle | 3 | Stopwatch | STV","players":null},{"server_id":17,"name":"Uncletopia | San Francisco | 1 | All Maps","name_short":"sfo-1","host":"sfo-1.us.uncletopia.com","port":27015,"enabled":true,"region":"us-west","cc":"us","latitude":37.77397,"longitude":-122.4313,"reserved":0,"last_update":"0001-01-01T00:00:00Z","name_a2s":"Uncletopia | San Francisco | 1 | All Maps","protocol":17,"map":"koth_cascade","folder":"tf","game":"Team Fortress","app_id":440,"player_count":0,"max_players":24,"Bots":0,"server_type":"Dedicated","server_os":"Linux","password":true,"vac":true,"version":"7961495","steam_id":85568392924469999,"keywords":["cp","nocrits","nodmgspread","uncletopia"],"game_id":440,"stv_port":27016,"stv_name":"Uncletopia | San Francisco | 1 | All Maps | STV","players":null},{"server_id":18,"name":"Uncletopia | San Francisco | 2 | All Maps","name_short":"sfo-2","host":"sfo-1.us.uncletopia.com","port":27025,"enabled":true,"region":"us-west","cc":"us","latitude":37.77397,"longitude":-122.4313,"reserved":0,"last_update":"0001-01-01T00:00:00Z","name_a2s":"Uncletopia | San Francisco | 2 | All Maps","protocol":17,"map":"cp_dustbowl","folder":"tf","game":"Team Fortress","app_id":440,"player_count":0,"max_players":24,"Bots":0,"server_type":"Dedicated","server_os":"Linux","password":true,"vac":true,"version":"7961495","steam_id":85568392924470000,"keywords":["cp","nocrits","nodmgspread","uncletopia"],"game_id":440,"stv_port":27026,"stv_name":"Uncletopia | San Francisco | 2 | All Maps | STV","players":null},{"server_id":19,"name":"Uncletopia | San Francisco | 3 | Stopwatch","name_short":"sfo-3","host":"sfo-1.us.uncletopia.com","port":27035,"enabled":true,"region":"us-west","cc":"us","latitude":37.77397,"longitude":-122.4313,"reserved":0,"last_update":"0001-01-01T00:00:00Z","name_a2s":"Uncletopia | San Francisco | 3 | Stopwatch","protocol":17,"map":"pl_pier","folder":"tf","game":"Team Fortress","app_id":440,"player_count":0,"max_players":24,"Bots":0,"server_type":"Dedicated","server_os":"Linux","password":true,"vac":true,"version":"7961495","steam_id":85568392924742824,"keywords":["nocrits","nodmgspread","payload","uncletopia"],"game_id":440,"stv_port":27036,"stv_name":"Uncletopia | San Francisco | 3 | Stopwatch | STV","players":null},{"server_id":20,"name":"Uncletopia | San Francisco | 4 | Community","name_short":"sfo-4","host":"sfo-1.us.uncletopia.com","port":27045,"enabled":true,"region":"us-west","cc":"us","latitude":37.77397,"longitude":-122.4313,"reserved":0,"last_update":"0001-01-01T00:00:00Z","name_a2s":"Uncletopia | San Francisco | 4 | Community","protocol":17,"map":"pl_pier","folder":"tf","game":"Team Fortress","app_id":440,"player_count":0,"max_players":24,"Bots":0,"server_type":"Dedicated","server_os":"Linux","password":true,"vac":true,"version":"7961495","steam_id":85568392924742826,"keywords":["nocrits","nodmgspread","payload","uncletopia"],"game_id":440,"stv_port":27046,"stv_name":"Uncletopia | San Francisco | 4 | Community | STV","players":null},{"server_id":141,"name":"Uncletopia | Sydney | 1 | All Maps","name_short":"syd-1","host":"syd-1.au.uncletopia.com","port":27015,"enabled":true,"region":"au","cc":"au","latitude":-33.865143,"longitude":151.2099,"reserved":0,"last_update":"0001-01-01T00:00:00Z","name_a2s":"Uncletopia | Sydney | 1 | All Maps","protocol":17,"map":"koth_viaduct","folder":"tf","game":"Team Fortress","app_id":440,"player_count":0,"max_players":24,"Bots":0,"server_type":"Dedicated","server_os":"Linux","password":true,"vac":true,"version":"7961495","steam_id":85568392924470001,"keywords":["cp","nocrits","nodmgspread","uncletopia"],"game_id":440,"stv_port":27016,"stv_name":"Uncletopia | Sydney | 1 | All Maps | STV","players":null},{"server_id":123,"name":"Uncletopia | Sydney | 2 | All Maps","name_short":"syd-2","host":"syd-1.au.uncletopia.com","port":27025,"enabled":true,"region":"au","cc":"au","latitude":-33.865143,"longitude":151.2099,"reserved":0,"last_update":"0001-01-01T00:00:00Z","name_a2s":"Uncletopia | Sydney | 2 | All Maps","protocol":17,"map":"cp_snakewater_final1","folder":"tf","game":"Team Fortress","app_id":440,"player_count":0,"max_players":24,"Bots":0,"server_type":"Dedicated","server_os":"Linux","password":true,"vac":true,"version":"7961495","steam_id":85568392924470002,"keywords":["cp","nocrits","nodmgspread","uncletopia"],"game_id":440,"stv_port":27026,"stv_name":"Uncletopia | Sydney | 2 | All Maps | STV","players":null},{"server_id":395,"name":"Uncletopia | Sydney | 3 | All Maps","name_short":"syd-3","host":"syd-1.au.uncletopia.com","port":27035,"enabled":true,"region":"au","cc":"au","latitude":-33.865143,"longitude":151.2099,"reserved":0,"last_update":"0001-01-01T00:00:00Z","name_a2s":"Uncletopia | Sydney | 3 | All Maps","protocol":17,"map":"koth_lakeside_final","folder":"tf","game":"Team Fortress","app_id":440,"player_count":0,"max_players":24,"Bots":0,"server_type":"Dedicated","server_os":"Linux","password":true,"vac":true,"version":"7961495","steam_id":85568392925194467,"keywords":["cp","nocrits","nodmgspread","uncletopia"],"game_id":440,"stv_port":27036,"stv_name":"Uncletopia | Sydney | 3 | All Maps | STV","players":null},{"server_id":396,"name":"Uncletopia | Sydney | 4 | All Maps","name_short":"syd-4","host":"syd-1.au.uncletopia.com","port":27045,"enabled":true,"region":"au","cc":"au","latitude":-33.865143,"longitude":151.2099,"reserved":0,"last_update":"0001-01-01T00:00:00Z","name_a2s":"Uncletopia | Sydney | 4 | All Maps","protocol":17,"map":"koth_highpass","folder":"tf","game":"Team Fortress","app_id":440,"player_count":0,"max_players":24,"Bots":0,"server_type":"Dedicated","server_os":"Linux","password":true,"vac":true,"version":"7961495","steam_id":85568392925397958,"keywords":["cp","nocrits","nodmgspread","uncletopia"],"game_id":440,"stv_port":27046,"stv_name":"Uncletopia | Sydney | 4 | All Maps | STV","players":null},{"server_id":58,"name":"Uncletopia | Sydney | 5 | Stopwatch","name_short":"syd-5","host":"syd-1.au.uncletopia.com","port":27055,"enabled":true,"region":"au","cc":"au","latitude":-33.865143,"longitude":151.2099,"reserved":0,"last_update":"0001-01-01T00:00:00Z","name_a2s":"Uncletopia | Sydney | 5 | Stopwatch","protocol":17,"map":"koth_highpass","folder":"tf","game":"Team Fortress","app_id":440,"player_count":0,"max_players":24,"Bots":0,"server_type":"Dedicated","server_os":"Linux","password":true,"vac":true,"version":"7961495","steam_id":85568392925397959,"keywords":["cp","nocrits","nodmgspread","uncletopia"],"game_id":440,"stv_port":27056,"stv_name":"Uncletopia | Sydney | 5 | Stopwatch | STV","players":null},{"server_id":59,"name":"Uncletopia | Sydney | 6 | Community","name_short":"syd-6","host":"syd-1.au.uncletopia.com","port":27065,"enabled":true,"region":"au","cc":"au","latitude":-33.865143,"longitude":151.2099,"reserved":0,"last_update":"0001-01-01T00:00:00Z","name_a2s":"Uncletopia | Sydney | 6 | Community","protocol":17,"map":"workshop/pl_fifthcurve_rc1.ugc648227046","folder":"tf","game":"Team Fortress","app_id":440,"player_count":0,"max_players":24,"Bots":0,"server_type":"Dedicated","server_os":"Linux","password":true,"vac":true,"version":"7961495","steam_id":85568392925397960,"keywords":["nocrits","nodmgspread","payload","uncletopia"],"game_id":440,"stv_port":27066,"stv_name":"Uncletopia | Sydney | 6 | Community | STV","players":null},{"server_id":49,"name":"Uncletopia | Warsaw | 1 | One Thousand Uncles","name_short":"waw-1","host":"waw-1.pl.uncletopia.com","port":27015,"enabled":true,"region":"eu","cc":"pl","latitude":52.2297,"longitude":21.017532,"reserved":0,"last_update":"0001-01-01T00:00:00Z","name_a2s":"Uncletopia | Warsaw | 1 | One Thousand Uncles","protocol":17,"map":"cp_mercenarypark","folder":"tf","game":"Team Fortress","app_id":440,"player_count":24,"max_players":32,"Bots":16,"server_type":"Dedicated","server_os":"Linux","password":true,"vac":true,"version":"7961495","steam_id":85568392925397850,"keywords":["alltalk","bots","cp","danepve","increased_maxplayers","nocrits","norespawntime","uncletopia"],"game_id":440,"stv_port":0,"stv_name":"","players":[{"user_id":547,"name":"sphere","steam_id":76561197971059842,"connected_time":336000000000,"state":"active","ping":70},{"user_id":481,"name":"𝒯𝓇𝓊𝓈𝓁𝒶𝓋228","steam_id":76561199229195988,"connected_time":5839000000000,"state":"active","ping":96},{"user_id":489,"name":"NoLongerSwiming","steam_id":76561199408731222,"connected_time":4954000000000,"state":"active","ping":100},{"user_id":545,"name":"Ricey","steam_id":76561198832961307,"connected_time":1085000000000,"state":"active","ping":71},{"user_id":549,"name":"?TheEnd","steam_id":76561198055280327,"connected_time":225000000000,"state":"active","ping":61},{"user_id":501,"name":"Charmedelf","steam_id":76561197993611881,"connected_time":3707000000000,"state":"active","ping":74},{"user_id":526,"name":"Benzo Fury","steam_id":76561198025259336,"connected_time":2247000000000,"state":"active","ping":77},{"user_id":499,"name":"Dosi","steam_id":76561199032025182,"connected_time":3766000000000,"state":"active","ping":45}]},{"server_id":50,"name":"Uncletopia | Warsaw | 2 | One Thousand Uncles","name_short":"waw-2","host":"waw-1.pl.uncletopia.com","port":27025,"enabled":true,"region":"eu","cc":"pl","latitude":52.2297,"longitude":21.017532,"reserved":0,"last_update":"0001-01-01T00:00:00Z","name_a2s":"Uncletopia | Warsaw | 2 | One Thousand Uncles","protocol":17,"map":"pl_chilly","folder":"tf","game":"Team Fortress","app_id":440,"player_count":30,"max_players":32,"Bots":16,"server_type":"Dedicated","server_os":"Linux","password":true,"vac":true,"version":"7961495","steam_id":85568392925397851,"keywords":["alltalk","bots","danepve","increased_maxplayers","nocrits","norespawntime","payload","uncletopia"],"game_id":440,"stv_port":0,"stv_name":"","players":[{"user_id":240,"name":"pyro","steam_id":76561199255856612,"connected_time":2285000000000,"state":"active","ping":40},{"user_id":221,"name":"Weegad Wobus","steam_id":76561199429562693,"connected_time":2553000000000,"state":"active","ping":75},{"user_id":222,"name":"Kenny_killer_69","steam_id":76561199465207725,"connected_time":2545000000000,"state":"active","ping":88},{"user_id":241,"name":"God Of Why (Saul Godman®)","steam_id":76561199007495784,"connected_time":2276000000000,"state":"active","ping":119},{"user_id":242,"name":"MisterLegitimate","steam_id":76561199198559715,"connected_time":2272000000000,"state":"active","ping":77},{"user_id":251,"name":"Demo gameming","steam_id":76561199445458247,"connected_time":1267000000000,"state":"active","ping":78},{"user_id":254,"name":"riaan222","steam_id":76561198167235331,"connected_time":931000000000,"state":"active","ping":222},{"user_id":255,"name":"Officerpogchamp","steam_id":76561199089266811,"connected_time":685000000000,"state":"active","ping":312},{"user_id":246,"name":"FinnishGuy","steam_id":76561198155380452,"connected_time":1915000000000,"state":"active","ping":98},{"user_id":249,"name":"The Troglodyte","steam_id":76561199119744358,"connected_time":1840000000000,"state":"active","ping":70},{"user_id":248,"name":"leon_kxk_pro","steam_id":76561199276201876,"connected_time":1859000000000,"state":"active","ping":356},{"user_id":256,"name":"Horny Police","steam_id":76561198213089804,"connected_time":526000000000,"state":"active","ping":66},{"user_id":257,"name":"Kaia Brodbecker","steam_id":76561198294109951,"connected_time":398000000000,"state":"active","ping":90},{"user_id":260,"name":"rolling_tim","steam_id":76561198373668332,"connected_time":18000000000,"state":"active","ping":82}]},{"server_id":51,"name":"Uncletopia | Warsaw | 3 | All Maps","name_short":"waw-3","host":"waw-1.pl.uncletopia.com","port":27035,"enabled":true,"region":"eu","cc":"pl","latitude":52.2297,"longitude":21.017532,"reserved":0,"last_update":"0001-01-01T00:00:00Z","name_a2s":"Uncletopia | Warsaw | 3 | All Maps","protocol":17,"map":"pl_upward","folder":"tf","game":"Team Fortress","app_id":440,"player_count":2,"max_players":24,"Bots":0,"server_type":"Dedicated","server_os":"Linux","password":true,"vac":true,"version":"7961495","steam_id":85568392925397852,"keywords":["nocrits","nodmgspread","payload","uncletopia"],"game_id":440,"stv_port":27036,"stv_name":"Uncletopia | Warsaw | 3 | All Maps | STV","players":[{"user_id":11,"name":"Mabert","steam_id":76561198436058407,"connected_time":5996000000000,"state":"active","ping":45},{"user_id":12,"name":"ashi","steam_id":76561198424646794,"connected_time":5986000000000,"state":"active","ping":77}]},{"server_id":52,"name":"Uncletopia | Warsaw | 4 | All Maps","name_short":"waw-4","host":"waw-1.pl.uncletopia.com","port":27045,"enabled":true,"region":"eu","cc":"pl","latitude":52.2297,"longitude":21.017532,"reserved":0,"last_update":"0001-01-01T00:00:00Z","name_a2s":"Uncletopia | Warsaw | 4 | All Maps","protocol":17,"map":"koth_cascade","folder":"tf","game":"Team Fortress","app_id":440,"player_count":0,"max_players":24,"Bots":0,"server_type":"Dedicated","server_os":"Linux","password":true,"vac":true,"version":"7961495","steam_id":85568392925397853,"keywords":["cp","nocrits","nodmgspread","uncletopia"],"game_id":440,"stv_port":27046,"stv_name":"Uncletopia | Warsaw | 4 | All Maps | STV","players":null},{"server_id":53,"name":"Uncletopia | Warsaw | 5 | Stopwatch","name_short":"waw-5","host":"waw-1.pl.uncletopia.com","port":27055,"enabled":true,"region":"eu","cc":"pl","latitude":52.2297,"longitude":21.017532,"reserved":0,"last_update":"0001-01-01T00:00:00Z","name_a2s":"Uncletopia | Warsaw | 5 | Stopwatch","protocol":17,"map":"workshop/koth_ashville_final.ugc2130459942","folder":"tf","game":"Team Fortress","app_id":440,"player_count":0,"max_players":24,"Bots":0,"server_type":"Dedicated","server_os":"Linux","password":true,"vac":true,"version":"7961495","steam_id":85568392925397854,"keywords":["cp","nocrits","nodmgspread","uncletopia"],"game_id":440,"stv_port":27056,"stv_name":"Uncletopia | Warsaw | 5 | Stopwatch | STV","players":null},{"server_id":54,"name":"Uncletopia | Warsaw | 6 | Community","name_short":"waw-6","host":"waw-1.pl.uncletopia.com","port":27065,"enabled":true,"region":"eu","cc":"pl","latitude":52.2297,"longitude":21.017532,"reserved":0,"last_update":"0001-01-01T00:00:00Z","name_a2s":"Uncletopia | Warsaw | 6 | Community","protocol":17,"map":"workshop/cp_mannbase_rc2a.ugc1900737467","folder":"tf","game":"Team Fortress","app_id":440,"player_count":0,"max_players":24,"Bots":0,"server_type":"Dedicated","server_os":"Linux","password":true,"vac":true,"version":"7961495","steam_id":85568392925397856,"keywords":["cp","nocrits","nodmgspread","uncletopia"],"game_id":440,"stv_port":27066,"stv_name":"Uncletopia | Warsaw | 6 | Community | STV","players":null}]}