{"status":true,"message":"","result":[{"server_id":9,"name":"Uncletopia | Atlanta | 1 | All Maps","name_short":"atl-1","host":"atl-1.us.uncletopia.com","port":27015,"enabled":true,"region":"us-east","cc":"us","latitude":33.753746,"longitude":-84.38633,"reserved":0,"last_update":"0001-01-01T00:00:00Z","name_a2s":"Uncletopia | Atlanta | 1 | All Maps","protocol":17,"map":"cp_snakewater_final1","folder":"tf","game":"Team Fortress","app_id":440,"player_count":24,"max_players":24,"Bots":0,"server_type":"Dedicated","server_os":"Linux","password":true,"vac":true,"version":"7961495","steam_id":85568392924469982,"keywords":["cp","nocrits","nodmgspread","uncletopia"],"game_id":440,"stv_port":27016,"stv_name":"Uncletopia | Atlanta | 1 | All Maps | STV","players":[{"user_id":789,"name":"Hey","steam_id":76561198447517893,"connected_time":2165000000000,"state":"active","ping":71},{"user_id":774,"name":"ThatOneDioDude (Joe Defender)","steam_id":76561198840608049,"connected_time":2777000000000,"state":"active","ping":57},{"user_id":771,"name":"Flint","steam_id":76561198066547582,"connected_time":2913000000000,"state":"active","ping":90},{"user_id":797,"name":"Chives","steam_id":76561198059496770,"connected_time":878000000000,"state":"active","ping":89},{"user_id":798,"name":"Class-D","steam_id":76561198016290546,"connected_time":864000000000,"state":"active","ping":49},{"user_id":753,"name":"canadian birds","steam_id":76561198059466588,"connected_time":4144000000000,"state":"active","ping":62},{"user_id":799,"name":"ChickenBagel","steam_id":76561198114485002,"connected_time":858000000000,"state":"active","ping":47},{"user_id":800,"name":"Mr. Quinsidence","steam_id":76561197996079255,"connected_time":846000000000,"state":"active","ping":54},{"user_id":813,"name":"All Tomorrow's Parties","steam_id":76561197995936212,"connected_time":177000000000,"state":"active","ping":60},{"user_id":803,"name":"GrilledSoup","steam_id":76561198056122722,"connected_time":813000000000,"state":"active","ping":112},{"user_id":802,"name":"Lmaogaman","steam_id":76561198155934737,"connected_time":828000000000,"state":"active","ping":101},{"user_id":815,"name":"Smooth, Refreshing Bleach™","steam_id":76561197981060504,"connected_time":25000000000,"state":"active","ping":62},{"user_id":812,"name":"fuzz","steam_id":76561198123865942,"connected_time":234000000000,"state":"active","ping":112},{"user_id":810,"name":"Grand Wizard King","steam_id":76561198099802660,"connected_time":674000000000,"state":"active","ping":60},{"user_id":804,"name":"Autumn Clover","steam_id":76561198012295314,"connected_time":779000000000,"state":"active","ping":60},{"user_id":796,"name":"paetho YT","steam_id":76561198152690003,"connected_time":1384000000000,"state":"active","ping":45},{"user_id":805,"name":"1000 Ping","steam_id":76561198098330939,"connected_time":768000000000,"state":"active","ping":116},{"user_id":783,"name":"giveit5","steam_id":76561198030815437,"connected_time":2312000000000,"state":"active","ping":93},{"user_id":784,"name":"cute anime girl","steam_id":76561198313129977,"connected_time":2299000000000,"state":"active","ping":91},{"user_id":806,"name":"ballmuncher29","steam_id":76561199122915452,"connected_time":765000000000,"state":"active","ping":111},{"user_id":814,"name":"Decapitation Station","steam_id":76561198201796098,"connected_time":129000000000,"state":"active","ping":60},{"user_id":792,"name":"The_Stomach_Stone_Surgeon","steam_id":76561198044643725,"connected_time":1840000000000,"state":"active","ping":44},{"user_id":807,"name":"noone","steam_id":76561198154540105,"connected_time":762000000000,"state":"active","ping":143},{"user_id":809,"name":"object permanence","steam_id":76561198050393061,"connected_time":716000000000,"state":"active","ping":97}]},{"server_id":104,"name":"Uncletopia | Atlanta | 2 | All Maps","name_short":"atl-2","host":"atl-1.us.uncletopia.com","port":27025,"enabled":true,"region":"us-east","cc":"us","latitude":33.753746,"longitude":-84.38633,"reserved":0,"last_update":"0001-01-01T00:00:00Z","name_a2s":"Uncletopia | Atlanta | 2 | All Maps","protocol":17,"map":"cp_sunshine","folder":"tf","game":"Team Fortress","app_id":440,"player_count":0,"max_players":24,"Bots":0,"server_type":"Dedicated","server_os":"Linux","password":true,"vac":true,"version":"7961495","steam_id":85568392924469983,"keywords":["cp","nocrits","nodmgspread","uncletopia"],"game_id":440,"stv_port":27026,"stv_name":"Uncletopia | Atlanta | 2 | All Maps | STV","players":null},{"server_id":400,"name":"Uncletopia | Atlanta | 3 | Stopwatch","name_short":"atl-3","host":"atl-1.us.uncletopia.com","port":27035,"enabled":true,"region":"us-east","cc":"us","latitude":33.753746,"longitude":-84.38633,"reserved":0,"last_update":"0001-01-01T00:00:00Z","name_a2s":"Uncletopia | Atlanta | 3 | Stopwatch","protocol":17,"map":"workshop/koth_bagel_rc6.ugc2514036946","folder":"tf","game":"Team Fortress","app_id":440,"player_count":4,"max_players":24,"Bots":0,"server_type":"Dedicated","server_os":"Linux","password":true,"vac":true,"version":"7961495","steam_id":85568392924515187,"keywords":["cp","nocrits","nodmgspread","uncletopia"],"game_id":440,"stv_port":27036,"stv_name":"Uncletopia | Atlanta | 3 | Stopwatch | STV","players":[{"user_id":264,"name":"You hate kissing boys,Don't you","steam_id":76561198996218460,"connected_time":3023000000000,"state":"active","ping":47},{"user_id":212,"name":"Fumohuxi Viriphyto","steam_id":76561198369395636,"connected_time":5801000000000,"state":"active","ping":83},{"user_id":277,"name":"Liver stealer","steam_id":76561199029954287,"connected_time":1699000000000,"state":"active","ping":110},{"user_id":268,"name":"notwarsley","steam_id":76561199144477781,"connected_time":2739000000000,"state":"active","ping":70}]},{"server_id":401,"name":"Uncletopia | Atlanta | 4 | Community","name_short":"atl-4","host":"atl-1.us.uncletopia.com","port":27045,"enabled":true,"region":"us-east","cc":"us","latitude":33.753746,"longitude":-84.38633,"reserved":0,"last_update":"0001-01-01T00:00:00Z","name_a2s":"Uncletopia | Atlanta | 4 | Community","protocol":17,"map":"workshop/koth_ashville_final.ugc2130459942","folder":"tf","game":"Team Fortress","app_id":440,"player_count":0,"max_players":24,"Bots":0,"server_type":"Dedicated","server_os":"Linux","password":true,"vac":true,"version":"7961495","steam_id":85568392924515188,"keywords":["cp","nocrits","nodmgspread","uncletopia"],"game_id":440,"stv_port":27046,"stv_name":"Uncletopia | Atlanta | 4 | Community | STV","players":null},{"server_id":2,"name":"Uncletopia | Chicago | 1 | All Maps","name_short":"chi-1","host":"chi-1.us.uncletopia.com","port":27015,"enabled":true,"region":"us-central","cc":"us","latitude":41.881832,"longitude":-87.62318,"reserved":0,"last_update":"0001-01-01T00:00:00Z","name_a2s":"Uncletopia | Chicago | 1 | All Maps","protocol":17,"map":"pl_upward","folder":"tf","game":"Team Fortress","app_id":440,"player_count":24,"max_players":24,"Bots":0,"server_type":"Dedicated","server_os":"Linux","password":true,"vac":true,"version":"7961495","steam_id":85568392924469984,"keywords":["nocrits","nodmgspread","payload","uncletopia"],"game_id":440,"stv_port":27016,"stv_name":"Uncletopia | Chicago | 1 | All Maps | STV","players":[{"user_id":819,"name":"Darkside_Gamer333","steam_id":76561198859756465,"connected_time":1983000000000,"state":"active","ping":69},{"user_id":827,"name":"TheUrgeWithin","steam_id":76561198033385972,"connected_time":830000000000,"state":"active","ping":114},{"user_id":845,"name":"Cheese","steam_id":76561198808224331,"connected_time":525000000000,"state":"active","ping":112},{"user_id":796,"name":"Synthess","steam_id":76561198305140294,"connected_time":5129000000000,"state":"active","ping":50},{"user_id":837,"name":"bath","steam_id":76561197969993352,"connected_time":750000000000,"state":"active","ping":64},{"user_id":802,"name":"K","steam_id":76561198171446177,"connected_time":4173000000000,"state":"active","ping":80},{"user_id":846,"name":"Ghosty","steam_id":76561198052906308,"connected_time":454000000000,"state":"active","ping":57},{"user_id":840,"name":"for the king","steam_id":76561197973488858,"connected_time":715000000000,"state":"active","ping":60},{"user_id":829,"name":"-Avh-","steam_id":76561198087593160,"connected_time":828000000000,"state":"active","ping":56},{"user_id":847,"name":"Russell","steam_id":76561198024159373,"connected_time":412000000000,"state":"active","ping":82},{"user_id":844,"name":"pinglefingle","steam_id":76561198216580197,"connected_time":609000000000,"state":"active","ping":74},{"user_id":832,"name":"TheGerg","steam_id":76561198257099217,"connected_time":804000000000,"state":"active","ping":75},{"user_id":833,"name":"Dove il bagno?","steam_id":76561198071559411,"connected_time":800000000000,"state":"active","ping":61},{"user_id":823,"name":"Sir Lagsalot","steam_id":76561198133576262,"connected_time":1133000000000,"state":"active","ping":61},{"user_id":841,"name":"Thot Police","steam_id":76561198084299100,"connected_time":715000000000,"state":"active","ping":60},{"user_id":834,"name":"Lord Shmeck","steam_id":76561198023851456,"connected_time":782000000000,"state":"active","ping":95},{"user_id":835,"name":"PantaloonSoiler","steam_id":76561198157903792,"connected_time":773000000000,"state":"active","ping":68},{"user_id":820,"name":"TheDeteggtive","steam_id":76561198982676826,"connected_time":1521000000000,"state":"active","ping":71},{"user_id":836,"name":"EvilHoneyBadger","steam_id":76561198118775370,"connected_time":770000000000,"state":"active","ping":55},{"user_id":838,"name":"Artic_Ryuu","steam_id":76561198182194918,"connected_time":747000000000,"state":"active","ping":103},{"user_id":839,"name":"Clubby McWank Fist","steam_id":76561198043085901,"connected_time":740000000000,"state":"active","ping":95},{"user_id":842,"name":"Joebobio","steam_id":76561198024442760,"connected_time":712000000000,"state":"active","ping":54},{"user_id":843,"name":"kaputon","steam_id":76561198146299782,"connected_time":708000000000,"state":"active","ping":60},{"user_id":817,"name":"Cr1spy","steam_id":76561198352080718,"connected_time":2352000000000,"state":"active","ping":65}]},{"server_id":106,"name":"Uncletopia | Chicago | 2 | All Maps","name_short":"chi-2","host":"chi-1.us.uncletopia.com","port":27025,"enabled":true,"region":"us-central","cc":"us","latitude":41.881832,"longitude":-87.62318,"reserved":0,"last_update":"0001-01-01T00:00:00Z","name_a2s":"Uncletopia | Chicago | 2 | All Maps","protocol":17,"map":"pl_snowycoast","folder":"tf","game":"Team Fortress","app_id":440,"player_count":23,"max_players":24,"Bots":0,"server_type":"Dedicated","server_os":"Linux","password":true,"vac":true,"version":"7961495","steam_id":85568392924469985,"keywords":["nocrits","nodmgspread","payload","uncletopia"],"game_id":440,"stv_port":27026,"stv_name":"Uncletopia | Chicago | 2 | All Maps | STV","players":[{"user_id":746,"name":"Harry Spotter","steam_id":76561198115714484,"connected_time":1750000000000,"state":"active","ping":125},{"user_id":761,"name":"That's So Raven! [Dexgod]","steam_id":76561198017130786,"connected_time":615000000000,"state":"active","ping":68},{"user_id":764,"name":"bee","steam_id":76561198178015361,"connected_time":513000000000,"state":"active","ping":51},{"user_id":731,"name":"ImpeachedPear","steam_id":76561199125565239,"connected_time":2500000000000,"state":"active","ping":69},{"user_id":679,"name":"bomba","steam_id":76561198301585642,"connected_time":4908000000000,"state":"active","ping":57},{"user_id":714,"name":"bread n butter babyyyyyyyyyy","steam_id":76561198110661425,"connected_time":3038000000000,"state":"active","ping":91},{"user_id":751,"name":"Sporkly","steam_id":76561199093213685,"connected_time":1393000000000,"state":"active","ping":58},{"user_id":765,"name":"Creature","steam_id":76561198194585781,"connected_time":466000000000,"state":"active","ping":89},{"user_id":766,"name":"Weed Dealer","steam_id":76561198418604400,"connected_time":466000000000,"state":"active","ping":91},{"user_id":752,"name":"Kracko","steam_id":76561198240580798,"connected_time":1351000000000,"state":"active","ping":74},{"user_id":767,"name":"Vanessa","steam_id":76561198020696265,"connected_time":454000000000,"state":"active","ping":63},{"user_id":768,"name":"Papa Smoke","steam_id":76561198181348206,"connected_time":397000000000,"state":"active","ping":49},{"user_id":720,"name":"nyna","steam_id":76561198029320773,"connected_time":2899000000000,"state":"active","ping":95},{"user_id":726,"name":"Pepsiman","steam_id":76561198085789499,"connected_time":2662000000000,"state":"active","ping":50},{"user_id":757,"name":"Admiral Crumbs","steam_id":76561198108791583,"connected_time":1113000000000,"state":"active","ping":68},{"user_id":733,"name":"John Fortnite","steam_id":76561198076608253,"connected_time":2427000000000,"state":"active","ping":84},{"user_id":769,"name":"Iron Argus","steam_id":76561198181088245,"connected_time":383000000000,"state":"active","ping":54},{"user_id":728,"name":"Toxic-Fluid","steam_id":76561198115530353,"connected_time":2644000000000,"state":"active","ping":59},{"user_id":755,"name":"pie","steam_id":76561198012945016,"connected_time":1148000000000,"state":"active","ping":51},{"user_id":770,"name":"Syndra's Futa Balls","steam_id":76561198058671296,"connected_time":371000000000,"state":"active","ping":68},{"user_id":771,"name":"Lucy Lou!","steam_id":76561198078209088,"connected_time":359000000000,"state":"active","ping":45},{"user_id":760,"name":"Bentus","steam_id":76561198056887235,"connected_time":739000000000,"state":"active","ping":53},{"user_id":756,"name":"I still miss","steam_id":76561199029094972,"connected_time":1147000000000,"state":"active","ping":64}]},{"server_id":402,"name":"Uncletopia | Chicago | 3 | All Maps","name_short":"chi-3","host":"chi-1.us.uncletopia.com","port":27035,"enabled":true,"region":"us-central","cc":"us","latitude":41.881832,"longitude":-87.62318,"reserved":0,"last_update":"0001-01-01T00:00:00Z","name_a2s":"Uncletopia | Chicago | 3 | All Maps","protocol":17,"map":"ctf_doublecross","folder":"tf","game":"Team Fortress","app_id":440,"player_count":16,"max_players":24,"Bots":0,"server_type":"Dedicated","server_os":"Linux","password":true,"vac":true,"version":"7961495","steam_id":85568392924515191,"keywords":["ctf","nocrits","nodmgspread","uncletopia"],"game_id":440,"stv_port":27036,"stv_name":"Uncletopia | Chicago | 3 | All Maps | STV","players":[{"user_id":684,"name":"Daddy-O Dizzy","steam_id":76561198292349348,"connected_time":48000000000,"state":"active","ping":67},{"user_id":537,"name":"lobster","steam_id":76561198147417707,"connected_time":15006000000000,"state":"active","ping":72},{"user_id":596,"name":"Alejandro","steam_id":76561197970051493,"connected_time":8167000000000,"state":"active","ping":126},{"user_id":600,"name":"vga cable","steam_id":76561198217402847,"connected_time":7936000000000,"state":"active","ping":104},{"user_id":617,"name":"Gaming is for girls","steam_id":76561198401725755,"connected_time":6733000000000,"state":"active","ping":46},{"user_id":673,"name":"MyLittleArmy","steam_id":76561199474089340,"connected_time":1402000000000,"state":"active","ping":93},{"user_id":678,"name":"Goth Girl Communism","steam_id":76561198086121413,"connected_time":736000000000,"state":"active","ping":61},{"user_id":667,"name":":)!","steam_id":76561198853972150,"connected_time":1843000000000,"state":"active","ping":96},{"user_id":683,"name":"Nari","steam_id":76561199220038535,"connected_time":99000000000,"state":"active","ping":45},{"user_id":680,"name":"Lilac","steam_id":76561198398126607,"connected_time":612000000000,"state":"active","ping":137},{"user_id":675,"name":"MaybeMars","steam_id":76561198084736804,"connected_time":1176000000000,"state":"active","ping":61},{"user_id":681,"name":"Felonius Bolus","steam_id":76561198153295874,"connected_time":392000000000,"state":"active","ping":93},{"user_id":677,"name":"Beepleton The 3rd","steam_id":76561198081466207,"connected_time":859000000000,"state":"active","ping":62},{"user_id":665,"name":"vacachimuela","steam_id":76561198297332421,"connected_time":2358000000000,"state":"active","ping":105},{"user_id":671,"name":"TTVPlumSmug","steam_id":76561198103960265,"connected_time":1739000000000,"state":"active","ping":57},{"user_id":672,"name":"Echo","steam_id":76561199165491231,"connected_time":1707000000000,"state":"active","ping":37}]},{"server_id":403,"name":"Uncletopia | Chicago | 4 | All Maps","name_short":"chi-4","host":"chi-1.us.uncletopia.com","port":27045,"enabled":true,"region":"us-central","cc":"us","latitude":41.881832,"longitude":-87.62318,"reserved":0,"last_update":"0001-01-01T00:00:00Z","name_a2s":"Uncletopia | Chicago | 4 | All Maps","protocol":17,"map":"koth_cascade","folder":"tf","game":"Team Fortress","app_id":440,"player_count":0,"max_players":24,"Bots":0,"server_type":"Dedicated","server_os":"Linux","password":true,"vac":true,"version":"7961495","steam_id":85568392924515193,"keywords":["cp","nocrits","nodmgspread","uncletopia"],"game_id":440,"stv_port":27046,"stv_name":"Uncletopia | Chicago | 4 | All Maps | STV","players":null},{"server_id":36,"name":"Uncletopia | Chicago | 5 | All Maps","name_short":"chi-5","host":"chi-2.us.uncletopia.com","port":27015,"enabled":true,"region":"us-central","cc":"us","latitude":41.881832,"longitude":-87.62318,"reserved":0,"last_update":"0001-01-01T00:00:00Z","name_a2s":"Uncletopia | Chicago | 5 | All Maps","protocol":17,"map":"pl_badwater","folder":"tf","game":"Team Fortress","app_id":440,"player_count":24,"max_players":24,"Bots":0,"server_type":"Dedicated","server_os":"Linux","password":true,"vac":true,"version":"7961495","steam_id":85568392924866362,"keywords":["nocrits","nodmgspread","payload","uncletopia"],"game_id":440,"stv_port":27016,"stv_name":"Uncletopia | Chicago | 5 | All Maps | STV","players":[{"user_id":846,"name":"Low IQ","steam_id":76561199107226168,"connected_time":496000000000,"state":"active","ping":126},{"user_id":769,"name":"Yongle","steam_id":76561198068591156,"connected_time":7055000000000,"state":"active","ping":59},{"user_id":845,"name":"there is cum in my ramen","steam_id":76561198059815894,"connected_time":634000000000,"state":"active","ping":59},{"user_id":817,"name":"9gon Danmar33","steam_id":76561198056453091,"connected_time":4127000000000,"state":"active","ping":48},{"user_id":722,"name":"cinamin.kake","steam_id":76561199003171233,"connected_time":10758000000000,"state":"active","ping":54},{"user_id":847,"name":"Just Nick","steam_id":76561198326430632,"connected_time":377000000000,"state":"active","ping":166},{"user_id":839,"name":"Sea Raider","steam_id":76561198055654064,"connected_time":1778000000000,"state":"active","ping":89},{"user_id":834,"name":"A Mysterious Gift","steam_id":76561198077838946,"connected_time":2996000000000,"state":"active","ping":59},{"user_id":829,"name":"Mother french fry","steam_id":76561197995620232,"connected_time":3215000000000,"state":"active","ping":57},{"user_id":843,"name":"Andrew's Taint","steam_id":76561198131400543,"connected_time":1280000000000,"state":"active","ping":78},{"user_id":840,"name":"THE MENACE","steam_id":76561198312055294,"connected_time":1777000000000,"state":"active","ping":60},{"user_id":841,"name":"DA GOOFY MENACE ^_^ \u003c3","steam_id":76561198832230598,"connected_time":1746000000000,"state":"active","ping":77},{"user_id":789,"name":"Evie","steam_id":76561198004001828,"connected_time":5864000000000,"state":"active","ping":38},{"user_id":823,"name":"Recyclops","steam_id":76561198258909388,"connected_time":3923000000000,"state":"active","ping":56},{"user_id":821,"name":"Yummy Kabobz","steam_id":76561198067661705,"connected_time":3955000000000,"state":"active","ping":69},{"user_id":761,"name":"uhooter","steam_id":76561198007829078,"connected_time":7368000000000,"state":"active","ping":51},{"user_id":848,"name":"55 Gallon Barrel of Duke's Mayo","steam_id":76561198092483430,"connected_time":179000000000,"state":"active","ping":76},{"user_id":830,"name":"greg airfryer","steam_id":76561197999215868,"connected_time":3207000000000,"state":"active","ping":49},{"user_id":822,"name":"Mr. Onion","steam_id":76561198153165950,"connected_time":3946000000000,"state":"active","ping":68},{"user_id":792,"name":"Poorly Drawn Bees","steam_id":76561197996763330,"connected_time":5837000000000,"state":"active","ping":80},{"user_id":634,"name":"Clean Lines","steam_id":76561197960691518,"connected_time":17739000000000,"state":"active","ping":55},{"user_id":793,"name":"maxey","steam_id":76561198096393648,"connected_time":5821000000000,"state":"active","ping":74},{"user_id":837,"name":"Super Mario Smoking Weed","steam_id":76561198069814977,"connected_time":2477000000000,"state":"active","ping":75},{"user_id":835,"name":"CherriKat","steam_id":76561198821297512,"connected_time":2865000000000,"state":"active","ping":109}]},{"server_id":37,"name":"Uncletopia | Chicago | 6 | All Maps","name_short":"chi-6","host":"chi-2.us.uncletopia.com","port":27025,"enabled":true,"region":"us-central","cc":"us","latitude":41.881832,"longitude":-87.62318,"reserved":0,"last_update":"0001-01-01T00:00:00Z","name_a2s":"Uncletopia | Chicago | 6 | All Maps","protocol":17,"map":"cp_process_final","folder":"tf","game":"Team Fortress","app_id":440,"player_count":23,"max_players":24,"Bots":0,"server_type":"Dedicated","server_os":"Linux","password":true,"vac":true,"version":"7961495","steam_id":85568392924866363,"keywords":["cp","nocrits","nodmgspread","uncletopia"],"game_id":440,"stv_port":27026,"stv_name":"Uncletopia | Chicago | 6 | All Maps | STV","players":[{"user_id":969,"name":"Lemon Soda","steam_id":76561198140208761,"connected_time":2985000000000,"state":"active","ping":52},{"user_id":968,"name":"Lumi","steam_id":76561198089978036,"connected_time":3007000000000,"state":"active","ping":57},{"user_id":935,"name":"Scarecrow","steam_id":76561198045870511,"connected_time":4814000000000,"state":"active","ping":48},{"user_id":950,"name":"raging rabbit","steam_id":76561198395202564,"connected_time":4000000000000,"state":"active","ping":104},{"user_id":991,"name":"LerN","steam_id":76561198083463877,"connected_time":122000000000,"state":"active","ping":52},{"user_id":979,"name":"Azeerthe","steam_id":76561198045728214,"connected_time":1681000000000,"state":"active","ping":103},{"user_id":976,"name":"Skiz","steam_id":76561198121144361,"connected_time":2001000000000,"state":"active","ping":60},{"user_id":981,"name":"Prof. Abedul","steam_id":76561198146171581,"connected_time":1384000000000,"state":"active","ping":123},{"user_id":971,"name":"Meme Supreme","steam_id":76561198116265509,"connected_time":2876000000000,"state":"active","ping":56},{"user_id":989,"name":"demon girl kisser :3c","steam_id":76561198248461754,"connected_time":1024000000000,"state":"active","ping":95},{"user_id":984,"name":"wrongthink","steam_id":76561198830293087,"connected_time":1216000000000,"state":"active","ping":45},{"user_id":990,"name":"demon girl","steam_id":76561198100477765,"connected_time":793000000000,"state":"active","ping":87},{"user_id":948,"name":"Sire Salty","steam_id":76561198079639072,"connected_time":4235000000000,"state":"active","ping":63},{"user_id":949,"name":"Evie","steam_id":76561198967313085,"connected_time":4105000000000,"state":"active","ping":105},{"user_id":987,"name":"werecat","steam_id":76561198005091213,"connected_time":1143000000000,"state":"active","ping":58},{"user_id":952,"name":"Excalibrine","steam_id":76561198129312118,"connected_time":3910000000000,"state":"active","ping":90},{"user_id":978,"name":"TheKyleB","steam_id":76561198202515104,"connected_time":1942000000000,"state":"active","ping":45},{"user_id":992,"name":"Andallfor","steam_id":76561198350143349,"connected_time":118000000000,"state":"active","ping":78},{"user_id":980,"name":"Zezhest","steam_id":76561198038521979,"connected_time":1408000000000,"state":"active","ping":75},{"user_id":985,"name":"RocketRabbit","steam_id":76561198803062131,"connected_time":1205000000000,"state":"active","ping":58},{"user_id":961,"name":"Cornelius","steam_id":76561198123447388,"connected_time":3771000000000,"state":"active","ping":45},{"user_id":993,"name":"KingJ470","steam_id":76561198422771078,"connected_time":67000000000,"state":"active","ping":90},{"user_id":967,"name":"Aegle","steam_id":76561198871463455,"connected_time":3018000000000,"state":"active","ping":93}]},{"server_id":38,"name":"Uncletopia | Chicago | 7 | Stopwatch","name_short":"chi-7","host":"chi-2.us.uncletopia.com","port":27035,"enabled":true,"region":"us-central","cc":"us","latitude":41.881832,"longitude":-87.62318,"reserved":0,"last_update":"0001-01-01T00:00:00Z","name_a2s":"Uncletopia | Chicago | 7 | Stopwatch","protocol":17,"map":"workshop/koth_bagel_rc6.ugc2514036946","folder":"tf","game":"Team Fortress","app_id":440,"player_count":0,"max_players":24,"Bots":0,"server_type":"Dedicated","server_os":"Linux","password":true,"vac":true,"version":"7961495","steam_id":85568392924866364,"keywords":["cp","nocrits","nodmgspread","uncletopia"],"game_id":440,"stv_port":27036,"stv_name":"Uncletopia | Chicago | 7 | Stopwatch | STV","players":null},{"server_id":39,"name":"Uncletopia | Chicago | 8 | Community","name_short":"chi-8","host":"chi-2.us.uncletopia.com","port":27045,"enabled":true,"region":"us-central","cc":"us","latitude":41.881832,"longitude":-87.62318,"reserved":0,"last_update":"0001-01-01T00:00:00Z","name_a2s":"Uncletopia | Chicago | 8 | Community","protocol":17,"map":"workshop/pl_boundary_final1.ugc456799153","folder":"tf","game":"Team Fortress","app_id":440,"player_count":0,"max_players":24,"Bots":0,"server_type":"Dedicated","server_os":"Linux","password":true,"vac":true,"version":"7961495","steam_id":85568392924866365,"keywords":["nocrits","nodmgspread","payload","uncletopia"],"game_id":440,"stv_port":27046,"stv_name":"Uncletopia | Chicago | 8 | Community | STV","players":null},{"server_id":8,"name":"Uncletopia | Dallas | 1 | All Maps","name_short":"dal-1","host":"dal-1.us.uncletopia.com","port":27015,"enabled":true,"region":"us-central","cc":"us","latitude":32.779167,"longitude":-96.80889,"reserved":0,"last_update":"0001-01-01T00:00:00Z","name_a2s":"Uncletopia | Dallas | 1 | All Maps","protocol":17,"map":"cp_mountainlab","folder":"tf","game":"Team Fortress","app_id":440,"player_count":23,"max_players":24,"Bots":0,"server_type":"Dedicated","server_os":"Linux","password":true,"vac":true,"version":"7961495","steam_id":85568392924469986,"keywords":["cp","nocrits","nodmgspread","uncletopia"],"game_id":440,"stv_port":27016,"stv_name":"Uncletopia | Dallas | 1 | All Maps | STV","players":[{"user_id":638,"name":"JAKandBEL","steam_id":76561198213060931,"connected_time":224000000000,"state":"active","ping":64},{"user_id":634,"name":"GoldtoothFour","steam_id":76561198055529332,"connected_time":789000000000,"state":"active","ping":63},{"user_id":639,"name":"paypur -rng","steam_id":76561198214370515,"connected_time":145000000000,"state":"active","ping":94},{"user_id":637,"name":"Adnapeht","steam_id":76561198395949213,"connected_time":278000000000,"state":"active","ping":87},{"user_id":633,"name":"Spygie","steam_id":76561198218573049,"connected_time":871000000000,"state":"active","ping":69},{"user_id":611,"name":"tbm john","steam_id":76561198304194081,"connected_time":2021000000000,"state":"active","ping":110},{"user_id":612,"name":"certified ass bandit","steam_id":76561198278070526,"connected_time":2010000000000,"state":"active","ping":112},{"user_id":613,"name":"PeteyVøn","steam_id":76561198357449422,"connected_time":1998000000000,"state":"active","ping":105},{"user_id":614,"name":"roast pig with apple in mouth","steam_id":76561198051353647,"connected_time":1992000000000,"state":"active","ping":71},{"user_id":569,"name":"JakeOwlsky","steam_id":76561198139194230,"connected_time":4919000000000,"state":"active","ping":95},{"user_id":627,"name":"HomeSkoola","steam_id":76561198000526372,"connected_time":1447000000000,"state":"active","ping":104},{"user_id":640,"name":"Neutral Kaiser","steam_id":76561198190200054,"connected_time":80000000000,"state":"active","ping":47},{"user_id":595,"name":"Mr. Squirt","steam_id":76561198174755679,"connected_time":2606000000000,"state":"active","ping":74},{"user_id":629,"name":"Rin \"Hindwing\" Redtail","steam_id":76561199074865638,"connected_time":1428000000000,"state":"active","ping":50},{"user_id":641,"name":"HotHead","steam_id":76561198138468982,"connected_time":67000000000,"state":"active","ping":103},{"user_id":635,"name":"Shrimp Flavored Noodles","steam_id":76561198145209609,"connected_time":543000000000,"state":"active","ping":53},{"user_id":615,"name":"TBM | Jobr","steam_id":76561198016594813,"connected_time":1991000000000,"state":"active","ping":112},{"user_id":620,"name":"Lunch Enjoyer","steam_id":76561198037361116,"connected_time":1809000000000,"state":"active","ping":100},{"user_id":566,"name":"Asrael","steam_id":76561197986044901,"connected_time":5231000000000,"state":"active","ping":91},{"user_id":588,"name":"errant","steam_id":76561197961758410,"connected_time":3168000000000,"state":"active","ping":41},{"user_id":642,"name":"crunchy obama","steam_id":76561198044485217,"connected_time":29000000000,"state":"active","ping":92},{"user_id":618,"name":"Gorm \"Squim \u0026 Squalor\" Buckeye","steam_id":76561198857406118,"connected_time":1882000000000,"state":"active","ping":93},{"user_id":643,"name":"S H ◎ K A","steam_id":76561198068084541,"connected_time":12000000000,"state":"spawning","ping":55}]},{"server_id":108,"name":"Uncletopia | Dallas | 2 | All Maps","name_short":"dal-2","host":"dal-1.us.uncletopia.com","port":27025,"enabled":true,"region":"us-central","cc":"us","latitude":32.779167,"longitude":-96.80889,"reserved":0,"last_update":"0001-01-01T00:00:00Z","name_a2s":"Uncletopia | Dallas | 2 | All Maps","protocol":17,"map":"plr_nightfall_final","folder":"tf","game":"Team Fortress","app_id":440,"player_count":24,"max_players":24,"Bots":0,"server_type":"Dedicated","server_os":"Linux","password":true,"vac":true,"version":"7961495","steam_id":85568392924469988,"keywords":["nocrits","nodmgspread","payload","uncletopia"],"game_id":440,"stv_port":27026,"stv_name":"Uncletopia | Dallas | 2 | All Maps | STV","players":[{"user_id":736,"name":"C Sharp Minor","steam_id":76561199185191710,"connected_time":1451000000000,"state":"active","ping":130},{"user_id":730,"name":"Crλf227","steam_id":76561198196211121,"connected_time":1702000000000,"state":"active","ping":67},{"user_id":768,"name":"You Want Me","steam_id":76561198135492119,"connected_time":250000000000,"state":"active","ping":76},{"user_id":748,"name":"AMONGUS","steam_id":76561199176017593,"connected_time":1332000000000,"state":"active","ping":78},{"user_id":765,"name":"PageBoiSkull","steam_id":76561198237353578,"connected_time":600000000000,"state":"active","ping":91},{"user_id":740,"name":"Gamer1243","steam_id":76561199073760355,"connected_time":1410000000000,"state":"active","ping":81},{"user_id":734,"name":"くコ:彡","steam_id":76561199200969139,"connected_time":1554000000000,"state":"active","ping":102},{"user_id":737,"name":"Cthulhu's Malewife","steam_id":76561198085888959,"connected_time":1445000000000,"state":"active","ping":64},{"user_id":643,"name":"Killer-Of-Night","steam_id":76561198054038830,"connected_time":6300000000000,"state":"active","ping":91},{"user_id":739,"name":"SnareString","steam_id":76561199082119457,"connected_time":1437000000000,"state":"active","ping":105},{"user_id":742,"name":"✧.*Remzy✧.*","steam_id":76561199239412094,"connected_time":1389000000000,"state":"active","ping":165},{"user_id":753,"name":"wishtil","steam_id":76561198019206178,"connected_time":1134000000000,"state":"active","ping":78},{"user_id":747,"name":"Doom","steam_id":76561198181117955,"connected_time":1344000000000,"state":"active","ping":78},{"user_id":749,"name":"Norther","steam_id":76561198357429049,"connected_time":1331000000000,"state":"active","ping":68},{"user_id":677,"name":"the BIGGEST fan","steam_id":76561198253710690,"connected_time":4520000000000,"state":"active","ping":99},{"user_id":755,"name":"SmiggleGiggle","steam_id":76561198171810677,"connected_time":1085000000000,"state":"active","ping":120},{"user_id":756,"name":"The janitor(El coyote)","steam_id":76561198414300607,"connected_time":1010000000000,"state":"active","ping":80},{"user_id":757,"name":"SteveC","steam_id":76561197994786195,"connected_time":990000000000,"state":"active","ping":84},{"user_id":758,"name":"oh god sapling what a loser lma","steam_id":76561198219989331,"connected_time":988000000000,"state":"active","ping":71},{"user_id":759,"name":"Medi","steam_id":76561198160010984,"connected_time":988000000000,"state":"active","ping":56},{"user_id":766,"name":"sloth (lawful good)","steam_id":76561198047098172,"connected_time":578000000000,"state":"active","ping":95},{"user_id":761,"name":"UnkownGamerLOL","steam_id":76561198225902368,"connected_time":949000000000,"state":"active","ping":63},{"user_id":718,"name":"Jetstream Sam","steam_id":76561198842076296,"connected_time":1945000000000,"state":"active","ping":52},{"user_id":762,"name":"Pie™","steam_id":76561198158312625,"connected_time":920000000000,"state":"active","ping":120}]},{"server_id":404,"name":"Uncletopia | Dallas | 3 | All Maps","name_short":"dal-3","host":"dal-1.us.uncletopia.com","port":27035,"enabled":true,"region":"us-central","cc":"us","latitude":32.779167,"longitude":-96.80889,"reserved":0,"last_update":"0001-01-01T00:00:00Z","name_a2s":"Uncletopia | Dallas | 3 | All Maps","protocol":17,"map":"pl_swiftwater_final1","folder":"tf","game":"Team Fortress","app_id":440,"player_count":24,"max_players":24,"Bots":0,"server_type":"Dedicated","server_os":"Linux","password":true,"vac":true,"version":"7961495","steam_id":85568392924515219,"keywords":["nocrits","nodmgspread","payload","uncletopia"],"game_id":440,"stv_port":27036,"stv_name":"Uncletopia | Dallas | 3 | All Maps | STV","players":[{"user_id":123,"name":"Vix The Zoroark","steam_id":76561198292181452,"connected_time":676000000000,"state":"active","ping":87},{"user_id":94,"name":"No.21 - Feral Scent","steam_id":76561198045844070,"connected_time":3011000000000,"state":"active","ping":59},{"user_id":75,"name":"2cats_2curious","steam_id":76561198027143149,"connected_time":3752000000000,"state":"active","ping":60},{"user_id":107,"name":"Gemmma","steam_id":76561198102160302,"connected_time":2365000000000,"state":"active","ping":78},{"user_id":113,"name":"Nova Academy of Salmon Action","steam_id":76561198021842526,"connected_time":1706000000000,"state":"active","ping":79},{"user_id":114,"name":"zzzz","steam_id":76561198310495200,"connected_time":1699000000000,"state":"active","ping":76},{"user_id":86,"name":"Zesty Zucchini Ziti","steam_id":76561198092494136,"connected_time":3603000000000,"state":"active","ping":67},{"user_id":120,"name":"Burny Sanders","steam_id":76561197961879048,"connected_time":754000000000,"state":"active","ping":45},{"user_id":121,"name":"CharlieSpaniel","steam_id":76561198390647755,"connected_time":747000000000,"state":"active","ping":86},{"user_id":126,"name":"Female Gamer","steam_id":76561199366482682,"connected_time":20000000000,"state":"spawning","ping":102},{"user_id":92,"name":"Cinnifox","steam_id":76561198068773971,"connected_time":3352000000000,"state":"active","ping":74},{"user_id":112,"name":"xbox record that","steam_id":76561198150117455,"connected_time":1812000000000,"state":"active","ping":79},{"user_id":110,"name":"Spoogley★","steam_id":76561198124597623,"connected_time":1891000000000,"state":"active","ping":59},{"user_id":115,"name":"sleepy","steam_id":76561198450003554,"connected_time":1496000000000,"state":"active","ping":76},{"user_id":89,"name":"Walter White","steam_id":76561198265079595,"connected_time":3565000000000,"state":"active","ping":60},{"user_id":102,"name":"Doggo","steam_id":76561198051514850,"connected_time":2649000000000,"state":"active","ping":87},{"user_id":93,"name":"supcupman","steam_id":76561198051513866,"connected_time":3050000000000,"state":"active","ping":93},{"user_id":122,"name":"Lucifer The Lucario","steam_id":76561198031226933,"connected_time":741000000000,"state":"active","ping":165},{"user_id":90,"name":"Pip","steam_id":76561198243520638,"connected_time":3564000000000,"state":"active","ping":83},{"user_id":116,"name":"short bus enthusiast","steam_id":76561198069380992,"connected_time":1317000000000,"state":"active","ping":60},{"user_id":125,"name":"Saint!","steam_id":76561198150438871,"connected_time":277000000000,"state":"active","ping":83},{"user_id":95,"name":"BreakfastTacos","steam_id":76561198847620442,"connected_time":3006000000000,"state":"active","ping":43},{"user_id":87,"name":"boom guy haha","steam_id":76561198062993488,"connected_time":3583000000000,"state":"active","ping":77},{"user_id":118,"name":"Riff III","steam_id":76561198066921423,"connected_time":784000000000,"state":"active","ping":62}]},{"server_id":405,"name":"Uncletopia | Dallas | 4 | Community","name_short":"dal-4","host":"dal-1.us.uncletopia.com","port":27045,"enabled":true,"region":"us-central","cc":"us","latitude":32.779167,"longitude":-96.80889,"reserved":0,"last_update":"0001-01-01T00:00:00Z","name_a2s":"Uncletopia | Dallas | 4 | Community","protocol":17,"map":"workshop/koth_synthetic_rc6a.ugc1549817316","folder":"tf","game":"Team Fortress","app_id":440,"player_count":0,"max_players":24,"Bots":0,"server_type":"Dedicated","server_os":"Linux","password":true,"vac":true,"version":"7961495","steam_id":85568392924515220,"keywords":["cp","nocrits","nodmgspread","uncletopia"],"game_id":440,"stv_port":27046,"stv_name":"Uncletopia | Dallas | 4 | Community | STV","players":null},{"server_id":5,"name":"Uncletopia | Frankfurt | 1 | All Maps","name_short":"frk-1","host":"frk-1.de.uncletopia.com","port":27015,"enabled":true,"region":"eu","cc":"de","latitude":50.110924,"longitude":8.682127,"reserved":0,"last_update":"0001-01-01T00:00:00Z","name_a2s":"Uncletopia | Frankfurt | 1 | All Maps","protocol":17,"map":"cp_badlands","folder":"tf","game":"Team Fortress","app_id":440,"player_count":0,"max_players":24,"Bots":0,"server_type":"Dedicated","server_os":"Linux","password":true,"vac":true,"version":"7961495","steam_id":85568392924469989,"keywords":["cp","nocrits","nodmgspread","uncletopia"],"game_id":440,"stv_port":27016,"stv_name":"Uncletopia | Frankfurt | 1 | All Maps | STV","players":null},{"server_id":110,"name":"Uncletopia | Frankfurt | 2 | All Maps","name_short":"frk-2","host":"frk-1.de.uncletopia.com","port":27025,"enabled":true,"region":"eu","cc":"de","latitude":50.110924,"longitude":8.682127,"reserved":0,"last_update":"0001-01-01T00:00:00Z","name_a2s":"Uncletopia | Frankfurt | 2 | All Maps","protocol":17,"map":"plr_hightower","folder":"tf","game":"Team Fortress","app_id":440,"player_count":0,"max_players":24,"Bots":0,"server_type":"Dedicated","server_os":"Linux","password":true,"vac":true,"version":"7961495","steam_id":85568392924469990,"keywords":["nocrits","nodmgspread","payload","uncletopia"],"game_id":440,"stv_port":27026,"stv_name":"Uncletopia | Frankfurt | 2 | All Maps | STV","players":null},{"server_id":308,"name":"Uncletopia | Frankfurt | 3 | All Maps","name_short":"frk-3","host":"frk-1.de.uncletopia.com","port":27035,"enabled":true,"region":"eu","cc":"de","latitude":50.110924,"longitude":8.682127,"reserved":0,"last_update":"0001-01-01T00:00:00Z","name_a2s":"Uncletopia | Frankfurt | 3 | All Maps","protocol":17,"map":"cp_metalworks","folder":"tf","game":"Team Fortress","app_id":440,"player_count":0,"max_players":24,"Bots":0,"server_type":"Dedicated","server_os":"Linux","password":true,"vac":true,"version":"7961495","steam_id":85568392924504274,"keywords":["cp","nocrits","nodmgspread","uncletopia"],"game_id":440,"stv_port":27036,"stv_name":"Uncletopia | Frankfurt | 3 | All Maps | STV","players":null},{"server_id":309,"name":"Uncletopia | Frankfurt | 4 | All Maps","name_short":"frk-4","host":"frk-1.de.uncletopia.com","port":27045,"enabled":true,"region":"eu","cc":"de","latitude":50.110924,"longitude":8.682127,"reserved":0,"last_update":"0001-01-01T00:00:00Z","name_a2s":"Uncletopia | Frankfurt | 4 | All Maps","protocol":17,"map":"cp_gorge","folder":"tf","game":"Team Fortress","app_id":440,"player_count":0,"max_players":24,"Bots":0,"server_type":"Dedicated","server_os":"Linux","password":true,"vac":true,"version":"7961495","steam_id":85568392924504275,"keywords":["cp","nocrits","nodmgspread","uncletopia"],"game_id":440,"stv_port":27046,"stv_name":"Uncletopia | Frankfurt | 4 | All Maps | STV","players":null},{"server_id":310,"name":"Uncletopia | Frankfurt | 5 | All Maps","name_short":"frk-5","host":"frk-1.de.uncletopia.com","port":27055,"enabled":true,"region":"eu","cc":"de","latitude":50.110924,"longitude":8.682127,"reserved":0,"last_update":"0001-01-01T00:00:00Z","name_a2s":"Uncletopia | Frankfurt | 5 | All Maps","protocol":17,"map":"cp_mountainlab","folder":"tf","game":"Team Fortress","app_id":440,"player_count":0,"max_players":24,"Bots":0,"server_type":"Dedicated","server_os":"Linux","password":true,"vac":true,"version":"7961495","steam_id":85568392924504277,"keywords":["cp","nocrits","nodmgspread","uncletopia"],"game_id":440,"stv_port":27056,"stv_name":"Uncletopia | Frankfurt | 5 | All Maps | STV","players":null},{"server_id":311,"name":"Uncletopia | Frankfurt | 6 | All Maps","name_short":"frk-6","host":"frk-1.de.uncletopia.com","port":27065,"enabled":true,"region":"eu","cc":"de","latitude":50.110924,"longitude":8.682127,"reserved":0,"last_update":"0001-01-01T00:00:00Z","name_a2s":"Uncletopia | Frankfurt | 6 | All Maps","protocol":17,"map":"cp_coldfront","folder":"tf","game":"Team Fortress","app_id":440,"player_count":0,"max_players":24,"Bots":0,"server_type":"Dedicated","server_os":"Linux","password":true,"vac":true,"version":"7961495","steam_id":85568392924504278,"keywords":["cp","nocrits","nodmgspread","uncletopia"],"game_id":440,"stv_port":27066,"stv_name":"Uncletopia | Frankfurt | 6 | All Maps | STV","players":null},{"server_id":23,"name":"Uncletopia | Frankfurt | 7 | Stopwatch","name_short":"frk-7","host":"frk-1.de.uncletopia.com","port":27075,"enabled":true,"region":"eu","cc":"de","latitude":50.110924,"longitude":8.682127,"reserved":0,"last_update":"0001-01-01T00:00:00Z","name_a2s":"Uncletopia | Frankfurt | 7 | Stopwatch","protocol":17,"map":"cp_sunshine","folder":"tf","game":"Team Fortress","app_id":440,"player_count":0,"max_players":24,"Bots":0,"server_type":"Dedicated","server_os":"Linux","password":true,"vac":true,"version":"7961495","steam_id":85568392924742827,"keywords":["cp","nocrits","nodmgspread","uncletopia"],"game_id":440,"stv_port":27076,"stv_name":"Uncletopia | Frankfurt | 7 | Stopwatch | STV","players":null},{"server_id":24,"name":"Uncletopia | Frankfurt | 8 | Community","name_short":"frk-8","host":"frk-1.de.uncletopia.com","port":27085,"enabled":true,"region":"eu","cc":"de","latitude":50.110924,"longitude":8.682127,"reserved":0,"last_update":"0001-01-01T00:00:00Z","name_a2s":"Uncletopia | Frankfurt | 8 | Community","protocol":17,"map":"workshop/pl_boundary_final1.ugc456799153","folder":"tf","game":"Team Fortress","app_id":440,"player_count":0,"max_players":24,"Bots":0,"server_type":"Dedicated","server_os":"Linux","password":true,"vac":true,"version":"7961495","steam_id":85568392924742828,"keywords":["nocrits","nodmgspread","payload","uncletopia"],"game_id":440,"stv_port":27086,"stv_name":"Uncletopia | Frankfurt | 8 | Community | STV","players":null},{"server_id":202,"name":"Uncletopia | Hong Kong | 1 | All Maps","name_short":"hgk-1","host":"hgk-1.hk.uncletopia.com","port":27015,"enabled":true,"region":"asia","cc":"hk","latitude":22.302711,"longitude":114.177216,"reserved":0,"last_update":"0001-01-01T00:00:00Z","name_a2s":"Uncletopia | Hong Kong | 1 | All Maps","protocol":17,"map":"koth_viaduct","folder":"tf","game":"Team Fortress","app_id":440,"player_count":0,"max_players":24,"Bots":0,"server_type":"Dedicated","server_os":"Linux","password":true,"vac":true,"version":"7961495","steam_id":85568392924494504,"keywords":["cp","nocrits","nodmgspread","uncletopia"],"game_id":440,"stv_port":27016,"stv_name":"Uncletopia | Hong Kong | 1 | All Maps | STV","players":null},{"server_id":1,"name":"Uncletopia | Los Angeles | 1 | All Maps","name_short":"lax-1","host":"lax-1.us.uncletopia.com","port":27015,"enabled":true,"region":"us-west","cc":"us","latitude":33.94279,"longitude":-118.41004,"reserved":0,"last_update":"0001-01-01T00:00:00Z","name_a2s":"Uncletopia | Los Angeles | 1 | All Maps","protocol":17,"map":"pl_upward","folder":"tf","game":"Team Fortress","app_id":440,"player_count":22,"max_players":24,"Bots":0,"server_type":"Dedicated","server_os":"Linux","password":true,"vac":true,"version":"7961495","steam_id":85568392924469991,"keywords":["nocrits","nodmgspread","payload","uncletopia"],"game_id":440,"stv_port":27016,"stv_name":"Uncletopia | Los Angeles | 1 | All Maps | STV","players":[{"user_id":130,"name":"a chicken","steam_id":76561198313121580,"connected_time":5948000000000,"state":"active","ping":53},{"user_id":147,"name":"Just a Good Friend","steam_id":76561198140052403,"connected_time":4673000000000,"state":"active","ping":49},{"user_id":189,"name":"solitaire","steam_id":76561198964025682,"connected_time":48000000000,"state":"active","ping":35},{"user_id":190,"name":"Kush God Disciple","steam_id":76561198070144202,"connected_time":41000000000,"state":"active","ping":45},{"user_id":139,"name":"Mexican Elvis","steam_id":76561198165100210,"connected_time":4730000000000,"state":"active","ping":51},{"user_id":176,"name":"Antzen","steam_id":76561198041343470,"connected_time":1171000000000,"state":"active","ping":64},{"user_id":191,"name":"Defeat","steam_id":76561198065203818,"connected_time":34000000000,"state":"active","ping":64},{"user_id":192,"name":"Family Guy Funny Moments","steam_id":76561198847752839,"connected_time":33000000000,"state":"active","ping":50},{"user_id":173,"name":"cheeto dorito","steam_id":76561198107941274,"connected_time":1369000000000,"state":"active","ping":51},{"user_id":193,"name":"trackpad gaming | f2p","steam_id":76561198840414371,"connected_time":23000000000,"state":"active","ping":298},{"user_id":146,"name":"Kepa","steam_id":76561198091975728,"connected_time":4678000000000,"state":"active","ping":77},{"user_id":183,"name":"Lightning Bolt 1O1","steam_id":76561199099630600,"connected_time":656000000000,"state":"active","ping":53},{"user_id":182,"name":"MineOpal","steam_id":76561198044716407,"connected_time":738000000000,"state":"active","ping":39},{"user_id":114,"name":"milk","steam_id":76561198053410877,"connected_time":6843000000000,"state":"active","ping":46},{"user_id":168,"name":"Toasterduds","steam_id":76561198163477584,"connected_time":1735000000000,"state":"active","ping":49},{"user_id":141,"name":"SDK619","steam_id":76561198066699570,"connected_time":4716000000000,"state":"active","ping":79},{"user_id":165,"name":"[TRR/IO] Tangerine Baker","steam_id":76561199004774964,"connected_time":2476000000000,"state":"active","ping":51},{"user_id":185,"name":"Dreamzapp","steam_id":76561199084936632,"connected_time":394000000000,"state":"active","ping":48},{"user_id":157,"name":"bansheerubber","steam_id":76561198042009362,"connected_time":3229000000000,"state":"active","ping":49},{"user_id":181,"name":"fug","steam_id":76561198105374054,"connected_time":809000000000,"state":"active","ping":61},{"user_id":166,"name":"Schwifty Sky","steam_id":76561198044121499,"connected_time":2430000000000,"state":"active","ping":76},{"user_id":178,"name":"robert","steam_id":76561198071099414,"connected_time":1128000000000,"state":"active","ping":28}]},{"server_id":112,"name":"Uncletopia | Los Angeles | 2 | All Maps","name_short":"lax-2","host":"lax-1.us.uncletopia.com","port":27025,"enabled":true,"region":"us-west","cc":"us","latitude":33.94279,"longitude":-118.41004,"reserved":0,"last_update":"0001-01-01T00:00:00Z","name_a2s":"Uncletopia | Los Angeles | 2 | All Maps","protocol":17,"map":"pl_barnblitz","folder":"tf","game":"Team Fortress","app_id":440,"player_count":24,"max_players":24,"Bots":0,"server_type":"Dedicated","server_os":"Linux","password":true,"vac":true,"version":"7961495","steam_id":85568392924469992,"keywords":["nocrits","nodmgspread","payload","uncletopia"],"game_id":440,"stv_port":27026,"stv_name":"Uncletopia | Los Angeles | 2 | All Maps | STV","players":[{"user_id":206,"name":"Turkey Panini","steam_id":76561198067656416,"connected_time":171000000000,"state":"active","ping":66},{"user_id":190,"name":"An00bis","steam_id":76561198044084508,"connected_time":711000000000,"state":"active","ping":45},{"user_id":191,"name":"Fireheart888","steam_id":76561198044555953,"connected_time":670000000000,"state":"active","ping":80},{"user_id":192,"name":"JanPinyon610","steam_id":76561199238454799,"connected_time":657000000000,"state":"active","ping":58},{"user_id":172,"name":"Secret Tunnel","steam_id":76561198272403112,"connected_time":2074000000000,"state":"active","ping":48},{"user_id":193,"name":"GLXy","steam_id":76561198207551544,"connected_time":643000000000,"state":"active","ping":57},{"user_id":170,"name":"Mike Bean Burritos","steam_id":76561198173430607,"connected_time":2414000000000,"state":"active","ping":84},{"user_id":194,"name":"Solidus Joe","steam_id":76561198452540197,"connected_time":607000000000,"state":"active","ping":66},{"user_id":205,"name":"✿ PoutyBun ✿","steam_id":76561197965762847,"connected_time":241000000000,"state":"active","ping":66},{"user_id":161,"name":"oobner","steam_id":76561198864545608,"connected_time":3300000000000,"state":"active","ping":60},{"user_id":128,"name":"weed lesbian","steam_id":76561198042263805,"connected_time":5558000000000,"state":"active","ping":83},{"user_id":195,"name":"(TPT) Ghost","steam_id":76561198123262873,"connected_time":587000000000,"state":"active","ping":49},{"user_id":201,"name":"cream team","steam_id":76561198139043953,"connected_time":387000000000,"state":"active","ping":73},{"user_id":164,"name":"mentos14","steam_id":76561198097993629,"connected_time":2745000000000,"state":"active","ping":58},{"user_id":198,"name":"Zeodexic","steam_id":76561198055636655,"connected_time":555000000000,"state":"active","ping":107},{"user_id":143,"name":"udon","steam_id":76561198165872348,"connected_time":4882000000000,"state":"active","ping":74},{"user_id":199,"name":"Elfy","steam_id":76561199166448617,"connected_time":475000000000,"state":"active","ping":70},{"user_id":202,"name":"Irony is pretty cringy","steam_id":76561198120391460,"connected_time":315000000000,"state":"active","ping":50},{"user_id":204,"name":"TortillaSocks","steam_id":76561199072745011,"connected_time":297000000000,"state":"active","ping":49},{"user_id":183,"name":"⛧ AlphaSatanOmega ⛧","steam_id":76561198035125511,"connected_time":1147000000000,"state":"active","ping":104},{"user_id":165,"name":"level 7 firemancer","steam_id":76561198209571677,"connected_time":2609000000000,"state":"active","ping":103},{"user_id":188,"name":"groovetomanny","steam_id":76561198371660675,"connected_time":860000000000,"state":"active","ping":48},{"user_id":179,"name":"rat","steam_id":76561198130412963,"connected_time":1764000000000,"state":"active","ping":77},{"user_id":153,"name":"chimplicity","steam_id":76561198012097062,"connected_time":4392000000000,"state":"active","ping":60}]},{"server_id":324,"name":"Uncletopia | Los Angeles | 3 | All Maps","name_short":"lax-3","host":"lax-1.us.uncletopia.com","port":27035,"enabled":true,"region":"us-west","cc":"us","latitude":33.94279,"longitude":-118.41004,"reserved":0,"last_update":"0001-01-01T00:00:00Z","name_a2s":"Uncletopia | Los Angeles | 3 | All Maps","protocol":17,"map":"cp_sunshine","folder":"tf","game":"Team Fortress","app_id":440,"player_count":0,"max_players":24,"Bots":0,"server_type":"Dedicated","server_os":"Linux","password":true,"vac":true,"version":"7961495","steam_id":85568392924510198,"keywords":["cp","nocrits","nodmgspread","uncletopia"],"game_id":440,"stv_port":27036,"stv_name":"Uncletopia | Los Angeles | 3 | All Maps | STV","players":null},{"server_id":25,"name":"Uncletopia | Los Angeles | 4 | Stopwatch","name_short":"lax-4","host":"lax-1.us.uncletopia.com","port":27045,"enabled":true,"region":"us-west","cc":"us","latitude":33.94279,"longitude":-118.41004,"reserved":0,"last_update":"0001-01-01T00:00:00Z","name_a2s":"Uncletopia | Los Angeles | 4 | Stopwatch","protocol":17,"map":"workshop/cp_reckoner_rc6.ugc674719999","folder":"tf","game":"Team Fortress","app_id":440,"player_count":18,"max_players":24,"Bots":0,"server_type":"Dedicated","server_os":"Linux","password":true,"vac":true,"version":"7961495","steam_id":85568392924510199,"keywords":["cp","nocrits","nodmgspread","uncletopia"],"game_id":440,"stv_port":27046,"stv_name":"Uncletopia | Los Angeles | 4 | Stopwatch | STV","players":[{"user_id":89,"name":"The Wind Fucker Lives","steam_id":76561198275362375,"connected_time":21000000000,"state":"active","ping":117},{"user_id":53,"name":"goth witch","steam_id":76561198069605283,"connected_time":2942000000000,"state":"active","ping":45},{"user_id":54,"name":"Soggy Zogg","steam_id":76561198836316052,"connected_time":2940000000000,"state":"active","ping":44},{"user_id":86,"name":"Mario","steam_id":76561198099304627,"connected_time":155000000000,"state":"active","ping":60},{"user_id":42,"name":"finmin","steam_id":76561198127639913,"connected_time":3448000000000,"state":"active","ping":46},{"user_id":34,"name":"Sak","steam_id":76561198307655707,"connected_time":4029000000000,"state":"active","ping":45},{"user_id":88,"name":"[ØWQJØ]chubacaalatake","steam_id":76561198136201697,"connected_time":52000000000,"state":"spawning","ping":224},{"user_id":59,"name":"Panzerschreck Bath Water","steam_id":76561198178133625,"connected_time":2365000000000,"state":"active","ping":30},{"user_id":83,"name":"ShadowZiki","steam_id":76561198145930013,"connected_time":888000000000,"state":"active","ping":44},{"user_id":39,"name":"BomberHeadCx","steam_id":76561198189226831,"connected_time":3620000000000,"state":"active","ping":58},{"user_id":81,"name":"Olitude","steam_id":76561199238964574,"connected_time":1316000000000,"state":"active","ping":55},{"user_id":41,"name":"Arroz Cream","steam_id":76561198447493924,"connected_time":3497000000000,"state":"active","ping":45},{"user_id":61,"name":"Type Three Dabeetus","steam_id":76561198062710038,"connected_time":2165000000000,"state":"active","ping":44},{"user_id":82,"name":"Risky","steam_id":76561198231029328,"connected_time":1235000000000,"state":"active","ping":56},{"user_id":67,"name":"orangePulp","steam_id":76561198038373636,"connected_time":2107000000000,"state":"active","ping":45},{"user_id":72,"name":"Strange Chinamen","steam_id":76561198276310307,"connected_time":1906000000000,"state":"active","ping":105},{"user_id":79,"name":"Nate","steam_id":76561198045186954,"connected_time":1587000000000,"state":"active","ping":58},{"user_id":70,"name":"Canned Lobster","steam_id":76561198110847328,"connected_time":2086000000000,"state":"active","ping":57}]},{"server_id":11,"name":"Uncletopia | London | 1 | All Maps","name_short":"lon-1","host":"lon-1.uk.uncletopia.com","port":27015,"enabled":true,"region":"eu","cc":"gb","latitude":51.509865,"longitude":-0.118092,"reserved":0,"last_update":"0001-01-01T00:00:00Z","name_a2s":"Uncletopia | London | 1 | All Maps","protocol":17,"map":"cp_powerhouse","folder":"tf","game":"Team Fortress","app_id":440,"player_count":0,"max_players":24,"Bots":0,"server_type":"Dedicated","server_os":"Linux","password":true,"vac":true,"version":"7961495","steam_id":85568392924367362,"keywords":["cp","nocrits","nodmgspread","uncletopia"],"game_id":440,"stv_port":27016,"stv_name":"Uncletopia | London | 1 | All Maps | STV","players":null},{"server_id":114,"name":"Uncletopia | London | 2 | All Maps","name_short":"lon-2","host":"lon-1.uk.uncletopia.com","port":27025,"enabled":true,"region":"eu","cc":"gb","latitude":51.509865,"longitude":-0.118092,"reserved":0,"last_update":"0001-01-01T00:00:00Z","name_a2s":"Uncletopia | London | 2 | All Maps","protocol":17,"map":"pl_snowycoast","folder":"tf","game":"Team Fortress","app_id":440,"player_count":0,"max_players":24,"Bots":0,"server_type":"Dedicated","server_os":"Linux","password":true,"vac":true,"version":"7961495","steam_id":85568392924470941,"keywords":["nocrits","nodmgspread","payload","uncletopia"],"game_id":440,"stv_port":27026,"stv_name":"Uncletopia | London | 2 | All Maps | STV","players":null},{"server_id":320,"name":"Uncletopia | London | 3 | All Maps","name_short":"lon-3","host":"lon-1.uk.uncletopia.com","port":27035,"enabled":true,"region":"eu","cc":"gb","latitude":51.509865,"longitude":-0.118092,"reserved":0,"last_update":"0001-01-01T00:00:00Z","name_a2s":"Uncletopia | London | 3 | All Maps","protocol":17,"map":"koth_lakeside_final","folder":"tf","game":"Team Fortress","app_id":440,"player_count":0,"max_players":24,"Bots":0,"server_type":"Dedicated","server_os":"Linux","password":true,"vac":true,"version":"7961495","steam_id":85568392924510192,"keywords":["cp","nocrits","nodmgspread","uncletopia"],"game_id":440,"stv_port":27036,"stv_name":"Uncletopia | London | 3 | All Maps | STV","players":null},{"server_id":321,"name":"Uncletopia | London | 4 | All Maps","name_short":"lon-4","host":"lon-1.uk.uncletopia.com","port":27045,"enabled":true,"region":"eu","cc":"gb","latitude":51.509865,"longitude":-0.118092,"reserved":0,"last_update":"0001-01-01T00:00:00Z","name_a2s":"Uncletopia | London | 4 | All Maps","protocol":17,"map":"pl_badwater","folder":"tf","game":"Team Fortress","app_id":440,"player_count":0,"max_players":24,"Bots":0,"server_type":"Dedicated","server_os":"Linux","password":true,"vac":true,"version":"7961495","steam_id":85568392924510193,"keywords":["nocrits","nodmgspread","payload","uncletopia"],"game_id":440,"stv_port":27046,"stv_name":"Uncletopia | London | 4 | All Maps | STV","players":null},{"server_id":21,"name":"Uncletopia | London | 5 | All Maps","name_short":"lon-5","host":"lon-1.uk.uncletopia.com","port":27055,"enabled":true,"region":"eu","cc":"gb","latitude":51.509865,"longitude":-0.118092,"reserved":0,"last_update":"0001-01-01T00:00:00Z","name_a2s":"Uncletopia | London | 5 | All Maps","protocol":17,"map":"koth_lazarus","folder":"tf","game":"Team Fortress","app_id":440,"player_count":0,"max_players":24,"Bots":0,"server_type":"Dedicated","server_os":"Linux","password":true,"vac":true,"version":"7961495","steam_id":85568392924742829,"keywords":["cp","nocrits","nodmgspread","uncletopia"],"game_id":440,"stv_port":27056,"stv_name":"Uncletopia | London | 5 | All Maps | STV","players":null},{"server_id":22,"name":"Uncletopia | London | 6 | All Maps","name_short":"lon-6","host":"lon-1.uk.uncletopia.com","port":27065,"enabled":true,"region":"eu","cc":"gb","latitude":51.509865,"longitude":-0.118092,"reserved":0,"last_update":"0001-01-01T00:00:00Z","name_a2s":"Uncletopia | London | 6 | All Maps","protocol":17,"map":"cp_snakewater_final1","folder":"tf","game":"Team Fortress","app_id":440,"player_count":0,"max_players":24,"Bots":0,"server_type":"Dedicated","server_os":"Linux","password":true,"vac":true,"version":"7961495","steam_id":85568392924742830,"keywords":["cp","nocrits","nodmgspread","uncletopia"],"game_id":440,"stv_port":27066,"stv_name":"Uncletopia | London | 6 | All Maps | STV","players":null},{"server_id":40,"name":"Uncletopia | London | 7 | Stopwatch","name_short":"lon-7","host":"lon-1.uk.uncletopia.com","port":27075,"enabled":true,"region":"eu","cc":"gb","latitude":51.509865,"longitude":-0.118092,"reserved":0,"last_update":"0001-01-01T00:00:00Z","name_a2s":"Uncletopia | London | 7 | Stopwatch","protocol":17,"map":"workshop/pl_badwater_pro_v12.ugc2142942074","folder":"tf","game":"Team Fortress","app_id":440,"player_count":0,"max_players":24,"Bots":0,"server_type":"Dedicated","server_os":"Linux","password":true,"vac":true,"version":"7961495","steam_id":85568392924964314,"keywords":["nocrits","nodmgspread","payload","uncletopia"],"game_id":440,"stv_port":27076,"stv_name":"Uncletopia | London | 7 | Stopwatch | STV","players":null},{"server_id":41,"name":"Uncletopia | London | 8 | Community","name_short":"lon-8","host":"lon-1.uk.uncletopia.com","port":27085,"enabled":true,"region":"eu","cc":"gb","latitude":51.509865,"longitude":-0.118092,"reserved":0,"last_update":"0001-01-01T00:00:00Z","name_a2s":"Uncletopia | London | 8 | Community","protocol":17,"map":"workshop/cp_villa_b19.ugc2113052569","folder":"tf","game":"Team Fortress","app_id":440,"player_count":0,"max_players":24,"Bots":0,"server_type":"Dedicated","server_os":"Linux","password":true,"vac":true,"version":"7961495","steam_id":85568392924964315,"keywords":["cp","nocrits","nodmgspread","uncletopia"],"game_id":440,"stv_port":27086,"stv_name":"Uncletopia | London | 8 | Community | STV","players":null},{"server_id":300,"name":"Uncletopia | Montréal | 1 | One Thousand Uncles","name_short":"mtl-1","host":"mtl-1.ca.uncletopia.com","port":27015,"enabled":true,"region":"us-east","cc":"ca","latitude":45.50889,"longitude":-73.56167,"reserved":0,"last_update":"0001-01-01T00:00:00Z","name_a2s":"Uncletopia | Montréal | 1 | One Thousand Uncles","protocol":17,"map":"pl_snowycoast","folder":"tf","game":"Team Fortress","app_id":440,"player_count":0,"max_players":32,"Bots":0,"server_type":"Dedicated","server_os":"Linux","password":true,"vac":true,"version":"7961495","steam_id":85568392924500087,"keywords":["alltalk","danepve","increased_maxplayers","norespawntime","payload","uncletopia"],"game_id":440,"stv_port":0,"stv_name":"","players":null},{"server_id":301,"name":"Uncletopia | Montréal | 2 | One Thousand Uncles","name_short":"mtl-2","host":"mtl-1.ca.uncletopia.com","port":27025,"enabled":true,"region":"us-east","cc":"ca","latitude":45.50889,"longitude":-73.56167,"reserved":0,"last_update":"0001-01-01T00:00:00Z","name_a2s":"Uncletopia | Montréal | 2 | One Thousand Uncles","protocol":17,"map":"pl_goldrush","folder":"tf","game":"Team Fortress","app_id":440,"player_count":0,"max_players":32,"Bots":0,"server_type":"Dedicated","server_os":"Linux","password":true,"vac":true,"version":"7961495","steam_id":85568392924500088,"keywords":["alltalk","danepve","increased_maxplayers","norespawntime","payload","uncletopia"],"game_id":440,"stv_port":0,"stv_name":"","players":null},{"server_id":302,"name":"Uncletopia | Montréal | 3 | One Thousand Uncles","name_short":"mtl-3","host":"mtl-1.ca.uncletopia.com","port":27035,"enabled":true,"region":"us-east","cc":"ca","latitude":45.50889,"longitude":-73.56167,"reserved":0,"last_update":"0001-01-01T00:00:00Z","name_a2s":"Uncletopia | Montréal | 3 | One Thousand Uncles","protocol":17,"map":"pl_pier","folder":"tf","game":"Team Fortress","app_id":440,"player_count":0,"max_players":32,"Bots":0,"server_type":"Dedicated","server_os":"Linux","password":true,"vac":true,"version":"7961495","steam_id":85568392924500089,"keywords":["alltalk","danepve","increased_maxplayers","norespawntime","payload","uncletopia"],"game_id":440,"stv_port":0,"stv_name":"","players":null},{"server_id":13,"name":"Uncletopia | New York City | 1 | All Maps","name_short":"nyc-1","host":"nyc-1.us.uncletopia.com","port":27015,"enabled":true,"region":"us-east","cc":"us","latitude":40.73061,"longitude":-73.93524,"reserved":0,"last_update":"0001-01-01T00:00:00Z","name_a2s":"Uncletopia | New York City | 1 | All Maps","protocol":17,"map":"pl_badwater","folder":"tf","game":"Team Fortress","app_id":440,"player_count":24,"max_players":24,"Bots":0,"server_type":"Dedicated","server_os":"Linux","password":true,"vac":true,"version":"7961495","steam_id":85568392924469993,"keywords":["nocrits","nodmgspread","payload","uncletopia"],"game_id":440,"stv_port":27016,"stv_name":"Uncletopia | New York City | 1 | All Maps | STV","players":[{"user_id":918,"name":"medd","steam_id":76561198078238722,"connected_time":2854000000000,"state":"active","ping":107},{"user_id":946,"name":"Strange Diplomat","steam_id":76561198428191920,"connected_time":325000000000,"state":"active","ping":51},{"user_id":941,"name":"greasy","steam_id":76561199475145723,"connected_time":968000000000,"state":"active","ping":111},{"user_id":944,"name":"Sarbanes-Oxley","steam_id":76561197975898479,"connected_time":813000000000,"state":"active","ping":84},{"user_id":925,"name":"Vincent Van Ghoul","steam_id":76561198271907916,"connected_time":2542000000000,"state":"active","ping":52},{"user_id":926,"name":"BEEEEEEEEEEEEEEEES","steam_id":76561199431280503,"connected_time":2252000000000,"state":"active","ping":53},{"user_id":905,"name":"GeorgyZhukov#Rustypot","steam_id":76561198075536517,"connected_time":4210000000000,"state":"active","ping":67},{"user_id":931,"name":"Tanyao (Furiten)","steam_id":76561198980504345,"connected_time":1684000000000,"state":"active","ping":47},{"user_id":924,"name":"The Khronicles of Keith","steam_id":76561198056622157,"connected_time":2616000000000,"state":"active","ping":48},{"user_id":947,"name":"neil","steam_id":76561198122666918,"connected_time":188000000000,"state":"active","ping":60},{"user_id":908,"name":"Whisk #GOOD GAMER","steam_id":76561198272318229,"connected_time":3970000000000,"state":"active","ping":62},{"user_id":932,"name":"TheEyeofEndorGamer","steam_id":76561198251243066,"connected_time":1651000000000,"state":"active","ping":61},{"user_id":933,"name":"Deep Peepus","steam_id":76561198205395757,"connected_time":1611000000000,"state":"active","ping":71},{"user_id":945,"name":"Horrizan","steam_id":76561197965028480,"connected_time":806000000000,"state":"active","ping":68},{"user_id":935,"name":"KYLE KYLESON","steam_id":76561198021920887,"connected_time":1517000000000,"state":"active","ping":60},{"user_id":936,"name":"🍒buta🍒","steam_id":76561198135538212,"connected_time":1508000000000,"state":"active","ping":77},{"user_id":937,"name":"Skudge Sister","steam_id":76561198041766766,"connected_time":1480000000000,"state":"active","ping":80},{"user_id":860,"name":"Two-Teste Tommy","steam_id":76561198064308936,"connected_time":7966000000000,"state":"active","ping":60},{"user_id":893,"name":"Lawyah","steam_id":76561198087789798,"connected_time":5369000000000,"state":"active","ping":100},{"user_id":938,"name":"Always Here for You","steam_id":76561198219252313,"connected_time":1436000000000,"state":"active","ping":75},{"user_id":939,"name":"Dullahan","steam_id":76561198119668908,"connected_time":1427000000000,"state":"active","ping":143},{"user_id":940,"name":"GreenApples","steam_id":76561198120559543,"connected_time":1423000000000,"state":"active","ping":148},{"user_id":911,"name":"APOTATO","steam_id":76561198118199858,"connected_time":3780000000000,"state":"active","ping":121},{"user_id":943,"name":"kikikikoboy","steam_id":76561198073380271,"connected_time":862000000000,"state":"active","ping":61}]},{"server_id":14,"name":"Uncletopia | New York City | 2 | All Maps","name_short":"nyc-2","host":"nyc-1.us.uncletopia.com","port":27025,"enabled":true,"region":"us-east","cc":"us","latitude":40.73061,"longitude":-73.93524,"reserved":0,"last_update":"0001-01-01T00:00:00Z","name_a2s":"Uncletopia | New York City | 2 | All Maps","protocol":17,"map":"cp_process_final","folder":"tf","game":"Team Fortress","app_id":440,"player_count":0,"max_players":24,"Bots":0,"server_type":"Dedicated","server_os":"Linux","password":true,"vac":true,"version":"7961495","steam_id":85568392924469994,"keywords":["cp","nocrits","nodmgspread","uncletopia"],"game_id":440,"stv_port":27026,"stv_name":"Uncletopia | New York City | 2 | All Maps | STV","players":null},{"server_id":15,"name":"Uncletopia | New York City | 3 | Stopwatch","name_short":"nyc-3","host":"nyc-1.us.uncletopia.com","port":27035,"enabled":true,"region":"us-east","cc":"us","latitude":40.73061,"longitude":-73.93524,"reserved":0,"last_update":"0001-01-01T00:00:00Z","name_a2s":"Uncletopia | New York City | 3 | Stopwatch","protocol":17,"map":"workshop/koth_ashville_final.ugc2130459942","folder":"tf","game":"Team Fortress","app_id":440,"player_count":0,"max_players":24,"Bots":0,"server_type":"Dedicated","server_os":"Linux","password":true,"vac":true,"version":"7961495","steam_id":85568392924742820,"keywords":["cp","nocrits","nodmgspread","uncletopia"],"game_id":440,"stv_port":27036,"stv_name":"Uncletopia | New York City | 3 | Stopwatch | STV","players":null},{"server_id":16,"name":"Uncletopia | New York City | 4 | Community","name_short":"nyc-4","host":"nyc-1.us.uncletopia.com","port":27045,"enabled":true,"region":"us-east","cc":"us","latitude":40.73061,"longitude":-73.93524,"reserved":0,"last_update":"0001-01-01T00:00:00Z","name_a2s":"Uncletopia | New York City | 4 | Community","protocol":17,"map":"workshop/koth_slaughter_rc1.ugc1712845210","folder":"tf","game":"Team Fortress","app_id":440,"player_count":0,"max_players":24,"Bots":0,"server_type":"Dedicated","server_os":"Linux","password":true,"vac":true,"version":"7961495","steam_id":85568392924742821,"keywords":["cp","nocrits","nodmgspread","uncletopia"],"game_id":440,"stv_port":27046,"stv_name":"Uncletopia | New York City | 4 | Community | STV","players":null},{"server_id":142,"name":"Uncletopia | São Paulo | 1 | All Maps","name_short":"sao-1","host":"sao-1.br.uncletopia.com","port":27015,"enabled":true,"region":"sa","cc":"br","latitude":-23.533773,"longitude":-46.62529,"reserved":0,"last_update":"0001-01-01T00:00:00Z","name_a2s":"Uncletopia | São Paulo | 1 | All Maps","protocol":17,"map":"koth_cascade","folder":"tf","game":"Team Fortress","app_id":440,"player_count":0,"max_players":24,"Bots":0,"server_type":"Dedicated","server_os":"Linux","password":true,"vac":true,"version":"7961495","steam_id":85568392924469996,"keywords":["cp","nocrits","nodmgspread","uncletopia"],"game_id":440,"stv_port":27016,"stv_name":"Uncletopia | São Paulo | 1 | All Maps | STV","players":null},{"server_id":143,"name":"Uncletopia | São Paulo | 2 | Community","name_short":"sao-2","host":"sao-2.br.uncletopia.com","port":27015,"enabled":true,"region":"sa","cc":"br","latitude":-23.533773,"longitude":-46.62529,"reserved":0,"last_update":"0001-01-01T00:00:00Z","name_a2s":"Uncletopia | São Paulo | 2 | Community","protocol":17,"map":"workshop/koth_kemptown_rc1.ugc767410655","folder":"tf","game":"Team Fortress","app_id":440,"player_count":0,"max_players":24,"Bots":0,"server_type":"Dedicated","server_os":"Linux","password":true,"vac":true,"version":"7961495","steam_id":85568392924485349,"keywords":["cp","nocrits","nodmgspread","uncletopia"],"game_id":440,"stv_port":27016,"stv_name":"Uncletopia | São Paulo | 2 | Community | STV","players":null},{"server_id":7,"name":"Uncletopia | Seattle | 1 | All Maps","name_short":"sea-1","host":"sea-1.us.uncletopia.com","port":27015,"enabled":true,"region":"us-west","cc":"us","latitude":47.608013,"longitude":-122.33517,"reserved":0,"last_update":"0001-01-01T00:00:00Z","name_a2s":"Uncletopia | Seattle | 1 | All Maps","protocol":17,"map":"pl_pier","folder":"tf","game":"Team Fortress","app_id":440,"player_count":24,"max_players":24,"Bots":0,"server_type":"Dedicated","server_os":"Linux","password":true,"vac":true,"version":"7961495","steam_id":85568392924469997,"keywords":["nocrits","nodmgspread","payload","uncletopia"],"game_id":440,"stv_port":27016,"stv_name":"Uncletopia | Seattle | 1 | All Maps | STV","players":[{"user_id":768,"name":"S Q U I S H E  T H A T  C A T","steam_id":76561198293865429,"connected_time":760000000000,"state":"active","ping":40},{"user_id":770,"name":"doopsies","steam_id":76561198083000867,"connected_time":748000000000,"state":"active","ping":48},{"user_id":743,"name":"TROY","steam_id":76561197983852176,"connected_time":4597000000000,"state":"active","ping":75},{"user_id":700,"name":"a","steam_id":76561198074209737,"connected_time":7914000000000,"state":"active","ping":90},{"user_id":778,"name":"Nom Skirrett","steam_id":76561198014600788,"connected_time":675000000000,"state":"active","ping":67},{"user_id":732,"name":"NEBULA","steam_id":76561198086878595,"connected_time":5373000000000,"state":"active","ping":68},{"user_id":733,"name":"squash","steam_id":76561198150281353,"connected_time":5372000000000,"state":"active","ping":59},{"user_id":761,"name":"fragadelphia","steam_id":76561198066116363,"connected_time":2923000000000,"state":"active","ping":45},{"user_id":780,"name":"Watermelon","steam_id":76561199487351992,"connected_time":451000000000,"state":"active","ping":81},{"user_id":779,"name":"Mignyanne :3","steam_id":76561198048754056,"connected_time":675000000000,"state":"active","ping":61},{"user_id":730,"name":"[TrC] Dackstrus","steam_id":76561197973518509,"connected_time":5384000000000,"state":"active","ping":56},{"user_id":746,"name":"PvZ Enthusiast","steam_id":76561199089562026,"connected_time":4537000000000,"state":"active","ping":26},{"user_id":773,"name":"Sniff","steam_id":76561198010270922,"connected_time":736000000000,"state":"active","ping":39},{"user_id":774,"name":"strawberry","steam_id":76561198101926397,"connected_time":734000000000,"state":"active","ping":53},{"user_id":705,"name":"OGBobbyJohns","steam_id":76561197964339077,"connected_time":7147000000000,"state":"active","ping":46},{"user_id":714,"name":"6","steam_id":76561198196527986,"connected_time":6989000000000,"state":"active","ping":77},{"user_id":715,"name":"O/YAK","steam_id":76561198158554040,"connected_time":6981000000000,"state":"active","ping":99},{"user_id":769,"name":"kill me","steam_id":76561198032625036,"connected_time":759000000000,"state":"active","ping":58},{"user_id":775,"name":"Gm_Sweet","steam_id":76561199445091548,"connected_time":719000000000,"state":"active","ping":60},{"user_id":750,"name":"blinkerton city","steam_id":76561198054270410,"connected_time":3978000000000,"state":"active","ping":58},{"user_id":759,"name":"Strikerbolt","steam_id":76561199095622897,"connected_time":2938000000000,"state":"active","ping":75},{"user_id":764,"name":"Lord Hater","steam_id":76561199158148782,"connected_time":2839000000000,"state":"active","ping":59},{"user_id":771,"name":"Doctor™","steam_id":76561198134309750,"connected_time":747000000000,"state":"active","ping":110},{"user_id":781,"name":"jorts","steam_id":76561199041179985,"connected_time":390000000000,"state":"active","ping":55}]},{"server_id":119,"name":"Uncletopia | Seattle | 2 | All Maps","name_short":"sea-2","host":"sea-1.us.uncletopia.com","port":27025,"enabled":true,"region":"us-west","cc":"us","latitude":47.608013,"longitude":-122.33517,"reserved":0,"last_update":"0001-01-01T00:00:00Z","name_a2s":"Uncletopia | Seattle | 2 | All Maps","protocol":17,"map":"koth_cascade","folder":"tf","game":"Team Fortress","app_id":440,"player_count":0,"max_players":24,"Bots":0,"server_type":"Dedicated","server_os":"Linux","password":true,"vac":true,"version":"7961495","steam_id":85568392924469998,"keywords":["cp","nocrits","nodmgspread","uncletopia"],"game_id":440,"stv_port":27026,"stv_name":"Uncletopia | Seattle | 2 | All Maps | STV","players":null},{"server_id":406,"name":"Uncletopia | Seattle | 3 | Stopwatch","name_short":"sea-3","host":"sea-1.us.uncletopia.com","port":27035,"enabled":true,"region":"us-west","cc":"us","latitude":47.608013,"longitude":-122.33517,"reserved":0,"last_update":"0001-01-01T00:00:00Z","name_a2s":"Uncletopia | Seattle | 3 | Stopwatch","protocol":17,"map":"workshop/koth_product_final.ugc454272353","folder":"tf","game":"Team Fortress","app_id":440,"player_count":0,"max_players":24,"Bots":0,"server_type":"Dedicated","server_os":"Linux","password":true,"vac":true,"version":"7961495","steam_id":85568392924515217,"keywords":["cp","nocrits","nodmgspread","uncletopia"],"game_id":440,"stv_port":27036,"stv_name":"Uncletopia | Seattle | 3 | Stopwatch | STV","players":null},{"server_id":17,"name":"Uncletopia | San Francisco | 1 | All Maps","name_short":"sfo-1","host":"sfo-1.us.uncletopia.com","port":27015,"enabled":true,"region":"us-west","cc":"us","latitude":37.77397,"longitude":-122.4313,"reserved":0,"last_update":"0001-01-01T00:00:00Z","name_a2s":"Uncletopia | San Francisco | 1 | All Maps","protocol":17,"map":"koth_viaduct","folder":"tf","game":"Team Fortress","app_id":440,"player_count":24,"max_players":24,"Bots":0,"server_type":"Dedicated","server_os":"Linux","password":true,"vac":true,"version":"7961495","steam_id":85568392924469999,"keywords":["cp","nocrits","nodmgspread","uncletopia"],"game_id":440,"stv_port":27016,"stv_name":"Uncletopia | San Francisco | 1 | All Maps | STV","players":[{"user_id":425,"name":"collacot","steam_id":76561198243248798,"connected_time":792000000000,"state":"active","ping":113},{"user_id":418,"name":"video game","steam_id":76561198067035501,"connected_time":881000000000,"state":"active","ping":52},{"user_id":406,"name":"the pizza","steam_id":76561198221331476,"connected_time":2281000000000,"state":"active","ping":44},{"user_id":413,"name":"Mom","steam_id":76561198207936000,"connected_time":1042000000000,"state":"active","ping":44},{"user_id":414,"name":"Da Bird","steam_id":76561198215677985,"connected_time":1028000000000,"state":"active","ping":50},{"user_id":428,"name":"BananaMangoFestival2013","steam_id":76561198218558897,"connected_time":543000000000,"state":"active","ping":81},{"user_id":392,"name":"cringy","steam_id":76561198323000455,"connected_time":2819000000000,"state":"active","ping":50},{"user_id":415,"name":"Stev the Hypergamous Pebble","steam_id":76561197999442625,"connected_time":976000000000,"state":"active","ping":65},{"user_id":416,"name":"b","steam_id":76561198156336213,"connected_time":958000000000,"state":"active","ping":55},{"user_id":408,"name":"array","steam_id":76561198280409646,"connected_time":1671000000000,"state":"active","ping":46},{"user_id":429,"name":"devamar","steam_id":76561198069115467,"connected_time":477000000000,"state":"active","ping":48},{"user_id":377,"name":"zSabre","steam_id":76561198306476738,"connected_time":3239000000000,"state":"active","ping":67},{"user_id":420,"name":"viedoamges","steam_id":76561198025295263,"connected_time":863000000000,"state":"active","ping":81},{"user_id":402,"name":"allMAX","steam_id":76561198270980670,"connected_time":2533000000000,"state":"active","ping":152},{"user_id":379,"name":"bed wetter","steam_id":76561199065405827,"connected_time":3186000000000,"state":"active","ping":80},{"user_id":365,"name":"Sgt. Eclair","steam_id":76561198156384194,"connected_time":4088000000000,"state":"active","ping":59},{"user_id":433,"name":"MAGGOT!","steam_id":76561198213290696,"connected_time":103000000000,"state":"active","ping":71},{"user_id":381,"name":"ninety9dragonfly","steam_id":76561198363406983,"connected_time":3161000000000,"state":"active","ping":45},{"user_id":366,"name":"Winneapolis","steam_id":76561198326864404,"connected_time":4050000000000,"state":"active","ping":96},{"user_id":427,"name":"El Gato Paranoico","steam_id":76561198116567116,"connected_time":695000000000,"state":"active","ping":102},{"user_id":430,"name":"LuckyTF2","steam_id":76561199108883530,"connected_time":392000000000,"state":"active","ping":41},{"user_id":403,"name":"dankRobber","steam_id":76561197962405559,"connected_time":2508000000000,"state":"active","ping":87},{"user_id":426,"name":"Pluto","steam_id":76561198012630802,"connected_time":790000000000,"state":"active","ping":49},{"user_id":432,"name":"video games","steam_id":76561198334059206,"connected_time":113000000000,"state":"active","ping":56}]},{"server_id":18,"name":"Uncletopia | San Francisco | 2 | All Maps","name_short":"sfo-2","host":"sfo-1.us.uncletopia.com","port":27025,"enabled":true,"region":"us-west","cc":"us","latitude":37.77397,"longitude":-122.4313,"reserved":0,"last_update":"0001-01-01T00:00:00Z","name_a2s":"Uncletopia | San Francisco | 2 | All Maps","protocol":17,"map":"cp_dustbowl","folder":"tf","game":"Team Fortress","app_id":440,"player_count":0,"max_players":24,"Bots":0,"server_type":"Dedicated","server_os":"Linux","password":true,"vac":true,"version":"7961495","steam_id":85568392924470000,"keywords":["cp","nocrits","nodmgspread","uncletopia"],"game_id":440,"stv_port":27026,"stv_name":"Uncletopia | San Francisco | 2 | All Maps | STV","players":null},{"server_id":19,"name":"Uncletopia | San Francisco | 3 | Stopwatch","name_short":"sfo-3","host":"sfo-1.us.uncletopia.com","port":27035,"enabled":true,"region":"us-west","cc":"us","latitude":37.77397,"longitude":-122.4313,"reserved":0,"last_update":"0001-01-01T00:00:00Z","name_a2s":"Uncletopia | San Francisco | 3 | Stopwatch","protocol":17,"map":"workshop/koth_ashville_final.ugc2130459942","folder":"tf","game":"Team Fortress","app_id":440,"player_count":4,"max_players":24,"Bots":0,"server_type":"Dedicated","server_os":"Linux","password":true,"vac":true,"version":"7961495","steam_id":85568392924742824,"keywords":["cp","nocrits","nodmgspread","uncletopia"],"game_id":440,"stv_port":27036,"stv_name":"Uncletopia | San Francisco | 3 | Stopwatch | STV","players":[{"user_id":15,"name":"Cowboyfos","steam_id":76561199055740230,"connected_time":512000000000,"state":"active","ping":46},{"user_id":8,"name":"MirrorsAreScary","steam_id":76561198860505587,"connected_time":1835000000000,"state":"active","ping":70},{"user_id":10,"name":"harambe 101","steam_id":76561198366850003,"connected_time":1825000000000,"state":"active","ping":49},{"user_id":14,"name":"FlexTape","steam_id":76561198871834867,"connected_time":748000000000,"state":"active","ping":68}]},{"server_id":20,"name":"Uncletopia | San Francisco | 4 | Community","name_short":"sfo-4","host":"sfo-1.us.uncletopia.com","port":27045,"enabled":true,"region":"us-west","cc":"us","latitude":37.77397,"longitude":-122.4313,"reserved":0,"last_update":"0001-01-01T00:00:00Z","name_a2s":"Uncletopia | San Francisco | 4 | Community","protocol":17,"map":"workshop/cp_sulfur_rc2.ugc619869471","folder":"tf","game":"Team Fortress","app_id":440,"player_count":0,"max_players":24,"Bots":0,"server_type":"Dedicated","server_os":"Linux","password":true,"vac":true,"version":"7961495","steam_id":85568392924742826,"keywords":["cp","nocrits","nodmgspread","uncletopia"],"game_id":440,"stv_port":27046,"stv_name":"Uncletopia | San Francisco | 4 | Community | STV","players":null},{"server_id":141,"name":"Uncletopia | Sydney | 1 | All Maps","name_short":"syd-1","host":"syd-1.au.uncletopia.com","port":27015,"enabled":true,"region":"au","cc":"au","latitude":-33.865143,"longitude":151.2099,"reserved":0,"last_update":"0001-01-01T00:00:00Z","name_a2s":"Uncletopia | Sydney | 1 | All Maps","protocol":17,"map":"koth_nucleus","folder":"tf","game":"Team Fortress","app_id":440,"player_count":0,"max_players":24,"Bots":0,"server_type":"Dedicated","server_os":"Linux","password":true,"vac":true,"version":"7961495","steam_id":85568392924470001,"keywords":["cp","nocrits","nodmgspread","uncletopia"],"game_id":440,"stv_port":27016,"stv_name":"Uncletopia | Sydney | 1 | All Maps | STV","players":null},{"server_id":123,"name":"Uncletopia | Sydney | 2 | All Maps","name_short":"syd-2","host":"syd-1.au.uncletopia.com","port":27025,"enabled":true,"region":"au","cc":"au","latitude":-33.865143,"longitude":151.2099,"reserved":0,"last_update":"0001-01-01T00:00:00Z","name_a2s":"Uncletopia | Sydney | 2 | All Maps","protocol":17,"map":"koth_viaduct","folder":"tf","game":"Team Fortress","app_id":440,"player_count":2,"max_players":24,"Bots":0,"server_type":"Dedicated","server_os":"Linux","password":true,"vac":true,"version":"7961495","steam_id":85568392924470002,"keywords":["cp","nocrits","nodmgspread","uncletopia"],"game_id":440,"stv_port":27026,"stv_name":"Uncletopia | Sydney | 2 | All Maps | STV","players":[{"user_id":10,"name":"reginald spoingus jr.","steam_id":76561198079351541,"connected_time":53000000000,"state":"active","ping":45},{"user_id":9,"name":"webbadon, the horrid ᘛ⁐̤\ufffd\ufffd","steam_id":76561198061998379,"connected_time":238000000000,"state":"active","ping":38}]},{"server_id":395,"name":"Uncletopia | Sydney | 3 | All Maps","name_short":"syd-3","host":"syd-1.au.uncletopia.com","port":27035,"enabled":true,"region":"au","cc":"au","latitude":-33.865143,"longitude":151.2099,"reserved":0,"last_update":"0001-01-01T00:00:00Z","name_a2s":"Uncletopia | Sydney | 3 | All Maps","protocol":17,"map":"cp_metalworks","folder":"tf","game":"Team Fortress","app_id":440,"player_count":0,"max_players":24,"Bots":0,"server_type":"Dedicated","server_os":"Linux","password":true,"vac":true,"version":"7961495","steam_id":85568392925194467,"keywords":["cp","nocrits","nodmgspread","uncletopia"],"game_id":440,"stv_port":27036,"stv_name":"Uncletopia | Sydney | 3 | All Maps | STV","players":null},{"server_id":396,"name":"Uncletopia | Sydney | 4 | All Maps","name_short":"syd-4","host":"syd-1.au.uncletopia.com","port":27045,"enabled":true,"region":"au","cc":"au","latitude":-33.865143,"longitude":151.2099,"reserved":0,"last_update":"0001-01-01T00:00:00Z","name_a2s":"Uncletopia | Sydney | 4 | All Maps","protocol":17,"map":"koth_cascade","folder":"tf","game":"Team Fortress","app_id":440,"player_count":0,"max_players":24,"Bots":0,"server_type":"Dedicated","server_os":"Linux","password":true,"vac":true,"version":"7961495","steam_id":85568392925397958,"keywords":["cp","nocrits","nodmgspread","uncletopia"],"game_id":440,"stv_port":27046,"stv_name":"Uncletopia | Sydney | 4 | All Maps | STV","players":null},{"server_id":58,"name":"Uncletopia | Sydney | 5 | Stopwatch","name_short":"syd-5","host":"syd-1.au.uncletopia.com","port":27055,"enabled":true,"region":"au","cc":"au","latitude":-33.865143,"longitude":151.2099,"reserved":0,"last_update":"0001-01-01T00:00:00Z","name_a2s":"Uncletopia | Sydney | 5 | Stopwatch","protocol":17,"map":"workshop/koth_product_final.ugc454272353","folder":"tf","game":"Team Fortress","app_id":440,"player_count":0,"max_players":24,"Bots":0,"server_type":"Dedicated","server_os":"Linux","password":true,"vac":true,"version":"7961495","steam_id":85568392925397959,"keywords":["cp","nocrits","nodmgspread","uncletopia"],"game_id":440,"stv_port":27056,"stv_name":"Uncletopia | Sydney | 5 | Stopwatch | STV","players":null},{"server_id":59,"name":"Uncletopia | Sydney | 6 | Community","name_short":"syd-6","host":"syd-1.au.uncletopia.com","port":27065,"enabled":true,"region":"au","cc":"au","latitude":-33.865143,"longitude":151.2099,"reserved":0,"last_update":"0001-01-01T00:00:00Z","name_a2s":"Uncletopia | Sydney | 6 | Community","protocol":17,"map":"workshop/koth_slaughter_rc1.ugc1712845210","folder":"tf","game":"Team Fortress","app_id":440,"player_count":2,"max_players":24,"Bots":0,"server_type":"Dedicated","server_os":"Linux","password":true,"vac":true,"version":"7961495","steam_id":85568392925397960,"keywords":["cp","nocrits","nodmgspread","uncletopia"],"game_id":440,"stv_port":27066,"stv_name":"Uncletopia | Sydney | 6 | Community | STV","players":[{"user_id":5,"name":"{Azura Sarah}","steam_id":76561197989210208,"connected_time":1496000000000,"state":"active","ping":44},{"user_id":6,"name":"Spellstutter","steam_id":76561198046620609,"connected_time":1486000000000,"state":"active","ping":44}]},{"server_id":49,"name":"Uncletopia | Warsaw | 1 | One Thousand Uncles","name_short":"waw-1","host":"waw-1.pl.uncletopia.com","port":27015,"enabled":true,"region":"eu","cc":"pl","latitude":52.2297,"longitude":21.017532,"reserved":0,"last_update":"0001-01-01T00:00:00Z","name_a2s":"Uncletopia | Warsaw | 1 | One Thousand Uncles","protocol":17,"map":"cp_mercenarypark","folder":"tf","game":"Team Fortress","app_id":440,"player_count":0,"max_players":32,"Bots":0,"server_type":"Dedicated","server_os":"Linux","password":true,"vac":true,"version":"7961495","steam_id":85568392925397850,"keywords":["alltalk","cp","danepve","increased_maxplayers","norespawntime","uncletopia"],"game_id":440,"stv_port":0,"stv_name":"","players":null},{"server_id":50,"name":"Uncletopia | Warsaw | 2 | One Thousand Uncles","name_short":"waw-2","host":"waw-1.pl.uncletopia.com","port":27025,"enabled":true,"region":"eu","cc":"pl","latitude":52.2297,"longitude":21.017532,"reserved":0,"last_update":"0001-01-01T00:00:00Z","name_a2s":"Uncletopia | Warsaw | 2 | One Thousand Uncles","protocol":17,"map":"cp_egypt_final","folder":"tf","game":"Team Fortress","app_id":440,"player_count":0,"max_players":32,"Bots":0,"server_type":"Dedicated","server_os":"Linux","password":true,"vac":true,"version":"7961495","steam_id":85568392925397851,"keywords":["alltalk","cp","danepve","increased_maxplayers","norespawntime","uncletopia"],"game_id":440,"stv_port":0,"stv_name":"","players":null},{"server_id":51,"name":"Uncletopia | Warsaw | 3 | All Maps","name_short":"waw-3","host":"waw-1.pl.uncletopia.com","port":27035,"enabled":true,"region":"eu","cc":"pl","latitude":52.2297,"longitude":21.017532,"reserved":0,"last_update":"0001-01-01T00:00:00Z","name_a2s":"Uncletopia | Warsaw | 3 | All Maps","protocol":17,"map":"pl_snowycoast","folder":"tf","game":"Team Fortress","app_id":440,"player_count":0,"max_players":24,"Bots":0,"server_type":"Dedicated","server_os":"Linux","password":true,"vac":true,"version":"7961495","steam_id":85568392925397852,"keywords":["nocrits","nodmgspread","payload","uncletopia"],"game_id":440,"stv_port":27036,"stv_name":"Uncletopia | Warsaw | 3 | All Maps | STV","players":null},{"server_id":52,"name":"Uncletopia | Warsaw | 4 | All Maps","name_short":"waw-4","host":"waw-1.pl.uncletopia.com","port":27045,"enabled":true,"region":"eu","cc":"pl","latitude":52.2297,"longitude":21.017532,"reserved":0,"last_update":"0001-01-01T00:00:00Z","name_a2s":"Uncletopia | Warsaw | 4 | All Maps","protocol":17,"map":"cp_fastlane","folder":"tf","game":"Team Fortress","app_id":440,"player_count":0,"max_players":24,"Bots":0,"server_type":"Dedicated","server_os":"Linux","password":true,"vac":true,"version":"7961495","steam_id":85568392925397853,"keywords":["cp","nocrits","nodmgspread","uncletopia"],"game_id":440,"stv_port":27046,"stv_name":"Uncletopia | Warsaw | 4 | All Maps | STV","players":null},{"server_id":53,"name":"Uncletopia | Warsaw | 5 | Stopwatch","name_short":"waw-5","host":"waw-1.pl.uncletopia.com","port":27055,"enabled":true,"region":"eu","cc":"pl","latitude":52.2297,"longitude":21.017532,"reserved":0,"last_update":"0001-01-01T00:00:00Z","name_a2s":"Uncletopia | Warsaw | 5 | Stopwatch","protocol":17,"map":"cp_gullywash_final1","folder":"tf","game":"Team Fortress","app_id":440,"player_count":0,"max_players":24,"Bots":0,"server_type":"Dedicated","server_os":"Linux","password":true,"vac":true,"version":"7961495","steam_id":85568392925397854,"keywords":["cp","nocrits","nodmgspread","uncletopia"],"game_id":440,"stv_port":27056,"stv_name":"Uncletopia | Warsaw | 5 | Stopwatch | STV","players":null},{"server_id":54,"name":"Uncletopia | Warsaw | 6 | Community","name_short":"waw-6","host":"waw-1.pl.uncletopia.com","port":27065,"enabled":true,"region":"eu","cc":"pl","latitude":52.2297,"longitude":21.017532,"reserved":0,"last_update":"0001-01-01T00:00:00Z","name_a2s":"Uncletopia | Warsaw | 6 | Community","protocol":17,"map":"workshop/cp_fulgur_rc2a.ugc2068252300","folder":"tf","game":"Team Fortress","app_id":440,"player_count":0,"max_players":24,"Bots":0,"server_type":"Dedicated","server_os":"Linux","password":true,"vac":true,"version":"7961495","steam_id":85568392925397856,"keywords":["cp","nocrits","nodmgspread","uncletopia"],"game_id":440,"stv_port":27066,"stv_name":"Uncletopia | Warsaw | 6 | Community | STV","players":null}]}