{"status":true,"message":"","result":[{"server_id":9,"name":"Uncletopia | Atlanta | 1 | All Maps","name_short":"atl-1","host":"atl-1.us.uncletopia.com","port":27015,"enabled":true,"region":"us-east","cc":"us","latitude":33.753746,"longitude":-84.38633,"reserved":0,"last_update":"0001-01-01T00:00:00Z","name_a2s":"Uncletopia | Atlanta | 1 | All Maps","protocol":17,"map":"cp_altitude","folder":"tf","game":"Team Fortress","app_id":440,"player_count":0,"max_players":24,"Bots":0,"server_type":"Dedicated","server_os":"Linux","password":true,"vac":true,"version":"7961495","steam_id":85568392924469982,"keywords":["cp","nocrits","nodmgspread","uncletopia"],"game_id":440,"stv_port":27016,"stv_name":"Uncletopia | Atlanta | 1 | All Maps | STV","players":null},{"server_id":104,"name":"Uncletopia | Atlanta | 2 | All Maps","name_short":"atl-2","host":"atl-1.us.uncletopia.com","port":27025,"enabled":true,"region":"us-east","cc":"us","latitude":33.753746,"longitude":-84.38633,"reserved":0,"last_update":"0001-01-01T00:00:00Z","name_a2s":"Uncletopia | Atlanta | 2 | All Maps","protocol":17,"map":"koth_cascade","folder":"tf","game":"Team Fortress","app_id":440,"player_count":0,"max_players":24,"Bots":0,"server_type":"Dedicated","server_os":"Linux","password":true,"vac":true,"version":"7961495","steam_id":85568392924469983,"keywords":["cp","nocrits","nodmgspread","uncletopia"],"game_id":440,"stv_port":27026,"stv_name":"Uncletopia | Atlanta | 2 | All Maps | STV","players":null},{"server_id":400,"name":"Uncletopia | Atlanta | 3 | Stopwatch","name_short":"atl-3","host":"atl-1.us.uncletopia.com","port":27035,"enabled":true,"region":"us-east","cc":"us","latitude":33.753746,"longitude":-84.38633,"reserved":0,"last_update":"0001-01-01T00:00:00Z","name_a2s":"Uncletopia | Atlanta | 3 | Stopwatch","protocol":17,"map":"pl_badwater","folder":"tf","game":"Team Fortress","app_id":440,"player_count":0,"max_players":24,"Bots":0,"server_type":"Dedicated","server_os":"Linux","password":true,"vac":true,"version":"7961495","steam_id":85568392924515187,"keywords":["nocrits","nodmgspread","payload","uncletopia"],"game_id":440,"stv_port":27036,"stv_name":"Uncletopia | Atlanta | 3 | Stopwatch | STV","players":null},{"server_id":401,"name":"Uncletopia | Atlanta | 4 | Community","name_short":"atl-4","host":"atl-1.us.uncletopia.com","port":27045,"enabled":true,"region":"us-east","cc":"us","latitude":33.753746,"longitude":-84.38633,"reserved":0,"last_update":"0001-01-01T00:00:00Z","name_a2s":"Uncletopia | Atlanta | 4 | Community","protocol":17,"map":"cp_kalinka_rc6a","folder":"tf","game":"Team Fortress","app_id":440,"player_count":0,"max_players":24,"Bots":0,"server_type":"Dedicated","server_os":"Linux","password":true,"vac":true,"version":"7961495","steam_id":85568392924515188,"keywords":["cp","nocrits","nodmgspread","uncletopia"],"game_id":440,"stv_port":27046,"stv_name":"Uncletopia | Atlanta | 4 | Community | STV","players":null},{"server_id":2,"name":"Uncletopia | Chicago | 1 | All Maps","name_short":"chi-1","host":"chi-1.us.uncletopia.com","port":27015,"enabled":true,"region":"us-central","cc":"us","latitude":41.881832,"longitude":-87.62318,"reserved":0,"last_update":"0001-01-01T00:00:00Z","name_a2s":"Uncletopia | Chicago | 1 | All Maps","protocol":17,"map":"pl_frontier_final","folder":"tf","game":"Team Fortress","app_id":440,"player_count":24,"max_players":24,"Bots":0,"server_type":"Dedicated","server_os":"Linux","password":true,"vac":true,"version":"7961495","steam_id":85568392924469984,"keywords":["nocrits","nodmgspread","payload","uncletopia"],"game_id":440,"stv_port":27016,"stv_name":"Uncletopia | Chicago | 1 | All Maps | STV","players":[{"user_id":53,"name":"majorbobfunction","steam_id":76561198042464632,"connected_time":4526000000000,"state":"active","ping":53},{"user_id":69,"name":"6t26j","steam_id":76561198278282836,"connected_time":2632000000000,"state":"active","ping":57},{"user_id":20,"name":"Mixomin","steam_id":76561198295061570,"connected_time":6717000000000,"state":"active","ping":52},{"user_id":73,"name":"FAT FUCK engineer","steam_id":76561198882404753,"connected_time":1215000000000,"state":"active","ping":82},{"user_id":46,"name":"Doc{MDW}","steam_id":76561198075049640,"connected_time":5275000000000,"state":"active","ping":99},{"user_id":78,"name":"donatello „ÉÑ","steam_id":76561198091157081,"connected_time":757000000000,"state":"active","ping":54},{"user_id":41,"name":"grant","steam_id":76561198083266065,"connected_time":5519000000000,"state":"active","ping":58},{"user_id":23,"name":"Rat under your floors","steam_id":76561198105613110,"connected_time":6128000000000,"state":"active","ping":50},{"user_id":63,"name":"whats up dog","steam_id":76561198063062263,"connected_time":3134000000000,"state":"active","ping":77},{"user_id":65,"name":"enhanced with disney's FastPlay","steam_id":76561198164134387,"connected_time":3116000000000,"state":"active","ping":108},{"user_id":70,"name":"mario.hernandez.2006","steam_id":76561198811827433,"connected_time":2161000000000,"state":"active","ping":52},{"user_id":59,"name":"Hylic","steam_id":76561199051314589,"connected_time":3533000000000,"state":"active","ping":63},{"user_id":72,"name":"subdromeda","steam_id":76561198884351860,"connected_time":1780000000000,"state":"active","ping":67},{"user_id":43,"name":"heavy guy","steam_id":76561197984047460,"connected_time":5482000000000,"state":"active","ping":48},{"user_id":75,"name":"finger","steam_id":76561198068558572,"connected_time":1199000000000,"state":"active","ping":79},{"user_id":57,"name":"Impresio","steam_id":76561198129127347,"connected_time":3550000000000,"state":"active","ping":66},{"user_id":76,"name":"Bogey","steam_id":76561198096227944,"connected_time":1120000000000,"state":"active","ping":74},{"user_id":31,"name":"Ramadan Steve","steam_id":76561198138568488,"connected_time":5750000000000,"state":"active","ping":74},{"user_id":34,"name":"Mecha","steam_id":76561198014927379,"connected_time":5654000000000,"state":"active","ping":70},{"user_id":51,"name":"spider_murphy","steam_id":76561198079057101,"connected_time":4882000000000,"state":"active","ping":67},{"user_id":36,"name":"Rat Bastard","steam_id":76561198153443658,"connected_time":5603000000000,"state":"active","ping":88},{"user_id":61,"name":"dobby","steam_id":76561198012274834,"connected_time":3245000000000,"state":"active","ping":99},{"user_id":48,"name":"indi","steam_id":76561198045917538,"connected_time":5202000000000,"state":"active","ping":48},{"user_id":68,"name":"NikoOS (NO SOUND)","steam_id":76561198180020521,"connected_time":2708000000000,"state":"active","ping":143}]},{"server_id":106,"name":"Uncletopia | Chicago | 2 | All Maps","name_short":"chi-2","host":"chi-1.us.uncletopia.com","port":27025,"enabled":true,"region":"us-central","cc":"us","latitude":41.881832,"longitude":-87.62318,"reserved":0,"last_update":"0001-01-01T00:00:00Z","name_a2s":"Uncletopia | Chicago | 2 | All Maps","protocol":17,"map":"cp_gravelpit","folder":"tf","game":"Team Fortress","app_id":440,"player_count":24,"max_players":24,"Bots":0,"server_type":"Dedicated","server_os":"Linux","password":true,"vac":true,"version":"7961495","steam_id":85568392924469985,"keywords":["cp","nocrits","nodmgspread","uncletopia"],"game_id":440,"stv_port":27026,"stv_name":"Uncletopia | Chicago | 2 | All Maps | STV","players":[{"user_id":155,"name":"Aristotle Voulton","steam_id":76561198100174923,"connected_time":218000000000,"state":"active","ping":86},{"user_id":131,"name":"Peter Hook","steam_id":76561197999105979,"connected_time":1605000000000,"state":"active","ping":57},{"user_id":132,"name":"Hyd","steam_id":76561198064680410,"connected_time":1315000000000,"state":"active","ping":59},{"user_id":142,"name":"Woke Moralist","steam_id":76561198159339442,"connected_time":1139000000000,"state":"active","ping":71},{"user_id":145,"name":"Artemis1545","steam_id":76561198865786390,"connected_time":853000000000,"state":"active","ping":124},{"user_id":69,"name":"fi_ji","steam_id":76561198126087725,"connected_time":6775000000000,"state":"active","ping":70},{"user_id":95,"name":"the keebler","steam_id":76561199486326945,"connected_time":5224000000000,"state":"active","ping":74},{"user_id":151,"name":"stew","steam_id":76561198136286178,"connected_time":408000000000,"state":"active","ping":60},{"user_id":121,"name":"hurb","steam_id":76561198192113097,"connected_time":2275000000000,"state":"active","ping":69},{"user_id":77,"name":"U œâ U","steam_id":76561198118802562,"connected_time":5853000000000,"state":"active","ping":110},{"user_id":137,"name":"Jolyne","steam_id":76561198169960915,"connected_time":1239000000000,"state":"active","ping":72},{"user_id":108,"name":"Voodo133","steam_id":76561198042670351,"connected_time":3900000000000,"state":"active","ping":86},{"user_id":134,"name":"I came (up)","steam_id":76561198057745131,"connected_time":1301000000000,"state":"active","ping":52},{"user_id":144,"name":"ViserofJustice","steam_id":76561198267918559,"connected_time":978000000000,"state":"active","ping":71},{"user_id":147,"name":"MikeLovesRabbit","steam_id":76561197997742625,"connected_time":609000000000,"state":"active","ping":67},{"user_id":139,"name":"ViserOfOrder","steam_id":76561198137222506,"connected_time":1224000000000,"state":"active","ping":68},{"user_id":127,"name":"Flowers","steam_id":76561198031669899,"connected_time":2155000000000,"state":"active","ping":84},{"user_id":154,"name":"Capn. Wing Ding","steam_id":76561198076068424,"connected_time":356000000000,"state":"active","ping":84},{"user_id":63,"name":"Bussy Bandit","steam_id":76561198034028769,"connected_time":7608000000000,"state":"active","ping":67},{"user_id":90,"name":"lucky","steam_id":76561198323426623,"connected_time":5442000000000,"state":"active","ping":99},{"user_id":91,"name":"Carl, Good to see you","steam_id":76561198070574075,"connected_time":5407000000000,"state":"active","ping":70},{"user_id":152,"name":"Mason","steam_id":76561198067984258,"connected_time":408000000000,"state":"active","ping":60},{"user_id":153,"name":"craxy goddamn tavi","steam_id":76561198050192689,"connected_time":398000000000,"state":"active","ping":99},{"user_id":156,"name":"CTRLZ0Y","steam_id":76561198183346187,"connected_time":218000000000,"state":"active","ping":63}]},{"server_id":402,"name":"Uncletopia | Chicago | 3 | All Maps","name_short":"chi-3","host":"chi-1.us.uncletopia.com","port":27035,"enabled":true,"region":"us-central","cc":"us","latitude":41.881832,"longitude":-87.62318,"reserved":0,"last_update":"0001-01-01T00:00:00Z","name_a2s":"Uncletopia | Chicago | 3 | All Maps","protocol":17,"map":"pl_frontier_final","folder":"tf","game":"Team Fortress","app_id":440,"player_count":0,"max_players":24,"Bots":0,"server_type":"Dedicated","server_os":"Linux","password":true,"vac":true,"version":"7961495","steam_id":85568392924515191,"keywords":["nocrits","nodmgspread","payload","uncletopia"],"game_id":440,"stv_port":27036,"stv_name":"Uncletopia | Chicago | 3 | All Maps | STV","players":null},{"server_id":403,"name":"Uncletopia | Chicago | 4 | All Maps","name_short":"chi-4","host":"chi-1.us.uncletopia.com","port":27045,"enabled":true,"region":"us-central","cc":"us","latitude":41.881832,"longitude":-87.62318,"reserved":0,"last_update":"0001-01-01T00:00:00Z","name_a2s":"Uncletopia | Chicago | 4 | All Maps","protocol":17,"map":"pl_pier","folder":"tf","game":"Team Fortress","app_id":440,"player_count":0,"max_players":24,"Bots":0,"server_type":"Dedicated","server_os":"Linux","password":true,"vac":true,"version":"7961495","steam_id":85568392924515193,"keywords":["nocrits","nodmgspread","payload","uncletopia"],"game_id":440,"stv_port":27046,"stv_name":"Uncletopia | Chicago | 4 | All Maps | STV","players":null},{"server_id":36,"name":"Uncletopia | Chicago | 5 | All Maps","name_short":"chi-5","host":"chi-2.us.uncletopia.com","port":27015,"enabled":true,"region":"us-central","cc":"us","latitude":41.881832,"longitude":-87.62318,"reserved":0,"last_update":"0001-01-01T00:00:00Z","name_a2s":"Uncletopia | Chicago | 5 | All Maps","protocol":17,"map":"koth_viaduct","folder":"tf","game":"Team Fortress","app_id":440,"player_count":0,"max_players":24,"Bots":0,"server_type":"Dedicated","server_os":"Linux","password":true,"vac":true,"version":"7961495","steam_id":85568392924866362,"keywords":["cp","nocrits","nodmgspread","uncletopia"],"game_id":440,"stv_port":27016,"stv_name":"Uncletopia | Chicago | 5 | All Maps | STV","players":null},{"server_id":37,"name":"Uncletopia | Chicago | 6 | All Maps","name_short":"chi-6","host":"chi-2.us.uncletopia.com","port":27025,"enabled":true,"region":"us-central","cc":"us","latitude":41.881832,"longitude":-87.62318,"reserved":0,"last_update":"0001-01-01T00:00:00Z","name_a2s":"Uncletopia | Chicago | 6 | All Maps","protocol":17,"map":"cp_sunshine","folder":"tf","game":"Team Fortress","app_id":440,"player_count":0,"max_players":24,"Bots":0,"server_type":"Dedicated","server_os":"Linux","password":true,"vac":true,"version":"7961495","steam_id":85568392924866363,"keywords":["cp","nocrits","nodmgspread","uncletopia"],"game_id":440,"stv_port":27026,"stv_name":"Uncletopia | Chicago | 6 | All Maps | STV","players":null},{"server_id":38,"name":"Uncletopia | Chicago | 7 | Stopwatch","name_short":"chi-7","host":"chi-2.us.uncletopia.com","port":27035,"enabled":true,"region":"us-central","cc":"us","latitude":41.881832,"longitude":-87.62318,"reserved":0,"last_update":"0001-01-01T00:00:00Z","name_a2s":"Uncletopia | Chicago | 7 | Stopwatch","protocol":17,"map":"workshop/koth_product_final.ugc454272353","folder":"tf","game":"Team Fortress","app_id":440,"player_count":0,"max_players":24,"Bots":0,"server_type":"Dedicated","server_os":"Linux","password":true,"vac":true,"version":"7961495","steam_id":85568392924866364,"keywords":["cp","nocrits","nodmgspread","uncletopia"],"game_id":440,"stv_port":27036,"stv_name":"Uncletopia | Chicago | 7 | Stopwatch | STV","players":null},{"server_id":39,"name":"Uncletopia | Chicago | 8 | Community","name_short":"chi-8","host":"chi-2.us.uncletopia.com","port":27045,"enabled":true,"region":"us-central","cc":"us","latitude":41.881832,"longitude":-87.62318,"reserved":0,"last_update":"0001-01-01T00:00:00Z","name_a2s":"Uncletopia | Chicago | 8 | Community","protocol":17,"map":"pl_pier","folder":"tf","game":"Team Fortress","app_id":440,"player_count":2,"max_players":24,"Bots":0,"server_type":"Dedicated","server_os":"Linux","password":true,"vac":true,"version":"7961495","steam_id":85568392924866365,"keywords":["nocrits","nodmgspread","payload","uncletopia"],"game_id":440,"stv_port":27046,"stv_name":"Uncletopia | Chicago | 8 | Community | STV","players":[{"user_id":4,"name":"Sunflower","steam_id":76561198081223793,"connected_time":544000000000,"state":"active","ping":52},{"user_id":5,"name":"Kirsk","steam_id":76561198084397649,"connected_time":425000000000,"state":"active","ping":55}]},{"server_id":8,"name":"Uncletopia | Dallas | 1 | All Maps","name_short":"dal-1","host":"dal-1.us.uncletopia.com","port":27015,"enabled":true,"region":"us-central","cc":"us","latitude":32.779167,"longitude":-96.80889,"reserved":0,"last_update":"0001-01-01T00:00:00Z","name_a2s":"Uncletopia | Dallas | 1 | All Maps","protocol":17,"map":"pl_swiftwater_final1","folder":"tf","game":"Team Fortress","app_id":440,"player_count":24,"max_players":24,"Bots":0,"server_type":"Dedicated","server_os":"Linux","password":true,"vac":true,"version":"7961495","steam_id":85568392924469986,"keywords":["nocrits","nodmgspread","payload","uncletopia"],"game_id":440,"stv_port":27016,"stv_name":"Uncletopia | Dallas | 1 | All Maps | STV","players":[{"user_id":6,"name":"GX thedittoguy","steam_id":76561199013129784,"connected_time":2283000000000,"state":"active","ping":54},{"user_id":7,"name":"Enderlord99","steam_id":76561198158152954,"connected_time":1906000000000,"state":"active","ping":103},{"user_id":8,"name":"Looper","steam_id":76561198410378769,"connected_time":1853000000000,"state":"active","ping":60},{"user_id":9,"name":"Thequirka (regular trackpad use","steam_id":76561198968058652,"connected_time":1759000000000,"state":"active","ping":102},{"user_id":10,"name":"socializedCryptid","steam_id":76561198991665007,"connected_time":1740000000000,"state":"active","ping":90},{"user_id":35,"name":"JayRawgTV","steam_id":76561198044402840,"connected_time":260000000000,"state":"active","ping":46},{"user_id":12,"name":"Proto","steam_id":76561197984119828,"connected_time":1586000000000,"state":"active","ping":69},{"user_id":34,"name":"uberslak","steam_id":76561198064715241,"connected_time":356000000000,"state":"active","ping":123},{"user_id":14,"name":"Ulrich Stern","steam_id":76561198101739682,"connected_time":1376000000000,"state":"active","ping":74},{"user_id":15,"name":"Petrivus","steam_id":76561198202152453,"connected_time":1177000000000,"state":"active","ping":101},{"user_id":16,"name":"Niko","steam_id":76561198185806553,"connected_time":1146000000000,"state":"active","ping":59},{"user_id":17,"name":"chiswola","steam_id":76561198046920142,"connected_time":1143000000000,"state":"active","ping":99},{"user_id":24,"name":"Bat Rastard","steam_id":76561198210957496,"connected_time":915000000000,"state":"active","ping":85},{"user_id":19,"name":"Nemesis Vampy üè¥‚ò≠","steam_id":76561198092062889,"connected_time":1015000000000,"state":"active","ping":77},{"user_id":20,"name":"Carrol","steam_id":76561198316384960,"connected_time":954000000000,"state":"active","ping":101},{"user_id":23,"name":"doydoydoydoydoy","steam_id":76561198037803087,"connected_time":931000000000,"state":"active","ping":85},{"user_id":22,"name":"Dripless The Poor","steam_id":76561198090546454,"connected_time":947000000000,"state":"active","ping":75},{"user_id":25,"name":"DrippySloth","steam_id":76561198199083811,"connected_time":892000000000,"state":"active","ping":115},{"user_id":26,"name":"HavocGDI","steam_id":76561199388371914,"connected_time":882000000000,"state":"active","ping":66},{"user_id":27,"name":"GayPlanet","steam_id":76561198312055755,"connected_time":852000000000,"state":"active","ping":103},{"user_id":28,"name":"HAT-WEARING‚Ñ¢ Maggot Gamer Cat","steam_id":76561197973992705,"connected_time":825000000000,"state":"active","ping":99},{"user_id":29,"name":"Finn the Dafter","steam_id":76561198004267413,"connected_time":764000000000,"state":"active","ping":57},{"user_id":32,"name":"new york city pizza rat","steam_id":76561198202589758,"connected_time":710000000000,"state":"active","ping":82},{"user_id":33,"name":"r0ck","steam_id":76561198395892272,"connected_time":463000000000,"state":"active","ping":99}]},{"server_id":108,"name":"Uncletopia | Dallas | 2 | All Maps","name_short":"dal-2","host":"dal-1.us.uncletopia.com","port":27025,"enabled":true,"region":"us-central","cc":"us","latitude":32.779167,"longitude":-96.80889,"reserved":0,"last_update":"0001-01-01T00:00:00Z","name_a2s":"Uncletopia | Dallas | 2 | All Maps","protocol":17,"map":"pl_snowycoast","folder":"tf","game":"Team Fortress","app_id":440,"player_count":1,"max_players":24,"Bots":0,"server_type":"Dedicated","server_os":"Linux","password":true,"vac":true,"version":"7961495","steam_id":85568392924469988,"keywords":["nocrits","nodmgspread","payload","uncletopia"],"game_id":440,"stv_port":27026,"stv_name":"Uncletopia | Dallas | 2 | All Maps | STV","players":[{"user_id":4,"name":"ihave80hp","steam_id":76561199251621911,"connected_time":33000000000,"state":"spawning","ping":132}]},{"server_id":404,"name":"Uncletopia | Dallas | 3 | All Maps","name_short":"dal-3","host":"dal-1.us.uncletopia.com","port":27035,"enabled":true,"region":"us-central","cc":"us","latitude":32.779167,"longitude":-96.80889,"reserved":0,"last_update":"0001-01-01T00:00:00Z","name_a2s":"Uncletopia | Dallas | 3 | All Maps","protocol":17,"map":"koth_viaduct","folder":"tf","game":"Team Fortress","app_id":440,"player_count":0,"max_players":24,"Bots":0,"server_type":"Dedicated","server_os":"Linux","password":true,"vac":true,"version":"7961495","steam_id":85568392924515219,"keywords":["cp","nocrits","nodmgspread","uncletopia"],"game_id":440,"stv_port":27036,"stv_name":"Uncletopia | Dallas | 3 | All Maps | STV","players":null},{"server_id":405,"name":"Uncletopia | Dallas | 4 | Community","name_short":"dal-4","host":"dal-1.us.uncletopia.com","port":27045,"enabled":true,"region":"us-central","cc":"us","latitude":32.779167,"longitude":-96.80889,"reserved":0,"last_update":"0001-01-01T00:00:00Z","name_a2s":"Uncletopia | Dallas | 4 | Community","protocol":17,"map":"pl_pier","folder":"tf","game":"Team Fortress","app_id":440,"player_count":0,"max_players":24,"Bots":0,"server_type":"Dedicated","server_os":"Linux","password":true,"vac":true,"version":"7961495","steam_id":85568392924515220,"keywords":["nocrits","nodmgspread","payload","uncletopia"],"game_id":440,"stv_port":27046,"stv_name":"Uncletopia | Dallas | 4 | Community | STV","players":null},{"server_id":5,"name":"Uncletopia | Frankfurt | 1 | All Maps","name_short":"frk-1","host":"frk-1.de.uncletopia.com","port":27015,"enabled":true,"region":"eu","cc":"de","latitude":50.110924,"longitude":8.682127,"reserved":0,"last_update":"0001-01-01T00:00:00Z","name_a2s":"Uncletopia | Frankfurt | 1 | All Maps","protocol":17,"map":"cp_steel","folder":"tf","game":"Team Fortress","app_id":440,"player_count":24,"max_players":24,"Bots":0,"server_type":"Dedicated","server_os":"Linux","password":true,"vac":true,"version":"7961495","steam_id":85568392924469989,"keywords":["cp","nocrits","nodmgspread","uncletopia"],"game_id":440,"stv_port":27016,"stv_name":"Uncletopia | Frankfurt | 1 | All Maps | STV","players":[{"user_id":296,"name":"squillisky","steam_id":76561198083569327,"connected_time":2652000000000,"state":"active","ping":60},{"user_id":289,"name":"HHH","steam_id":76561199492732323,"connected_time":3545000000000,"state":"active","ping":50},{"user_id":291,"name":"Leibeigener","steam_id":76561199275478305,"connected_time":3339000000000,"state":"active","ping":41},{"user_id":319,"name":"iswaxan","steam_id":76561199214988157,"connected_time":434000000000,"state":"active","ping":84},{"user_id":284,"name":"ACG_Dubsy","steam_id":76561198797308565,"connected_time":3861000000000,"state":"active","ping":72},{"user_id":321,"name":"HIPHOPJOSH","steam_id":76561198098539797,"connected_time":403000000000,"state":"active","ping":65},{"user_id":318,"name":"PingouinPoilu","steam_id":76561198025089253,"connected_time":460000000000,"state":"active","ping":69},{"user_id":322,"name":"Delere","steam_id":76561198061309755,"connected_time":389000000000,"state":"active","ping":131},{"user_id":314,"name":"Gaattori","steam_id":76561198065624683,"connected_time":472000000000,"state":"active","ping":90},{"user_id":277,"name":"Rocade","steam_id":76561198116634856,"connected_time":4362000000000,"state":"active","ping":58},{"user_id":309,"name":"‚Ä†ùî•e œâoo","steam_id":76561198929808815,"connected_time":1099000000000,"state":"active","ping":55},{"user_id":323,"name":"Monke","steam_id":76561199018286526,"connected_time":382000000000,"state":"active","ping":92},{"user_id":313,"name":"Cyborg","steam_id":76561198036899979,"connected_time":508000000000,"state":"active","ping":52},{"user_id":280,"name":"Mini","steam_id":76561197968634073,"connected_time":3894000000000,"state":"active","ping":105},{"user_id":311,"name":"60hz laptop","steam_id":76561198111229919,"connected_time":906000000000,"state":"active","ping":54},{"user_id":324,"name":"Mac Bean","steam_id":76561198133782205,"connected_time":374000000000,"state":"active","ping":114},{"user_id":292,"name":"Kvadrat","steam_id":76561198022834916,"connected_time":3304000000000,"state":"active","ping":116},{"user_id":325,"name":"huhso","steam_id":76561198219443271,"connected_time":209000000000,"state":"active","ping":68},{"user_id":304,"name":"Mak≈Çowicz","steam_id":76561198281831506,"connected_time":1395000000000,"state":"active","ping":71},{"user_id":279,"name":"Flohr","steam_id":76561198191948841,"connected_time":4084000000000,"state":"active","ping":53},{"user_id":316,"name":"Pryncypa≈Ç","steam_id":76561198058057224,"connected_time":467000000000,"state":"active","ping":56},{"user_id":302,"name":"High School Nudical","steam_id":76561198172120615,"connected_time":1606000000000,"state":"active","ping":121},{"user_id":299,"name":"King Goomba","steam_id":76561198146467813,"connected_time":2174000000000,"state":"active","ping":82},{"user_id":317,"name":"Veir≈´ Viseris","steam_id":76561197989857176,"connected_time":467000000000,"state":"active","ping":75}]},{"server_id":110,"name":"Uncletopia | Frankfurt | 2 | All Maps","name_short":"frk-2","host":"frk-1.de.uncletopia.com","port":27025,"enabled":true,"region":"eu","cc":"de","latitude":50.110924,"longitude":8.682127,"reserved":0,"last_update":"0001-01-01T00:00:00Z","name_a2s":"Uncletopia | Frankfurt | 2 | All Maps","protocol":17,"map":"koth_lakeside_final","folder":"tf","game":"Team Fortress","app_id":440,"player_count":0,"max_players":24,"Bots":0,"server_type":"Dedicated","server_os":"Linux","password":true,"vac":true,"version":"7961495","steam_id":85568392924469990,"keywords":["cp","nocrits","nodmgspread","uncletopia"],"game_id":440,"stv_port":27026,"stv_name":"Uncletopia | Frankfurt | 2 | All Maps | STV","players":null},{"server_id":308,"name":"Uncletopia | Frankfurt | 3 | All Maps","name_short":"frk-3","host":"frk-1.de.uncletopia.com","port":27035,"enabled":true,"region":"eu","cc":"de","latitude":50.110924,"longitude":8.682127,"reserved":0,"last_update":"0001-01-01T00:00:00Z","name_a2s":"Uncletopia | Frankfurt | 3 | All Maps","protocol":17,"map":"pl_swiftwater_final1","folder":"tf","game":"Team Fortress","app_id":440,"player_count":23,"max_players":24,"Bots":0,"server_type":"Dedicated","server_os":"Linux","password":true,"vac":true,"version":"7961495","steam_id":85568392924504274,"keywords":["nocrits","nodmgspread","payload","uncletopia"],"game_id":440,"stv_port":27036,"stv_name":"Uncletopia | Frankfurt | 3 | All Maps | STV","players":[{"user_id":160,"name":"val","steam_id":76561198324316160,"connected_time":1624000000000,"state":"active","ping":57},{"user_id":184,"name":"laido riteris","steam_id":76561199098499873,"connected_time":224000000000,"state":"active","ping":57},{"user_id":169,"name":"Redumpus Demarcus U. the 3rd","steam_id":76561199162894483,"connected_time":928000000000,"state":"active","ping":161},{"user_id":173,"name":"Ozzak","steam_id":76561198353664262,"connected_time":797000000000,"state":"active","ping":45},{"user_id":124,"name":"‚ô£–ì–µ–Ω—Å–µ–∫ –ü–æ–Ω–æ—Å–∞","steam_id":76561198796404149,"connected_time":4164000000000,"state":"active","ping":106},{"user_id":140,"name":"–¥–∂–µ–≥–µ–º–∏ —Ö—ç–ø–∫–∏–Ω–≥—Å","steam_id":76561198131531394,"connected_time":3311000000000,"state":"active","ping":90},{"user_id":171,"name":"The","steam_id":76561198359311605,"connected_time":810000000000,"state":"active","ping":60},{"user_id":70,"name":"Plop_","steam_id":76561198112567921,"connected_time":6663000000000,"state":"active","ping":45},{"user_id":113,"name":"Princess Fuzz","steam_id":76561198025783000,"connected_time":5241000000000,"state":"active","ping":50},{"user_id":167,"name":"Uncle Terry","steam_id":76561198396415736,"connected_time":1018000000000,"state":"active","ping":69},{"user_id":185,"name":"bernkastel","steam_id":76561198030909125,"connected_time":178000000000,"state":"active","ping":90},{"user_id":174,"name":"Pico","steam_id":76561198063552545,"connected_time":685000000000,"state":"active","ping":98},{"user_id":175,"name":"Jeffrey Harpen","steam_id":76561199073314677,"connected_time":681000000000,"state":"active","ping":71},{"user_id":177,"name":"Average meme enjoyer","steam_id":76561199087566663,"connected_time":561000000000,"state":"active","ping":90},{"user_id":156,"name":"invis","steam_id":76561198120668070,"connected_time":2223000000000,"state":"active","ping":58},{"user_id":125,"name":"The Bugs Under Your Skin","steam_id":76561198064795519,"connected_time":4161000000000,"state":"active","ping":76},{"user_id":179,"name":"efffcraft","steam_id":76561198306317166,"connected_time":527000000000,"state":"active","ping":94},{"user_id":164,"name":"Mav","steam_id":76561198004403881,"connected_time":1199000000000,"state":"active","ping":55},{"user_id":180,"name":"Huzd","steam_id":76561198329617950,"connected_time":524000000000,"state":"active","ping":66},{"user_id":181,"name":"mAx","steam_id":76561198449332498,"connected_time":520000000000,"state":"active","ping":82},{"user_id":182,"name":"wG Domo","steam_id":76561198056790920,"connected_time":510000000000,"state":"active","ping":60},{"user_id":183,"name":"weed dispenser","steam_id":76561199090859842,"connected_time":466000000000,"state":"active","ping":87},{"user_id":168,"name":"Lebanon Blames","steam_id":76561198347697481,"connected_time":1014000000000,"state":"active","ping":92}]},{"server_id":309,"name":"Uncletopia | Frankfurt | 4 | All Maps","name_short":"frk-4","host":"frk-1.de.uncletopia.com","port":27045,"enabled":true,"region":"eu","cc":"de","latitude":50.110924,"longitude":8.682127,"reserved":0,"last_update":"0001-01-01T00:00:00Z","name_a2s":"Uncletopia | Frankfurt | 4 | All Maps","protocol":17,"map":"koth_highpass","folder":"tf","game":"Team Fortress","app_id":440,"player_count":0,"max_players":24,"Bots":0,"server_type":"Dedicated","server_os":"Linux","password":true,"vac":true,"version":"7961495","steam_id":85568392924504275,"keywords":["cp","nocrits","nodmgspread","uncletopia"],"game_id":440,"stv_port":27046,"stv_name":"Uncletopia | Frankfurt | 4 | All Maps | STV","players":null},{"server_id":310,"name":"Uncletopia | Frankfurt | 5 | All Maps","name_short":"frk-5","host":"frk-1.de.uncletopia.com","port":27055,"enabled":true,"region":"eu","cc":"de","latitude":50.110924,"longitude":8.682127,"reserved":0,"last_update":"0001-01-01T00:00:00Z","name_a2s":"Uncletopia | Frankfurt | 5 | All Maps","protocol":17,"map":"pl_barnblitz","folder":"tf","game":"Team Fortress","app_id":440,"player_count":23,"max_players":24,"Bots":0,"server_type":"Dedicated","server_os":"Linux","password":true,"vac":true,"version":"7961495","steam_id":85568392924504277,"keywords":["nocrits","nodmgspread","payload","uncletopia"],"game_id":440,"stv_port":27056,"stv_name":"Uncletopia | Frankfurt | 5 | All Maps | STV","players":[{"user_id":202,"name":"Vikud","steam_id":76561199110575856,"connected_time":441000000000,"state":"active","ping":148},{"user_id":165,"name":"bigmazi","steam_id":76561198133276643,"connected_time":2491000000000,"state":"active","ping":83},{"user_id":147,"name":"Sakari","steam_id":76561197997811299,"connected_time":3593000000000,"state":"active","ping":47},{"user_id":168,"name":"r/sound√≠ng","steam_id":76561199170716483,"connected_time":2263000000000,"state":"active","ping":55},{"user_id":201,"name":"Pighead_08","steam_id":76561199060466647,"connected_time":494000000000,"state":"active","ping":101},{"user_id":199,"name":"Worms","steam_id":76561198040442214,"connected_time":619000000000,"state":"active","ping":56},{"user_id":192,"name":"curious femboy","steam_id":76561199199388221,"connected_time":979000000000,"state":"active","ping":68},{"user_id":81,"name":"mixxxa_french","steam_id":76561198085098243,"connected_time":6982000000000,"state":"active","ping":107},{"user_id":204,"name":"hej","steam_id":76561198110530761,"connected_time":80000000000,"state":"active","ping":61},{"user_id":178,"name":"Kestrel","steam_id":76561198144033005,"connected_time":1978000000000,"state":"active","ping":61},{"user_id":149,"name":"‚ôÇ MGE ‚ôÇ PUPSIK ‚ôÇ","steam_id":76561198308302932,"connected_time":3568000000000,"state":"active","ping":93},{"user_id":156,"name":"daanvanliempt05","steam_id":76561198355398948,"connected_time":3248000000000,"state":"active","ping":53},{"user_id":173,"name":"thomas3003","steam_id":76561198209860039,"connected_time":2119000000000,"state":"active","ping":53},{"user_id":182,"name":"Shlyk","steam_id":76561198333387103,"connected_time":1555000000000,"state":"active","ping":96},{"user_id":181,"name":"mafia555","steam_id":76561198324382656,"connected_time":1897000000000,"state":"active","ping":103},{"user_id":194,"name":"MrClyde","steam_id":76561198132627420,"connected_time":944000000000,"state":"active","ping":61},{"user_id":177,"name":"a second plane","steam_id":76561199401283123,"connected_time":2028000000000,"state":"active","ping":64},{"user_id":185,"name":"KaasKrans","steam_id":76561198240451972,"connected_time":1427000000000,"state":"active","ping":55},{"user_id":200,"name":"NocoTheWitcher","steam_id":76561199168369877,"connected_time":613000000000,"state":"active","ping":55},{"user_id":197,"name":"BistandsCola","steam_id":76561198046569907,"connected_time":730000000000,"state":"active","ping":66},{"user_id":205,"name":"rwota","steam_id":76561198385769722,"connected_time":42000000000,"state":"active","ping":97},{"user_id":191,"name":"Marabosha","steam_id":76561198137599173,"connected_time":1006000000000,"state":"active","ping":108},{"user_id":198,"name":"antlionguard","steam_id":76561198072747143,"connected_time":676000000000,"state":"active","ping":120}]},{"server_id":311,"name":"Uncletopia | Frankfurt | 6 | All Maps","name_short":"frk-6","host":"frk-1.de.uncletopia.com","port":27065,"enabled":true,"region":"eu","cc":"de","latitude":50.110924,"longitude":8.682127,"reserved":0,"last_update":"0001-01-01T00:00:00Z","name_a2s":"Uncletopia | Frankfurt | 6 | All Maps","protocol":17,"map":"pl_snowycoast","folder":"tf","game":"Team Fortress","app_id":440,"player_count":22,"max_players":24,"Bots":0,"server_type":"Dedicated","server_os":"Linux","password":true,"vac":true,"version":"7961495","steam_id":85568392924504278,"keywords":["nocrits","nodmgspread","payload","uncletopia"],"game_id":440,"stv_port":27066,"stv_name":"Uncletopia | Frankfurt | 6 | All Maps | STV","players":[{"user_id":69,"name":"chidory41","steam_id":76561199404844130,"connected_time":883000000000,"state":"active","ping":73},{"user_id":87,"name":"else1","steam_id":76561197996558319,"connected_time":79000000000,"state":"active","ping":74},{"user_id":62,"name":"Metalizer","steam_id":76561198099595082,"connected_time":1243000000000,"state":"active","ping":74},{"user_id":71,"name":"NitPig","steam_id":76561198212991935,"connected_time":851000000000,"state":"active","ping":100},{"user_id":14,"name":"Peter Pammpim","steam_id":76561199103785290,"connected_time":3635000000000,"state":"active","ping":92},{"user_id":85,"name":"Spoof059","steam_id":76561198356116829,"connected_time":421000000000,"state":"active","ping":76},{"user_id":83,"name":"elmstJP ‚Ç™ F4.exe","steam_id":76561197997909480,"connected_time":578000000000,"state":"active","ping":74},{"user_id":65,"name":"Bottle O' Scrumpy","steam_id":76561199244250562,"connected_time":1071000000000,"state":"active","ping":104},{"user_id":53,"name":"‚ú™ lopik_","steam_id":76561198104479867,"connected_time":2002000000000,"state":"active","ping":52},{"user_id":21,"name":"KatterMaw","steam_id":76561198147143250,"connected_time":3173000000000,"state":"active","ping":100},{"user_id":49,"name":"fryingpan","steam_id":76561197985655573,"connected_time":2278000000000,"state":"active","ping":74},{"user_id":88,"name":"kurage","steam_id":76561198021221288,"connected_time":46000000000,"state":"active","ping":60},{"user_id":89,"name":"CEO of Racism","steam_id":76561198042317958,"connected_time":35000000000,"state":"active","ping":61},{"user_id":54,"name":"JohnTraveltime","steam_id":76561199244281754,"connected_time":1911000000000,"state":"active","ping":70},{"user_id":77,"name":"Worst Zs player","steam_id":76561198144172143,"connected_time":692000000000,"state":"active","ping":104},{"user_id":48,"name":"VIN WEASEL","steam_id":76561198014387066,"connected_time":2391000000000,"state":"active","ping":48},{"user_id":78,"name":"Niet beheerde Jongeheer","steam_id":76561198051685232,"connected_time":673000000000,"state":"active","ping":50},{"user_id":79,"name":"Real (Real)","steam_id":76561198323425034,"connected_time":671000000000,"state":"active","ping":69},{"user_id":80,"name":"Sochin","steam_id":76561198967412865,"connected_time":665000000000,"state":"active","ping":61},{"user_id":81,"name":"xulera","steam_id":76561198080736030,"connected_time":646000000000,"state":"active","ping":62},{"user_id":66,"name":"minespweper","steam_id":76561199096919345,"connected_time":1055000000000,"state":"active","ping":77},{"user_id":45,"name":"denimchicken","steam_id":76561197989061982,"connected_time":2740000000000,"state":"active","ping":85}]},{"server_id":23,"name":"Uncletopia | Frankfurt | 7 | Stopwatch","name_short":"frk-7","host":"frk-1.de.uncletopia.com","port":27075,"enabled":true,"region":"eu","cc":"de","latitude":50.110924,"longitude":8.682127,"reserved":0,"last_update":"0001-01-01T00:00:00Z","name_a2s":"Uncletopia | Frankfurt | 7 | Stopwatch","protocol":17,"map":"pl_frontier_final","folder":"tf","game":"Team Fortress","app_id":440,"player_count":0,"max_players":24,"Bots":0,"server_type":"Dedicated","server_os":"Linux","password":true,"vac":true,"version":"7961495","steam_id":85568392924742827,"keywords":["nocrits","nodmgspread","payload","uncletopia"],"game_id":440,"stv_port":27076,"stv_name":"Uncletopia | Frankfurt | 7 | Stopwatch | STV","players":null},{"server_id":24,"name":"Uncletopia | Frankfurt | 8 | Community","name_short":"frk-8","host":"frk-1.de.uncletopia.com","port":27085,"enabled":true,"region":"eu","cc":"de","latitude":50.110924,"longitude":8.682127,"reserved":0,"last_update":"0001-01-01T00:00:00Z","name_a2s":"Uncletopia | Frankfurt | 8 | Community","protocol":17,"map":"workshop/koth_trenchfoot_b1a.ugc731436616","folder":"tf","game":"Team Fortress","app_id":440,"player_count":0,"max_players":24,"Bots":0,"server_type":"Dedicated","server_os":"Linux","password":true,"vac":true,"version":"7961495","steam_id":85568392924742828,"keywords":["cp","nocrits","nodmgspread","uncletopia"],"game_id":440,"stv_port":27086,"stv_name":"Uncletopia | Frankfurt | 8 | Community | STV","players":null},{"server_id":202,"name":"Uncletopia | Hong Kong | 1 | All Maps","name_short":"hgk-1","host":"hgk-1.hk.uncletopia.com","port":27015,"enabled":true,"region":"asia","cc":"hk","latitude":22.302711,"longitude":114.177216,"reserved":0,"last_update":"0001-01-01T00:00:00Z","name_a2s":"Uncletopia | Hong Kong | 1 | All Maps","protocol":17,"map":"cp_dustbowl","folder":"tf","game":"Team Fortress","app_id":440,"player_count":0,"max_players":24,"Bots":0,"server_type":"Dedicated","server_os":"Linux","password":true,"vac":true,"version":"7961495","steam_id":85568392924494504,"keywords":["cp","nocrits","nodmgspread","uncletopia"],"game_id":440,"stv_port":27016,"stv_name":"Uncletopia | Hong Kong | 1 | All Maps | STV","players":null},{"server_id":1,"name":"Uncletopia | Los Angeles | 1 | All Maps","name_short":"lax-1","host":"lax-1.us.uncletopia.com","port":27015,"enabled":true,"region":"us-west","cc":"us","latitude":33.94279,"longitude":-118.41004,"reserved":0,"last_update":"0001-01-01T00:00:00Z","name_a2s":"Uncletopia | Los Angeles | 1 | All Maps","protocol":17,"map":"koth_highpass","folder":"tf","game":"Team Fortress","app_id":440,"player_count":0,"max_players":24,"Bots":0,"server_type":"Dedicated","server_os":"Linux","password":true,"vac":true,"version":"7961495","steam_id":85568392924469991,"keywords":["cp","nocrits","nodmgspread","uncletopia"],"game_id":440,"stv_port":27016,"stv_name":"Uncletopia | Los Angeles | 1 | All Maps | STV","players":null},{"server_id":112,"name":"Uncletopia | Los Angeles | 2 | All Maps","name_short":"lax-2","host":"lax-1.us.uncletopia.com","port":27025,"enabled":true,"region":"us-west","cc":"us","latitude":33.94279,"longitude":-118.41004,"reserved":0,"last_update":"0001-01-01T00:00:00Z","name_a2s":"Uncletopia | Los Angeles | 2 | All Maps","protocol":17,"map":"cp_mountainlab","folder":"tf","game":"Team Fortress","app_id":440,"player_count":0,"max_players":24,"Bots":0,"server_type":"Dedicated","server_os":"Linux","password":true,"vac":true,"version":"7961495","steam_id":85568392924469992,"keywords":["cp","nocrits","nodmgspread","uncletopia"],"game_id":440,"stv_port":27026,"stv_name":"Uncletopia | Los Angeles | 2 | All Maps | STV","players":null},{"server_id":324,"name":"Uncletopia | Los Angeles | 3 | All Maps","name_short":"lax-3","host":"lax-1.us.uncletopia.com","port":27035,"enabled":true,"region":"us-west","cc":"us","latitude":33.94279,"longitude":-118.41004,"reserved":0,"last_update":"0001-01-01T00:00:00Z","name_a2s":"Uncletopia | Los Angeles | 3 | All Maps","protocol":17,"map":"pl_frontier_final","folder":"tf","game":"Team Fortress","app_id":440,"player_count":0,"max_players":24,"Bots":0,"server_type":"Dedicated","server_os":"Linux","password":true,"vac":true,"version":"7961495","steam_id":85568392924510198,"keywords":["nocrits","nodmgspread","payload","uncletopia"],"game_id":440,"stv_port":27036,"stv_name":"Uncletopia | Los Angeles | 3 | All Maps | STV","players":null},{"server_id":25,"name":"Uncletopia | Los Angeles | 4 | Stopwatch","name_short":"lax-4","host":"lax-1.us.uncletopia.com","port":27045,"enabled":true,"region":"us-west","cc":"us","latitude":33.94279,"longitude":-118.41004,"reserved":0,"last_update":"0001-01-01T00:00:00Z","name_a2s":"Uncletopia | Los Angeles | 4 | Stopwatch","protocol":17,"map":"cp_process_final","folder":"tf","game":"Team Fortress","app_id":440,"player_count":0,"max_players":24,"Bots":0,"server_type":"Dedicated","server_os":"Linux","password":true,"vac":true,"version":"7961495","steam_id":85568392924510199,"keywords":["cp","nocrits","nodmgspread","uncletopia"],"game_id":440,"stv_port":27046,"stv_name":"Uncletopia | Los Angeles | 4 | Stopwatch | STV","players":null},{"server_id":11,"name":"Uncletopia | London | 1 | All Maps","name_short":"lon-1","host":"lon-1.uk.uncletopia.com","port":27015,"enabled":true,"region":"eu","cc":"gb","latitude":51.509865,"longitude":-0.118092,"reserved":0,"last_update":"0001-01-01T00:00:00Z","name_a2s":"Uncletopia | London | 1 | All Maps","protocol":17,"map":"pl_pier","folder":"tf","game":"Team Fortress","app_id":440,"player_count":24,"max_players":24,"Bots":0,"server_type":"Dedicated","server_os":"Linux","password":true,"vac":true,"version":"7961495","steam_id":85568392924367362,"keywords":["nocrits","nodmgspread","payload","uncletopia"],"game_id":440,"stv_port":27016,"stv_name":"Uncletopia | London | 1 | All Maps | STV","players":[{"user_id":382,"name":"tired","steam_id":76561198046838168,"connected_time":820000000000,"state":"active","ping":57},{"user_id":383,"name":"madijo","steam_id":76561198012617400,"connected_time":814000000000,"state":"active","ping":67},{"user_id":369,"name":"Rai_to","steam_id":76561199013720618,"connected_time":2115000000000,"state":"active","ping":90},{"user_id":344,"name":"glorpis","steam_id":76561199225333422,"connected_time":4233000000000,"state":"active","ping":48},{"user_id":352,"name":"rigel_","steam_id":76561198148640847,"connected_time":3536000000000,"state":"active","ping":77},{"user_id":358,"name":"steck","steam_id":76561197973948113,"connected_time":2871000000000,"state":"active","ping":60},{"user_id":361,"name":"Sham!","steam_id":76561198050434275,"connected_time":2546000000000,"state":"active","ping":58},{"user_id":368,"name":"stroyo","steam_id":76561198409592046,"connected_time":2279000000000,"state":"active","ping":44},{"user_id":356,"name":"‚ô•aura‚ô•","steam_id":76561198066258544,"connected_time":3059000000000,"state":"active","ping":57},{"user_id":378,"name":"KODE","steam_id":76561198053212394,"connected_time":1509000000000,"state":"active","ping":68},{"user_id":381,"name":"Tummy","steam_id":76561198045654910,"connected_time":1146000000000,"state":"active","ping":46},{"user_id":338,"name":"TomNoSocks","steam_id":76561198114071046,"connected_time":4527000000000,"state":"active","ping":62},{"user_id":384,"name":"lyra","steam_id":76561198043601838,"connected_time":139000000000,"state":"active","ping":59},{"user_id":374,"name":"Creme","steam_id":76561198034166729,"connected_time":1703000000000,"state":"active","ping":131},{"user_id":371,"name":"Minimi","steam_id":76561198873850443,"connected_time":2044000000000,"state":"active","ping":47},{"user_id":340,"name":"halow","steam_id":76561198061505163,"connected_time":4492000000000,"state":"active","ping":101},{"user_id":365,"name":"yup that extream78711","steam_id":76561198106049954,"connected_time":2454000000000,"state":"active","ping":148},{"user_id":377,"name":"Guppy","steam_id":76561198135398757,"connected_time":1563000000000,"state":"active","ping":47},{"user_id":376,"name":"ATL1 | to4st","steam_id":76561198981009008,"connected_time":1593000000000,"state":"active","ping":135},{"user_id":348,"name":"shooer!","steam_id":76561198110531281,"connected_time":4123000000000,"state":"active","ping":71},{"user_id":353,"name":"El_Kommadante","steam_id":76561198079551685,"connected_time":3535000000000,"state":"active","ping":61},{"user_id":336,"name":"Marukuso","steam_id":76561198154229845,"connected_time":4751000000000,"state":"active","ping":64},{"user_id":360,"name":"Coke Zero","steam_id":76561198158562873,"connected_time":2843000000000,"state":"active","ping":65},{"user_id":379,"name":"Shine","steam_id":76561198136297981,"connected_time":1501000000000,"state":"active","ping":78}]},{"server_id":114,"name":"Uncletopia | London | 2 | All Maps","name_short":"lon-2","host":"lon-1.uk.uncletopia.com","port":27025,"enabled":true,"region":"eu","cc":"gb","latitude":51.509865,"longitude":-0.118092,"reserved":0,"last_update":"0001-01-01T00:00:00Z","name_a2s":"Uncletopia | London | 2 | All Maps","protocol":17,"map":"pl_upward","folder":"tf","game":"Team Fortress","app_id":440,"player_count":23,"max_players":24,"Bots":0,"server_type":"Dedicated","server_os":"Linux","password":true,"vac":true,"version":"7961495","steam_id":85568392924470941,"keywords":["nocrits","nodmgspread","payload","uncletopia"],"game_id":440,"stv_port":27026,"stv_name":"Uncletopia | London | 2 | All Maps | STV","players":[{"user_id":240,"name":"-TA- skai","steam_id":76561198184881255,"connected_time":65000000000,"state":"active","ping":61},{"user_id":215,"name":"Flying Objects","steam_id":76561198018207813,"connected_time":2374000000000,"state":"active","ping":46},{"user_id":223,"name":"Gohan","steam_id":76561198064498302,"connected_time":2107000000000,"state":"active","ping":63},{"user_id":241,"name":"Baba Sraka","steam_id":76561198128292318,"connected_time":55000000000,"state":"active","ping":133},{"user_id":164,"name":"TheEventGuy","steam_id":76561197972797744,"connected_time":7278000000000,"state":"active","ping":72},{"user_id":242,"name":"John0309","steam_id":76561198447428162,"connected_time":1000000000,"state":"spawning","ping":59},{"user_id":235,"name":"Xriasp","steam_id":76561198104721321,"connected_time":286000000000,"state":"active","ping":96},{"user_id":239,"name":"Mendo","steam_id":76561198068884273,"connected_time":150000000000,"state":"active","ping":129},{"user_id":222,"name":"Marky","steam_id":76561199474556920,"connected_time":2246000000000,"state":"active","ping":106},{"user_id":224,"name":"Jean-Marie D'hermoz","steam_id":76561198243205796,"connected_time":2103000000000,"state":"active","ping":60},{"user_id":189,"name":"Heavy TF2 in irl?!","steam_id":76561198082502910,"connected_time":4891000000000,"state":"active","ping":62},{"user_id":227,"name":"SeeYouSpaceRobot","steam_id":76561198454018197,"connected_time":1453000000000,"state":"active","ping":58},{"user_id":228,"name":"kryhu","steam_id":76561198293327713,"connected_time":1267000000000,"state":"active","ping":75},{"user_id":217,"name":"gyn spu","steam_id":76561198878687605,"connected_time":2334000000000,"state":"active","ping":105},{"user_id":232,"name":"Fissure","steam_id":76561198272595481,"connected_time":1025000000000,"state":"active","ping":70},{"user_id":203,"name":"Sicmendor ...","steam_id":76561197962107049,"connected_time":3693000000000,"state":"active","ping":69},{"user_id":124,"name":"Íí∞ À∂‚Ä¢ ‡ºù ‚Ä¢À∂Íí±","steam_id":76561198054474684,"connected_time":10074000000000,"state":"active","ping":85},{"user_id":194,"name":". . .","steam_id":76561198184360615,"connected_time":4767000000000,"state":"active","ping":90},{"user_id":193,"name":"‚ú™ Danny","steam_id":76561198104483241,"connected_time":4856000000000,"state":"active","ping":47},{"user_id":236,"name":"shmax","steam_id":76561198889012709,"connected_time":191000000000,"state":"active","ping":95},{"user_id":183,"name":"That Bussy Can Squirt","steam_id":76561199185615752,"connected_time":5648000000000,"state":"active","ping":58},{"user_id":225,"name":"Lorents","steam_id":76561198796919618,"connected_time":2011000000000,"state":"active","ping":64},{"user_id":115,"name":"dirty rascal","steam_id":76561198000871038,"connected_time":11354000000000,"state":"active","ping":45}]},{"server_id":320,"name":"Uncletopia | London | 3 | All Maps","name_short":"lon-3","host":"lon-1.uk.uncletopia.com","port":27035,"enabled":true,"region":"eu","cc":"gb","latitude":51.509865,"longitude":-0.118092,"reserved":0,"last_update":"0001-01-01T00:00:00Z","name_a2s":"Uncletopia | London | 3 | All Maps","protocol":17,"map":"koth_viaduct","folder":"tf","game":"Team Fortress","app_id":440,"player_count":0,"max_players":24,"Bots":0,"server_type":"Dedicated","server_os":"Linux","password":true,"vac":true,"version":"7961495","steam_id":85568392924510192,"keywords":["cp","nocrits","nodmgspread","uncletopia"],"game_id":440,"stv_port":27036,"stv_name":"Uncletopia | London | 3 | All Maps | STV","players":null},{"server_id":321,"name":"Uncletopia | London | 4 | All Maps","name_short":"lon-4","host":"lon-1.uk.uncletopia.com","port":27045,"enabled":true,"region":"eu","cc":"gb","latitude":51.509865,"longitude":-0.118092,"reserved":0,"last_update":"0001-01-01T00:00:00Z","name_a2s":"Uncletopia | London | 4 | All Maps","protocol":17,"map":"koth_lakeside_final","folder":"tf","game":"Team Fortress","app_id":440,"player_count":19,"max_players":24,"Bots":0,"server_type":"Dedicated","server_os":"Linux","password":true,"vac":true,"version":"7961495","steam_id":85568392924510193,"keywords":["cp","nocrits","nodmgspread","uncletopia"],"game_id":440,"stv_port":27046,"stv_name":"Uncletopia | London | 4 | All Maps | STV","players":[{"user_id":26,"name":"DictatorHamster","steam_id":76561198350205925,"connected_time":677000000000,"state":"active","ping":76},{"user_id":37,"name":"abdpocoyo","steam_id":76561198094321481,"connected_time":260000000000,"state":"active","ping":71},{"user_id":15,"name":"ultra lox","steam_id":76561199427318825,"connected_time":1442000000000,"state":"active","ping":169},{"user_id":36,"name":"Avitz","steam_id":76561197986150359,"connected_time":289000000000,"state":"active","ping":36},{"user_id":29,"name":"barrylyndon1975","steam_id":76561198293922542,"connected_time":483000000000,"state":"active","ping":72},{"user_id":38,"name":"catofthedanger","steam_id":76561199122134505,"connected_time":254000000000,"state":"active","ping":70},{"user_id":34,"name":"ack","steam_id":76561198139796077,"connected_time":367000000000,"state":"active","ping":50},{"user_id":22,"name":"Jango","steam_id":76561199497481497,"connected_time":1218000000000,"state":"active","ping":60},{"user_id":30,"name":"Circular","steam_id":76561198001536710,"connected_time":477000000000,"state":"active","ping":46},{"user_id":20,"name":"bombo112","steam_id":76561198059743551,"connected_time":1245000000000,"state":"active","ping":59},{"user_id":31,"name":"obi","steam_id":76561198040154461,"connected_time":435000000000,"state":"active","ping":63},{"user_id":32,"name":"SirNeeco \u003c3","steam_id":76561198103014203,"connected_time":430000000000,"state":"active","ping":73},{"user_id":33,"name":"The Creature","steam_id":76561199397913717,"connected_time":405000000000,"state":"active","ping":141},{"user_id":39,"name":"Meh Good Enough","steam_id":76561199012646173,"connected_time":236000000000,"state":"active","ping":77},{"user_id":40,"name":"Ledze Shuns Dope","steam_id":76561198049945010,"connected_time":230000000000,"state":"active","ping":52},{"user_id":42,"name":"Nobaddy","steam_id":76561198037871007,"connected_time":199000000000,"state":"active","ping":83},{"user_id":44,"name":"Tavish","steam_id":76561197971486686,"connected_time":178000000000,"state":"active","ping":47},{"user_id":45,"name":"calum_the_kermit","steam_id":76561199122016031,"connected_time":98000000000,"state":"active","ping":59},{"user_id":46,"name":"pickle_master","steam_id":76561198427271397,"connected_time":77000000000,"state":"active","ping":66}]},{"server_id":21,"name":"Uncletopia | London | 5 | All Maps","name_short":"lon-5","host":"lon-1.uk.uncletopia.com","port":27055,"enabled":true,"region":"eu","cc":"gb","latitude":51.509865,"longitude":-0.118092,"reserved":0,"last_update":"0001-01-01T00:00:00Z","name_a2s":"Uncletopia | London | 5 | All Maps","protocol":17,"map":"koth_lakeside_final","folder":"tf","game":"Team Fortress","app_id":440,"player_count":0,"max_players":24,"Bots":0,"server_type":"Dedicated","server_os":"Linux","password":true,"vac":true,"version":"7961495","steam_id":85568392924742829,"keywords":["cp","nocrits","nodmgspread","uncletopia"],"game_id":440,"stv_port":27056,"stv_name":"Uncletopia | London | 5 | All Maps | STV","players":null},{"server_id":22,"name":"Uncletopia | London | 6 | All Maps","name_short":"lon-6","host":"lon-1.uk.uncletopia.com","port":27065,"enabled":true,"region":"eu","cc":"gb","latitude":51.509865,"longitude":-0.118092,"reserved":0,"last_update":"0001-01-01T00:00:00Z","name_a2s":"Uncletopia | London | 6 | All Maps","protocol":17,"map":"pl_badwater","folder":"tf","game":"Team Fortress","app_id":440,"player_count":23,"max_players":24,"Bots":0,"server_type":"Dedicated","server_os":"Linux","password":true,"vac":true,"version":"7961495","steam_id":85568392924742830,"keywords":["nocrits","nodmgspread","payload","uncletopia"],"game_id":440,"stv_port":27066,"stv_name":"Uncletopia | London | 6 | All Maps | STV","players":[{"user_id":264,"name":"Valkat≈≥ Karalius","steam_id":76561198006254783,"connected_time":3605000000000,"state":"active","ping":74},{"user_id":291,"name":"zayd","steam_id":76561198895235231,"connected_time":1769000000000,"state":"active","ping":49},{"user_id":316,"name":"DarthPaul8181","steam_id":76561198373050455,"connected_time":322000000000,"state":"active","ping":44},{"user_id":298,"name":"LizCul","steam_id":76561198024436969,"connected_time":1616000000000,"state":"active","ping":63},{"user_id":290,"name":"zeppa114","steam_id":76561198065192734,"connected_time":1791000000000,"state":"active","ping":57},{"user_id":293,"name":"Yuzu","steam_id":76561198121694613,"connected_time":1721000000000,"state":"active","ping":47},{"user_id":306,"name":"Toast","steam_id":76561198123766602,"connected_time":923000000000,"state":"active","ping":32},{"user_id":280,"name":"üå≠ 0mger","steam_id":76561198053615827,"connected_time":2516000000000,"state":"active","ping":75},{"user_id":318,"name":"rrm#4395","steam_id":76561199225339381,"connected_time":302000000000,"state":"active","ping":48},{"user_id":315,"name":"Family guy try not to laugh","steam_id":76561198031455800,"connected_time":479000000000,"state":"active","ping":84},{"user_id":309,"name":"oskaroku00","steam_id":76561199025360128,"connected_time":758000000000,"state":"active","ping":65},{"user_id":310,"name":"Mike","steam_id":76561198228455736,"connected_time":694000000000,"state":"active","ping":48},{"user_id":279,"name":"Axter","steam_id":76561198118747192,"connected_time":2534000000000,"state":"active","ping":86},{"user_id":320,"name":"void","steam_id":76561199496179862,"connected_time":30000000000,"state":"spawning","ping":73},{"user_id":295,"name":"Sidflap","steam_id":76561198041652855,"connected_time":1658000000000,"state":"active","ping":68},{"user_id":307,"name":"Roman","steam_id":76561197967683724,"connected_time":773000000000,"state":"active","ping":41},{"user_id":289,"name":"Parky","steam_id":76561198013803623,"connected_time":1803000000000,"state":"active","ping":35},{"user_id":251,"name":"Start Prain' Boy","steam_id":76561198123659806,"connected_time":4481000000000,"state":"active","ping":100},{"user_id":297,"name":"walluu","steam_id":76561198121830870,"connected_time":1638000000000,"state":"active","ping":75},{"user_id":253,"name":"silicon based life form","steam_id":76561199127121346,"connected_time":4470000000000,"state":"active","ping":55},{"user_id":302,"name":"Hugee  „Åè„Ç≥:ÂΩ°","steam_id":76561198245495152,"connected_time":1480000000000,"state":"active","ping":60},{"user_id":281,"name":"Pottery Knight","steam_id":76561198094455814,"connected_time":2515000000000,"state":"active","ping":84},{"user_id":312,"name":"Hazo","steam_id":76561198137686270,"connected_time":688000000000,"state":"active","ping":65}]},{"server_id":40,"name":"Uncletopia | London | 7 | Stopwatch","name_short":"lon-7","host":"lon-1.uk.uncletopia.com","port":27075,"enabled":true,"region":"eu","cc":"gb","latitude":51.509865,"longitude":-0.118092,"reserved":0,"last_update":"0001-01-01T00:00:00Z","name_a2s":"Uncletopia | London | 7 | Stopwatch","protocol":17,"map":"pl_upward","folder":"tf","game":"Team Fortress","app_id":440,"player_count":22,"max_players":24,"Bots":0,"server_type":"Dedicated","server_os":"Linux","password":true,"vac":true,"version":"7961495","steam_id":85568392924964314,"keywords":["nocrits","nodmgspread","payload","uncletopia"],"game_id":440,"stv_port":27076,"stv_name":"Uncletopia | London | 7 | Stopwatch | STV","players":[{"user_id":219,"name":"Na z√°chodƒõ","steam_id":76561198383952144,"connected_time":1361000000000,"state":"active","ping":140},{"user_id":193,"name":"a regular cat","steam_id":76561198164675078,"connected_time":2861000000000,"state":"active","ping":55},{"user_id":216,"name":"kpf1337","steam_id":76561198267907985,"connected_time":1470000000000,"state":"active","ping":58},{"user_id":218,"name":"Gib Bagul","steam_id":76561198073601658,"connected_time":1459000000000,"state":"active","ping":64},{"user_id":187,"name":"fence_","steam_id":76561198150386379,"connected_time":3155000000000,"state":"active","ping":42},{"user_id":222,"name":"Bruschetta","steam_id":76561198251927162,"connected_time":993000000000,"state":"active","ping":75},{"user_id":178,"name":"Kahvi","steam_id":76561198723244199,"connected_time":3573000000000,"state":"active","ping":76},{"user_id":196,"name":"Glabrg","steam_id":76561199091662521,"connected_time":2689000000000,"state":"active","ping":69},{"user_id":177,"name":"Phantasma","steam_id":76561198101019496,"connected_time":3657000000000,"state":"active","ping":69},{"user_id":203,"name":"Dolcelatte","steam_id":76561198038501770,"connected_time":2599000000000,"state":"active","ping":61},{"user_id":197,"name":"doubledragon","steam_id":76561198300367062,"connected_time":2673000000000,"state":"active","ping":157},{"user_id":198,"name":"‚ô•Stephanie‚ô•","steam_id":76561199042560808,"connected_time":2662000000000,"state":"active","ping":85},{"user_id":199,"name":"Buttercup [LGBT]","steam_id":76561198827432184,"connected_time":2655000000000,"state":"active","ping":60},{"user_id":204,"name":"WoodsRunner","steam_id":76561198121812870,"connected_time":2588000000000,"state":"active","ping":120},{"user_id":183,"name":"mossfan1","steam_id":76561198087525446,"connected_time":3330000000000,"state":"active","ping":89},{"user_id":205,"name":"M2rtRa","steam_id":76561198111036466,"connected_time":2546000000000,"state":"active","ping":79},{"user_id":223,"name":"Gugu gaga","steam_id":76561198161822358,"connected_time":712000000000,"state":"active","ping":75},{"user_id":220,"name":"cobblestone","steam_id":76561198079123043,"connected_time":1356000000000,"state":"active","ping":88},{"user_id":221,"name":"i hack smart refrigerators","steam_id":76561199265289808,"connected_time":1076000000000,"state":"active","ping":111},{"user_id":217,"name":"Dr Ultraman","steam_id":76561198060787567,"connected_time":1468000000000,"state":"active","ping":68},{"user_id":210,"name":"mph mphhh!","steam_id":76561199212057006,"connected_time":2170000000000,"state":"active","ping":81}]},{"server_id":41,"name":"Uncletopia | London | 8 | Community","name_short":"lon-8","host":"lon-1.uk.uncletopia.com","port":27085,"enabled":true,"region":"eu","cc":"gb","latitude":51.509865,"longitude":-0.118092,"reserved":0,"last_update":"0001-01-01T00:00:00Z","name_a2s":"Uncletopia | London | 8 | Community","protocol":17,"map":"workshop/koth_trenchfoot_b1a.ugc731436616","folder":"tf","game":"Team Fortress","app_id":440,"player_count":0,"max_players":24,"Bots":0,"server_type":"Dedicated","server_os":"Linux","password":true,"vac":true,"version":"7961495","steam_id":85568392924964315,"keywords":["cp","nocrits","nodmgspread","uncletopia"],"game_id":440,"stv_port":27086,"stv_name":"Uncletopia | London | 8 | Community | STV","players":null},{"server_id":300,"name":"Uncletopia | Montr√©al | 1 | All Maps","name_short":"mtl-1","host":"mtl-1.ca.uncletopia.com","port":27015,"enabled":true,"region":"us-east","cc":"ca","latitude":45.50889,"longitude":-73.56167,"reserved":0,"last_update":"0001-01-01T00:00:00Z","name_a2s":"","protocol":0,"map":"","folder":"","game":"","app_id":0,"player_count":0,"max_players":0,"Bots":0,"server_type":"","server_os":"","password":false,"vac":false,"version":"","steam_id":0,"keywords":null,"game_id":0,"stv_port":0,"stv_name":"","players":null},{"server_id":301,"name":"Uncletopia | Montr√©al | 2 | One Thousand Uncles","name_short":"mtl-2","host":"mtl-1.ca.uncletopia.com","port":27025,"enabled":true,"region":"us-east","cc":"ca","latitude":45.50889,"longitude":-73.56167,"reserved":0,"last_update":"0001-01-01T00:00:00Z","name_a2s":"","protocol":0,"map":"","folder":"","game":"","app_id":0,"player_count":0,"max_players":0,"Bots":0,"server_type":"","server_os":"","password":false,"vac":false,"version":"","steam_id":0,"keywords":null,"game_id":0,"stv_port":0,"stv_name":"","players":null},{"server_id":13,"name":"Uncletopia | New York City | 1 | All Maps","name_short":"nyc-1","host":"nyc-1.us.uncletopia.com","port":27015,"enabled":true,"region":"us-east","cc":"us","latitude":40.73061,"longitude":-73.93524,"reserved":0,"last_update":"0001-01-01T00:00:00Z","name_a2s":"Uncletopia | New York City | 1 | All Maps","protocol":17,"map":"pl_barnblitz","folder":"tf","game":"Team Fortress","app_id":440,"player_count":0,"max_players":24,"Bots":0,"server_type":"Dedicated","server_os":"Linux","password":true,"vac":true,"version":"7961495","steam_id":85568392924469993,"keywords":["nocrits","nodmgspread","payload","uncletopia"],"game_id":440,"stv_port":27016,"stv_name":"Uncletopia | New York City | 1 | All Maps | STV","players":null},{"server_id":14,"name":"Uncletopia | New York City | 2 | All Maps","name_short":"nyc-2","host":"nyc-1.us.uncletopia.com","port":27025,"enabled":true,"region":"us-east","cc":"us","latitude":40.73061,"longitude":-73.93524,"reserved":0,"last_update":"0001-01-01T00:00:00Z","name_a2s":"Uncletopia | New York City | 2 | All Maps","protocol":17,"map":"cp_snakewater_final1","folder":"tf","game":"Team Fortress","app_id":440,"player_count":24,"max_players":24,"Bots":0,"server_type":"Dedicated","server_os":"Linux","password":true,"vac":true,"version":"7961495","steam_id":85568392924469994,"keywords":["cp","nocrits","nodmgspread","uncletopia"],"game_id":440,"stv_port":27026,"stv_name":"Uncletopia | New York City | 2 | All Maps | STV","players":[{"user_id":140,"name":"Missing Minus","steam_id":76561198120822928,"connected_time":2385000000000,"state":"active","ping":65},{"user_id":150,"name":"Trout","steam_id":76561198075180255,"connected_time":2044000000000,"state":"active","ping":62},{"user_id":158,"name":"Citrus Sake","steam_id":76561198932769972,"connected_time":1484000000000,"state":"active","ping":45},{"user_id":155,"name":"Nabe Gewell","steam_id":76561198018006502,"connected_time":1715000000000,"state":"active","ping":67},{"user_id":107,"name":"LordOfTheNoobs","steam_id":76561197962697523,"connected_time":5153000000000,"state":"active","ping":67},{"user_id":153,"name":"Charlie","steam_id":76561198798127908,"connected_time":1991000000000,"state":"active","ping":82},{"user_id":13,"name":"lynt","steam_id":76561198988333976,"connected_time":13160000000000,"state":"active","ping":48},{"user_id":168,"name":"Jin","steam_id":76561198119873148,"connected_time":1107000000000,"state":"active","ping":57},{"user_id":159,"name":"Horse","steam_id":76561198332887086,"connected_time":1418000000000,"state":"active","ping":32},{"user_id":122,"name":"Obama F. Kennedy","steam_id":76561198282499318,"connected_time":3324000000000,"state":"active","ping":56},{"user_id":102,"name":"xochiquetzal","steam_id":76561199064278937,"connected_time":5916000000000,"state":"active","ping":75},{"user_id":161,"name":"Max","steam_id":76561198029782094,"connected_time":1400000000000,"state":"active","ping":85},{"user_id":157,"name":"rs","steam_id":76561198076180373,"connected_time":1503000000000,"state":"active","ping":53},{"user_id":172,"name":"Baron von Whoopsie","steam_id":76561197996691013,"connected_time":990000000000,"state":"active","ping":65},{"user_id":146,"name":"stoppit","steam_id":76561198353292787,"connected_time":2239000000000,"state":"active","ping":53},{"user_id":166,"name":"Bee_Pirate","steam_id":76561199000599111,"connected_time":1181000000000,"state":"active","ping":60},{"user_id":164,"name":"Borgir","steam_id":76561198325390265,"connected_time":1310000000000,"state":"active","ping":92},{"user_id":165,"name":"/G/ blake's disciple","steam_id":76561198207987376,"connected_time":1273000000000,"state":"active","ping":61},{"user_id":171,"name":"Hertz","steam_id":76561198310927351,"connected_time":1019000000000,"state":"active","ping":147},{"user_id":169,"name":"Dr. Shapiro","steam_id":76561198092054984,"connected_time":1075000000000,"state":"active","ping":53},{"user_id":173,"name":"Ziath","steam_id":76561198094009164,"connected_time":775000000000,"state":"active","ping":49},{"user_id":145,"name":"ATL 1 | Save your wifi","steam_id":76561198286147372,"connected_time":2253000000000,"state":"active","ping":74},{"user_id":135,"name":"Chris","steam_id":76561198044278802,"connected_time":2574000000000,"state":"active","ping":57},{"user_id":124,"name":"freyjaaaaaaaaaaaaaaaaaaaaaa","steam_id":76561198249206656,"connected_time":3239000000000,"state":"active","ping":75}]},{"server_id":15,"name":"Uncletopia | New York City | 3 | Stopwatch","name_short":"nyc-3","host":"nyc-1.us.uncletopia.com","port":27035,"enabled":true,"region":"us-east","cc":"us","latitude":40.73061,"longitude":-73.93524,"reserved":0,"last_update":"0001-01-01T00:00:00Z","name_a2s":"Uncletopia | New York City | 3 | Stopwatch","protocol":17,"map":"pl_snowycoast","folder":"tf","game":"Team Fortress","app_id":440,"player_count":0,"max_players":24,"Bots":0,"server_type":"Dedicated","server_os":"Linux","password":true,"vac":true,"version":"7961495","steam_id":85568392924742820,"keywords":["nocrits","nodmgspread","payload","uncletopia"],"game_id":440,"stv_port":27036,"stv_name":"Uncletopia | New York City | 3 | Stopwatch | STV","players":null},{"server_id":16,"name":"Uncletopia | New York City | 4 | Community","name_short":"nyc-4","host":"nyc-1.us.uncletopia.com","port":27045,"enabled":true,"region":"us-east","cc":"us","latitude":40.73061,"longitude":-73.93524,"reserved":0,"last_update":"0001-01-01T00:00:00Z","name_a2s":"Uncletopia | New York City | 4 | Community","protocol":17,"map":"workshop/pl_cactuscanyon_redux_final2.ugc2579644293","folder":"tf","game":"Team Fortress","app_id":440,"player_count":0,"max_players":24,"Bots":0,"server_type":"Dedicated","server_os":"Linux","password":true,"vac":true,"version":"7961495","steam_id":85568392924742821,"keywords":["nocrits","nodmgspread","payload","uncletopia"],"game_id":440,"stv_port":27046,"stv_name":"Uncletopia | New York City | 4 | Community | STV","players":null},{"server_id":142,"name":"Uncletopia | S√£o Paulo | 1 | All Maps","name_short":"sao-1","host":"sao-1.br.uncletopia.com","port":27015,"enabled":true,"region":"sa","cc":"br","latitude":-23.533773,"longitude":-46.62529,"reserved":0,"last_update":"0001-01-01T00:00:00Z","name_a2s":"Uncletopia | S√£o Paulo | 1 | All Maps","protocol":17,"map":"cp_mountainlab","folder":"tf","game":"Team Fortress","app_id":440,"player_count":0,"max_players":24,"Bots":0,"server_type":"Dedicated","server_os":"Linux","password":true,"vac":true,"version":"7961495","steam_id":85568392924469996,"keywords":["cp","nocrits","nodmgspread","uncletopia"],"game_id":440,"stv_port":27016,"stv_name":"Uncletopia | S√£o Paulo | 1 | All Maps | STV","players":null},{"server_id":143,"name":"Uncletopia | S√£o Paulo | 2 | Community","name_short":"sao-2","host":"sao-2.br.uncletopia.com","port":27015,"enabled":true,"region":"sa","cc":"br","latitude":-23.533773,"longitude":-46.62529,"reserved":0,"last_update":"0001-01-01T00:00:00Z","name_a2s":"Uncletopia | S√£o Paulo | 2 | Community","protocol":17,"map":"pl_badwater","folder":"tf","game":"Team Fortress","app_id":440,"player_count":0,"max_players":24,"Bots":0,"server_type":"Dedicated","server_os":"Linux","password":true,"vac":true,"version":"7961495","steam_id":85568392924485349,"keywords":["nocrits","nodmgspread","payload","uncletopia"],"game_id":440,"stv_port":27016,"stv_name":"Uncletopia | S√£o Paulo | 2 | Community | STV","players":null},{"server_id":7,"name":"Uncletopia | Seattle | 1 | All Maps","name_short":"sea-1","host":"sea-1.us.uncletopia.com","port":27015,"enabled":true,"region":"us-west","cc":"us","latitude":47.608013,"longitude":-122.33517,"reserved":0,"last_update":"0001-01-01T00:00:00Z","name_a2s":"Uncletopia | Seattle | 1 | All Maps","protocol":17,"map":"pl_barnblitz","folder":"tf","game":"Team Fortress","app_id":440,"player_count":23,"max_players":24,"Bots":0,"server_type":"Dedicated","server_os":"Linux","password":true,"vac":true,"version":"7961495","steam_id":85568392924469997,"keywords":["nocrits","nodmgspread","payload","uncletopia"],"game_id":440,"stv_port":27016,"stv_name":"Uncletopia | Seattle | 1 | All Maps | STV","players":[{"user_id":138,"name":"Shark Sandwich","steam_id":76561198025007938,"connected_time":186000000000,"state":"active","ping":46},{"user_id":74,"name":"Beef Wellington","steam_id":76561197995635241,"connected_time":3725000000000,"state":"active","ping":178},{"user_id":133,"name":"need a dispenser here","steam_id":76561198060912995,"connected_time":551000000000,"state":"active","ping":58},{"user_id":140,"name":"Xx_PercyTheSmallEngineGamer6_xX","steam_id":76561198842297041,"connected_time":158000000000,"state":"active","ping":86},{"user_id":141,"name":"A Dodge Challenger","steam_id":76561198097978317,"connected_time":157000000000,"state":"active","ping":115},{"user_id":87,"name":"Goldensliv","steam_id":76561198161673891,"connected_time":2996000000000,"state":"active","ping":63},{"user_id":110,"name":"burger bill","steam_id":76561198116829392,"connected_time":1656000000000,"state":"active","ping":57},{"user_id":62,"name":"blinker foo","steam_id":76561198105374054,"connected_time":4149000000000,"state":"active","ping":94},{"user_id":103,"name":"Dad","steam_id":76561198083941413,"connected_time":2415000000000,"state":"active","ping":54},{"user_id":142,"name":"Snow Monkey","steam_id":76561198165837395,"connected_time":141000000000,"state":"active","ping":44},{"user_id":88,"name":"Sprit ‚ô•","steam_id":76561198268780781,"connected_time":2985000000000,"state":"active","ping":101},{"user_id":118,"name":"DaveAtDublin","steam_id":76561198162386715,"connected_time":1549000000000,"state":"active","ping":115},{"user_id":127,"name":"QuickJab","steam_id":76561198088891030,"connected_time":1256000000000,"state":"active","ping":115},{"user_id":130,"name":"Wendigo","steam_id":76561197994528974,"connected_time":684000000000,"state":"active","ping":78},{"user_id":95,"name":"crittr","steam_id":76561198014302068,"connected_time":2721000000000,"state":"active","ping":119},{"user_id":143,"name":"The Sydney Sleeper Itself","steam_id":76561198180251763,"connected_time":133000000000,"state":"active","ping":95},{"user_id":61,"name":"Log4nb43","steam_id":76561198371911794,"connected_time":4268000000000,"state":"active","ping":111},{"user_id":144,"name":"Blitzy","steam_id":76561198149472890,"connected_time":118000000000,"state":"active","ping":70},{"user_id":128,"name":"Lemmy Eturas","steam_id":76561197996966633,"connected_time":1201000000000,"state":"active","ping":48},{"user_id":91,"name":"DiscoTraveler","steam_id":76561199240168088,"connected_time":2917000000000,"state":"active","ping":116},{"user_id":120,"name":"jT","steam_id":76561198053353148,"connected_time":1527000000000,"state":"active","ping":122},{"user_id":99,"name":"BlazedBunny","steam_id":76561198243610560,"connected_time":2637000000000,"state":"active","ping":74},{"user_id":137,"name":"cthonic cvnt","steam_id":76561198039604491,"connected_time":196000000000,"state":"active","ping":48}]},{"server_id":119,"name":"Uncletopia | Seattle | 2 | All Maps","name_short":"sea-2","host":"sea-1.us.uncletopia.com","port":27025,"enabled":true,"region":"us-west","cc":"us","latitude":47.608013,"longitude":-122.33517,"reserved":0,"last_update":"0001-01-01T00:00:00Z","name_a2s":"Uncletopia | Seattle | 2 | All Maps","protocol":17,"map":"pl_barnblitz","folder":"tf","game":"Team Fortress","app_id":440,"player_count":0,"max_players":24,"Bots":0,"server_type":"Dedicated","server_os":"Linux","password":true,"vac":true,"version":"7961495","steam_id":85568392924469998,"keywords":["nocrits","nodmgspread","payload","uncletopia"],"game_id":440,"stv_port":27026,"stv_name":"Uncletopia | Seattle | 2 | All Maps | STV","players":null},{"server_id":406,"name":"Uncletopia | Seattle | 3 | Stopwatch","name_short":"sea-3","host":"sea-1.us.uncletopia.com","port":27035,"enabled":true,"region":"us-west","cc":"us","latitude":47.608013,"longitude":-122.33517,"reserved":0,"last_update":"0001-01-01T00:00:00Z","name_a2s":"Uncletopia | Seattle | 3 | Stopwatch","protocol":17,"map":"pl_pier","folder":"tf","game":"Team Fortress","app_id":440,"player_count":0,"max_players":24,"Bots":0,"server_type":"Dedicated","server_os":"Linux","password":true,"vac":true,"version":"7961495","steam_id":85568392924515217,"keywords":["nocrits","nodmgspread","payload","uncletopia"],"game_id":440,"stv_port":27036,"stv_name":"Uncletopia | Seattle | 3 | Stopwatch | STV","players":null},{"server_id":17,"name":"Uncletopia | San Francisco | 1 | All Maps","name_short":"sfo-1","host":"sfo-1.us.uncletopia.com","port":27015,"enabled":true,"region":"us-west","cc":"us","latitude":37.77397,"longitude":-122.4313,"reserved":0,"last_update":"0001-01-01T00:00:00Z","name_a2s":"Uncletopia | San Francisco | 1 | All Maps","protocol":17,"map":"koth_cascade","folder":"tf","game":"Team Fortress","app_id":440,"player_count":0,"max_players":24,"Bots":0,"server_type":"Dedicated","server_os":"Linux","password":true,"vac":true,"version":"7961495","steam_id":85568392924469999,"keywords":["cp","nocrits","nodmgspread","uncletopia"],"game_id":440,"stv_port":27016,"stv_name":"Uncletopia | San Francisco | 1 | All Maps | STV","players":null},{"server_id":18,"name":"Uncletopia | San Francisco | 2 | All Maps","name_short":"sfo-2","host":"sfo-1.us.uncletopia.com","port":27025,"enabled":true,"region":"us-west","cc":"us","latitude":37.77397,"longitude":-122.4313,"reserved":0,"last_update":"0001-01-01T00:00:00Z","name_a2s":"Uncletopia | San Francisco | 2 | All Maps","protocol":17,"map":"pl_frontier_final","folder":"tf","game":"Team Fortress","app_id":440,"player_count":0,"max_players":24,"Bots":0,"server_type":"Dedicated","server_os":"Linux","password":true,"vac":true,"version":"7961495","steam_id":85568392924470000,"keywords":["nocrits","nodmgspread","payload","uncletopia"],"game_id":440,"stv_port":27026,"stv_name":"Uncletopia | San Francisco | 2 | All Maps | STV","players":null},{"server_id":19,"name":"Uncletopia | San Francisco | 3 | Stopwatch","name_short":"sfo-3","host":"sfo-1.us.uncletopia.com","port":27035,"enabled":true,"region":"us-west","cc":"us","latitude":37.77397,"longitude":-122.4313,"reserved":0,"last_update":"0001-01-01T00:00:00Z","name_a2s":"Uncletopia | San Francisco | 3 | Stopwatch","protocol":17,"map":"pl_pier","folder":"tf","game":"Team Fortress","app_id":440,"player_count":0,"max_players":24,"Bots":0,"server_type":"Dedicated","server_os":"Linux","password":true,"vac":true,"version":"7961495","steam_id":85568392924742824,"keywords":["nocrits","nodmgspread","payload","uncletopia"],"game_id":440,"stv_port":27036,"stv_name":"Uncletopia | San Francisco | 3 | Stopwatch | STV","players":null},{"server_id":20,"name":"Uncletopia | San Francisco | 4 | Community","name_short":"sfo-4","host":"sfo-1.us.uncletopia.com","port":27045,"enabled":true,"region":"us-west","cc":"us","latitude":37.77397,"longitude":-122.4313,"reserved":0,"last_update":"0001-01-01T00:00:00Z","name_a2s":"Uncletopia | San Francisco | 4 | Community","protocol":17,"map":"pl_pier","folder":"tf","game":"Team Fortress","app_id":440,"player_count":0,"max_players":24,"Bots":0,"server_type":"Dedicated","server_os":"Linux","password":true,"vac":true,"version":"7961495","steam_id":85568392924742826,"keywords":["nocrits","nodmgspread","payload","uncletopia"],"game_id":440,"stv_port":27046,"stv_name":"Uncletopia | San Francisco | 4 | Community | STV","players":null},{"server_id":141,"name":"Uncletopia | Sydney | 1 | All Maps","name_short":"syd-1","host":"syd-1.au.uncletopia.com","port":27015,"enabled":true,"region":"au","cc":"au","latitude":-33.865143,"longitude":151.2099,"reserved":0,"last_update":"0001-01-01T00:00:00Z","name_a2s":"Uncletopia | Sydney | 1 | All Maps","protocol":17,"map":"koth_viaduct","folder":"tf","game":"Team Fortress","app_id":440,"player_count":3,"max_players":24,"Bots":0,"server_type":"Dedicated","server_os":"Linux","password":true,"vac":true,"version":"7961495","steam_id":85568392924470001,"keywords":["cp","nocrits","nodmgspread","uncletopia"],"game_id":440,"stv_port":27016,"stv_name":"Uncletopia | Sydney | 1 | All Maps | STV","players":[{"user_id":186,"name":"Milk","steam_id":76561199024943879,"connected_time":4636000000000,"state":"active","ping":60},{"user_id":189,"name":"itsFR33KKO","steam_id":76561198286173807,"connected_time":4425000000000,"state":"active","ping":82},{"user_id":190,"name":"Feshcaku","steam_id":76561198837820898,"connected_time":3453000000000,"state":"active","ping":210}]},{"server_id":123,"name":"Uncletopia | Sydney | 2 | All Maps","name_short":"syd-2","host":"syd-1.au.uncletopia.com","port":27025,"enabled":true,"region":"au","cc":"au","latitude":-33.865143,"longitude":151.2099,"reserved":0,"last_update":"0001-01-01T00:00:00Z","name_a2s":"Uncletopia | Sydney | 2 | All Maps","protocol":17,"map":"cp_5gorge","folder":"tf","game":"Team Fortress","app_id":440,"player_count":0,"max_players":24,"Bots":0,"server_type":"Dedicated","server_os":"Linux","password":true,"vac":true,"version":"7961495","steam_id":85568392924470002,"keywords":["cp","nocrits","nodmgspread","uncletopia"],"game_id":440,"stv_port":27026,"stv_name":"Uncletopia | Sydney | 2 | All Maps | STV","players":null},{"server_id":395,"name":"Uncletopia | Sydney | 3 | All Maps","name_short":"syd-3","host":"syd-1.au.uncletopia.com","port":27035,"enabled":true,"region":"au","cc":"au","latitude":-33.865143,"longitude":151.2099,"reserved":0,"last_update":"0001-01-01T00:00:00Z","name_a2s":"Uncletopia | Sydney | 3 | All Maps","protocol":17,"map":"cp_altitude","folder":"tf","game":"Team Fortress","app_id":440,"player_count":0,"max_players":24,"Bots":0,"server_type":"Dedicated","server_os":"Linux","password":true,"vac":true,"version":"7961495","steam_id":85568392925194467,"keywords":["cp","nocrits","nodmgspread","uncletopia"],"game_id":440,"stv_port":27036,"stv_name":"Uncletopia | Sydney | 3 | All Maps | STV","players":null},{"server_id":396,"name":"Uncletopia | Sydney | 4 | All Maps","name_short":"syd-4","host":"syd-1.au.uncletopia.com","port":27045,"enabled":true,"region":"au","cc":"au","latitude":-33.865143,"longitude":151.2099,"reserved":0,"last_update":"0001-01-01T00:00:00Z","name_a2s":"Uncletopia | Sydney | 4 | All Maps","protocol":17,"map":"koth_viaduct","folder":"tf","game":"Team Fortress","app_id":440,"player_count":0,"max_players":24,"Bots":0,"server_type":"Dedicated","server_os":"Linux","password":true,"vac":true,"version":"7961495","steam_id":85568392925397958,"keywords":["cp","nocrits","nodmgspread","uncletopia"],"game_id":440,"stv_port":27046,"stv_name":"Uncletopia | Sydney | 4 | All Maps | STV","players":null},{"server_id":58,"name":"Uncletopia | Sydney | 5 | Stopwatch","name_short":"syd-5","host":"syd-1.au.uncletopia.com","port":27055,"enabled":true,"region":"au","cc":"au","latitude":-33.865143,"longitude":151.2099,"reserved":0,"last_update":"0001-01-01T00:00:00Z","name_a2s":"Uncletopia | Sydney | 5 | Stopwatch","protocol":17,"map":"workshop/koth_clearcut_b15.ugc2107050255","folder":"tf","game":"Team Fortress","app_id":440,"player_count":0,"max_players":24,"Bots":0,"server_type":"Dedicated","server_os":"Linux","password":true,"vac":true,"version":"7961495","steam_id":85568392925397959,"keywords":["cp","nocrits","nodmgspread","uncletopia"],"game_id":440,"stv_port":27056,"stv_name":"Uncletopia | Sydney | 5 | Stopwatch | STV","players":null},{"server_id":59,"name":"Uncletopia | Sydney | 6 | Community","name_short":"syd-6","host":"syd-1.au.uncletopia.com","port":27065,"enabled":true,"region":"au","cc":"au","latitude":-33.865143,"longitude":151.2099,"reserved":0,"last_update":"0001-01-01T00:00:00Z","name_a2s":"Uncletopia | Sydney | 6 | Community","protocol":17,"map":"cp_sunshine","folder":"tf","game":"Team Fortress","app_id":440,"player_count":0,"max_players":24,"Bots":0,"server_type":"Dedicated","server_os":"Linux","password":true,"vac":true,"version":"7961495","steam_id":85568392925397960,"keywords":["cp","nocrits","nodmgspread","uncletopia"],"game_id":440,"stv_port":27066,"stv_name":"Uncletopia | Sydney | 6 | Community | STV","players":null},{"server_id":49,"name":"Uncletopia | Warsaw | 1 | All Maps","name_short":"waw-1","host":"waw-1.pl.uncletopia.com","port":27015,"enabled":true,"region":"eu","cc":"pl","latitude":52.2297,"longitude":21.017532,"reserved":0,"last_update":"0001-01-01T00:00:00Z","name_a2s":"Uncletopia | Warsaw | 1 | All Maps","protocol":17,"map":"koth_lakeside_final","folder":"tf","game":"Team Fortress","app_id":440,"player_count":0,"max_players":24,"Bots":0,"server_type":"Dedicated","server_os":"Linux","password":true,"vac":true,"version":"7961495","steam_id":85568392925397850,"keywords":["cp","nocrits","nodmgspread","uncletopia"],"game_id":440,"stv_port":27016,"stv_name":"Uncletopia | Warsaw | 1 | All Maps | STV","players":null},{"server_id":50,"name":"Uncletopia | Warsaw | 2 | All Maps","name_short":"waw-2","host":"waw-1.pl.uncletopia.com","port":27025,"enabled":true,"region":"eu","cc":"pl","latitude":52.2297,"longitude":21.017532,"reserved":0,"last_update":"0001-01-01T00:00:00Z","name_a2s":"Uncletopia | Warsaw | 2 | All Maps","protocol":17,"map":"pl_borneo","folder":"tf","game":"Team Fortress","app_id":440,"player_count":0,"max_players":24,"Bots":0,"server_type":"Dedicated","server_os":"Linux","password":true,"vac":true,"version":"7961495","steam_id":85568392925397851,"keywords":["nocrits","nodmgspread","payload","uncletopia"],"game_id":440,"stv_port":27026,"stv_name":"Uncletopia | Warsaw | 2 | All Maps | STV","players":null},{"server_id":51,"name":"Uncletopia | Warsaw | 3 | All Maps","name_short":"waw-3","host":"waw-1.pl.uncletopia.com","port":27035,"enabled":true,"region":"eu","cc":"pl","latitude":52.2297,"longitude":21.017532,"reserved":0,"last_update":"0001-01-01T00:00:00Z","name_a2s":"Uncletopia | Warsaw | 3 | All Maps","protocol":17,"map":"pl_borneo","folder":"tf","game":"Team Fortress","app_id":440,"player_count":16,"max_players":24,"Bots":0,"server_type":"Dedicated","server_os":"Linux","password":true,"vac":true,"version":"7961495","steam_id":85568392925397852,"keywords":["nocrits","nodmgspread","payload","uncletopia"],"game_id":440,"stv_port":27036,"stv_name":"Uncletopia | Warsaw | 3 | All Maps | STV","players":[{"user_id":173,"name":"Lynx","steam_id":76561199274008207,"connected_time":2151000000000,"state":"active","ping":55},{"user_id":211,"name":"Laserzsozsoo","steam_id":76561198952752839,"connected_time":540000000000,"state":"active","ping":110},{"user_id":213,"name":"Przemomalin","steam_id":76561197987528170,"connected_time":308000000000,"state":"active","ping":80},{"user_id":214,"name":"Dr.Dag","steam_id":76561198301430910,"connected_time":306000000000,"state":"active","ping":84},{"user_id":188,"name":"vitut_deenp√§hkin√§t","steam_id":76561198371667850,"connected_time":1511000000000,"state":"active","ping":90},{"user_id":182,"name":"Eki","steam_id":76561199056176547,"connected_time":1612000000000,"state":"active","ping":87},{"user_id":216,"name":"Even R√º√ºd","steam_id":76561197981144291,"connected_time":113000000000,"state":"active","ping":93},{"user_id":183,"name":"He","steam_id":76561198091055713,"connected_time":1609000000000,"state":"active","ping":80},{"user_id":167,"name":"Egor Pomidor","steam_id":76561199175688390,"connected_time":2430000000000,"state":"active","ping":112},{"user_id":192,"name":"Purple Soup :D","steam_id":76561198985100366,"connected_time":1283000000000,"state":"active","ping":114},{"user_id":193,"name":"Latty451","steam_id":76561199250507255,"connected_time":1155000000000,"state":"active","ping":99},{"user_id":202,"name":"Aronor","steam_id":76561198352920012,"connected_time":853000000000,"state":"active","ping":103},{"user_id":209,"name":"brtaba","steam_id":76561198796334790,"connected_time":594000000000,"state":"active","ping":71},{"user_id":200,"name":"chgivan","steam_id":76561198060010064,"connected_time":1042000000000,"state":"active","ping":89},{"user_id":210,"name":"przksk","steam_id":76561198450284221,"connected_time":592000000000,"state":"active","ping":56},{"user_id":205,"name":"Pixella","steam_id":76561198036554247,"connected_time":820000000000,"state":"active","ping":75}]},{"server_id":52,"name":"Uncletopia | Warsaw | 4 | All Maps","name_short":"waw-4","host":"waw-1.pl.uncletopia.com","port":27045,"enabled":true,"region":"eu","cc":"pl","latitude":52.2297,"longitude":21.017532,"reserved":0,"last_update":"0001-01-01T00:00:00Z","name_a2s":"Uncletopia | Warsaw | 4 | All Maps","protocol":17,"map":"pl_borneo","folder":"tf","game":"Team Fortress","app_id":440,"player_count":0,"max_players":24,"Bots":0,"server_type":"Dedicated","server_os":"Linux","password":true,"vac":true,"version":"7961495","steam_id":85568392925397853,"keywords":["nocrits","nodmgspread","payload","uncletopia"],"game_id":440,"stv_port":27046,"stv_name":"Uncletopia | Warsaw | 4 | All Maps | STV","players":null},{"server_id":53,"name":"Uncletopia | Warsaw | 5 | Stopwatch","name_short":"waw-5","host":"waw-1.pl.uncletopia.com","port":27055,"enabled":true,"region":"eu","cc":"pl","latitude":52.2297,"longitude":21.017532,"reserved":0,"last_update":"0001-01-01T00:00:00Z","name_a2s":"Uncletopia | Warsaw | 5 | Stopwatch","protocol":17,"map":"workshop/koth_ramjam_rc1.ugc459778887","folder":"tf","game":"Team Fortress","app_id":440,"player_count":0,"max_players":24,"Bots":0,"server_type":"Dedicated","server_os":"Linux","password":true,"vac":true,"version":"7961495","steam_id":85568392925397854,"keywords":["cp","nocrits","nodmgspread","uncletopia"],"game_id":440,"stv_port":27056,"stv_name":"Uncletopia | Warsaw | 5 | Stopwatch | STV","players":null},{"server_id":54,"name":"Uncletopia | Warsaw | 6 | Community","name_short":"waw-6","host":"waw-1.pl.uncletopia.com","port":27065,"enabled":true,"region":"eu","cc":"pl","latitude":52.2297,"longitude":21.017532,"reserved":0,"last_update":"0001-01-01T00:00:00Z","name_a2s":"Uncletopia | Warsaw | 6 | Community","protocol":17,"map":"workshop/pl_emerge_rc2.ugc888027758","folder":"tf","game":"Team Fortress","app_id":440,"player_count":0,"max_players":24,"Bots":0,"server_type":"Dedicated","server_os":"Linux","password":true,"vac":true,"version":"7961495","steam_id":85568392925397856,"keywords":["nocrits","nodmgspread","payload","uncletopia"],"game_id":440,"stv_port":27066,"stv_name":"Uncletopia | Warsaw | 6 | Community | STV","players":null}]}