{"status":true,"message":"","result":[{"server_id":2,"name":"Uncletopia | Chicago | 1 | All Maps","name_short":"chi-1","host":"chi-1.us.uncletopia.com","port":27015,"enabled":true,"region":"us-central","cc":"us","latitude":41.881832,"longitude":-87.62318,"reserved":0,"last_update":"0001-01-01T00:00:00Z","name_a2s":"Uncletopia | Chicago | 1 | All Maps","protocol":17,"map":"pl_swiftwater_final1","folder":"tf","game":"Team Fortress","app_id":440,"player_count":25,"max_players":24,"Bots":0,"server_type":"Dedicated","server_os":"Linux","password":true,"vac":true,"version":"7961495","steam_id":85568392924469984,"keywords":["nocrits","nodmgspread","payload","uncletopia"],"game_id":440,"stv_port":27016,"stv_name":"Uncletopia | Chicago | 1 | All Maps | STV","players":[{"user_id":802,"name":"unc havin a fent battle","steam_id":76561198144766439,"connected_time":3695000000000,"state":"active","ping":43},{"user_id":738,"name":"badboy6996","steam_id":76561197969386201,"connected_time":8859000000000,"state":"active","ping":46},{"user_id":841,"name":"little bear cub","steam_id":76561198044006334,"connected_time":90000000000,"state":"active","ping":104},{"user_id":819,"name":"krill issue","steam_id":76561199013461400,"connected_time":1313000000000,"state":"active","ping":78},{"user_id":767,"name":"4 life","steam_id":76561198175961598,"connected_time":6346000000000,"state":"active","ping":119},{"user_id":740,"name":"Ojen","steam_id":76561197998414482,"connected_time":8561000000000,"state":"active","ping":62},{"user_id":833,"name":"Hakurei Reimu","steam_id":76561198045388290,"connected_time":254000000000,"state":"active","ping":106},{"user_id":846,"name":"flobbly wobbly","steam_id":76561199013819103,"connected_time":3000000000,"state":"spawning","ping":114},{"user_id":805,"name":"mina","steam_id":76561198881665250,"connected_time":2899000000000,"state":"active","ping":91},{"user_id":814,"name":"winHAHAHAHAHHAHAHA","steam_id":76561198274491536,"connected_time":2117000000000,"state":"active","ping":160},{"user_id":810,"name":"yomommasabitch","steam_id":76561198323217150,"connected_time":2475000000000,"state":"active","ping":61},{"user_id":825,"name":"PirateJet","steam_id":76561198050858744,"connected_time":372000000000,"state":"active","ping":114},{"user_id":823,"name":"Let Œµ \u003e 0","steam_id":76561198111790388,"connected_time":413000000000,"state":"active","ping":92},{"user_id":806,"name":"deadmian.","steam_id":76561198089098014,"connected_time":2849000000000,"state":"active","ping":85},{"user_id":831,"name":"otto","steam_id":76561198029585065,"connected_time":274000000000,"state":"active","ping":47},{"user_id":832,"name":"BananaMan90014","steam_id":76561198057690010,"connected_time":274000000000,"state":"active","ping":53},{"user_id":816,"name":"d4ngerd4n","steam_id":76561198043758735,"connected_time":1571000000000,"state":"active","ping":106},{"user_id":843,"name":"jordanddean2016","steam_id":76561198323772677,"connected_time":51000000000,"state":"active","ping":107},{"user_id":807,"name":"Peanut","steam_id":76561198158174739,"connected_time":2837000000000,"state":"active","ping":74},{"user_id":822,"name":"local_goof","steam_id":76561199085725320,"connected_time":806000000000,"state":"active","ping":124},{"user_id":835,"name":"i need u","steam_id":76561198030625151,"connected_time":169000000000,"state":"active","ping":80},{"user_id":809,"name":"Poopisviel Von Einzbern","steam_id":76561198259260433,"connected_time":2805000000000,"state":"active","ping":89},{"user_id":836,"name":"‚ú†‰πô„Å≤ÔæòÂàÄ‰∏ÇÔΩ≤‚ú†","steam_id":76561198401002168,"connected_time":146000000000,"state":"active","ping":169},{"user_id":811,"name":"exten-z","steam_id":76561198004359190,"connected_time":2372000000000,"state":"active","ping":63},{"user_id":839,"name":"suzuya #meowment","steam_id":76561199207991492,"connected_time":114000000000,"state":"active","ping":60}]},{"server_id":106,"name":"Uncletopia | Chicago | 2 | All Maps","name_short":"chi-2","host":"chi-1.us.uncletopia.com","port":27025,"enabled":true,"region":"us-central","cc":"us","latitude":41.881832,"longitude":-87.62318,"reserved":0,"last_update":"0001-01-01T00:00:00Z","name_a2s":"Uncletopia | Chicago | 2 | All Maps","protocol":17,"map":"pl_barnblitz","folder":"tf","game":"Team Fortress","app_id":440,"player_count":1,"max_players":24,"Bots":0,"server_type":"Dedicated","server_os":"Linux","password":true,"vac":true,"version":"7961495","steam_id":85568392924469985,"keywords":["nocrits","nodmgspread","payload","uncletopia"],"game_id":440,"stv_port":27026,"stv_name":"Uncletopia | Chicago | 2 | All Maps | STV","players":[{"user_id":817,"name":"Saggy Haggis Balls","steam_id":76561198047845399,"connected_time":150000000000,"state":"active","ping":82}]},{"server_id":402,"name":"Uncletopia | Chicago | 3 | All Maps","name_short":"chi-3","host":"chi-1.us.uncletopia.com","port":27035,"enabled":true,"region":"us-central","cc":"us","latitude":41.881832,"longitude":-87.62318,"reserved":0,"last_update":"0001-01-01T00:00:00Z","name_a2s":"Uncletopia | Chicago | 3 | All Maps","protocol":17,"map":"pl_badwater","folder":"tf","game":"Team Fortress","app_id":440,"player_count":0,"max_players":24,"Bots":0,"server_type":"Dedicated","server_os":"Linux","password":true,"vac":true,"version":"7961495","steam_id":85568392924515191,"keywords":["nocrits","nodmgspread","payload","uncletopia"],"game_id":440,"stv_port":27036,"stv_name":"Uncletopia | Chicago | 3 | All Maps | STV","players":null},{"server_id":403,"name":"Uncletopia | Chicago | 4 | All Maps","name_short":"chi-4","host":"chi-1.us.uncletopia.com","port":27045,"enabled":true,"region":"us-central","cc":"us","latitude":41.881832,"longitude":-87.62318,"reserved":0,"last_update":"0001-01-01T00:00:00Z","name_a2s":"Uncletopia | Chicago | 4 | All Maps","protocol":17,"map":"pl_borneo","folder":"tf","game":"Team Fortress","app_id":440,"player_count":0,"max_players":24,"Bots":0,"server_type":"Dedicated","server_os":"Linux","password":true,"vac":true,"version":"7961495","steam_id":85568392924515193,"keywords":["nocrits","nodmgspread","payload","uncletopia"],"game_id":440,"stv_port":27046,"stv_name":"Uncletopia | Chicago | 4 | All Maps | STV","players":null},{"server_id":36,"name":"Uncletopia | Chicago | 5 | All Maps","name_short":"chi-5","host":"chi-2.us.uncletopia.com","port":27015,"enabled":true,"region":"us-central","cc":"us","latitude":41.881832,"longitude":-87.62318,"reserved":0,"last_update":"0001-01-01T00:00:00Z","name_a2s":"Uncletopia | Chicago | 5 | All Maps","protocol":17,"map":"pl_swiftwater_final1","folder":"tf","game":"Team Fortress","app_id":440,"player_count":0,"max_players":24,"Bots":0,"server_type":"Dedicated","server_os":"Linux","password":true,"vac":true,"version":"7961495","steam_id":85568392924866362,"keywords":["nocrits","nodmgspread","payload","uncletopia"],"game_id":440,"stv_port":27016,"stv_name":"Uncletopia | Chicago | 5 | All Maps | STV","players":null},{"server_id":37,"name":"Uncletopia | Chicago | 6 | All Maps","name_short":"chi-6","host":"chi-2.us.uncletopia.com","port":27025,"enabled":true,"region":"us-central","cc":"us","latitude":41.881832,"longitude":-87.62318,"reserved":0,"last_update":"0001-01-01T00:00:00Z","name_a2s":"Uncletopia | Chicago | 6 | All Maps","protocol":17,"map":"koth_highpass","folder":"tf","game":"Team Fortress","app_id":440,"player_count":2,"max_players":24,"Bots":0,"server_type":"Dedicated","server_os":"Linux","password":true,"vac":true,"version":"7961495","steam_id":85568392924866363,"keywords":["cp","nocrits","nodmgspread","uncletopia"],"game_id":440,"stv_port":27026,"stv_name":"Uncletopia | Chicago | 6 | All Maps | STV","players":[{"user_id":716,"name":"you","steam_id":76561199472644525,"connected_time":567000000000,"state":"active","ping":163},{"user_id":717,"name":"boneboy88","steam_id":76561199231079499,"connected_time":483000000000,"state":"active","ping":74}]},{"server_id":38,"name":"Uncletopia | Chicago | 7 | Stopwatch Beta","name_short":"chi-7","host":"chi-2.us.uncletopia.com","port":27035,"enabled":true,"region":"us-central","cc":"us","latitude":41.881832,"longitude":-87.62318,"reserved":0,"last_update":"0001-01-01T00:00:00Z","name_a2s":"Uncletopia | Chicago | 7 | Stopwatch Beta","protocol":17,"map":"workshop/koth_product_final.ugc454272353","folder":"tf","game":"Team Fortress","app_id":440,"player_count":0,"max_players":24,"Bots":0,"server_type":"Dedicated","server_os":"Linux","password":true,"vac":true,"version":"7961495","steam_id":85568392924866364,"keywords":["cp","nocrits","nodmgspread","uncletopia"],"game_id":440,"stv_port":27036,"stv_name":"Uncletopia | Chicago | 7 | Stopwatch Beta | STV","players":null},{"server_id":39,"name":"Uncletopia | Chicago | 8 | Community","name_short":"chi-8","host":"chi-2.us.uncletopia.com","port":27045,"enabled":true,"region":"us-central","cc":"us","latitude":41.881832,"longitude":-87.62318,"reserved":0,"last_update":"0001-01-01T00:00:00Z","name_a2s":"Uncletopia | Chicago | 8 | Community","protocol":17,"map":"workshop/pl_badwater_pro_v12.ugc2142942074","folder":"tf","game":"Team Fortress","app_id":440,"player_count":0,"max_players":24,"Bots":0,"server_type":"Dedicated","server_os":"Linux","password":true,"vac":true,"version":"7961495","steam_id":85568392924866365,"keywords":["nocrits","nodmgspread","payload","uncletopia"],"game_id":440,"stv_port":27046,"stv_name":"Uncletopia | Chicago | 8 | Community | STV","players":null},{"server_id":8,"name":"Uncletopia | Dallas | 1 | All Maps","name_short":"dal-1","host":"dal-1.us.uncletopia.com","port":27015,"enabled":true,"region":"us-central","cc":"us","latitude":32.779167,"longitude":-96.80889,"reserved":0,"last_update":"0001-01-01T00:00:00Z","name_a2s":"Uncletopia | Dallas | 1 | All Maps","protocol":17,"map":"pl_badwater","folder":"tf","game":"Team Fortress","app_id":440,"player_count":8,"max_players":24,"Bots":0,"server_type":"Dedicated","server_os":"Linux","password":true,"vac":true,"version":"7961495","steam_id":85568392924469986,"keywords":["nocrits","nodmgspread","payload","uncletopia"],"game_id":440,"stv_port":27016,"stv_name":"Uncletopia | Dallas | 1 | All Maps | STV","players":[{"user_id":1044,"name":"Chase","steam_id":76561199401669149,"connected_time":113000000000,"state":"active","ping":309},{"user_id":1033,"name":"Blaze","steam_id":76561199445623438,"connected_time":2435000000000,"state":"active","ping":322},{"user_id":1034,"name":"Slimeboy Enthusiast","steam_id":76561199200969139,"connected_time":2420000000000,"state":"active","ping":98},{"user_id":1035,"name":"Navs","steam_id":76561199414749444,"connected_time":2174000000000,"state":"active","ping":146},{"user_id":1043,"name":"2002 Toyota Corolla VE","steam_id":76561198149172070,"connected_time":400000000000,"state":"active","ping":40},{"user_id":1045,"name":"Mighty","steam_id":76561198096569755,"connected_time":79000000000,"state":"active","ping":69},{"user_id":1046,"name":"‚à∞","steam_id":76561198064424202,"connected_time":19000000000,"state":"active","ping":73},{"user_id":1040,"name":"Kenku","steam_id":76561199086762926,"connected_time":1592000000000,"state":"active","ping":59}]},{"server_id":108,"name":"Uncletopia | Dallas | 2 | All Maps","name_short":"dal-2","host":"dal-1.us.uncletopia.com","port":27025,"enabled":true,"region":"us-central","cc":"us","latitude":32.779167,"longitude":-96.80889,"reserved":0,"last_update":"0001-01-01T00:00:00Z","name_a2s":"Uncletopia | Dallas | 2 | All Maps","protocol":17,"map":"pl_barnblitz","folder":"tf","game":"Team Fortress","app_id":440,"player_count":0,"max_players":24,"Bots":0,"server_type":"Dedicated","server_os":"Linux","password":true,"vac":true,"version":"7961495","steam_id":85568392924469988,"keywords":["nocrits","nodmgspread","payload","uncletopia"],"game_id":440,"stv_port":27026,"stv_name":"Uncletopia | Dallas | 2 | All Maps | STV","players":null},{"server_id":5,"name":"Uncletopia | Frankfurt | 1 | All Maps","name_short":"frk-1","host":"frk-1.de.uncletopia.com","port":27015,"enabled":true,"region":"eu","cc":"de","latitude":50.110924,"longitude":8.682127,"reserved":0,"last_update":"0001-01-01T00:00:00Z","name_a2s":"Uncletopia | Frankfurt | 1 | All Maps","protocol":17,"map":"pl_badwater","folder":"tf","game":"Team Fortress","app_id":440,"player_count":24,"max_players":24,"Bots":0,"server_type":"Dedicated","server_os":"Linux","password":true,"vac":true,"version":"7961495","steam_id":85568392924469989,"keywords":["nocrits","nodmgspread","payload","uncletopia"],"game_id":440,"stv_port":27016,"stv_name":"Uncletopia | Frankfurt | 1 | All Maps | STV","players":[{"user_id":55,"name":"Zwoz","steam_id":76561198221841968,"connected_time":3782000000000,"state":"active","ping":66},{"user_id":56,"name":"ƒ∞slam'ƒ±n Zinciri - Sylas","steam_id":76561198419812739,"connected_time":3725000000000,"state":"active","ping":86},{"user_id":60,"name":"Sunchouse","steam_id":76561198453479806,"connected_time":3608000000000,"state":"active","ping":77},{"user_id":32,"name":"Solid","steam_id":76561198357049292,"connected_time":5044000000000,"state":"active","ping":87},{"user_id":86,"name":"AWP Bodyshot :) ‚ù§","steam_id":76561198029928533,"connected_time":1534000000000,"state":"active","ping":44},{"user_id":95,"name":"VampiuS","steam_id":76561197998827007,"connected_time":832000000000,"state":"active","ping":50},{"user_id":76,"name":"tequila sunset","steam_id":76561198315969106,"connected_time":2239000000000,"state":"active","ping":94},{"user_id":69,"name":"pyromaniac","steam_id":76561198292781255,"connected_time":3030000000000,"state":"active","ping":80},{"user_id":94,"name":"cuddle","steam_id":76561198805181599,"connected_time":1004000000000,"state":"active","ping":72},{"user_id":91,"name":"Jara.","steam_id":76561197992207165,"connected_time":1203000000000,"state":"active","ping":97},{"user_id":54,"name":"hasansaeedifar","steam_id":76561198974563618,"connected_time":3820000000000,"state":"active","ping":158},{"user_id":96,"name":"are you dreaming ?","steam_id":76561198272166623,"connected_time":775000000000,"state":"active","ping":61},{"user_id":79,"name":"iIMOFIi","steam_id":76561199000483925,"connected_time":2004000000000,"state":"active","ping":163},{"user_id":61,"name":"Holo","steam_id":76561198348567663,"connected_time":3572000000000,"state":"active","ping":76},{"user_id":78,"name":"XPullaHiiri","steam_id":76561198031652375,"connected_time":2200000000000,"state":"active","ping":93},{"user_id":98,"name":"Niko","steam_id":76561199006295285,"connected_time":752000000000,"state":"active","ping":74},{"user_id":28,"name":"Sex Man TF2","steam_id":76561198798657045,"connected_time":5331000000000,"state":"active","ping":75},{"user_id":74,"name":"zee","steam_id":76561197994492154,"connected_time":2377000000000,"state":"active","ping":60},{"user_id":66,"name":"cargo_conductor_754","steam_id":76561198165604007,"connected_time":3205000000000,"state":"active","ping":56},{"user_id":99,"name":"kornetov.vitalya","steam_id":76561199286034833,"connected_time":696000000000,"state":"active","ping":88},{"user_id":51,"name":"eva.","steam_id":76561198054474684,"connected_time":4404000000000,"state":"active","ping":74},{"user_id":100,"name":"TF2 SOURCE 2 WAS ANNOUNCED!","steam_id":76561198282952165,"connected_time":282000000000,"state":"active","ping":75},{"user_id":93,"name":"Dolcelatte","steam_id":76561198038501770,"connected_time":1021000000000,"state":"active","ping":53},{"user_id":88,"name":"turtlemage","steam_id":76561198052452373,"connected_time":1471000000000,"state":"active","ping":61}]},{"server_id":110,"name":"Uncletopia | Frankfurt | 2 | All Maps","name_short":"frk-2","host":"frk-1.de.uncletopia.com","port":27025,"enabled":true,"region":"eu","cc":"de","latitude":50.110924,"longitude":8.682127,"reserved":0,"last_update":"0001-01-01T00:00:00Z","name_a2s":"Uncletopia | Frankfurt | 2 | All Maps","protocol":17,"map":"pl_upward","folder":"tf","game":"Team Fortress","app_id":440,"player_count":23,"max_players":24,"Bots":0,"server_type":"Dedicated","server_os":"Linux","password":true,"vac":true,"version":"7961495","steam_id":85568392924469990,"keywords":["nocrits","nodmgspread","payload","uncletopia"],"game_id":440,"stv_port":27026,"stv_name":"Uncletopia | Frankfurt | 2 | All Maps | STV","players":[{"user_id":7,"name":"MoreIsMore","steam_id":76561198050973207,"connected_time":2622000000000,"state":"active","ping":89},{"user_id":8,"name":"Nyhde","steam_id":76561198012771416,"connected_time":2616000000000,"state":"active","ping":83},{"user_id":47,"name":"The Greatest Plan","steam_id":76561199325579119,"connected_time":630000000000,"state":"active","ping":70},{"user_id":26,"name":"dotdotdot","steam_id":76561198057628751,"connected_time":1414000000000,"state":"active","ping":67},{"user_id":49,"name":"Dragco","steam_id":76561198133902802,"connected_time":558000000000,"state":"active","ping":58},{"user_id":44,"name":"sefacopy","steam_id":76561198953697846,"connected_time":691000000000,"state":"active","ping":97},{"user_id":20,"name":"stunzi","steam_id":76561198931091173,"connected_time":1551000000000,"state":"active","ping":155},{"user_id":48,"name":"Darius","steam_id":76561198086091841,"connected_time":606000000000,"state":"active","ping":61},{"user_id":32,"name":"john fortress","steam_id":76561198013237629,"connected_time":1222000000000,"state":"active","ping":101},{"user_id":18,"name":"Georman Forge","steam_id":76561198256504605,"connected_time":1568000000000,"state":"active","ping":59},{"user_id":54,"name":"Doriian","steam_id":76561198071438810,"connected_time":53000000000,"state":"active","ping":75},{"user_id":24,"name":"Genesis","steam_id":76561198999652040,"connected_time":1495000000000,"state":"active","ping":45},{"user_id":53,"name":"dagaminking","steam_id":76561198144209072,"connected_time":223000000000,"state":"active","ping":58},{"user_id":50,"name":"Riven","steam_id":76561198091701349,"connected_time":557000000000,"state":"active","ping":134},{"user_id":36,"name":"Mussolini","steam_id":76561198218384865,"connected_time":1142000000000,"state":"active","ping":94},{"user_id":29,"name":"Dominus Di Spiritus","steam_id":76561198200488383,"connected_time":1359000000000,"state":"active","ping":83},{"user_id":30,"name":"goprit","steam_id":76561198072518761,"connected_time":1332000000000,"state":"active","ping":75},{"user_id":55,"name":"Thors","steam_id":76561197968739075,"connected_time":51000000000,"state":"active","ping":46},{"user_id":52,"name":"TonTon","steam_id":76561198145468895,"connected_time":454000000000,"state":"active","ping":47},{"user_id":38,"name":"Dogfighter","steam_id":76561198798793898,"connected_time":975000000000,"state":"active","ping":67},{"user_id":39,"name":"Bahador","steam_id":76561198897378461,"connected_time":893000000000,"state":"active","ping":71},{"user_id":41,"name":"Butter","steam_id":76561198324027347,"connected_time":794000000000,"state":"active","ping":79},{"user_id":51,"name":"pizza patrol","steam_id":76561198065687529,"connected_time":554000000000,"state":"active","ping":60}]},{"server_id":308,"name":"Uncletopia | Frankfurt | 3 | All Maps","name_short":"frk-3","host":"frk-1.de.uncletopia.com","port":27035,"enabled":true,"region":"eu","cc":"de","latitude":50.110924,"longitude":8.682127,"reserved":0,"last_update":"0001-01-01T00:00:00Z","name_a2s":"Uncletopia | Frankfurt | 3 | All Maps","protocol":17,"map":"cp_dustbowl","folder":"tf","game":"Team Fortress","app_id":440,"player_count":16,"max_players":24,"Bots":0,"server_type":"Dedicated","server_os":"Linux","password":true,"vac":true,"version":"7961495","steam_id":85568392924504274,"keywords":["cp","nocrits","nodmgspread","uncletopia"],"game_id":440,"stv_port":27036,"stv_name":"Uncletopia | Frankfurt | 3 | All Maps | STV","players":[{"user_id":7,"name":"Xenowolfraptor","steam_id":76561199085273567,"connected_time":1553000000000,"state":"active","ping":94},{"user_id":8,"name":"ArNiDzE","steam_id":76561199105148383,"connected_time":1540000000000,"state":"active","ping":830},{"user_id":10,"name":"Osmo","steam_id":76561199286764992,"connected_time":486000000000,"state":"active","ping":62},{"user_id":13,"name":"Anadddest","steam_id":76561198992528373,"connected_time":465000000000,"state":"active","ping":138},{"user_id":12,"name":"liamAura","steam_id":76561198848451836,"connected_time":480000000000,"state":"active","ping":60},{"user_id":15,"name":"mud","steam_id":76561198141497461,"connected_time":409000000000,"state":"active","ping":64},{"user_id":16,"name":"AwterSix","steam_id":76561198042561678,"connected_time":391000000000,"state":"active","ping":55},{"user_id":17,"name":"The Storm That Is Approaching","steam_id":76561198982155864,"connected_time":373000000000,"state":"active","ping":99},{"user_id":18,"name":"Petight","steam_id":76561197999438798,"connected_time":319000000000,"state":"active","ping":59},{"user_id":19,"name":"LocalNoob","steam_id":76561199059920084,"connected_time":309000000000,"state":"active","ping":82},{"user_id":20,"name":"catto","steam_id":76561199470147761,"connected_time":183000000000,"state":"active","ping":136},{"user_id":21,"name":"Tfuj Stary","steam_id":76561198126681452,"connected_time":127000000000,"state":"active","ping":81},{"user_id":26,"name":"Feesh0","steam_id":76561198113128147,"connected_time":45000000000,"state":"active","ping":70},{"user_id":23,"name":"Ms7657","steam_id":76561199132377084,"connected_time":83000000000,"state":"active","ping":77},{"user_id":25,"name":"Mingo","steam_id":76561199191245650,"connected_time":66000000000,"state":"active","ping":87},{"user_id":27,"name":"Pain in a Box","steam_id":76561197990777173,"connected_time":16000000000,"state":"spawning","ping":115}]},{"server_id":309,"name":"Uncletopia | Frankfurt | 4 | All Maps","name_short":"frk-4","host":"frk-1.de.uncletopia.com","port":27045,"enabled":true,"region":"eu","cc":"de","latitude":50.110924,"longitude":8.682127,"reserved":0,"last_update":"0001-01-01T00:00:00Z","name_a2s":"Uncletopia | Frankfurt | 4 | All Maps","protocol":17,"map":"pl_snowycoast","folder":"tf","game":"Team Fortress","app_id":440,"player_count":0,"max_players":24,"Bots":0,"server_type":"Dedicated","server_os":"Linux","password":true,"vac":true,"version":"7961495","steam_id":85568392924504275,"keywords":["nocrits","nodmgspread","payload","uncletopia"],"game_id":440,"stv_port":27046,"stv_name":"Uncletopia | Frankfurt | 4 | All Maps | STV","players":null},{"server_id":310,"name":"Uncletopia | Frankfurt | 5 | All Maps","name_short":"frk-5","host":"frk-1.de.uncletopia.com","port":27055,"enabled":true,"region":"eu","cc":"de","latitude":50.110924,"longitude":8.682127,"reserved":0,"last_update":"0001-01-01T00:00:00Z","name_a2s":"Uncletopia | Frankfurt | 5 | All Maps","protocol":17,"map":"koth_viaduct","folder":"tf","game":"Team Fortress","app_id":440,"player_count":0,"max_players":24,"Bots":0,"server_type":"Dedicated","server_os":"Linux","password":true,"vac":true,"version":"7961495","steam_id":85568392924504277,"keywords":["cp","nocrits","nodmgspread","uncletopia"],"game_id":440,"stv_port":27056,"stv_name":"Uncletopia | Frankfurt | 5 | All Maps | STV","players":null},{"server_id":311,"name":"Uncletopia | Frankfurt | 6 | All Maps","name_short":"frk-6","host":"frk-1.de.uncletopia.com","port":27065,"enabled":true,"region":"eu","cc":"de","latitude":50.110924,"longitude":8.682127,"reserved":0,"last_update":"0001-01-01T00:00:00Z","name_a2s":"Uncletopia | Frankfurt | 6 | All Maps","protocol":17,"map":"cp_altitude","folder":"tf","game":"Team Fortress","app_id":440,"player_count":0,"max_players":24,"Bots":0,"server_type":"Dedicated","server_os":"Linux","password":true,"vac":true,"version":"7961495","steam_id":85568392924504278,"keywords":["cp","nocrits","nodmgspread","uncletopia"],"game_id":440,"stv_port":27066,"stv_name":"Uncletopia | Frankfurt | 6 | All Maps | STV","players":null},{"server_id":23,"name":"Uncletopia | Frankfurt | 7 | Stopwatch Beta","name_short":"frk-7","host":"frk-1.de.uncletopia.com","port":27075,"enabled":true,"region":"eu","cc":"de","latitude":50.110924,"longitude":8.682127,"reserved":0,"last_update":"0001-01-01T00:00:00Z","name_a2s":"Uncletopia | Frankfurt | 7 | Stopwatch Beta","protocol":17,"map":"workshop/koth_ashville_final.ugc2130459942","folder":"tf","game":"Team Fortress","app_id":440,"player_count":0,"max_players":24,"Bots":0,"server_type":"Dedicated","server_os":"Linux","password":true,"vac":true,"version":"7961495","steam_id":85568392924742827,"keywords":["cp","nocrits","nodmgspread","uncletopia"],"game_id":440,"stv_port":27076,"stv_name":"Uncletopia | Frankfurt | 7 | Stopwatch Beta | STV","players":null},{"server_id":24,"name":"Uncletopia | Frankfurt | 8 | Community","name_short":"frk-8","host":"frk-1.de.uncletopia.com","port":27085,"enabled":true,"region":"eu","cc":"de","latitude":50.110924,"longitude":8.682127,"reserved":0,"last_update":"0001-01-01T00:00:00Z","name_a2s":"Uncletopia | Frankfurt | 8 | Community","protocol":17,"map":"cp_process_final","folder":"tf","game":"Team Fortress","app_id":440,"player_count":0,"max_players":24,"Bots":0,"server_type":"Dedicated","server_os":"Linux","password":true,"vac":true,"version":"7961495","steam_id":85568392924742828,"keywords":["cp","nocrits","nodmgspread","uncletopia"],"game_id":440,"stv_port":27086,"stv_name":"Uncletopia | Frankfurt | 8 | Community | STV","players":null},{"server_id":202,"name":"Uncletopia | Hong Kong | 1 | All Maps","name_short":"hgk-1","host":"hgk-1.hk.uncletopia.com","port":27015,"enabled":true,"region":"asia","cc":"hk","latitude":22.302711,"longitude":114.177216,"reserved":0,"last_update":"0001-01-01T00:00:00Z","name_a2s":"Uncletopia | Hong Kong | 1 | All Maps","protocol":17,"map":"pl_barnblitz","folder":"tf","game":"Team Fortress","app_id":440,"player_count":23,"max_players":24,"Bots":0,"server_type":"Dedicated","server_os":"Linux","password":true,"vac":true,"version":"7961495","steam_id":85568392924494504,"keywords":["nocrits","nodmgspread","payload","uncletopia"],"game_id":440,"stv_port":27016,"stv_name":"Uncletopia | Hong Kong | 1 | All Maps | STV","players":[{"user_id":167,"name":"MsD IV","steam_id":76561198059707655,"connected_time":2598000000000,"state":"active","ping":62},{"user_id":159,"name":"Pillboi","steam_id":76561198011172886,"connected_time":3204000000000,"state":"active","ping":41},{"user_id":172,"name":"we ball","steam_id":76561199480939609,"connected_time":2281000000000,"state":"active","ping":76},{"user_id":168,"name":"Oraj√©ed","steam_id":76561199389156980,"connected_time":2596000000000,"state":"active","ping":90},{"user_id":185,"name":"Gordon.Freeman","steam_id":76561198337746852,"connected_time":1320000000000,"state":"active","ping":55},{"user_id":190,"name":"force","steam_id":76561199109339247,"connected_time":614000000000,"state":"active","ping":73},{"user_id":156,"name":"becquerel","steam_id":76561198230213828,"connected_time":3218000000000,"state":"active","ping":60},{"user_id":175,"name":"sierra","steam_id":76561197969873415,"connected_time":2005000000000,"state":"active","ping":98},{"user_id":178,"name":"Samoyed","steam_id":76561198299150410,"connected_time":1974000000000,"state":"active","ping":76},{"user_id":191,"name":"ËçÉÁÅ£Â¢úÂ§©Âú∞ÁçÑÁç∏","steam_id":76561198321885643,"connected_time":387000000000,"state":"active","ping":41},{"user_id":189,"name":"In(e)","steam_id":76561198362097007,"connected_time":908000000000,"state":"active","ping":59},{"user_id":192,"name":"NeutralM4sk","steam_id":76561199034346807,"connected_time":343000000000,"state":"active","ping":110},{"user_id":139,"name":"drexe","steam_id":76561198015877517,"connected_time":5614000000000,"state":"active","ping":75},{"user_id":193,"name":"Der Reichtangle","steam_id":76561199108750010,"connected_time":274000000000,"state":"active","ping":145},{"user_id":179,"name":"trcs","steam_id":76561198125946388,"connected_time":1930000000000,"state":"active","ping":100},{"user_id":187,"name":"Dead? That's 500.","steam_id":76561198152588681,"connected_time":1238000000000,"state":"active","ping":84},{"user_id":94,"name":"meowdy","steam_id":76561198337154745,"connected_time":9904000000000,"state":"active","ping":141},{"user_id":195,"name":"Aerotronics","steam_id":76561198821190704,"connected_time":141000000000,"state":"active","ping":138},{"user_id":183,"name":"+","steam_id":76561198121311286,"connected_time":1634000000000,"state":"active","ping":133},{"user_id":61,"name":"bazooka","steam_id":76561198061628689,"connected_time":13197000000000,"state":"active","ping":56},{"user_id":145,"name":"Mystery cheese üßÄ","steam_id":76561198304002409,"connected_time":4958000000000,"state":"active","ping":86},{"user_id":197,"name":"Cock Gobbler [F2P]","steam_id":76561199205335227,"connected_time":80000000000,"state":"active","ping":68},{"user_id":164,"name":"MS PowerPoint","steam_id":76561198369523192,"connected_time":3002000000000,"state":"active","ping":69}]},{"server_id":1,"name":"Uncletopia | Los Angeles | 1 | All Maps","name_short":"lax-1","host":"lax-1.us.uncletopia.com","port":27015,"enabled":true,"region":"us-west","cc":"us","latitude":33.94279,"longitude":-118.41004,"reserved":0,"last_update":"0001-01-01T00:00:00Z","name_a2s":"Uncletopia | Los Angeles | 1 | All Maps","protocol":17,"map":"cp_altitude","folder":"tf","game":"Team Fortress","app_id":440,"player_count":0,"max_players":24,"Bots":0,"server_type":"Dedicated","server_os":"Linux","password":true,"vac":true,"version":"7961495","steam_id":85568392924469991,"keywords":["cp","nocrits","nodmgspread","uncletopia"],"game_id":440,"stv_port":27016,"stv_name":"Uncletopia | Los Angeles | 1 | All Maps | STV","players":null},{"server_id":112,"name":"Uncletopia | Los Angeles | 2 | All Maps","name_short":"lax-2","host":"lax-1.us.uncletopia.com","port":27025,"enabled":true,"region":"us-west","cc":"us","latitude":33.94279,"longitude":-118.41004,"reserved":0,"last_update":"0001-01-01T00:00:00Z","name_a2s":"Uncletopia | Los Angeles | 2 | All Maps","protocol":17,"map":"pl_badwater","folder":"tf","game":"Team Fortress","app_id":440,"player_count":0,"max_players":24,"Bots":0,"server_type":"Dedicated","server_os":"Linux","password":true,"vac":true,"version":"7961495","steam_id":85568392924469992,"keywords":["nocrits","nodmgspread","payload","uncletopia"],"game_id":440,"stv_port":27026,"stv_name":"Uncletopia | Los Angeles | 2 | All Maps | STV","players":null},{"server_id":324,"name":"Uncletopia | Los Angeles | 3 | All Maps","name_short":"lax-3","host":"lax-1.us.uncletopia.com","port":27035,"enabled":true,"region":"us-west","cc":"us","latitude":33.94279,"longitude":-118.41004,"reserved":0,"last_update":"0001-01-01T00:00:00Z","name_a2s":"Uncletopia | Los Angeles | 3 | All Maps","protocol":17,"map":"cp_yukon_final","folder":"tf","game":"Team Fortress","app_id":440,"player_count":0,"max_players":24,"Bots":0,"server_type":"Dedicated","server_os":"Linux","password":true,"vac":true,"version":"7961495","steam_id":85568392924510198,"keywords":["cp","nocrits","nodmgspread","uncletopia"],"game_id":440,"stv_port":27036,"stv_name":"Uncletopia | Los Angeles | 3 | All Maps | STV","players":null},{"server_id":25,"name":"Uncletopia | Los Angeles | 4 | Stopwatch Beta","name_short":"lax-4","host":"lax-1.us.uncletopia.com","port":27045,"enabled":true,"region":"us-west","cc":"us","latitude":33.94279,"longitude":-118.41004,"reserved":0,"last_update":"0001-01-01T00:00:00Z","name_a2s":"Uncletopia | Los Angeles | 4 | Stopwatch Beta","protocol":17,"map":"koth_lakeside_final","folder":"tf","game":"Team Fortress","app_id":440,"player_count":0,"max_players":24,"Bots":0,"server_type":"Dedicated","server_os":"Linux","password":true,"vac":true,"version":"7961495","steam_id":85568392924510199,"keywords":["cp","nocrits","nodmgspread","uncletopia"],"game_id":440,"stv_port":27046,"stv_name":"Uncletopia | Los Angeles | 4 | Stopwatch Beta | STV","players":null},{"server_id":11,"name":"Uncletopia | London | 1 | All Maps","name_short":"lon-1","host":"lon-1.uk.uncletopia.com","port":27015,"enabled":true,"region":"eu","cc":"gb","latitude":51.509865,"longitude":-0.118092,"reserved":0,"last_update":"0001-01-01T00:00:00Z","name_a2s":"Uncletopia | London | 1 | All Maps","protocol":17,"map":"pl_pier","folder":"tf","game":"Team Fortress","app_id":440,"player_count":21,"max_players":24,"Bots":0,"server_type":"Dedicated","server_os":"Linux","password":true,"vac":true,"version":"7961495","steam_id":85568392924367362,"keywords":["nocrits","nodmgspread","payload","uncletopia"],"game_id":440,"stv_port":27016,"stv_name":"Uncletopia | London | 1 | All Maps | STV","players":[{"user_id":46,"name":"Quiet Kid","steam_id":76561199134800446,"connected_time":10824000000000,"state":"connecting","ping":136},{"user_id":179,"name":"ttv/cosmeticall","steam_id":76561198444036574,"connected_time":1382000000000,"state":"connecting","ping":79},{"user_id":192,"name":"TriR–ò–å","steam_id":76561198119622375,"connected_time":235000000000,"state":"connecting","ping":113},{"user_id":193,"name":"Alpaca","steam_id":76561198029839079,"connected_time":209000000000,"state":"spawning","ping":57},{"user_id":181,"name":"hans from lumbridge","steam_id":76561198031573426,"connected_time":1252000000000,"state":"connecting","ping":88},{"user_id":186,"name":"Frog_Meme_Laugh.mp4","steam_id":76561198798803845,"connected_time":739000000000,"state":"connecting","ping":62},{"user_id":195,"name":"Raulca25","steam_id":76561199068256964,"connected_time":150000000000,"state":"connecting","ping":104},{"user_id":183,"name":"THE Grosser","steam_id":76561197995530666,"connected_time":1108000000000,"state":"connecting","ping":80},{"user_id":176,"name":"Lilypadio","steam_id":76561198090146457,"connected_time":1659000000000,"state":"connecting","ping":56},{"user_id":191,"name":"an","steam_id":76561198049460724,"connected_time":273000000000,"state":"connecting","ping":113},{"user_id":190,"name":"Jimmi Amareno","steam_id":76561198327750625,"connected_time":398000000000,"state":"connecting","ping":48},{"user_id":159,"name":"K'aax Itzam","steam_id":76561198044024509,"connected_time":2940000000000,"state":"connecting","ping":64},{"user_id":202,"name":"thorn648","steam_id":76561198012565777,"connected_time":19000000000,"state":"connecting","ping":175},{"user_id":188,"name":"Incitive","steam_id":76561198276159637,"connected_time":427000000000,"state":"connecting","ping":88},{"user_id":194,"name":"PingouinPoilu","steam_id":76561198025089253,"connected_time":164000000000,"state":"spawning","ping":78},{"user_id":197,"name":"Rengii76","steam_id":76561198869802076,"connected_time":120000000000,"state":"connecting","ping":83},{"user_id":175,"name":"After8","steam_id":76561198090750865,"connected_time":1773000000000,"state":"connecting","ping":79},{"user_id":201,"name":"Capybara lover","steam_id":76561198021333794,"connected_time":33000000000,"state":"connecting","ping":92},{"user_id":189,"name":"Kahvi","steam_id":76561198723244199,"connected_time":427000000000,"state":"connecting","ping":94},{"user_id":153,"name":"sangth","steam_id":76561198032787233,"connected_time":3764000000000,"state":"connecting","ping":85},{"user_id":154,"name":"lunaire","steam_id":76561198163344452,"connected_time":3740000000000,"state":"connecting","ping":112}]},{"server_id":114,"name":"Uncletopia | London | 2 | All Maps","name_short":"lon-2","host":"lon-1.uk.uncletopia.com","port":27025,"enabled":true,"region":"eu","cc":"gb","latitude":51.509865,"longitude":-0.118092,"reserved":0,"last_update":"0001-01-01T00:00:00Z","name_a2s":"Uncletopia | London | 2 | All Maps","protocol":17,"map":"pl_barnblitz","folder":"tf","game":"Team Fortress","app_id":440,"player_count":22,"max_players":24,"Bots":0,"server_type":"Dedicated","server_os":"Linux","password":true,"vac":true,"version":"7961495","steam_id":85568392924470941,"keywords":["nocrits","nodmgspread","payload","uncletopia"],"game_id":440,"stv_port":27026,"stv_name":"Uncletopia | London | 2 | All Maps | STV","players":[{"user_id":266,"name":"LOBZIK","steam_id":76561198114830120,"connected_time":1175000000000,"state":"active","ping":76},{"user_id":276,"name":"Walgon","steam_id":76561198073393489,"connected_time":194000000000,"state":"active","ping":66},{"user_id":282,"name":"vaginal bruising","steam_id":76561198051053187,"connected_time":45000000000,"state":"active","ping":55},{"user_id":278,"name":"summer","steam_id":76561198170056395,"connected_time":90000000000,"state":"active","ping":46},{"user_id":242,"name":"Mr_Pulse_","steam_id":76561198095001602,"connected_time":3272000000000,"state":"active","ping":97},{"user_id":280,"name":"MR.PizzaRoles","steam_id":76561199068248901,"connected_time":74000000000,"state":"active","ping":90},{"user_id":275,"name":"RLCrazyCat3","steam_id":76561197983757878,"connected_time":289000000000,"state":"active","ping":56},{"user_id":270,"name":"Bread 0f Box","steam_id":76561198165594721,"connected_time":1145000000000,"state":"active","ping":56},{"user_id":245,"name":"Master Of Noob","steam_id":76561198217926783,"connected_time":3080000000000,"state":"active","ping":78},{"user_id":268,"name":"Mr. Luigi","steam_id":76561198167312951,"connected_time":1156000000000,"state":"active","ping":40},{"user_id":279,"name":"blonde furry femboy","steam_id":76561198273361428,"connected_time":80000000000,"state":"active","ping":69},{"user_id":238,"name":"sweaterfan","steam_id":76561199389567214,"connected_time":3557000000000,"state":"active","ping":136},{"user_id":158,"name":"G/3","steam_id":76561198234844188,"connected_time":8048000000000,"state":"active","ping":56},{"user_id":273,"name":"Sir Cauterize","steam_id":76561198047079422,"connected_time":708000000000,"state":"active","ping":52},{"user_id":271,"name":"Tort","steam_id":76561198329646769,"connected_time":1141000000000,"state":"active","ping":55},{"user_id":272,"name":"Narvhal√∏","steam_id":76561198147495474,"connected_time":1138000000000,"state":"active","ping":40},{"user_id":281,"name":"Malik794","steam_id":76561198967164437,"connected_time":62000000000,"state":"active","ping":114},{"user_id":283,"name":"Odyssey","steam_id":76561198085086145,"connected_time":44000000000,"state":"active","ping":64},{"user_id":252,"name":"Not Velikan","steam_id":76561198842670241,"connected_time":2395000000000,"state":"active","ping":75},{"user_id":243,"name":"MK-Ultra Violence","steam_id":76561198081328238,"connected_time":3135000000000,"state":"active","ping":74},{"user_id":214,"name":"Rocket Queen's consort","steam_id":76561198092995429,"connected_time":5162000000000,"state":"active","ping":135},{"user_id":258,"name":"El-boba 13","steam_id":76561199062121199,"connected_time":2015000000000,"state":"active","ping":86}]},{"server_id":320,"name":"Uncletopia | London | 3 | All Maps","name_short":"lon-3","host":"lon-1.uk.uncletopia.com","port":27035,"enabled":true,"region":"eu","cc":"gb","latitude":51.509865,"longitude":-0.118092,"reserved":0,"last_update":"0001-01-01T00:00:00Z","name_a2s":"Uncletopia | London | 3 | All Maps","protocol":17,"map":"pl_frontier_final","folder":"tf","game":"Team Fortress","app_id":440,"player_count":24,"max_players":24,"Bots":0,"server_type":"Dedicated","server_os":"Linux","password":true,"vac":true,"version":"7961495","steam_id":85568392924510192,"keywords":["nocrits","nodmgspread","payload","uncletopia"],"game_id":440,"stv_port":27036,"stv_name":"Uncletopia | London | 3 | All Maps | STV","players":[{"user_id":29,"name":"FlukeY","steam_id":76561198026137327,"connected_time":3589000000000,"state":"active","ping":61},{"user_id":74,"name":"Soerlssoelss√∂en","steam_id":76561197993060585,"connected_time":2091000000000,"state":"active","ping":76},{"user_id":75,"name":"Qwertuss","steam_id":76561198026305366,"connected_time":2049000000000,"state":"active","ping":61},{"user_id":41,"name":"Random Romain","steam_id":76561198355825319,"connected_time":3092000000000,"state":"active","ping":72},{"user_id":45,"name":"Mandele","steam_id":76561199183213205,"connected_time":3036000000000,"state":"active","ping":58},{"user_id":77,"name":"Fritz","steam_id":76561198129181164,"connected_time":1776000000000,"state":"active","ping":62},{"user_id":93,"name":"Sign up to give bone marrow!","steam_id":76561198055363275,"connected_time":139000000000,"state":"active","ping":38},{"user_id":78,"name":"b33tl3","steam_id":76561198418417451,"connected_time":1189000000000,"state":"active","ping":44},{"user_id":89,"name":"Sylvanas","steam_id":76561198154904165,"connected_time":336000000000,"state":"active","ping":110},{"user_id":88,"name":"stoneflower","steam_id":76561198046250873,"connected_time":388000000000,"state":"active","ping":84},{"user_id":81,"name":"bruh","steam_id":76561198109262927,"connected_time":862000000000,"state":"active","ping":79},{"user_id":91,"name":"Brinier","steam_id":76561199012604288,"connected_time":262000000000,"state":"active","ping":70},{"user_id":90,"name":"Octavia (She/Her)","steam_id":76561198181291454,"connected_time":277000000000,"state":"active","ping":94},{"user_id":46,"name":"Cosmetic brain","steam_id":76561198055936410,"connected_time":3018000000000,"state":"active","ping":87},{"user_id":65,"name":"Sch","steam_id":76561198071341689,"connected_time":2466000000000,"state":"active","ping":64},{"user_id":40,"name":"Husseinberg","steam_id":76561198388750592,"connected_time":3142000000000,"state":"active","ping":68},{"user_id":76,"name":"Fagette","steam_id":76561198165878858,"connected_time":1982000000000,"state":"active","ping":84},{"user_id":48,"name":"Barry Bee Benson","steam_id":76561198115199225,"connected_time":2983000000000,"state":"active","ping":59},{"user_id":67,"name":"Nobaddy","steam_id":76561198037871007,"connected_time":2448000000000,"state":"active","ping":86},{"user_id":79,"name":"Hey, I¬¥m Andy!","steam_id":76561198060337777,"connected_time":1175000000000,"state":"active","ping":89},{"user_id":83,"name":"Civil Melon","steam_id":76561198988309618,"connected_time":831000000000,"state":"active","ping":75},{"user_id":92,"name":"Mantra","steam_id":76561198058505094,"connected_time":262000000000,"state":"active","ping":100},{"user_id":55,"name":"fregaropa","steam_id":76561198150806166,"connected_time":2876000000000,"state":"active","ping":79},{"user_id":87,"name":"germinator","steam_id":76561199387893648,"connected_time":787000000000,"state":"active","ping":102}]},{"server_id":321,"name":"Uncletopia | London | 4 | All Maps","name_short":"lon-4","host":"lon-1.uk.uncletopia.com","port":27045,"enabled":true,"region":"eu","cc":"gb","latitude":51.509865,"longitude":-0.118092,"reserved":0,"last_update":"0001-01-01T00:00:00Z","name_a2s":"Uncletopia | London | 4 | All Maps","protocol":17,"map":"koth_cascade","folder":"tf","game":"Team Fortress","app_id":440,"player_count":0,"max_players":24,"Bots":0,"server_type":"Dedicated","server_os":"Linux","password":true,"vac":true,"version":"7961495","steam_id":85568392924510193,"keywords":["cp","nocrits","nodmgspread","uncletopia"],"game_id":440,"stv_port":27046,"stv_name":"Uncletopia | London | 4 | All Maps | STV","players":null},{"server_id":21,"name":"Uncletopia | London | 5 | All Maps","name_short":"lon-5","host":"lon-1.uk.uncletopia.com","port":27055,"enabled":true,"region":"eu","cc":"gb","latitude":51.509865,"longitude":-0.118092,"reserved":0,"last_update":"0001-01-01T00:00:00Z","name_a2s":"Uncletopia | London | 5 | All Maps","protocol":17,"map":"pl_frontier_final","folder":"tf","game":"Team Fortress","app_id":440,"player_count":0,"max_players":24,"Bots":0,"server_type":"Dedicated","server_os":"Linux","password":true,"vac":true,"version":"7961495","steam_id":85568392924742829,"keywords":["nocrits","nodmgspread","payload","uncletopia"],"game_id":440,"stv_port":27056,"stv_name":"Uncletopia | London | 5 | All Maps | STV","players":null},{"server_id":22,"name":"Uncletopia | London | 6 | All Maps","name_short":"lon-6","host":"lon-1.uk.uncletopia.com","port":27065,"enabled":true,"region":"eu","cc":"gb","latitude":51.509865,"longitude":-0.118092,"reserved":0,"last_update":"0001-01-01T00:00:00Z","name_a2s":"Uncletopia | London | 6 | All Maps","protocol":17,"map":"koth_lakeside_final","folder":"tf","game":"Team Fortress","app_id":440,"player_count":0,"max_players":24,"Bots":0,"server_type":"Dedicated","server_os":"Linux","password":true,"vac":true,"version":"7961495","steam_id":85568392924742830,"keywords":["cp","nocrits","nodmgspread","uncletopia"],"game_id":440,"stv_port":27066,"stv_name":"Uncletopia | London | 6 | All Maps | STV","players":null},{"server_id":40,"name":"Uncletopia | London | 7 | No Payload","name_short":"lon-7","host":"lon-1.uk.uncletopia.com","port":27075,"enabled":true,"region":"eu","cc":"gb","latitude":51.509865,"longitude":-0.118092,"reserved":0,"last_update":"0001-01-01T00:00:00Z","name_a2s":"Uncletopia | London | 7 | No Payload","protocol":17,"map":"pl_snowycoast","folder":"tf","game":"Team Fortress","app_id":440,"player_count":0,"max_players":24,"Bots":0,"server_type":"Dedicated","server_os":"Linux","password":true,"vac":true,"version":"7961495","steam_id":85568392924964314,"keywords":["nocrits","nodmgspread","payload","uncletopia"],"game_id":440,"stv_port":27076,"stv_name":"Uncletopia | London | 7 | No Payload | STV","players":null},{"server_id":41,"name":"Uncletopia | London | 8 | Community","name_short":"lon-8","host":"lon-1.uk.uncletopia.com","port":27085,"enabled":true,"region":"eu","cc":"gb","latitude":51.509865,"longitude":-0.118092,"reserved":0,"last_update":"0001-01-01T00:00:00Z","name_a2s":"Uncletopia | London | 8 | Community","protocol":17,"map":"koth_viaduct","folder":"tf","game":"Team Fortress","app_id":440,"player_count":0,"max_players":24,"Bots":0,"server_type":"Dedicated","server_os":"Linux","password":true,"vac":true,"version":"7961495","steam_id":85568392924964315,"keywords":["cp","nocrits","nodmgspread","uncletopia"],"game_id":440,"stv_port":27086,"stv_name":"Uncletopia | London | 8 | Community | STV","players":null},{"server_id":300,"name":"Uncletopia | Montr√©al | 1 | All Maps","name_short":"mtl-1","host":"mtl-1.ca.uncletopia.com","port":27015,"enabled":true,"region":"us-east","cc":"ca","latitude":45.50889,"longitude":-73.56167,"reserved":0,"last_update":"0001-01-01T00:00:00Z","name_a2s":"Uncletopia | Montr√©al | 1 | All Maps","protocol":17,"map":"koth_cascade","folder":"tf","game":"Team Fortress","app_id":440,"player_count":0,"max_players":24,"Bots":0,"server_type":"Dedicated","server_os":"Linux","password":true,"vac":true,"version":"7961495","steam_id":85568392924500087,"keywords":["cp","nocrits","nodmgspread","uncletopia"],"game_id":440,"stv_port":27016,"stv_name":"Uncletopia | Montr√©al | 1 | All Maps | STV","players":null},{"server_id":301,"name":"Uncletopia | Montr√©al | 2 | All Maps","name_short":"mtl-2","host":"mtl-1.ca.uncletopia.com","port":27025,"enabled":true,"region":"us-east","cc":"ca","latitude":45.50889,"longitude":-73.56167,"reserved":0,"last_update":"0001-01-01T00:00:00Z","name_a2s":"Uncletopia | Montr√©al | 2 | All Maps","protocol":17,"map":"pl_frontier_final","folder":"tf","game":"Team Fortress","app_id":440,"player_count":0,"max_players":24,"Bots":0,"server_type":"Dedicated","server_os":"Linux","password":true,"vac":true,"version":"7961495","steam_id":85568392924500088,"keywords":["nocrits","nodmgspread","payload","uncletopia"],"game_id":440,"stv_port":27026,"stv_name":"Uncletopia | Montr√©al | 2 | All Maps | STV","players":null},{"server_id":302,"name":"Uncletopia | Montr√©al | 3 | All Maps","name_short":"mtl-3","host":"mtl-1.ca.uncletopia.com","port":27035,"enabled":true,"region":"us-east","cc":"ca","latitude":45.50889,"longitude":-73.56167,"reserved":0,"last_update":"0001-01-01T00:00:00Z","name_a2s":"Uncletopia | Montr√©al | 3 | All Maps","protocol":17,"map":"pl_upward","folder":"tf","game":"Team Fortress","app_id":440,"player_count":0,"max_players":24,"Bots":0,"server_type":"Dedicated","server_os":"Linux","password":true,"vac":true,"version":"7961495","steam_id":85568392924500089,"keywords":["nocrits","nodmgspread","payload","uncletopia"],"game_id":440,"stv_port":27036,"stv_name":"Uncletopia | Montr√©al | 3 | All Maps | STV","players":null},{"server_id":303,"name":"Uncletopia | Montr√©al | 4 | No Payload","name_short":"mtl-4","host":"mtl-1.ca.uncletopia.com","port":27045,"enabled":true,"region":"us-east","cc":"ca","latitude":45.50889,"longitude":-73.56167,"reserved":0,"last_update":"0001-01-01T00:00:00Z","name_a2s":"Uncletopia | Montr√©al | 4 | No Payload","protocol":17,"map":"cp_mountainlab","folder":"tf","game":"Team Fortress","app_id":440,"player_count":0,"max_players":24,"Bots":0,"server_type":"Dedicated","server_os":"Linux","password":true,"vac":true,"version":"7961495","steam_id":85568392924500090,"keywords":["cp","nocrits","nodmgspread","uncletopia"],"game_id":440,"stv_port":27046,"stv_name":"Uncletopia | Montr√©al | 4 | No Payload | STV","players":null},{"server_id":13,"name":"Uncletopia | New York City | 1 | All Maps","name_short":"nyc-1","host":"nyc-1.us.uncletopia.com","port":27015,"enabled":true,"region":"us-east","cc":"us","latitude":40.73061,"longitude":-73.93524,"reserved":0,"last_update":"0001-01-01T00:00:00Z","name_a2s":"Uncletopia | New York City | 1 | All Maps","protocol":17,"map":"cp_sunshine","folder":"tf","game":"Team Fortress","app_id":440,"player_count":0,"max_players":24,"Bots":0,"server_type":"Dedicated","server_os":"Linux","password":true,"vac":true,"version":"7961495","steam_id":85568392924469993,"keywords":["cp","nocrits","nodmgspread","uncletopia"],"game_id":440,"stv_port":27016,"stv_name":"Uncletopia | New York City | 1 | All Maps | STV","players":null},{"server_id":14,"name":"Uncletopia | New York City | 2 | All Maps","name_short":"nyc-2","host":"nyc-1.us.uncletopia.com","port":27025,"enabled":true,"region":"us-east","cc":"us","latitude":40.73061,"longitude":-73.93524,"reserved":0,"last_update":"0001-01-01T00:00:00Z","name_a2s":"Uncletopia | New York City | 2 | All Maps","protocol":17,"map":"pl_snowycoast","folder":"tf","game":"Team Fortress","app_id":440,"player_count":0,"max_players":24,"Bots":0,"server_type":"Dedicated","server_os":"Linux","password":true,"vac":true,"version":"7961495","steam_id":85568392924469994,"keywords":["nocrits","nodmgspread","payload","uncletopia"],"game_id":440,"stv_port":27026,"stv_name":"Uncletopia | New York City | 2 | All Maps | STV","players":null},{"server_id":15,"name":"Uncletopia | New York City | 3 | Stopwatch Beta","name_short":"nyc-3","host":"nyc-1.us.uncletopia.com","port":27035,"enabled":true,"region":"us-east","cc":"us","latitude":40.73061,"longitude":-73.93524,"reserved":0,"last_update":"0001-01-01T00:00:00Z","name_a2s":"Uncletopia | New York City | 3 | Stopwatch Beta","protocol":17,"map":"koth_lakeside_final","folder":"tf","game":"Team Fortress","app_id":440,"player_count":0,"max_players":24,"Bots":0,"server_type":"Dedicated","server_os":"Linux","password":true,"vac":true,"version":"7961495","steam_id":85568392924742820,"keywords":["cp","nocrits","nodmgspread","uncletopia"],"game_id":440,"stv_port":27036,"stv_name":"Uncletopia | New York City | 3 | Stopwatch Beta | STV","players":null},{"server_id":16,"name":"Uncletopia | New York City | 4 | Community","name_short":"nyc-4","host":"nyc-1.us.uncletopia.com","port":27045,"enabled":true,"region":"us-east","cc":"us","latitude":40.73061,"longitude":-73.93524,"reserved":0,"last_update":"0001-01-01T00:00:00Z","name_a2s":"Uncletopia | New York City | 4 | Community","protocol":17,"map":"pl_frontier_final","folder":"tf","game":"Team Fortress","app_id":440,"player_count":0,"max_players":24,"Bots":0,"server_type":"Dedicated","server_os":"Linux","password":true,"vac":true,"version":"7961495","steam_id":85568392924742821,"keywords":["nocrits","nodmgspread","payload","uncletopia"],"game_id":440,"stv_port":27046,"stv_name":"Uncletopia | New York City | 4 | Community | STV","players":null},{"server_id":142,"name":"Uncletopia | S√£o Paulo | 1 | All Maps","name_short":"sao-1","host":"sao-1.br.uncletopia.com","port":27015,"enabled":true,"region":"sa","cc":"br","latitude":-23.533773,"longitude":-46.62529,"reserved":0,"last_update":"0001-01-01T00:00:00Z","name_a2s":"Uncletopia | S√£o Paulo | 1 | All Maps","protocol":17,"map":"pl_upward","folder":"tf","game":"Team Fortress","app_id":440,"player_count":0,"max_players":24,"Bots":0,"server_type":"Dedicated","server_os":"Linux","password":true,"vac":true,"version":"7961495","steam_id":85568392924469996,"keywords":["nocrits","nodmgspread","payload","uncletopia"],"game_id":440,"stv_port":27016,"stv_name":"Uncletopia | S√£o Paulo | 1 | All Maps | STV","players":null},{"server_id":143,"name":"Uncletopia | S√£o Paulo | 2 | All Maps","name_short":"sao-2","host":"sao-2.br.uncletopia.com","port":27015,"enabled":true,"region":"sa","cc":"br","latitude":-23.533773,"longitude":-46.62529,"reserved":0,"last_update":"0001-01-01T00:00:00Z","name_a2s":"Uncletopia | S√£o Paulo | 2 | All Maps","protocol":17,"map":"koth_cascade","folder":"tf","game":"Team Fortress","app_id":440,"player_count":0,"max_players":24,"Bots":0,"server_type":"Dedicated","server_os":"Linux","password":true,"vac":true,"version":"7961495","steam_id":85568392924485349,"keywords":["cp","nocrits","nodmgspread","uncletopia"],"game_id":440,"stv_port":27016,"stv_name":"Uncletopia | S√£o Paulo | 2 | All Maps | STV","players":null},{"server_id":7,"name":"Uncletopia | Seattle | 1 | All Maps","name_short":"sea-1","host":"sea-1.us.uncletopia.com","port":27015,"enabled":true,"region":"us-west","cc":"us","latitude":47.608013,"longitude":-122.33517,"reserved":0,"last_update":"0001-01-01T00:00:00Z","name_a2s":"Uncletopia | Seattle | 1 | All Maps","protocol":17,"map":"cp_altitude","folder":"tf","game":"Team Fortress","app_id":440,"player_count":0,"max_players":24,"Bots":0,"server_type":"Dedicated","server_os":"Linux","password":true,"vac":true,"version":"7961495","steam_id":85568392924469997,"keywords":["cp","nocrits","nodmgspread","uncletopia"],"game_id":440,"stv_port":27016,"stv_name":"Uncletopia | Seattle | 1 | All Maps | STV","players":null},{"server_id":119,"name":"Uncletopia | Seattle | 2 | All Maps","name_short":"sea-2","host":"sea-1.us.uncletopia.com","port":27025,"enabled":true,"region":"us-west","cc":"us","latitude":47.608013,"longitude":-122.33517,"reserved":0,"last_update":"0001-01-01T00:00:00Z","name_a2s":"Uncletopia | Seattle | 2 | All Maps","protocol":17,"map":"pl_upward","folder":"tf","game":"Team Fortress","app_id":440,"player_count":24,"max_players":24,"Bots":0,"server_type":"Dedicated","server_os":"Linux","password":true,"vac":true,"version":"7961495","steam_id":85568392924469998,"keywords":["nocrits","nodmgspread","payload","uncletopia"],"game_id":440,"stv_port":27026,"stv_name":"Uncletopia | Seattle | 2 | All Maps | STV","players":[{"user_id":504,"name":"gamer_cruncher","steam_id":76561198973306314,"connected_time":4221000000000,"state":"active","ping":71},{"user_id":543,"name":"OctraSource","steam_id":76561198193630455,"connected_time":732000000000,"state":"active","ping":71},{"user_id":545,"name":"Ex-PFC Wintergreen","steam_id":76561198203851303,"connected_time":619000000000,"state":"active","ping":69},{"user_id":546,"name":"0akmask","steam_id":76561198239584280,"connected_time":561000000000,"state":"active","ping":84},{"user_id":547,"name":"goopgrabber","steam_id":76561199029951083,"connected_time":560000000000,"state":"active","ping":61},{"user_id":553,"name":"Mr defrost","steam_id":76561198322125657,"connected_time":68000000000,"state":"active","ping":69},{"user_id":520,"name":"basilthenasa","steam_id":76561199388111764,"connected_time":1984000000000,"state":"active","ping":144},{"user_id":550,"name":"LilShaggy","steam_id":76561199050270312,"connected_time":231000000000,"state":"active","ping":63},{"user_id":542,"name":"Samantha UwUwU \u003c333","steam_id":76561198176786799,"connected_time":956000000000,"state":"active","ping":98},{"user_id":523,"name":"d","steam_id":76561198066114874,"connected_time":1686000000000,"state":"active","ping":59},{"user_id":498,"name":"Buffalo Gold","steam_id":76561198119693806,"connected_time":4636000000000,"state":"active","ping":72},{"user_id":535,"name":"Ducky","steam_id":76561198818373501,"connected_time":1507000000000,"state":"active","ping":130},{"user_id":418,"name":"AvapXia","steam_id":76561198147476096,"connected_time":10561000000000,"state":"active","ping":68},{"user_id":541,"name":"Jimmy","steam_id":76561198857959855,"connected_time":1127000000000,"state":"active","ping":74},{"user_id":530,"name":"novacaine","steam_id":76561198149443710,"connected_time":1590000000000,"state":"active","ping":75},{"user_id":549,"name":"Puppeteer","steam_id":76561198159928108,"connected_time":249000000000,"state":"active","ping":59},{"user_id":551,"name":"obese farts","steam_id":76561198206922028,"connected_time":163000000000,"state":"active","ping":75},{"user_id":537,"name":"the meat man","steam_id":76561198037921140,"connected_time":1291000000000,"state":"active","ping":64},{"user_id":552,"name":"CheeseCake488","steam_id":76561199407617942,"connected_time":136000000000,"state":"active","ping":132},{"user_id":544,"name":"enzowolf10","steam_id":76561198028696728,"connected_time":672000000000,"state":"active","ping":113},{"user_id":499,"name":"RmBLe","steam_id":76561198150137369,"connected_time":4450000000000,"state":"active","ping":80},{"user_id":529,"name":"Neo Kojiro","steam_id":76561198000967076,"connected_time":1603000000000,"state":"active","ping":137},{"user_id":532,"name":"Drapph","steam_id":76561199384213314,"connected_time":1558000000000,"state":"active","ping":103},{"user_id":539,"name":"porksoda","steam_id":76561198021451377,"connected_time":1274000000000,"state":"active","ping":49}]},{"server_id":406,"name":"Uncletopia | Seattle | 3 | Stopwatch Beta","name_short":"sea-3","host":"sea-1.us.uncletopia.com","port":27035,"enabled":true,"region":"us-west","cc":"us","latitude":47.608013,"longitude":-122.33517,"reserved":0,"last_update":"0001-01-01T00:00:00Z","name_a2s":"Uncletopia | Seattle | 3 | Stopwatch Beta","protocol":17,"map":"koth_highpass","folder":"tf","game":"Team Fortress","app_id":440,"player_count":0,"max_players":24,"Bots":0,"server_type":"Dedicated","server_os":"Linux","password":true,"vac":true,"version":"7961495","steam_id":85568392924515217,"keywords":["cp","nocrits","nodmgspread","uncletopia"],"game_id":440,"stv_port":27036,"stv_name":"Uncletopia | Seattle | 3 | Stopwatch Beta | STV","players":null},{"server_id":17,"name":"Uncletopia | San Francisco | 1 | All Maps","name_short":"sfo-1","host":"sfo-1.us.uncletopia.com","port":27015,"enabled":true,"region":"us-west","cc":"us","latitude":37.77397,"longitude":-122.4313,"reserved":0,"last_update":"0001-01-01T00:00:00Z","name_a2s":"Uncletopia | San Francisco | 1 | All Maps","protocol":17,"map":"pl_frontier_final","folder":"tf","game":"Team Fortress","app_id":440,"player_count":0,"max_players":24,"Bots":0,"server_type":"Dedicated","server_os":"Linux","password":true,"vac":true,"version":"7932396","steam_id":85568392924469999,"keywords":["nocrits","nodmgspread","payload","uncletopia"],"game_id":440,"stv_port":27016,"stv_name":"Uncletopia | San Francisco | 1 | All Maps | STV","players":null},{"server_id":18,"name":"Uncletopia | San Francisco | 2 | All Maps","name_short":"sfo-2","host":"sfo-1.us.uncletopia.com","port":27025,"enabled":true,"region":"us-west","cc":"us","latitude":37.77397,"longitude":-122.4313,"reserved":0,"last_update":"0001-01-01T00:00:00Z","name_a2s":"Uncletopia | San Francisco | 2 | All Maps","protocol":17,"map":"cp_snakewater_final1","folder":"tf","game":"Team Fortress","app_id":440,"player_count":0,"max_players":24,"Bots":0,"server_type":"Dedicated","server_os":"Linux","password":true,"vac":true,"version":"7932396","steam_id":85568392924470000,"keywords":["cp","nocrits","nodmgspread","uncletopia"],"game_id":440,"stv_port":27026,"stv_name":"Uncletopia | San Francisco | 2 | All Maps | STV","players":null},{"server_id":19,"name":"Uncletopia | San Francisco | 3 | Stopwatch Beta","name_short":"sfo-3","host":"sfo-1.us.uncletopia.com","port":27035,"enabled":true,"region":"us-west","cc":"us","latitude":37.77397,"longitude":-122.4313,"reserved":0,"last_update":"0001-01-01T00:00:00Z","name_a2s":"Uncletopia | San Francisco | 3 | Stopwatch Beta","protocol":17,"map":"koth_lakeside_final","folder":"tf","game":"Team Fortress","app_id":440,"player_count":0,"max_players":24,"Bots":0,"server_type":"Dedicated","server_os":"Linux","password":true,"vac":true,"version":"7932396","steam_id":85568392924742824,"keywords":["cp","nocrits","nodmgspread","uncletopia"],"game_id":440,"stv_port":27036,"stv_name":"Uncletopia | San Francisco | 3 | Stopwatch Beta | STV","players":null},{"server_id":20,"name":"Uncletopia | San Francisco | 4 | Community","name_short":"sfo-4","host":"sfo-1.us.uncletopia.com","port":27045,"enabled":true,"region":"us-west","cc":"us","latitude":37.77397,"longitude":-122.4313,"reserved":0,"last_update":"0001-01-01T00:00:00Z","name_a2s":"Uncletopia | San Francisco | 4 | Community","protocol":17,"map":"pl_borneo","folder":"tf","game":"Team Fortress","app_id":440,"player_count":0,"max_players":24,"Bots":0,"server_type":"Dedicated","server_os":"Linux","password":true,"vac":true,"version":"7932396","steam_id":85568392924742826,"keywords":["nocrits","nodmgspread","payload","uncletopia"],"game_id":440,"stv_port":27046,"stv_name":"Uncletopia | San Francisco | 4 | Community | STV","players":null},{"server_id":141,"name":"Uncletopia | Sydney | 1 | All Maps","name_short":"syd-1","host":"syd-1.au.uncletopia.com","port":27015,"enabled":true,"region":"au","cc":"au","latitude":-33.865143,"longitude":151.2099,"reserved":0,"last_update":"0001-01-01T00:00:00Z","name_a2s":"Uncletopia | Sydney | 1 | All Maps","protocol":17,"map":"koth_harvest_final","folder":"tf","game":"Team Fortress","app_id":440,"player_count":24,"max_players":24,"Bots":0,"server_type":"Dedicated","server_os":"Linux","password":true,"vac":true,"version":"7961495","steam_id":85568392924470001,"keywords":["cp","nocrits","nodmgspread","uncletopia"],"game_id":440,"stv_port":27016,"stv_name":"Uncletopia | Sydney | 1 | All Maps | STV","players":[{"user_id":257,"name":"Sentry Gun (EpicGuy4227)","steam_id":76561198094132328,"connected_time":6985000000000,"state":"active","ping":53},{"user_id":315,"name":"Physkal","steam_id":76561198072140363,"connected_time":1167000000000,"state":"active","ping":70},{"user_id":317,"name":"sf/k","steam_id":76561198047758776,"connected_time":937000000000,"state":"active","ping":45},{"user_id":294,"name":"Penguin Wielder","steam_id":76561198169038889,"connected_time":2943000000000,"state":"active","ping":59},{"user_id":263,"name":"Pompadouraus","steam_id":76561198327530525,"connected_time":6527000000000,"state":"active","ping":79},{"user_id":295,"name":"Zalovaid","steam_id":76561198238958998,"connected_time":2781000000000,"state":"active","ping":70},{"user_id":297,"name":"APG_Trickz","steam_id":76561198102269783,"connected_time":2479000000000,"state":"active","ping":71},{"user_id":324,"name":"5G Greek","steam_id":76561198116230594,"connected_time":146000000000,"state":"active","ping":57},{"user_id":300,"name":"doctor morbin' (official)","steam_id":76561199365241695,"connected_time":2431000000000,"state":"active","ping":127},{"user_id":304,"name":"bukubukuchagama","steam_id":76561198079873281,"connected_time":2260000000000,"state":"active","ping":53},{"user_id":274,"name":"42","steam_id":76561198184593855,"connected_time":5706000000000,"state":"active","ping":45},{"user_id":321,"name":"1890s Kid","steam_id":76561198071933995,"connected_time":237000000000,"state":"active","ping":65},{"user_id":322,"name":"The Bipolar Express","steam_id":76561198829964330,"connected_time":192000000000,"state":"active","ping":81},{"user_id":291,"name":"Andreas Vesalius","steam_id":76561198950692005,"connected_time":3730000000000,"state":"active","ping":31},{"user_id":319,"name":"PhD in Shoe Shining","steam_id":76561198972095766,"connected_time":365000000000,"state":"active","ping":35},{"user_id":284,"name":"e_o","steam_id":76561198040405520,"connected_time":4769000000000,"state":"active","ping":55},{"user_id":309,"name":"In the face!","steam_id":76561199400467501,"connected_time":1771000000000,"state":"active","ping":101},{"user_id":323,"name":"Naturesshadow","steam_id":76561198011837590,"connected_time":187000000000,"state":"active","ping":71},{"user_id":286,"name":"uven","steam_id":76561198080981482,"connected_time":4296000000000,"state":"active","ping":39},{"user_id":307,"name":"Little Red all grown up","steam_id":76561198054040718,"connected_time":2189000000000,"state":"active","ping":56},{"user_id":237,"name":"ItsSnakey","steam_id":76561199187623513,"connected_time":8736000000000,"state":"active","ping":71},{"user_id":288,"name":"Swimming Champion 1967","steam_id":76561198026225936,"connected_time":3847000000000,"state":"active","ping":102},{"user_id":272,"name":"weezer","steam_id":76561199439508788,"connected_time":5748000000000,"state":"active","ping":65},{"user_id":282,"name":"Crispy","steam_id":76561198081760160,"connected_time":4878000000000,"state":"active","ping":72}]},{"server_id":123,"name":"Uncletopia | Sydney | 2 | All Maps","name_short":"syd-2","host":"syd-1.au.uncletopia.com","port":27025,"enabled":true,"region":"au","cc":"au","latitude":-33.865143,"longitude":151.2099,"reserved":0,"last_update":"0001-01-01T00:00:00Z","name_a2s":"Uncletopia | Sydney | 2 | All Maps","protocol":17,"map":"pl_upward","folder":"tf","game":"Team Fortress","app_id":440,"player_count":24,"max_players":24,"Bots":0,"server_type":"Dedicated","server_os":"Linux","password":true,"vac":true,"version":"7961495","steam_id":85568392924470002,"keywords":["nocrits","nodmgspread","payload","uncletopia"],"game_id":440,"stv_port":27026,"stv_name":"Uncletopia | Sydney | 2 | All Maps | STV","players":[{"user_id":104,"name":"SwoodyJr","steam_id":76561198310412745,"connected_time":1703000000000,"state":"active","ping":67},{"user_id":56,"name":"stroob","steam_id":76561198045320644,"connected_time":3847000000000,"state":"active","ping":53},{"user_id":60,"name":"Eislicht","steam_id":76561198077119864,"connected_time":3766000000000,"state":"active","ping":60},{"user_id":76,"name":"Idiot cat who stacks no paper","steam_id":76561198306965792,"connected_time":2952000000000,"state":"active","ping":80},{"user_id":103,"name":"Selling Anti-Matter for $543","steam_id":76561198070708382,"connected_time":1894000000000,"state":"active","ping":50},{"user_id":113,"name":"fred","steam_id":76561199482732718,"connected_time":799000000000,"state":"active","ping":45},{"user_id":108,"name":"œÄœÅ","steam_id":76561197994226038,"connected_time":1075000000000,"state":"active","ping":45},{"user_id":61,"name":"Gswor","steam_id":76561198123468647,"connected_time":3749000000000,"state":"active","ping":62},{"user_id":62,"name":"Sparky","steam_id":76561198117687688,"connected_time":3745000000000,"state":"active","ping":72},{"user_id":106,"name":"sav","steam_id":76561198058760041,"connected_time":1252000000000,"state":"active","ping":75},{"user_id":77,"name":"Really(DelDavis)","steam_id":76561198153397177,"connected_time":2916000000000,"state":"active","ping":54},{"user_id":70,"name":"silent*","steam_id":76561198134745557,"connected_time":3155000000000,"state":"active","ping":52},{"user_id":115,"name":"A fool of a Took","steam_id":76561198206346672,"connected_time":346000000000,"state":"active","ping":70},{"user_id":116,"name":"slignorbus prongnobbler","steam_id":76561198063481761,"connected_time":116000000000,"state":"active","ping":43},{"user_id":79,"name":"Louis","steam_id":76561198013395847,"connected_time":2885000000000,"state":"active","ping":53},{"user_id":109,"name":"TheCherry","steam_id":76561198062312012,"connected_time":1001000000000,"state":"active","ping":75},{"user_id":100,"name":"whiteshaq","steam_id":76561198131988811,"connected_time":2211000000000,"state":"active","ping":90},{"user_id":83,"name":"Psalm 118:10-17","steam_id":76561198305904806,"connected_time":2840000000000,"state":"active","ping":57},{"user_id":84,"name":"Beangodhiann","steam_id":76561198189663681,"connected_time":2787000000000,"state":"active","ping":65},{"user_id":98,"name":"Curie","steam_id":76561198132928417,"connected_time":2401000000000,"state":"active","ping":60},{"user_id":112,"name":"US Sugar Lobbyist","steam_id":76561198048143510,"connected_time":896000000000,"state":"active","ping":124},{"user_id":102,"name":"Player 3.14","steam_id":76561198016766670,"connected_time":2201000000000,"state":"active","ping":53},{"user_id":118,"name":"Bonker (Pyro for 1 Week)","steam_id":76561198845159846,"connected_time":82000000000,"state":"active","ping":54},{"user_id":90,"name":"Allah's Sleepiest Soldier","steam_id":76561198364851637,"connected_time":2609000000000,"state":"active","ping":65}]},{"server_id":395,"name":"Uncletopia | Sydney | 3 | All Maps","name_short":"syd-3","host":"syd-1.au.uncletopia.com","port":27035,"enabled":true,"region":"au","cc":"au","latitude":-33.865143,"longitude":151.2099,"reserved":0,"last_update":"0001-01-01T00:00:00Z","name_a2s":"Uncletopia | Sydney | 3 | All Maps","protocol":17,"map":"koth_cascade","folder":"tf","game":"Team Fortress","app_id":440,"player_count":0,"max_players":24,"Bots":0,"server_type":"Dedicated","server_os":"Linux","password":true,"vac":true,"version":"7961495","steam_id":85568392925194467,"keywords":["cp","nocrits","nodmgspread","uncletopia"],"game_id":440,"stv_port":27036,"stv_name":"Uncletopia | Sydney | 3 | All Maps | STV","players":null},{"server_id":396,"name":"Uncletopia | Sydney | 4 | All Maps","name_short":"syd-4","host":"syd-1.au.uncletopia.com","port":27045,"enabled":true,"region":"au","cc":"au","latitude":-33.865143,"longitude":151.2099,"reserved":0,"last_update":"0001-01-01T00:00:00Z","name_a2s":"Uncletopia | Sydney | 4 | All Maps","protocol":17,"map":"koth_cascade","folder":"tf","game":"Team Fortress","app_id":440,"player_count":0,"max_players":24,"Bots":0,"server_type":"Dedicated","server_os":"Linux","password":true,"vac":true,"version":"7961495","steam_id":85568392925397958,"keywords":["cp","nocrits","nodmgspread","uncletopia"],"game_id":440,"stv_port":27046,"stv_name":"Uncletopia | Sydney | 4 | All Maps | STV","players":null},{"server_id":58,"name":"Uncletopia | Sydney | 5 | Stopwatch Beta","name_short":"syd-5","host":"syd-1.au.uncletopia.com","port":27055,"enabled":true,"region":"au","cc":"au","latitude":-33.865143,"longitude":151.2099,"reserved":0,"last_update":"0001-01-01T00:00:00Z","name_a2s":"Uncletopia | Sydney | 5 | Stopwatch Beta","protocol":17,"map":"koth_viaduct","folder":"tf","game":"Team Fortress","app_id":440,"player_count":0,"max_players":24,"Bots":0,"server_type":"Dedicated","server_os":"Linux","password":true,"vac":true,"version":"7961495","steam_id":85568392925397959,"keywords":["cp","nocrits","nodmgspread","uncletopia"],"game_id":440,"stv_port":27056,"stv_name":"Uncletopia | Sydney | 5 | Stopwatch Beta | STV","players":null},{"server_id":59,"name":"Uncletopia | Sydney | 6 | Community","name_short":"syd-6","host":"syd-1.au.uncletopia.com","port":27065,"enabled":true,"region":"au","cc":"au","latitude":-33.865143,"longitude":151.2099,"reserved":0,"last_update":"0001-01-01T00:00:00Z","name_a2s":"Uncletopia | Sydney | 6 | Community","protocol":17,"map":"workshop/koth_ramjam_rc1.ugc459778887","folder":"tf","game":"Team Fortress","app_id":440,"player_count":0,"max_players":24,"Bots":0,"server_type":"Dedicated","server_os":"Linux","password":true,"vac":true,"version":"7961495","steam_id":85568392925397960,"keywords":["cp","nocrits","nodmgspread","uncletopia"],"game_id":440,"stv_port":27066,"stv_name":"Uncletopia | Sydney | 6 | Community | STV","players":null},{"server_id":49,"name":"Uncletopia | Warsaw | 1 | All Maps","name_short":"waw-1","host":"waw-1.pl.uncletopia.com","port":27015,"enabled":true,"region":"eu","cc":"pl","latitude":52.2297,"longitude":21.017532,"reserved":0,"last_update":"0001-01-01T00:00:00Z","name_a2s":"","protocol":0,"map":"","folder":"","game":"","app_id":0,"player_count":0,"max_players":0,"Bots":0,"server_type":"","server_os":"","password":false,"vac":false,"version":"","steam_id":0,"keywords":null,"game_id":0,"stv_port":0,"stv_name":"","players":null},{"server_id":50,"name":"Uncletopia | Warsaw | 2 | All Maps","name_short":"waw-2","host":"waw-1.pl.uncletopia.com","port":27025,"enabled":true,"region":"eu","cc":"pl","latitude":52.2297,"longitude":21.017532,"reserved":0,"last_update":"0001-01-01T00:00:00Z","name_a2s":"Uncletopia | Warsaw | 2 | All Maps","protocol":17,"map":"cp_mountainlab","folder":"tf","game":"Team Fortress","app_id":440,"player_count":0,"max_players":24,"Bots":0,"server_type":"Dedicated","server_os":"Linux","password":true,"vac":true,"version":"7961495","steam_id":85568392925397851,"keywords":["cp","nocrits","nodmgspread","uncletopia"],"game_id":440,"stv_port":27026,"stv_name":"Uncletopia | Warsaw | 2 | All Maps | STV","players":null},{"server_id":51,"name":"Uncletopia | Warsaw | 3 | All Maps","name_short":"waw-3","host":"waw-1.pl.uncletopia.com","port":27035,"enabled":true,"region":"eu","cc":"pl","latitude":52.2297,"longitude":21.017532,"reserved":0,"last_update":"0001-01-01T00:00:00Z","name_a2s":"Uncletopia | Warsaw | 3 | All Maps","protocol":17,"map":"cp_mountainlab","folder":"tf","game":"Team Fortress","app_id":440,"player_count":0,"max_players":24,"Bots":0,"server_type":"Dedicated","server_os":"Linux","password":true,"vac":true,"version":"7961495","steam_id":85568392925397852,"keywords":["cp","nocrits","nodmgspread","uncletopia"],"game_id":440,"stv_port":27036,"stv_name":"Uncletopia | Warsaw | 3 | All Maps | STV","players":null},{"server_id":52,"name":"Uncletopia | Warsaw | 4 | All Maps","name_short":"waw-4","host":"waw-1.pl.uncletopia.com","port":27045,"enabled":true,"region":"eu","cc":"pl","latitude":52.2297,"longitude":21.017532,"reserved":0,"last_update":"0001-01-01T00:00:00Z","name_a2s":"Uncletopia | Warsaw | 4 | All Maps","protocol":17,"map":"cp_dustbowl","folder":"tf","game":"Team Fortress","app_id":440,"player_count":0,"max_players":24,"Bots":0,"server_type":"Dedicated","server_os":"Linux","password":true,"vac":true,"version":"7961495","steam_id":85568392925397853,"keywords":["cp","nocrits","nodmgspread","uncletopia"],"game_id":440,"stv_port":27046,"stv_name":"Uncletopia | Warsaw | 4 | All Maps | STV","players":null},{"server_id":53,"name":"Uncletopia | Warsaw | 5 | Stopwatch Beta","name_short":"waw-5","host":"waw-1.pl.uncletopia.com","port":27055,"enabled":true,"region":"eu","cc":"pl","latitude":52.2297,"longitude":21.017532,"reserved":0,"last_update":"0001-01-01T00:00:00Z","name_a2s":"Uncletopia | Warsaw | 5 | Stopwatch Beta","protocol":17,"map":"pl_snowycoast","folder":"tf","game":"Team Fortress","app_id":440,"player_count":0,"max_players":24,"Bots":0,"server_type":"Dedicated","server_os":"Linux","password":true,"vac":true,"version":"7961495","steam_id":85568392925397854,"keywords":["nocrits","nodmgspread","payload","uncletopia"],"game_id":440,"stv_port":27056,"stv_name":"Uncletopia | Warsaw | 5 | Stopwatch Beta | STV","players":null},{"server_id":54,"name":"Uncletopia | Warsaw | 6 | Community","name_short":"waw-6","host":"waw-1.pl.uncletopia.com","port":27065,"enabled":true,"region":"eu","cc":"pl","latitude":52.2297,"longitude":21.017532,"reserved":0,"last_update":"0001-01-01T00:00:00Z","name_a2s":"Uncletopia | Warsaw | 6 | Community","protocol":17,"map":"pl_borneo","folder":"tf","game":"Team Fortress","app_id":440,"player_count":0,"max_players":24,"Bots":0,"server_type":"Dedicated","server_os":"Linux","password":true,"vac":true,"version":"7961495","steam_id":85568392925397856,"keywords":["nocrits","nodmgspread","payload","uncletopia"],"game_id":440,"stv_port":27066,"stv_name":"Uncletopia | Warsaw | 6 | Community | STV","players":null}]}