{"status":true,"message":"","result":[{"server_id":9,"name":"Uncletopia | Atlanta | 1 | All Maps","name_short":"atl-1","host":"atl-1.us.uncletopia.com","port":27015,"enabled":true,"region":"us-east","cc":"us","latitude":33.753746,"longitude":-84.38633,"reserved":0,"last_update":"0001-01-01T00:00:00Z","name_a2s":"Uncletopia | Atlanta | 1 | All Maps","protocol":17,"map":"pl_upward","folder":"tf","game":"Team Fortress","app_id":440,"player_count":24,"max_players":24,"Bots":0,"server_type":"Dedicated","server_os":"Linux","password":true,"vac":true,"version":"7723704","steam_id":85568392924469982,"keywords":["nocrits","nodmgspread","payload","uncletopia"],"game_id":440,"stv_port":27016,"stv_name":"Uncletopia | Atlanta | 1 | All Maps | STV","players":[{"user_id":283,"name":"A_Malebolgia","steam_id":76561198097722818,"connected_time":1626000000000,"state":"active","ping":85},{"user_id":300,"name":"Mi Se√±ora","steam_id":76561198044384143,"connected_time":606000000000,"state":"active","ping":77},{"user_id":270,"name":"badbhobie","steam_id":76561199061009150,"connected_time":2335000000000,"state":"active","ping":75},{"user_id":292,"name":"ash","steam_id":76561198127890645,"connected_time":915000000000,"state":"active","ping":60},{"user_id":306,"name":"Trey The Awesome","steam_id":76561198370718264,"connected_time":231000000000,"state":"active","ping":122},{"user_id":290,"name":"Quiggles lft","steam_id":76561199177247655,"connected_time":1025000000000,"state":"active","ping":58},{"user_id":304,"name":"choi","steam_id":76561198053669887,"connected_time":300000000000,"state":"active","ping":109},{"user_id":265,"name":"Tribute","steam_id":76561198081594043,"connected_time":3162000000000,"state":"active","ping":71},{"user_id":291,"name":"RichPanda19","steam_id":76561199008923627,"connected_time":994000000000,"state":"active","ping":102},{"user_id":266,"name":"Waffle Wannabe","steam_id":76561198064510650,"connected_time":3059000000000,"state":"active","ping":68},{"user_id":284,"name":"Spy_Is_Pye","steam_id":76561199439622967,"connected_time":1610000000000,"state":"active","ping":74},{"user_id":303,"name":"hunterbunney (queer)","steam_id":76561198070672899,"connected_time":462000000000,"state":"active","ping":57},{"user_id":287,"name":"AssCancerNecromancer","steam_id":76561198942215141,"connected_time":1412000000000,"state":"active","ping":64},{"user_id":289,"name":"ATL6 Wingm4n","steam_id":76561198064127012,"connected_time":1029000000000,"state":"active","ping":60},{"user_id":302,"name":"Jfrvl Gvl","steam_id":76561199013465852,"connected_time":548000000000,"state":"active","ping":61},{"user_id":275,"name":"courtham","steam_id":76561198092023855,"connected_time":2169000000000,"state":"active","ping":83},{"user_id":297,"name":"Seru","steam_id":76561199219827214,"connected_time":730000000000,"state":"active","ping":77},{"user_id":282,"name":"Stampdawg","steam_id":76561198050500060,"connected_time":1785000000000,"state":"active","ping":81},{"user_id":307,"name":"The Collective","steam_id":76561198170423483,"connected_time":227000000000,"state":"active","ping":77},{"user_id":308,"name":"luxin","steam_id":76561198399383047,"connected_time":24000000000,"state":"active","ping":46},{"user_id":250,"name":"ATL1 | merryy","steam_id":76561198968001329,"connected_time":4083000000000,"state":"active","ping":45},{"user_id":295,"name":"revamp","steam_id":76561198056573340,"connected_time":762000000000,"state":"active","ping":84},{"user_id":247,"name":"lu","steam_id":76561198080731872,"connected_time":4210000000000,"state":"active","ping":76},{"user_id":305,"name":"Virus858","steam_id":76561199156084410,"connected_time":264000000000,"state":"active","ping":80}]},{"server_id":400,"name":"Uncletopia | Atlanta | 3 | Stopwatch Beta","name_short":"atl-3","host":"atl-1.us.uncletopia.com","port":27035,"enabled":true,"region":"us-east","cc":"us","latitude":33.753746,"longitude":-84.38633,"reserved":0,"last_update":"0001-01-01T00:00:00Z","name_a2s":"Uncletopia | Atlanta | 3 | Stopwatch Beta","protocol":17,"map":"koth_cascade","folder":"tf","game":"Team Fortress","app_id":440,"player_count":0,"max_players":24,"Bots":0,"server_type":"Dedicated","server_os":"Linux","password":true,"vac":true,"version":"7723704","steam_id":85568392924515187,"keywords":["cp","nocrits","nodmgspread","uncletopia"],"game_id":440,"stv_port":27036,"stv_name":"Uncletopia | Atlanta | 3 | Stopwatch Beta | STV","players":null},{"server_id":401,"name":"Uncletopia | Atlanta | 4 | No Payload","name_short":"atl-4","host":"atl-1.us.uncletopia.com","port":27045,"enabled":true,"region":"us-east","cc":"us","latitude":33.753746,"longitude":-84.38633,"reserved":0,"last_update":"0001-01-01T00:00:00Z","name_a2s":"Uncletopia | Atlanta | 4 | No Payload","protocol":17,"map":"pl_pier","folder":"tf","game":"Team Fortress","app_id":440,"player_count":0,"max_players":24,"Bots":0,"server_type":"Dedicated","server_os":"Linux","password":true,"vac":true,"version":"7723704","steam_id":85568392924515188,"keywords":["nocrits","nodmgspread","payload","uncletopia"],"game_id":440,"stv_port":27046,"stv_name":"Uncletopia | Atlanta | 4 | No Payload | STV","players":null},{"server_id":2,"name":"Uncletopia | Chicago | 1 | All Maps","name_short":"chi-1","host":"chi-1.us.uncletopia.com","port":27015,"enabled":true,"region":"us-central","cc":"us","latitude":41.881832,"longitude":-87.62318,"reserved":0,"last_update":"0001-01-01T00:00:00Z","name_a2s":"Uncletopia | Chicago | 1 | All Maps","protocol":17,"map":"pl_frontier_final","folder":"tf","game":"Team Fortress","app_id":440,"player_count":24,"max_players":24,"Bots":0,"server_type":"Dedicated","server_os":"Linux","password":true,"vac":true,"version":"7723704","steam_id":85568392924469984,"keywords":["nocrits","nodmgspread","payload","uncletopia"],"game_id":440,"stv_port":27016,"stv_name":"Uncletopia | Chicago | 1 | All Maps | STV","players":[{"user_id":402,"name":"Ignalis","steam_id":76561198025662927,"connected_time":787000000000,"state":"active","ping":61},{"user_id":327,"name":"Lyra","steam_id":76561198043601838,"connected_time":4963000000000,"state":"active","ping":150},{"user_id":359,"name":"mel0n","steam_id":76561198034817244,"connected_time":2614000000000,"state":"active","ping":65},{"user_id":403,"name":"a crazy hobo","steam_id":76561198289650060,"connected_time":781000000000,"state":"active","ping":85},{"user_id":355,"name":"Goofball","steam_id":76561198074189084,"connected_time":2874000000000,"state":"active","ping":58},{"user_id":392,"name":"CoconutRice","steam_id":76561198114909164,"connected_time":1052000000000,"state":"active","ping":54},{"user_id":360,"name":"[slug]","steam_id":76561197989592178,"connected_time":2549000000000,"state":"active","ping":60},{"user_id":411,"name":"Mortimer Khan","steam_id":76561197968829990,"connected_time":373000000000,"state":"active","ping":78},{"user_id":413,"name":"Hylic","steam_id":76561199051314589,"connected_time":251000000000,"state":"active","ping":60},{"user_id":396,"name":"Vem","steam_id":76561198117273112,"connected_time":859000000000,"state":"active","ping":65},{"user_id":388,"name":"Friend","steam_id":76561198156746320,"connected_time":1143000000000,"state":"active","ping":47},{"user_id":415,"name":"Summer","steam_id":76561198121692871,"connected_time":66000000000,"state":"active","ping":60},{"user_id":414,"name":"KooKooKachue","steam_id":76561198391195262,"connected_time":233000000000,"state":"active","ping":84},{"user_id":401,"name":"ROGUE-PLANET","steam_id":76561198116023052,"connected_time":837000000000,"state":"active","ping":63},{"user_id":410,"name":"Nerdiate","steam_id":76561198089102281,"connected_time":519000000000,"state":"active","ping":80},{"user_id":331,"name":"Evolution","steam_id":76561198144767370,"connected_time":4579000000000,"state":"active","ping":47},{"user_id":377,"name":"Max_Attack","steam_id":76561198944028607,"connected_time":1658000000000,"state":"active","ping":74},{"user_id":405,"name":"lukethepumpkin","steam_id":76561198204158335,"connected_time":746000000000,"state":"active","ping":75},{"user_id":358,"name":"puppy","steam_id":76561197964635660,"connected_time":2766000000000,"state":"active","ping":76},{"user_id":406,"name":"The Muffin Man","steam_id":76561199088286427,"connected_time":705000000000,"state":"active","ping":124},{"user_id":408,"name":"killer of noob!! Winner of game","steam_id":76561198190583242,"connected_time":678000000000,"state":"active","ping":180},{"user_id":346,"name":"name him golfball","steam_id":76561198068958789,"connected_time":3743000000000,"state":"active","ping":63},{"user_id":351,"name":"Astori√¶!","steam_id":76561199090168858,"connected_time":3374000000000,"state":"active","ping":59},{"user_id":383,"name":"Elena Manetta","steam_id":76561197998344054,"connected_time":1294000000000,"state":"active","ping":57}]},{"server_id":106,"name":"Uncletopia | Chicago | 2 | All Maps","name_short":"chi-2","host":"chi-1.us.uncletopia.com","port":27025,"enabled":true,"region":"us-central","cc":"us","latitude":41.881832,"longitude":-87.62318,"reserved":0,"last_update":"0001-01-01T00:00:00Z","name_a2s":"Uncletopia | Chicago | 2 | All Maps","protocol":17,"map":"pl_upward","folder":"tf","game":"Team Fortress","app_id":440,"player_count":24,"max_players":24,"Bots":0,"server_type":"Dedicated","server_os":"Linux","password":true,"vac":true,"version":"7723704","steam_id":85568392924469985,"keywords":["nocrits","nodmgspread","payload","uncletopia"],"game_id":440,"stv_port":27026,"stv_name":"Uncletopia | Chicago | 2 | All Maps | STV","players":[{"user_id":136,"name":"Ziath","steam_id":76561198094009164,"connected_time":7168000000000,"state":"active","ping":63},{"user_id":199,"name":"wack","steam_id":76561198095697330,"connected_time":1483000000000,"state":"active","ping":68},{"user_id":206,"name":"sansa musa","steam_id":76561198163723555,"connected_time":1224000000000,"state":"active","ping":63},{"user_id":234,"name":"WalterRocket","steam_id":76561198105636187,"connected_time":41000000000,"state":"active","ping":111},{"user_id":230,"name":"Errrmmett","steam_id":76561198041314051,"connected_time":278000000000,"state":"active","ping":58},{"user_id":237,"name":"Raccoon.Of.Waffle.House","steam_id":76561199018770554,"connected_time":23000000000,"state":"active","ping":94},{"user_id":201,"name":"jambie!","steam_id":76561198296042477,"connected_time":1318000000000,"state":"active","ping":45},{"user_id":227,"name":"Kaluka","steam_id":76561198036861445,"connected_time":509000000000,"state":"active","ping":61},{"user_id":232,"name":"a_person_159","steam_id":76561199024416326,"connected_time":76000000000,"state":"active","ping":75},{"user_id":183,"name":"20tsr08","steam_id":76561199245566580,"connected_time":3128000000000,"state":"active","ping":91},{"user_id":236,"name":"Brown_Dream","steam_id":76561198975766145,"connected_time":35000000000,"state":"active","ping":81},{"user_id":190,"name":"glitch","steam_id":76561197979495589,"connected_time":2651000000000,"state":"active","ping":68},{"user_id":229,"name":"Whorse","steam_id":76561198114141445,"connected_time":381000000000,"state":"active","ping":67},{"user_id":177,"name":"averted","steam_id":76561198067784310,"connected_time":4176000000000,"state":"active","ping":61},{"user_id":235,"name":"Newt","steam_id":76561198842909288,"connected_time":37000000000,"state":"spawning","ping":97},{"user_id":211,"name":"notmanhattan","steam_id":76561198143117561,"connected_time":1104000000000,"state":"active","ping":31},{"user_id":212,"name":"AjProductions","steam_id":76561198217950125,"connected_time":1097000000000,"state":"active","ping":168},{"user_id":233,"name":"This Is A Thing","steam_id":76561198122002920,"connected_time":52000000000,"state":"active","ping":66},{"user_id":204,"name":"SuperJagops","steam_id":76561198034689716,"connected_time":1265000000000,"state":"active","ping":65},{"user_id":228,"name":"Ripheart","steam_id":76561198089661561,"connected_time":500000000000,"state":"active","ping":54},{"user_id":173,"name":"ATL1 | on my hunting trip","steam_id":76561198315341646,"connected_time":4502000000000,"state":"active","ping":81},{"user_id":238,"name":"Pumpkin Hugger","steam_id":76561198834875100,"connected_time":14000000000,"state":"active","ping":74},{"user_id":239,"name":"Omeg123","steam_id":76561198101234232,"connected_time":7000000000,"state":"spawning","ping":94},{"user_id":195,"name":"necrodude","steam_id":76561198258051895,"connected_time":2191000000000,"state":"active","ping":106}]},{"server_id":402,"name":"Uncletopia | Chicago | 3 | All Maps","name_short":"chi-3","host":"chi-1.us.uncletopia.com","port":27035,"enabled":true,"region":"us-central","cc":"us","latitude":41.881832,"longitude":-87.62318,"reserved":0,"last_update":"0001-01-01T00:00:00Z","name_a2s":"Uncletopia | Chicago | 3 | All Maps","protocol":17,"map":"cp_dustbowl","folder":"tf","game":"Team Fortress","app_id":440,"player_count":0,"max_players":24,"Bots":0,"server_type":"Dedicated","server_os":"Linux","password":true,"vac":true,"version":"7723704","steam_id":85568392924515191,"keywords":["cp","nocrits","nodmgspread","uncletopia"],"game_id":440,"stv_port":27036,"stv_name":"Uncletopia | Chicago | 3 | All Maps | STV","players":null},{"server_id":403,"name":"Uncletopia | Chicago | 4 | All Maps","name_short":"chi-4","host":"chi-1.us.uncletopia.com","port":27045,"enabled":true,"region":"us-central","cc":"us","latitude":41.881832,"longitude":-87.62318,"reserved":0,"last_update":"0001-01-01T00:00:00Z","name_a2s":"Uncletopia | Chicago | 4 | All Maps","protocol":17,"map":"cp_dustbowl","folder":"tf","game":"Team Fortress","app_id":440,"player_count":5,"max_players":24,"Bots":0,"server_type":"Dedicated","server_os":"Linux","password":true,"vac":true,"version":"7723704","steam_id":85568392924515193,"keywords":["cp","nocrits","nodmgspread","uncletopia"],"game_id":440,"stv_port":27046,"stv_name":"Uncletopia | Chicago | 4 | All Maps | STV","players":[{"user_id":6,"name":"ChubbinsMothYT","steam_id":76561198999215730,"connected_time":1636000000000,"state":"spawning","ping":80},{"user_id":11,"name":"Qwegg","steam_id":76561198205510383,"connected_time":432000000000,"state":"spawning","ping":193},{"user_id":12,"name":"THE OVERMIND","steam_id":76561198411340973,"connected_time":401000000000,"state":"active","ping":108},{"user_id":13,"name":"Hindmost","steam_id":76561199081837220,"connected_time":198000000000,"state":"connecting","ping":267},{"user_id":16,"name":"NEW AP NO TIMEX","steam_id":76561198904898274,"connected_time":10000000000,"state":"active","ping":81}]},{"server_id":36,"name":"Uncletopia | Chicago | 5 | All Maps","name_short":"chi-5","host":"chi-2.us.uncletopia.com","port":27015,"enabled":true,"region":"us-central","cc":"us","latitude":41.881832,"longitude":-87.62318,"reserved":0,"last_update":"0001-01-01T00:00:00Z","name_a2s":"Uncletopia | Chicago | 5 | All Maps","protocol":17,"map":"cp_snakewater_final1","folder":"tf","game":"Team Fortress","app_id":440,"player_count":24,"max_players":24,"Bots":0,"server_type":"Dedicated","server_os":"Linux","password":true,"vac":true,"version":"7723704","steam_id":85568392924866362,"keywords":["cp","nocrits","nodmgspread","uncletopia"],"game_id":440,"stv_port":27016,"stv_name":"Uncletopia | Chicago | 5 | All Maps | STV","players":[{"user_id":200,"name":"G6 MR 1920","steam_id":76561198111669774,"connected_time":193000000000,"state":"active","ping":40},{"user_id":174,"name":"StuartBell511","steam_id":76561198060931721,"connected_time":1053000000000,"state":"active","ping":75},{"user_id":181,"name":"Û†Ä°Û†Ä°","steam_id":76561198093034439,"connected_time":924000000000,"state":"active","ping":80},{"user_id":183,"name":"larsvik","steam_id":76561198077948794,"connected_time":892000000000,"state":"active","ping":75},{"user_id":133,"name":"vortexgamer","steam_id":76561197999435527,"connected_time":3301000000000,"state":"active","ping":65},{"user_id":113,"name":"bikerkid207","steam_id":76561198390782783,"connected_time":4376000000000,"state":"active","ping":52},{"user_id":173,"name":"Owen","steam_id":76561198126511851,"connected_time":1074000000000,"state":"active","ping":62},{"user_id":190,"name":"Cyberwhale","steam_id":76561198086305971,"connected_time":695000000000,"state":"active","ping":97},{"user_id":199,"name":"CoryBaxterWH","steam_id":76561198060041823,"connected_time":309000000000,"state":"active","ping":81},{"user_id":176,"name":"02vg3","steam_id":76561198404320154,"connected_time":1036000000000,"state":"active","ping":119},{"user_id":177,"name":"Rin \"Hindwing\" Redtail","steam_id":76561199074865638,"connected_time":1021000000000,"state":"active","ping":74},{"user_id":180,"name":"Mr. Ruckus","steam_id":76561198339566190,"connected_time":930000000000,"state":"active","ping":79},{"user_id":137,"name":"joeyohio","steam_id":76561198127116199,"connected_time":3196000000000,"state":"active","ping":92},{"user_id":191,"name":"Afghan Warrior","steam_id":76561199108860327,"connected_time":688000000000,"state":"active","ping":74},{"user_id":185,"name":"I like cheese (real)","steam_id":76561198882837408,"connected_time":885000000000,"state":"active","ping":108},{"user_id":154,"name":"You have uno","steam_id":76561198378641357,"connected_time":2701000000000,"state":"active","ping":83},{"user_id":186,"name":"Dispenser","steam_id":76561199260739414,"connected_time":883000000000,"state":"active","ping":75},{"user_id":152,"name":"Satori Komeiji","steam_id":76561198158211423,"connected_time":2789000000000,"state":"active","ping":95},{"user_id":202,"name":"uufyfuu","steam_id":76561198142787212,"connected_time":58000000000,"state":"active","ping":77},{"user_id":197,"name":"Gloteran","steam_id":76561199092623161,"connected_time":493000000000,"state":"active","ping":161},{"user_id":153,"name":"Matt.jpg","steam_id":76561198132469465,"connected_time":2763000000000,"state":"active","ping":99},{"user_id":193,"name":"Merry Matches_","steam_id":76561198048925904,"connected_time":577000000000,"state":"active","ping":124},{"user_id":194,"name":"snideink287","steam_id":76561198166055131,"connected_time":575000000000,"state":"active","ping":56},{"user_id":201,"name":"mista wayne","steam_id":76561198056249150,"connected_time":143000000000,"state":"active","ping":106}]},{"server_id":37,"name":"Uncletopia | Chicago | 6 | All Maps","name_short":"chi-6","host":"chi-2.us.uncletopia.com","port":27025,"enabled":true,"region":"us-central","cc":"us","latitude":41.881832,"longitude":-87.62318,"reserved":0,"last_update":"0001-01-01T00:00:00Z","name_a2s":"Uncletopia | Chicago | 6 | All Maps","protocol":17,"map":"koth_viaduct","folder":"tf","game":"Team Fortress","app_id":440,"player_count":0,"max_players":24,"Bots":0,"server_type":"Dedicated","server_os":"Linux","password":true,"vac":true,"version":"7723704","steam_id":85568392924866363,"keywords":["cp","nocrits","nodmgspread","uncletopia"],"game_id":440,"stv_port":27026,"stv_name":"Uncletopia | Chicago | 6 | All Maps | STV","players":null},{"server_id":38,"name":"Uncletopia | Chicago | 7 | Stopwatch Beta","name_short":"chi-7","host":"chi-2.us.uncletopia.com","port":27035,"enabled":true,"region":"us-central","cc":"us","latitude":41.881832,"longitude":-87.62318,"reserved":0,"last_update":"0001-01-01T00:00:00Z","name_a2s":"Uncletopia | Chicago | 7 | Stopwatch Beta","protocol":17,"map":"cp_sunshine","folder":"tf","game":"Team Fortress","app_id":440,"player_count":23,"max_players":24,"Bots":0,"server_type":"Dedicated","server_os":"Linux","password":true,"vac":true,"version":"7723704","steam_id":85568392924866364,"keywords":["cp","nocrits","nodmgspread","uncletopia"],"game_id":440,"stv_port":27036,"stv_name":"Uncletopia | Chicago | 7 | Stopwatch Beta | STV","players":[{"user_id":127,"name":"CBTgaeming","steam_id":76561199089290128,"connected_time":3000000000,"state":"spawning","ping":127},{"user_id":123,"name":"Colonel Crazy","steam_id":76561198262296550,"connected_time":757000000000,"state":"active","ping":99},{"user_id":104,"name":"oo","steam_id":76561198119626492,"connected_time":2158000000000,"state":"active","ping":118},{"user_id":115,"name":"whimsy.","steam_id":76561198878171763,"connected_time":1582000000000,"state":"active","ping":151},{"user_id":124,"name":"bingle","steam_id":76561198359413453,"connected_time":661000000000,"state":"active","ping":73},{"user_id":120,"name":"rlty","steam_id":76561198009395055,"connected_time":958000000000,"state":"active","ping":65},{"user_id":125,"name":"Militant Pacifist","steam_id":76561198290691432,"connected_time":543000000000,"state":"active","ping":86},{"user_id":69,"name":"Cookie_Crab","steam_id":76561198088116479,"connected_time":3342000000000,"state":"active","ping":59},{"user_id":119,"name":"picnic blanket","steam_id":76561198308186037,"connected_time":1226000000000,"state":"active","ping":61},{"user_id":117,"name":"Honeybunch","steam_id":76561198014850580,"connected_time":1461000000000,"state":"active","ping":88},{"user_id":122,"name":"CaioXDD5","steam_id":76561198323025785,"connected_time":840000000000,"state":"active","ping":180},{"user_id":113,"name":"Stormartillery","steam_id":76561198408982577,"connected_time":1734000000000,"state":"active","ping":70},{"user_id":95,"name":"Syrup","steam_id":76561199379165061,"connected_time":2517000000000,"state":"active","ping":85},{"user_id":118,"name":"yin bin","steam_id":76561199045840815,"connected_time":1358000000000,"state":"active","ping":100},{"user_id":101,"name":"Barracuda","steam_id":76561198013022083,"connected_time":2345000000000,"state":"active","ping":59},{"user_id":78,"name":"Post nut clarity","steam_id":76561198060246831,"connected_time":3103000000000,"state":"active","ping":87},{"user_id":79,"name":"IncogNeeto","steam_id":76561199091278006,"connected_time":3059000000000,"state":"active","ping":119},{"user_id":102,"name":"Nightfall","steam_id":76561198169718867,"connected_time":2321000000000,"state":"active","ping":115},{"user_id":84,"name":"Scooter O'Boyl","steam_id":76561197971687069,"connected_time":2761000000000,"state":"active","ping":69},{"user_id":105,"name":"Smuggs","steam_id":76561197999456003,"connected_time":2155000000000,"state":"active","ping":129},{"user_id":88,"name":"White Woman Fiesta","steam_id":76561198215902495,"connected_time":2661000000000,"state":"active","ping":77},{"user_id":111,"name":"Bach","steam_id":76561198211662707,"connected_time":1934000000000,"state":"active","ping":76},{"user_id":93,"name":"curb","steam_id":76561198034022775,"connected_time":2594000000000,"state":"active","ping":86}]},{"server_id":39,"name":"Uncletopia | Chicago | 8 | Community","name_short":"chi-8","host":"chi-2.us.uncletopia.com","port":27045,"enabled":true,"region":"us-central","cc":"us","latitude":41.881832,"longitude":-87.62318,"reserved":0,"last_update":"0001-01-01T00:00:00Z","name_a2s":"Uncletopia | Chicago | 8 | Community","protocol":17,"map":"pl_frontier_final","folder":"tf","game":"Team Fortress","app_id":440,"player_count":0,"max_players":24,"Bots":0,"server_type":"Dedicated","server_os":"Linux","password":true,"vac":true,"version":"7723704","steam_id":85568392924866365,"keywords":["nocrits","nodmgspread","payload","uncletopia"],"game_id":440,"stv_port":27046,"stv_name":"Uncletopia | Chicago | 8 | Community | STV","players":null},{"server_id":8,"name":"Uncletopia | Dallas | 1 | All Maps","name_short":"dal-1","host":"dal-1.us.uncletopia.com","port":27015,"enabled":true,"region":"us-central","cc":"us","latitude":32.779167,"longitude":-96.80889,"reserved":0,"last_update":"0001-01-01T00:00:00Z","name_a2s":"Uncletopia | Dallas | 1 | All Maps","protocol":17,"map":"pl_frontier_final","folder":"tf","game":"Team Fortress","app_id":440,"player_count":24,"max_players":24,"Bots":0,"server_type":"Dedicated","server_os":"Linux","password":true,"vac":true,"version":"7723704","steam_id":85568392924469986,"keywords":["nocrits","nodmgspread","payload","uncletopia"],"game_id":440,"stv_port":27016,"stv_name":"Uncletopia | Dallas | 1 | All Maps | STV","players":[{"user_id":218,"name":"Riff","steam_id":76561198066921423,"connected_time":495000000000,"state":"active","ping":62},{"user_id":177,"name":"seats","steam_id":76561197998756039,"connected_time":4657000000000,"state":"active","ping":75},{"user_id":206,"name":"lag","steam_id":76561197963872739,"connected_time":1765000000000,"state":"active","ping":71},{"user_id":209,"name":"catboy festive edition","steam_id":76561198067881981,"connected_time":1606000000000,"state":"active","ping":81},{"user_id":221,"name":"Seal","steam_id":76561197970204043,"connected_time":43000000000,"state":"active","ping":87},{"user_id":214,"name":"joebot","steam_id":76561197975606100,"connected_time":629000000000,"state":"active","ping":92},{"user_id":208,"name":"A Bic Lighter","steam_id":76561198070606068,"connected_time":1674000000000,"state":"active","ping":75},{"user_id":165,"name":"Rat Smacker","steam_id":76561199090197628,"connected_time":5240000000000,"state":"active","ping":61},{"user_id":185,"name":"crumbles","steam_id":76561198168707036,"connected_time":3602000000000,"state":"active","ping":83},{"user_id":203,"name":"Quansen","steam_id":76561198151594550,"connected_time":1852000000000,"state":"active","ping":75},{"user_id":212,"name":"Squagol","steam_id":76561197987486159,"connected_time":947000000000,"state":"active","ping":70},{"user_id":220,"name":"Beauregard","steam_id":76561199201158068,"connected_time":237000000000,"state":"active","ping":67},{"user_id":204,"name":"ToddGold","steam_id":76561198186920331,"connected_time":1834000000000,"state":"active","ping":60},{"user_id":188,"name":"MerlinTheWizard","steam_id":76561198171472393,"connected_time":3546000000000,"state":"active","ping":66},{"user_id":187,"name":"Med","steam_id":76561199276331525,"connected_time":3593000000000,"state":"active","ping":70},{"user_id":196,"name":"Lolxdloldx","steam_id":76561198136887125,"connected_time":2710000000000,"state":"active","ping":72},{"user_id":194,"name":"gangstalker","steam_id":76561198363267009,"connected_time":3204000000000,"state":"active","ping":46},{"user_id":135,"name":"lily","steam_id":76561198102681457,"connected_time":7127000000000,"state":"active","ping":74},{"user_id":215,"name":"whimmu","steam_id":76561198370839794,"connected_time":608000000000,"state":"active","ping":119},{"user_id":182,"name":"Moonflower ‚ú¶","steam_id":76561198191782483,"connected_time":3966000000000,"state":"active","ping":63},{"user_id":219,"name":"charm quark","steam_id":76561198098770777,"connected_time":390000000000,"state":"active","ping":105},{"user_id":197,"name":"Void","steam_id":76561198308290211,"connected_time":2692000000000,"state":"active","ping":87},{"user_id":205,"name":"Can You Feel It Mr.Krabs","steam_id":76561198128302414,"connected_time":1806000000000,"state":"active","ping":71},{"user_id":98,"name":"Arizona","steam_id":76561198113748347,"connected_time":9190000000000,"state":"active","ping":64}]},{"server_id":108,"name":"Uncletopia | Dallas | 2 | All Maps","name_short":"dal-2","host":"dal-1.us.uncletopia.com","port":27025,"enabled":true,"region":"us-central","cc":"us","latitude":32.779167,"longitude":-96.80889,"reserved":0,"last_update":"0001-01-01T00:00:00Z","name_a2s":"Uncletopia | Dallas | 2 | All Maps","protocol":17,"map":"pl_swiftwater_final1","folder":"tf","game":"Team Fortress","app_id":440,"player_count":24,"max_players":24,"Bots":0,"server_type":"Dedicated","server_os":"Linux","password":true,"vac":true,"version":"7723704","steam_id":85568392924469988,"keywords":["nocrits","nodmgspread","payload","uncletopia"],"game_id":440,"stv_port":27026,"stv_name":"Uncletopia | Dallas | 2 | All Maps | STV","players":[{"user_id":14,"name":"Kones","steam_id":76561197993584026,"connected_time":2819000000000,"state":"active","ping":101},{"user_id":47,"name":"swagmaster2004","steam_id":76561198260712991,"connected_time":711000000000,"state":"active","ping":91},{"user_id":16,"name":"Gaius","steam_id":76561198188174963,"connected_time":2704000000000,"state":"active","ping":153},{"user_id":46,"name":"Deno! Í∞ÑÎ∂Ä","steam_id":76561198041113335,"connected_time":1434000000000,"state":"active","ping":99},{"user_id":18,"name":"RickDaglessMD","steam_id":76561197985875169,"connected_time":2519000000000,"state":"active","ping":95},{"user_id":20,"name":"Pinto","steam_id":76561198106321681,"connected_time":2451000000000,"state":"active","ping":89},{"user_id":32,"name":"Bong Water","steam_id":76561198320044243,"connected_time":1827000000000,"state":"active","ping":63},{"user_id":23,"name":"Shmoseph","steam_id":76561198354689252,"connected_time":2266000000000,"state":"active","ping":63},{"user_id":52,"name":"Imac32","steam_id":76561198057791945,"connected_time":82000000000,"state":"active","ping":101},{"user_id":27,"name":"feezzy","steam_id":76561198017542053,"connected_time":1905000000000,"state":"active","ping":68},{"user_id":51,"name":"NavyCroft","steam_id":76561198308290507,"connected_time":400000000000,"state":"active","ping":50},{"user_id":33,"name":"squirtsquad","steam_id":76561198298327132,"connected_time":1802000000000,"state":"active","ping":82},{"user_id":44,"name":"ozymandias","steam_id":76561198983415087,"connected_time":1619000000000,"state":"active","ping":53},{"user_id":50,"name":"Rick Assley","steam_id":76561198365019199,"connected_time":422000000000,"state":"active","ping":116},{"user_id":34,"name":"Athaz","steam_id":76561198296557673,"connected_time":1780000000000,"state":"active","ping":80},{"user_id":35,"name":"cookiegenius2398.r2","steam_id":76561198970759258,"connected_time":1776000000000,"state":"active","ping":79},{"user_id":38,"name":"fishfin","steam_id":76561198255819115,"connected_time":1743000000000,"state":"active","ping":77},{"user_id":37,"name":"Quakedad","steam_id":76561198055811307,"connected_time":1770000000000,"state":"active","ping":120},{"user_id":53,"name":"blue duck the 2nd","steam_id":76561198263142765,"connected_time":1000000000,"state":"spawning","ping":95},{"user_id":40,"name":"FurryPlague","steam_id":76561198824729615,"connected_time":1736000000000,"state":"active","ping":71},{"user_id":41,"name":"Blorgus_J_Blart","steam_id":76561198430926135,"connected_time":1732000000000,"state":"active","ping":94},{"user_id":42,"name":"Lord GabeN","steam_id":76561198140862723,"connected_time":1653000000000,"state":"active","ping":75},{"user_id":43,"name":"Alpharius","steam_id":76561197996284353,"connected_time":1651000000000,"state":"active","ping":115},{"user_id":49,"name":"Ultra\u003c3","steam_id":76561198352021493,"connected_time":476000000000,"state":"active","ping":77}]},{"server_id":5,"name":"Uncletopia | Frankfurt | 1 | All Maps","name_short":"frk-1","host":"frk-1.de.uncletopia.com","port":27015,"enabled":true,"region":"eu","cc":"de","latitude":50.110924,"longitude":8.682127,"reserved":0,"last_update":"0001-01-01T00:00:00Z","name_a2s":"Uncletopia | Frankfurt | 1 | All Maps","protocol":17,"map":"pl_pier","folder":"tf","game":"Team Fortress","app_id":440,"player_count":24,"max_players":24,"Bots":0,"server_type":"Dedicated","server_os":"Linux","password":true,"vac":true,"version":"7723704","steam_id":85568392924469989,"keywords":["nocrits","nodmgspread","payload","uncletopia"],"game_id":440,"stv_port":27016,"stv_name":"Uncletopia | Frankfurt | 1 | All Maps | STV","players":[{"user_id":485,"name":"Crisps","steam_id":76561198088973774,"connected_time":1717000000000,"state":"active","ping":46},{"user_id":474,"name":"saml","steam_id":76561198040716257,"connected_time":2113000000000,"state":"active","ping":75},{"user_id":492,"name":"AWJ ÀÜ-ÀÜ","steam_id":76561198053628243,"connected_time":1173000000000,"state":"active","ping":60},{"user_id":494,"name":"Ennard777","steam_id":76561198965409493,"connected_time":836000000000,"state":"active","ping":99},{"user_id":470,"name":"0______0","steam_id":76561198118695421,"connected_time":2145000000000,"state":"active","ping":74},{"user_id":488,"name":"C0d3s","steam_id":76561198093907544,"connected_time":1491000000000,"state":"active","ping":96},{"user_id":505,"name":"freemantel30","steam_id":76561198065669800,"connected_time":28000000000,"state":"active","ping":51},{"user_id":499,"name":"GigaNiga","steam_id":76561198121722615,"connected_time":806000000000,"state":"active","ping":103},{"user_id":439,"name":"TheRubberDuccy","steam_id":76561199023194086,"connected_time":4280000000000,"state":"active","ping":76},{"user_id":496,"name":"Kenan Komutan","steam_id":76561198015830344,"connected_time":817000000000,"state":"active","ping":109},{"user_id":500,"name":"Raldow","steam_id":76561198021389301,"connected_time":742000000000,"state":"active","ping":75},{"user_id":497,"name":"i'm him","steam_id":76561198061248547,"connected_time":810000000000,"state":"active","ping":47},{"user_id":501,"name":"hushhx","steam_id":76561198216200092,"connected_time":379000000000,"state":"active","ping":65},{"user_id":448,"name":"Cippo95","steam_id":76561198255311582,"connected_time":3805000000000,"state":"active","ping":73},{"user_id":475,"name":"holykyckling","steam_id":76561198040661615,"connected_time":2112000000000,"state":"active","ping":75},{"user_id":432,"name":"Zateske","steam_id":76561198047446276,"connected_time":5032000000000,"state":"active","ping":63},{"user_id":477,"name":"Diamhair","steam_id":76561198109020178,"connected_time":2080000000000,"state":"active","ping":72},{"user_id":490,"name":"silly billy","steam_id":76561199038072811,"connected_time":1414000000000,"state":"active","ping":183},{"user_id":479,"name":"Lolipop120","steam_id":76561199001403237,"connected_time":2058000000000,"state":"active","ping":48},{"user_id":459,"name":"VolcanicArts","steam_id":76561198063453246,"connected_time":3217000000000,"state":"active","ping":69},{"user_id":480,"name":"LittleNatalie120","steam_id":76561199189207810,"connected_time":2050000000000,"state":"active","ping":69},{"user_id":504,"name":"Jouppi","steam_id":76561198063725468,"connected_time":53000000000,"state":"spawning","ping":153},{"user_id":481,"name":"Fortezza","steam_id":76561198972539903,"connected_time":2041000000000,"state":"active","ping":53},{"user_id":484,"name":"Joneatshorts","steam_id":76561199233449550,"connected_time":1994000000000,"state":"active","ping":161}]},{"server_id":110,"name":"Uncletopia | Frankfurt | 2 | All Maps","name_short":"frk-2","host":"frk-1.de.uncletopia.com","port":27025,"enabled":true,"region":"eu","cc":"de","latitude":50.110924,"longitude":8.682127,"reserved":0,"last_update":"0001-01-01T00:00:00Z","name_a2s":"Uncletopia | Frankfurt | 2 | All Maps","protocol":17,"map":"cp_sunshine","folder":"tf","game":"Team Fortress","app_id":440,"player_count":24,"max_players":24,"Bots":0,"server_type":"Dedicated","server_os":"Linux","password":true,"vac":true,"version":"7723704","steam_id":85568392924469990,"keywords":["cp","nocrits","nodmgspread","uncletopia"],"game_id":440,"stv_port":27026,"stv_name":"Uncletopia | Frankfurt | 2 | All Maps | STV","players":[{"user_id":144,"name":"19archij","steam_id":76561198311296591,"connected_time":1326000000000,"state":"active","ping":148},{"user_id":155,"name":"Brick Samson","steam_id":76561198019076104,"connected_time":641000000000,"state":"active","ping":105},{"user_id":135,"name":"jameso","steam_id":76561198064042970,"connected_time":1677000000000,"state":"active","ping":49},{"user_id":131,"name":"noobdestroyer420","steam_id":76561199249569889,"connected_time":1781000000000,"state":"active","ping":75},{"user_id":148,"name":"Cak3","steam_id":76561198012633295,"connected_time":1146000000000,"state":"active","ping":60},{"user_id":156,"name":"Astrya","steam_id":76561198091242337,"connected_time":632000000000,"state":"active","ping":47},{"user_id":133,"name":"DeepBlue","steam_id":76561198140075795,"connected_time":1732000000000,"state":"active","ping":53},{"user_id":145,"name":"Mr.O","steam_id":76561198039567498,"connected_time":1325000000000,"state":"active","ping":61},{"user_id":114,"name":"Luke SpyWalker","steam_id":76561198008643276,"connected_time":1957000000000,"state":"active","ping":57},{"user_id":147,"name":"SuperTyroni","steam_id":76561198078442172,"connected_time":1155000000000,"state":"active","ping":94},{"user_id":159,"name":"gorgie","steam_id":76561199032591040,"connected_time":437000000000,"state":"active","ping":73},{"user_id":118,"name":"Urantij","steam_id":76561198047920299,"connected_time":1916000000000,"state":"active","ping":116},{"user_id":119,"name":"Steak","steam_id":76561198115019238,"connected_time":1915000000000,"state":"active","ping":71},{"user_id":120,"name":"Jonas Destark","steam_id":76561198030327441,"connected_time":1908000000000,"state":"active","ping":63},{"user_id":161,"name":"SpyCrab  Erik Twice","steam_id":76561198009710309,"connected_time":280000000000,"state":"active","ping":64},{"user_id":163,"name":"Yanniki","steam_id":76561197986058110,"connected_time":115000000000,"state":"active","ping":55},{"user_id":136,"name":"barrystotle","steam_id":76561198044709648,"connected_time":1675000000000,"state":"active","ping":56},{"user_id":124,"name":"ÍßÅ‡ºíXenon‡ºíÍßÇ","steam_id":76561198120502313,"connected_time":1882000000000,"state":"active","ping":66},{"user_id":125,"name":"battlekruiser","steam_id":76561198061907053,"connected_time":1871000000000,"state":"active","ping":76},{"user_id":157,"name":"fallingpencil","steam_id":76561199230233148,"connected_time":627000000000,"state":"active","ping":56},{"user_id":158,"name":"Pan W","steam_id":76561198384111099,"connected_time":457000000000,"state":"active","ping":61},{"user_id":162,"name":"Vince","steam_id":76561199103000131,"connected_time":268000000000,"state":"active","ping":60},{"user_id":138,"name":"the foe","steam_id":76561198065743977,"connected_time":1648000000000,"state":"active","ping":60},{"user_id":154,"name":"F","steam_id":76561199149462792,"connected_time":675000000000,"state":"active","ping":64}]},{"server_id":308,"name":"Uncletopia | Frankfurt | 3 | All Maps","name_short":"frk-3","host":"frk-1.de.uncletopia.com","port":27035,"enabled":true,"region":"eu","cc":"de","latitude":50.110924,"longitude":8.682127,"reserved":0,"last_update":"0001-01-01T00:00:00Z","name_a2s":"Uncletopia | Frankfurt | 3 | All Maps","protocol":17,"map":"pl_enclosure_final","folder":"tf","game":"Team Fortress","app_id":440,"player_count":23,"max_players":24,"Bots":0,"server_type":"Dedicated","server_os":"Linux","password":true,"vac":true,"version":"7723704","steam_id":85568392924504274,"keywords":["nocrits","nodmgspread","payload","uncletopia"],"game_id":440,"stv_port":27036,"stv_name":"Uncletopia | Frankfurt | 3 | All Maps | STV","players":[{"user_id":431,"name":"Scary Perry","steam_id":76561198237464516,"connected_time":978000000000,"state":"active","ping":51},{"user_id":339,"name":"pl_z≈Çawoda","steam_id":76561198040588109,"connected_time":6191000000000,"state":"active","ping":73},{"user_id":424,"name":"molnar.botond0125","steam_id":76561198379352945,"connected_time":1352000000000,"state":"active","ping":66},{"user_id":345,"name":"invis","steam_id":76561198120668070,"connected_time":5384000000000,"state":"active","ping":61},{"user_id":428,"name":"SuntanPikachu","steam_id":76561198121242476,"connected_time":1145000000000,"state":"active","ping":70},{"user_id":439,"name":"Fat Pigeon","steam_id":76561198817940142,"connected_time":285000000000,"state":"active","ping":57},{"user_id":435,"name":"Proto-arc","steam_id":76561198012776747,"connected_time":434000000000,"state":"active","ping":60},{"user_id":371,"name":"Hexagon","steam_id":76561198151205758,"connected_time":4171000000000,"state":"active","ping":59},{"user_id":355,"name":"filo","steam_id":76561198103633797,"connected_time":4870000000000,"state":"active","ping":81},{"user_id":426,"name":"Kotlet schabowy","steam_id":76561198048983509,"connected_time":1319000000000,"state":"active","ping":78},{"user_id":432,"name":"cropping","steam_id":76561198026586456,"connected_time":795000000000,"state":"active","ping":74},{"user_id":406,"name":"Spungebab","steam_id":76561198101202922,"connected_time":2051000000000,"state":"active","ping":85},{"user_id":417,"name":"Rock..","steam_id":76561198004641963,"connected_time":1559000000000,"state":"active","ping":86},{"user_id":373,"name":"Mr. Mundy","steam_id":76561198132008918,"connected_time":3968000000000,"state":"active","ping":77},{"user_id":388,"name":"Pungkrockaren","steam_id":76561198050214002,"connected_time":3338000000000,"state":"active","ping":61},{"user_id":427,"name":"mordecai.nmc","steam_id":76561197997223851,"connected_time":1308000000000,"state":"active","ping":60},{"user_id":440,"name":"Ariel ‚®Å ·ö®·ö±·õÅ·õñ·õöüå™","steam_id":76561198011340227,"connected_time":274000000000,"state":"active","ping":68},{"user_id":436,"name":"xXdoge gaming 42069Xx","steam_id":76561198372971096,"connected_time":379000000000,"state":"active","ping":82},{"user_id":434,"name":"lark","steam_id":76561198091724522,"connected_time":770000000000,"state":"active","ping":66},{"user_id":437,"name":"D_Ink","steam_id":76561198267716662,"connected_time":372000000000,"state":"active","ping":48},{"user_id":441,"name":"Tofu'","steam_id":76561197984621343,"connected_time":104000000000,"state":"active","ping":55},{"user_id":438,"name":"Strangerdanger","steam_id":76561198206728500,"connected_time":362000000000,"state":"active","ping":73},{"user_id":412,"name":"anaphylaxis","steam_id":76561198097396447,"connected_time":1726000000000,"state":"active","ping":71}]},{"server_id":309,"name":"Uncletopia | Frankfurt | 4 | All Maps","name_short":"frk-4","host":"frk-1.de.uncletopia.com","port":27045,"enabled":true,"region":"eu","cc":"de","latitude":50.110924,"longitude":8.682127,"reserved":0,"last_update":"0001-01-01T00:00:00Z","name_a2s":"Uncletopia | Frankfurt | 4 | All Maps","protocol":17,"map":"pl_barnblitz","folder":"tf","game":"Team Fortress","app_id":440,"player_count":24,"max_players":24,"Bots":0,"server_type":"Dedicated","server_os":"Linux","password":true,"vac":true,"version":"7723704","steam_id":85568392924504275,"keywords":["nocrits","nodmgspread","payload","uncletopia"],"game_id":440,"stv_port":27046,"stv_name":"Uncletopia | Frankfurt | 4 | All Maps | STV","players":[{"user_id":365,"name":"Uncle Lame","steam_id":76561198089003514,"connected_time":704000000000,"state":"active","ping":44},{"user_id":345,"name":"Old Man Winter","steam_id":76561198007653168,"connected_time":3555000000000,"state":"active","ping":73},{"user_id":373,"name":"alexander","steam_id":76561198257069012,"connected_time":49000000000,"state":"active","ping":65},{"user_id":295,"name":"Wardruna96","steam_id":76561199057083828,"connected_time":5912000000000,"state":"active","ping":87},{"user_id":356,"name":"Lux","steam_id":76561198060417740,"connected_time":2269000000000,"state":"active","ping":46},{"user_id":335,"name":"Bug","steam_id":76561198168268048,"connected_time":3862000000000,"state":"active","ping":52},{"user_id":363,"name":"dddd","steam_id":76561198120894372,"connected_time":1154000000000,"state":"active","ping":111},{"user_id":336,"name":"p√§hekuulitaja","steam_id":76561198072295938,"connected_time":3856000000000,"state":"active","ping":68},{"user_id":346,"name":"r06u3","steam_id":76561198254099253,"connected_time":3506000000000,"state":"active","ping":180},{"user_id":300,"name":"Rappin' Sebastian","steam_id":76561198453928256,"connected_time":5439000000000,"state":"active","ping":77},{"user_id":353,"name":"Menty","steam_id":76561198036748212,"connected_time":2934000000000,"state":"active","ping":45},{"user_id":337,"name":"cslevi","steam_id":76561198142858923,"connected_time":3848000000000,"state":"active","ping":64},{"user_id":355,"name":"'_'","steam_id":76561198120264459,"connected_time":2489000000000,"state":"active","ping":57},{"user_id":286,"name":"Spenji","steam_id":76561198126634202,"connected_time":6066000000000,"state":"active","ping":73},{"user_id":372,"name":"Anlek","steam_id":76561198026972102,"connected_time":168000000000,"state":"active","ping":68},{"user_id":359,"name":"ran is running","steam_id":76561199443185667,"connected_time":1555000000000,"state":"active","ping":153},{"user_id":371,"name":"Pruff","steam_id":76561198377084417,"connected_time":239000000000,"state":"active","ping":63},{"user_id":283,"name":"DrExplosive","steam_id":76561198063678579,"connected_time":6179000000000,"state":"active","ping":57},{"user_id":348,"name":"Here's Johnny!","steam_id":76561198065506317,"connected_time":3295000000000,"state":"active","ping":60},{"user_id":370,"name":"2D","steam_id":76561199113659141,"connected_time":265000000000,"state":"active","ping":116},{"user_id":358,"name":"‚Ä¢stepbro‚Ä¢","steam_id":76561198119607160,"connected_time":1865000000000,"state":"active","ping":117},{"user_id":368,"name":"volleyball","steam_id":76561198125838702,"connected_time":644000000000,"state":"active","ping":75},{"user_id":294,"name":"Pronton","steam_id":76561198082502910,"connected_time":6003000000000,"state":"active","ping":59},{"user_id":320,"name":"Kapitan Polska","steam_id":76561197968069413,"connected_time":4541000000000,"state":"active","ping":73}]},{"server_id":310,"name":"Uncletopia | Frankfurt | 5 | All Maps","name_short":"frk-5","host":"frk-1.de.uncletopia.com","port":27055,"enabled":true,"region":"eu","cc":"de","latitude":50.110924,"longitude":8.682127,"reserved":0,"last_update":"0001-01-01T00:00:00Z","name_a2s":"Uncletopia | Frankfurt | 5 | All Maps","protocol":17,"map":"pl_swiftwater_final1","folder":"tf","game":"Team Fortress","app_id":440,"player_count":24,"max_players":24,"Bots":0,"server_type":"Dedicated","server_os":"Linux","password":true,"vac":true,"version":"7723704","steam_id":85568392924504277,"keywords":["nocrits","nodmgspread","payload","uncletopia"],"game_id":440,"stv_port":27056,"stv_name":"Uncletopia | Frankfurt | 5 | All Maps | STV","players":[{"user_id":409,"name":"PooP","steam_id":76561199099522841,"connected_time":2172000000000,"state":"active","ping":80},{"user_id":424,"name":"king251311","steam_id":76561199063310889,"connected_time":1311000000000,"state":"active","ping":66},{"user_id":433,"name":"‚Ç™ F4.exe","steam_id":76561197997909480,"connected_time":1058000000000,"state":"active","ping":77},{"user_id":451,"name":"Thors","steam_id":76561197968739075,"connected_time":173000000000,"state":"active","ping":46},{"user_id":384,"name":"Lewylow","steam_id":76561198005425686,"connected_time":3551000000000,"state":"active","ping":67},{"user_id":425,"name":"rat","steam_id":76561199100632053,"connected_time":1195000000000,"state":"active","ping":70},{"user_id":385,"name":"Farmercy","steam_id":76561198000038039,"connected_time":3536000000000,"state":"active","ping":59},{"user_id":445,"name":"KosjoBG","steam_id":76561198138053535,"connected_time":490000000000,"state":"active","ping":74},{"user_id":449,"name":"üÉî Nugg1t(sme/lly)","steam_id":76561198065652251,"connected_time":286000000000,"state":"active","ping":43},{"user_id":436,"name":"wwwwwwwwwwwwwwwwwwwwwwwwwwwwwww","steam_id":76561198108779446,"connected_time":942000000000,"state":"active","ping":65},{"user_id":438,"name":"DonPascualino","steam_id":76561198039736512,"connected_time":745000000000,"state":"active","ping":46},{"user_id":422,"name":"Bait","steam_id":76561198335188568,"connected_time":1574000000000,"state":"active","ping":57},{"user_id":448,"name":"Cocaine bear","steam_id":76561199213901239,"connected_time":415000000000,"state":"active","ping":57},{"user_id":443,"name":"Use The Finger","steam_id":76561198050203563,"connected_time":522000000000,"state":"active","ping":68},{"user_id":439,"name":"Naho","steam_id":76561198077169715,"connected_time":669000000000,"state":"active","ping":83},{"user_id":389,"name":"zoinks!","steam_id":76561198068645362,"connected_time":3448000000000,"state":"active","ping":58},{"user_id":373,"name":"Kenopsia","steam_id":76561198126750888,"connected_time":3759000000000,"state":"active","ping":82},{"user_id":444,"name":"Troll Pot","steam_id":76561198137485078,"connected_time":516000000000,"state":"active","ping":59},{"user_id":437,"name":"Abnormally stupid","steam_id":76561199364074118,"connected_time":873000000000,"state":"active","ping":67},{"user_id":441,"name":"Mark","steam_id":76561198808819694,"connected_time":618000000000,"state":"active","ping":50},{"user_id":450,"name":"asdgsfdaujhaswedrvjhfdwsbhk","steam_id":76561198208839507,"connected_time":265000000000,"state":"active","ping":141},{"user_id":446,"name":"JumJim","steam_id":76561198038099760,"connected_time":479000000000,"state":"active","ping":93},{"user_id":432,"name":"Intheweb33","steam_id":76561198082873786,"connected_time":1073000000000,"state":"active","ping":90},{"user_id":442,"name":"GNU+Matthew","steam_id":76561198051083273,"connected_time":609000000000,"state":"active","ping":52}]},{"server_id":311,"name":"Uncletopia | Frankfurt | 6 | All Maps","name_short":"frk-6","host":"frk-1.de.uncletopia.com","port":27065,"enabled":true,"region":"eu","cc":"de","latitude":50.110924,"longitude":8.682127,"reserved":0,"last_update":"0001-01-01T00:00:00Z","name_a2s":"Uncletopia | Frankfurt | 6 | All Maps","protocol":17,"map":"pl_swiftwater_final1","folder":"tf","game":"Team Fortress","app_id":440,"player_count":24,"max_players":24,"Bots":0,"server_type":"Dedicated","server_os":"Linux","password":true,"vac":true,"version":"7723704","steam_id":85568392924504278,"keywords":["nocrits","nodmgspread","payload","uncletopia"],"game_id":440,"stv_port":27066,"stv_name":"Uncletopia | Frankfurt | 6 | All Maps | STV","players":[{"user_id":297,"name":"hellrunner","steam_id":76561198205309695,"connected_time":1136000000000,"state":"active","ping":174},{"user_id":290,"name":"Flabberson Gilbert Dooberqavier","steam_id":76561199244829558,"connected_time":1434000000000,"state":"active","ping":61},{"user_id":289,"name":"festive FoOz","steam_id":76561197998636728,"connected_time":1451000000000,"state":"active","ping":61},{"user_id":267,"name":"[P-roc] Cmm Bert","steam_id":76561198016658674,"connected_time":3157000000000,"state":"active","ping":65},{"user_id":136,"name":"After8","steam_id":76561198090750865,"connected_time":11271000000000,"state":"active","ping":74},{"user_id":262,"name":"Rubi","steam_id":76561198139410003,"connected_time":3926000000000,"state":"active","ping":71},{"user_id":268,"name":"Nika","steam_id":76561198355965587,"connected_time":2797000000000,"state":"active","ping":60},{"user_id":299,"name":"Carpe diem.","steam_id":76561199065917088,"connected_time":555000000000,"state":"active","ping":68},{"user_id":286,"name":"Yelowchy","steam_id":76561198199416121,"connected_time":1820000000000,"state":"active","ping":101},{"user_id":301,"name":"Kam√¢l ‚Ö°","steam_id":76561198092681781,"connected_time":201000000000,"state":"active","ping":110},{"user_id":288,"name":"Ooze","steam_id":76561198039642637,"connected_time":1665000000000,"state":"active","ping":80},{"user_id":298,"name":"Yoshikage Kira","steam_id":76561199051752886,"connected_time":1069000000000,"state":"active","ping":51},{"user_id":225,"name":"Ducky[WADZ]üê§","steam_id":76561198060341245,"connected_time":6019000000000,"state":"active","ping":51},{"user_id":154,"name":"lulu","steam_id":76561199147764133,"connected_time":9546000000000,"state":"active","ping":87},{"user_id":304,"name":"miko polo","steam_id":76561198430649064,"connected_time":172000000000,"state":"active","ping":71},{"user_id":291,"name":"Biggie Bennet W Swagga Jam","steam_id":76561198087638023,"connected_time":1434000000000,"state":"active","ping":50},{"user_id":282,"name":"Vox","steam_id":76561198089889409,"connected_time":2109000000000,"state":"active","ping":66},{"user_id":303,"name":"L√∂ys√§ Masa","steam_id":76561198343396172,"connected_time":183000000000,"state":"active","ping":89},{"user_id":287,"name":"hide on bush","steam_id":76561198149967445,"connected_time":1820000000000,"state":"active","ping":45},{"user_id":293,"name":"Festive Cinek | Merry Christmas","steam_id":76561198133810911,"connected_time":1413000000000,"state":"active","ping":70},{"user_id":308,"name":"Raxor","steam_id":76561198239927434,"connected_time":121000000000,"state":"active","ping":90},{"user_id":309,"name":"Eoka Gaming","steam_id":76561198028044585,"connected_time":78000000000,"state":"active","ping":74},{"user_id":275,"name":"bean","steam_id":76561198347365909,"connected_time":2482000000000,"state":"active","ping":66},{"user_id":296,"name":"SNAIDS","steam_id":76561198300211898,"connected_time":1385000000000,"state":"active","ping":80}]},{"server_id":23,"name":"Uncletopia | Frankfurt | 7 | Stopwatch Beta","name_short":"frk-7","host":"frk-1.de.uncletopia.com","port":27075,"enabled":true,"region":"eu","cc":"de","latitude":50.110924,"longitude":8.682127,"reserved":0,"last_update":"0001-01-01T00:00:00Z","name_a2s":"Uncletopia | Frankfurt | 7 | Stopwatch Beta","protocol":17,"map":"workshop/pl_barnblitz_pro7.ugc582280235","folder":"tf","game":"Team Fortress","app_id":440,"player_count":0,"max_players":24,"Bots":0,"server_type":"Dedicated","server_os":"Linux","password":true,"vac":true,"version":"7723704","steam_id":85568392924742827,"keywords":["nocrits","nodmgspread","payload","uncletopia"],"game_id":440,"stv_port":27076,"stv_name":"Uncletopia | Frankfurt | 7 | Stopwatch Beta | STV","players":null},{"server_id":24,"name":"Uncletopia | Frankfurt | 8 | Community","name_short":"frk-8","host":"frk-1.de.uncletopia.com","port":27085,"enabled":true,"region":"eu","cc":"de","latitude":50.110924,"longitude":8.682127,"reserved":0,"last_update":"0001-01-01T00:00:00Z","name_a2s":"Uncletopia | Frankfurt | 8 | Community","protocol":17,"map":"workshop/pl_barnblitz_pro7.ugc582280235","folder":"tf","game":"Team Fortress","app_id":440,"player_count":0,"max_players":24,"Bots":0,"server_type":"Dedicated","server_os":"Linux","password":true,"vac":true,"version":"7723704","steam_id":85568392924742828,"keywords":["nocrits","nodmgspread","payload","uncletopia"],"game_id":440,"stv_port":27086,"stv_name":"Uncletopia | Frankfurt | 8 | Community | STV","players":null},{"server_id":202,"name":"Uncletopia | Hong Kong | 1 | All Maps","name_short":"hgk-1","host":"hgk-1.hk.uncletopia.com","port":27015,"enabled":true,"region":"asia","cc":"hk","latitude":22.302711,"longitude":114.177216,"reserved":0,"last_update":"0001-01-01T00:00:00Z","name_a2s":"Uncletopia | Hong Kong | 1 | All Maps","protocol":17,"map":"ctf_2fort","folder":"tf","game":"Team Fortress","app_id":440,"player_count":0,"max_players":24,"Bots":0,"server_type":"Dedicated","server_os":"Linux","password":true,"vac":true,"version":"7723704","steam_id":85568392924494504,"keywords":["ctf","nocrits","nodmgspread","uncletopia"],"game_id":440,"stv_port":27016,"stv_name":"Uncletopia | Hong Kong | 1 | All Maps | STV","players":null},{"server_id":1,"name":"Uncletopia | Los Angeles | 1 | All Maps","name_short":"lax-1","host":"lax-1.us.uncletopia.com","port":27015,"enabled":true,"region":"us-west","cc":"us","latitude":33.94279,"longitude":-118.41004,"reserved":0,"last_update":"0001-01-01T00:00:00Z","name_a2s":"Uncletopia | Los Angeles | 1 | All Maps","protocol":17,"map":"pl_thundermountain","folder":"tf","game":"Team Fortress","app_id":440,"player_count":24,"max_players":24,"Bots":0,"server_type":"Dedicated","server_os":"Linux","password":true,"vac":true,"version":"7723704","steam_id":85568392924469991,"keywords":["nocrits","nodmgspread","payload","uncletopia"],"game_id":440,"stv_port":27016,"stv_name":"Uncletopia | Los Angeles | 1 | All Maps | STV","players":[{"user_id":101,"name":"Star","steam_id":76561198422395239,"connected_time":532000000000,"state":"active","ping":45},{"user_id":95,"name":"dust","steam_id":76561198045218909,"connected_time":1648000000000,"state":"active","ping":61},{"user_id":89,"name":"ah","steam_id":76561197966774210,"connected_time":2157000000000,"state":"active","ping":112},{"user_id":102,"name":"Frontier Psychiatrist","steam_id":76561198038689088,"connected_time":531000000000,"state":"active","ping":114},{"user_id":100,"name":"trackpad gaming | f2p","steam_id":76561198840414371,"connected_time":680000000000,"state":"active","ping":78},{"user_id":106,"name":"Overture","steam_id":76561198364564873,"connected_time":352000000000,"state":"active","ping":120},{"user_id":110,"name":"Board","steam_id":76561198134326473,"connected_time":256000000000,"state":"active","ping":92},{"user_id":43,"name":"Tohru Adachi","steam_id":76561198302118756,"connected_time":6173000000000,"state":"active","ping":56},{"user_id":105,"name":"Schmeat Lover's Pizza","steam_id":76561199219790713,"connected_time":413000000000,"state":"active","ping":116},{"user_id":91,"name":"Scout.tf","steam_id":76561199241807676,"connected_time":2036000000000,"state":"active","ping":84},{"user_id":107,"name":"acal gasa","steam_id":76561198402964663,"connected_time":348000000000,"state":"active","ping":64},{"user_id":108,"name":"Peido Magro","steam_id":76561199169499520,"connected_time":307000000000,"state":"active","ping":67},{"user_id":84,"name":"What are you doing?!","steam_id":76561198405248691,"connected_time":2631000000000,"state":"active","ping":281},{"user_id":113,"name":"the crusader","steam_id":76561199121421613,"connected_time":126000000000,"state":"active","ping":113},{"user_id":114,"name":":3 | ph0va_ \u003c3 sab","steam_id":76561198309010627,"connected_time":87000000000,"state":"active","ping":69},{"user_id":70,"name":"moe","steam_id":76561198929586245,"connected_time":3471000000000,"state":"active","ping":57},{"user_id":111,"name":"Kylar","steam_id":76561198196979431,"connected_time":248000000000,"state":"active","ping":47},{"user_id":94,"name":"Dad 2","steam_id":76561198138546187,"connected_time":1694000000000,"state":"active","ping":53},{"user_id":56,"name":"The Toucher","steam_id":76561198263739357,"connected_time":4225000000000,"state":"active","ping":60},{"user_id":99,"name":"Box","steam_id":76561198880013848,"connected_time":1123000000000,"state":"active","ping":54},{"user_id":82,"name":"fL0","steam_id":76561197990989939,"connected_time":2741000000000,"state":"active","ping":68},{"user_id":112,"name":"S p a f f y","steam_id":76561198047892151,"connected_time":238000000000,"state":"active","ping":82},{"user_id":80,"name":"jacix3 [gay wolfgirl]{she/it}","steam_id":76561198205004165,"connected_time":2972000000000,"state":"active","ping":79},{"user_id":96,"name":"ZEKKER","steam_id":76561197967968980,"connected_time":1323000000000,"state":"active","ping":82}]},{"server_id":112,"name":"Uncletopia | Los Angeles | 2 | All Maps","name_short":"lax-2","host":"lax-1.us.uncletopia.com","port":27025,"enabled":true,"region":"us-west","cc":"us","latitude":33.94279,"longitude":-118.41004,"reserved":0,"last_update":"0001-01-01T00:00:00Z","name_a2s":"Uncletopia | Los Angeles | 2 | All Maps","protocol":17,"map":"koth_viaduct","folder":"tf","game":"Team Fortress","app_id":440,"player_count":0,"max_players":24,"Bots":0,"server_type":"Dedicated","server_os":"Linux","password":true,"vac":true,"version":"7723704","steam_id":85568392924469992,"keywords":["cp","nocrits","nodmgspread","uncletopia"],"game_id":440,"stv_port":27026,"stv_name":"Uncletopia | Los Angeles | 2 | All Maps | STV","players":null},{"server_id":324,"name":"Uncletopia | Los Angeles | 3 | All Maps","name_short":"lax-3","host":"lax-1.us.uncletopia.com","port":27035,"enabled":true,"region":"us-west","cc":"us","latitude":33.94279,"longitude":-118.41004,"reserved":0,"last_update":"0001-01-01T00:00:00Z","name_a2s":"Uncletopia | Los Angeles | 3 | All Maps","protocol":17,"map":"koth_viaduct","folder":"tf","game":"Team Fortress","app_id":440,"player_count":0,"max_players":24,"Bots":0,"server_type":"Dedicated","server_os":"Linux","password":true,"vac":true,"version":"7723704","steam_id":85568392924510198,"keywords":["cp","nocrits","nodmgspread","uncletopia"],"game_id":440,"stv_port":27036,"stv_name":"Uncletopia | Los Angeles | 3 | All Maps | STV","players":null},{"server_id":25,"name":"Uncletopia | Los Angeles | 4 | Stopwatch Beta","name_short":"lax-4","host":"lax-1.us.uncletopia.com","port":27045,"enabled":true,"region":"us-west","cc":"us","latitude":33.94279,"longitude":-118.41004,"reserved":0,"last_update":"0001-01-01T00:00:00Z","name_a2s":"Uncletopia | Los Angeles | 4 | Stopwatch Beta","protocol":17,"map":"cp_sunshine","folder":"tf","game":"Team Fortress","app_id":440,"player_count":0,"max_players":24,"Bots":0,"server_type":"Dedicated","server_os":"Linux","password":true,"vac":true,"version":"7723704","steam_id":85568392924510199,"keywords":["cp","nocrits","nodmgspread","uncletopia"],"game_id":440,"stv_port":27046,"stv_name":"Uncletopia | Los Angeles | 4 | Stopwatch Beta | STV","players":null},{"server_id":11,"name":"Uncletopia | London | 1 | All Maps","name_short":"lon-1","host":"lon-1.uk.uncletopia.com","port":27015,"enabled":true,"region":"eu","cc":"gb","latitude":51.509865,"longitude":-0.118092,"reserved":0,"last_update":"0001-01-01T00:00:00Z","name_a2s":"Uncletopia | London | 1 | All Maps","protocol":17,"map":"pl_badwater","folder":"tf","game":"Team Fortress","app_id":440,"player_count":24,"max_players":24,"Bots":0,"server_type":"Dedicated","server_os":"Linux","password":true,"vac":true,"version":"7723704","steam_id":85568392924367362,"keywords":["nocrits","nodmgspread","payload","uncletopia"],"game_id":440,"stv_port":27016,"stv_name":"Uncletopia | London | 1 | All Maps | STV","players":[{"user_id":730,"name":"Minecraftien_76","steam_id":76561198443111849,"connected_time":291000000000,"state":"active","ping":116},{"user_id":723,"name":"f√©nix","steam_id":76561198083199151,"connected_time":1219000000000,"state":"active","ping":57},{"user_id":719,"name":"MAKENTAKEN","steam_id":76561199127359587,"connected_time":1405000000000,"state":"active","ping":105},{"user_id":729,"name":"Ancient Mariner","steam_id":76561198209101861,"connected_time":381000000000,"state":"active","ping":74},{"user_id":682,"name":"unbelievable polish behavior","steam_id":76561198126524735,"connected_time":4909000000000,"state":"active","ping":83},{"user_id":561,"name":"Bones","steam_id":76561198065081225,"connected_time":12262000000000,"state":"active","ping":36},{"user_id":565,"name":"LarsInABox","steam_id":76561198028329262,"connected_time":11885000000000,"state":"active","ping":74},{"user_id":716,"name":"MedReal#2670","steam_id":76561198278285460,"connected_time":1530000000000,"state":"active","ping":143},{"user_id":724,"name":"snazzyyy","steam_id":76561198143529110,"connected_time":1067000000000,"state":"active","ping":48},{"user_id":710,"name":"Deva Path","steam_id":76561198085763542,"connected_time":2428000000000,"state":"active","ping":82},{"user_id":726,"name":"Your Lovely Medic","steam_id":76561198039326848,"connected_time":774000000000,"state":"active","ping":75},{"user_id":689,"name":"nudjura","steam_id":76561198281986139,"connected_time":4291000000000,"state":"active","ping":46},{"user_id":693,"name":"Do not kill the friendly","steam_id":76561198084982609,"connected_time":3848000000000,"state":"active","ping":163},{"user_id":665,"name":"Maranhadas","steam_id":76561198152856761,"connected_time":5879000000000,"state":"active","ping":153},{"user_id":714,"name":"snuggle!","steam_id":76561198817646871,"connected_time":1803000000000,"state":"active","ping":117},{"user_id":690,"name":"Sloppy polish handyman","steam_id":76561198126398022,"connected_time":4213000000000,"state":"active","ping":75},{"user_id":697,"name":"Poppy Stingray","steam_id":76561198049673783,"connected_time":3389000000000,"state":"active","ping":82},{"user_id":717,"name":"Cillian","steam_id":76561199046965320,"connected_time":1521000000000,"state":"active","ping":77},{"user_id":712,"name":"space witch","steam_id":76561199026097466,"connected_time":2183000000000,"state":"active","ping":76},{"user_id":725,"name":"trite","steam_id":76561197983765323,"connected_time":999000000000,"state":"active","ping":44},{"user_id":728,"name":"Wumbo","steam_id":76561199030515230,"connected_time":506000000000,"state":"active","ping":52},{"user_id":566,"name":"Serton‚ôù","steam_id":76561198011061126,"connected_time":11739000000000,"state":"active","ping":81},{"user_id":645,"name":"ghost","steam_id":76561198189940229,"connected_time":7523000000000,"state":"active","ping":60},{"user_id":681,"name":"Boobs grader","steam_id":76561198062107879,"connected_time":5041000000000,"state":"active","ping":83}]},{"server_id":114,"name":"Uncletopia | London | 2 | All Maps","name_short":"lon-2","host":"lon-1.uk.uncletopia.com","port":27025,"enabled":true,"region":"eu","cc":"gb","latitude":51.509865,"longitude":-0.118092,"reserved":0,"last_update":"0001-01-01T00:00:00Z","name_a2s":"Uncletopia | London | 2 | All Maps","protocol":17,"map":"koth_harvest_final","folder":"tf","game":"Team Fortress","app_id":440,"player_count":23,"max_players":24,"Bots":0,"server_type":"Dedicated","server_os":"Linux","password":true,"vac":true,"version":"7723704","steam_id":85568392924470941,"keywords":["cp","nocrits","nodmgspread","uncletopia"],"game_id":440,"stv_port":27026,"stv_name":"Uncletopia | London | 2 | All Maps | STV","players":[{"user_id":522,"name":"F0xy9","steam_id":76561198118105723,"connected_time":1748000000000,"state":"active","ping":50},{"user_id":545,"name":"Koalified","steam_id":76561198095350290,"connected_time":989000000000,"state":"active","ping":182},{"user_id":467,"name":"steve","steam_id":76561198170409402,"connected_time":5774000000000,"state":"active","ping":67},{"user_id":524,"name":"Slex_","steam_id":76561198118483396,"connected_time":1686000000000,"state":"active","ping":58},{"user_id":539,"name":"mex :3","steam_id":76561198091083324,"connected_time":1044000000000,"state":"active","ping":62},{"user_id":510,"name":"Thesis","steam_id":76561199308784371,"connected_time":2988000000000,"state":"active","ping":55},{"user_id":556,"name":"Mr.Schnittlauch","steam_id":76561198295868113,"connected_time":371000000000,"state":"active","ping":67},{"user_id":555,"name":"royalon1110","steam_id":76561199131973613,"connected_time":494000000000,"state":"active","ping":104},{"user_id":551,"name":"Mari Christmas","steam_id":76561197997020707,"connected_time":679000000000,"state":"active","ping":59},{"user_id":542,"name":"makaronrycy","steam_id":76561198018208790,"connected_time":1035000000000,"state":"active","ping":82},{"user_id":543,"name":"Typical","steam_id":76561199009805172,"connected_time":1000000000000,"state":"active","ping":59},{"user_id":536,"name":"Dises Dr. Kollege","steam_id":76561198027697768,"connected_time":1185000000000,"state":"active","ping":86},{"user_id":475,"name":"demoknight","steam_id":76561198320028262,"connected_time":5127000000000,"state":"active","ping":85},{"user_id":505,"name":"b l ea ch","steam_id":76561198074502400,"connected_time":3245000000000,"state":"active","ping":98},{"user_id":560,"name":"Well","steam_id":76561198411337640,"connected_time":133000000000,"state":"active","ping":93},{"user_id":520,"name":"dickcember","steam_id":76561198256262286,"connected_time":1932000000000,"state":"active","ping":55},{"user_id":541,"name":"The Big J","steam_id":76561198158202901,"connected_time":1039000000000,"state":"active","ping":60},{"user_id":550,"name":"Criterion","steam_id":76561198128829201,"connected_time":814000000000,"state":"active","ping":49},{"user_id":519,"name":"i am bread","steam_id":76561199180277321,"connected_time":2114000000000,"state":"active","ping":43},{"user_id":559,"name":"love me, kiss me, fuck me.","steam_id":76561199184831395,"connected_time":166000000000,"state":"active","ping":45},{"user_id":552,"name":"faccboi","steam_id":76561198137816642,"connected_time":625000000000,"state":"active","ping":52},{"user_id":471,"name":"Dark Lord","steam_id":76561198047359132,"connected_time":5632000000000,"state":"active","ping":75},{"user_id":547,"name":"Mulenmul","steam_id":76561199039796992,"connected_time":954000000000,"state":"active","ping":60}]},{"server_id":320,"name":"Uncletopia | London | 3 | All Maps","name_short":"lon-3","host":"lon-1.uk.uncletopia.com","port":27035,"enabled":true,"region":"eu","cc":"gb","latitude":51.509865,"longitude":-0.118092,"reserved":0,"last_update":"0001-01-01T00:00:00Z","name_a2s":"Uncletopia | London | 3 | All Maps","protocol":17,"map":"pl_snowycoast","folder":"tf","game":"Team Fortress","app_id":440,"player_count":23,"max_players":24,"Bots":0,"server_type":"Dedicated","server_os":"Linux","password":true,"vac":true,"version":"7723704","steam_id":85568392924510192,"keywords":["nocrits","nodmgspread","payload","uncletopia"],"game_id":440,"stv_port":27036,"stv_name":"Uncletopia | London | 3 | All Maps | STV","players":[{"user_id":458,"name":"Frazzles","steam_id":76561199228009586,"connected_time":2069000000000,"state":"active","ping":49},{"user_id":464,"name":"Creep","steam_id":76561198067157049,"connected_time":1471000000000,"state":"active","ping":47},{"user_id":476,"name":"Kieranite","steam_id":76561198059607762,"connected_time":114000000000,"state":"active","ping":39},{"user_id":470,"name":"Smag","steam_id":76561198153675141,"connected_time":159000000000,"state":"active","ping":47},{"user_id":452,"name":"timothytreestand-041165","steam_id":76561197995676953,"connected_time":2847000000000,"state":"active","ping":60},{"user_id":473,"name":"frosty","steam_id":76561198094560834,"connected_time":121000000000,"state":"spawning","ping":69},{"user_id":460,"name":"V1 is in my ass","steam_id":76561198107362485,"connected_time":2046000000000,"state":"active","ping":71},{"user_id":472,"name":"640x480","steam_id":76561198304515309,"connected_time":125000000000,"state":"active","ping":74},{"user_id":474,"name":"Genuine Bear","steam_id":76561198290782996,"connected_time":120000000000,"state":"active","ping":73},{"user_id":338,"name":"YILK","steam_id":76561198077913307,"connected_time":11753000000000,"state":"active","ping":48},{"user_id":479,"name":"madman hesus","steam_id":76561198159702599,"connected_time":68000000000,"state":"active","ping":71},{"user_id":463,"name":"[Sheep] Tomco","steam_id":76561198388549261,"connected_time":1897000000000,"state":"active","ping":50},{"user_id":468,"name":"GabGame","steam_id":76561198105631808,"connected_time":455000000000,"state":"active","ping":53},{"user_id":465,"name":"Lamb","steam_id":76561198106868468,"connected_time":1105000000000,"state":"active","ping":57},{"user_id":467,"name":"Trytard","steam_id":76561198094507220,"connected_time":1001000000000,"state":"active","ping":50},{"user_id":477,"name":"Lag","steam_id":76561198159360376,"connected_time":110000000000,"state":"active","ping":41},{"user_id":466,"name":"Happy Halloween","steam_id":76561198042687780,"connected_time":1035000000000,"state":"active","ping":89},{"user_id":478,"name":"kitori","steam_id":76561198052568438,"connected_time":100000000000,"state":"active","ping":54},{"user_id":480,"name":"\u003cTFP\u003e Zirk","steam_id":76561198039345808,"connected_time":64000000000,"state":"active","ping":54},{"user_id":481,"name":"N64","steam_id":76561199077495290,"connected_time":58000000000,"state":"active","ping":64},{"user_id":482,"name":"?","steam_id":76561199114927025,"connected_time":13000000000,"state":"spawning","ping":119},{"user_id":483,"name":"fr√∂ga","steam_id":76561198412559828,"connected_time":5000000000,"state":"spawning","ping":152},{"user_id":484,"name":"Karsapaali","steam_id":76561198322322739,"connected_time":3000000000,"state":"spawning","ping":84}]},{"server_id":321,"name":"Uncletopia | London | 4 | All Maps","name_short":"lon-4","host":"lon-1.uk.uncletopia.com","port":27045,"enabled":true,"region":"eu","cc":"gb","latitude":51.509865,"longitude":-0.118092,"reserved":0,"last_update":"0001-01-01T00:00:00Z","name_a2s":"Uncletopia | London | 4 | All Maps","protocol":17,"map":"pl_thundermountain","folder":"tf","game":"Team Fortress","app_id":440,"player_count":24,"max_players":24,"Bots":0,"server_type":"Dedicated","server_os":"Linux","password":true,"vac":true,"version":"7723704","steam_id":85568392924510193,"keywords":["nocrits","nodmgspread","payload","uncletopia"],"game_id":440,"stv_port":27046,"stv_name":"Uncletopia | London | 4 | All Maps | STV","players":[{"user_id":177,"name":"calywtrawie","steam_id":76561197986723054,"connected_time":3772000000000,"state":"active","ping":74},{"user_id":233,"name":"Scipionemiliano","steam_id":76561198027646559,"connected_time":29000000000,"state":"active","ping":161},{"user_id":160,"name":"cum fart","steam_id":76561198382533813,"connected_time":5247000000000,"state":"active","ping":53},{"user_id":230,"name":"Brick","steam_id":76561197993202139,"connected_time":652000000000,"state":"active","ping":46},{"user_id":205,"name":"Pabs :D","steam_id":76561198000016962,"connected_time":2281000000000,"state":"active","ping":71},{"user_id":200,"name":"nedilya","steam_id":76561198039692077,"connected_time":2499000000000,"state":"active","ping":67},{"user_id":228,"name":"akciq ‚Åß‚Åßrespect","steam_id":76561198390963456,"connected_time":1018000000000,"state":"active","ping":91},{"user_id":190,"name":"—Ç—É–∫–∫—É –∏—Ä–º–∞","steam_id":76561197998715016,"connected_time":3247000000000,"state":"active","ping":60},{"user_id":229,"name":"Bobo","steam_id":76561198052308399,"connected_time":826000000000,"state":"active","ping":63},{"user_id":211,"name":"woosh","steam_id":76561198061127604,"connected_time":1679000000000,"state":"active","ping":46},{"user_id":232,"name":"Ricky","steam_id":76561199078364552,"connected_time":345000000000,"state":"active","ping":134},{"user_id":212,"name":"notchclaus","steam_id":76561198203152816,"connected_time":1670000000000,"state":"active","ping":54},{"user_id":218,"name":"Nextracer1","steam_id":76561198195061549,"connected_time":1470000000000,"state":"active","ping":49},{"user_id":213,"name":"0.000000001","steam_id":76561198279584681,"connected_time":1656000000000,"state":"active","ping":89},{"user_id":203,"name":"Litsuw","steam_id":76561198081785898,"connected_time":2394000000000,"state":"active","ping":73},{"user_id":231,"name":"Gnome561","steam_id":76561198183771141,"connected_time":498000000000,"state":"active","ping":67},{"user_id":220,"name":"dgz","steam_id":76561197979345019,"connected_time":1361000000000,"state":"active","ping":93},{"user_id":206,"name":"DeNilson","steam_id":76561197972535376,"connected_time":1960000000000,"state":"active","ping":77},{"user_id":197,"name":"Yatsuzume","steam_id":76561198059762108,"connected_time":2841000000000,"state":"active","ping":89},{"user_id":217,"name":"install gentoo","steam_id":76561198185257982,"connected_time":1541000000000,"state":"active","ping":77},{"user_id":173,"name":"scarf","steam_id":76561198118873912,"connected_time":4244000000000,"state":"active","ping":88},{"user_id":183,"name":"NotFionn","steam_id":76561198890525176,"connected_time":3715000000000,"state":"active","ping":73},{"user_id":222,"name":"i will unheal your scars","steam_id":76561198067994868,"connected_time":1295000000000,"state":"active","ping":148},{"user_id":202,"name":"happy yuletide","steam_id":76561198203486600,"connected_time":2463000000000,"state":"active","ping":49}]},{"server_id":21,"name":"Uncletopia | London | 5 | All Maps","name_short":"lon-5","host":"lon-1.uk.uncletopia.com","port":27055,"enabled":true,"region":"eu","cc":"gb","latitude":51.509865,"longitude":-0.118092,"reserved":0,"last_update":"0001-01-01T00:00:00Z","name_a2s":"Uncletopia | London | 5 | All Maps","protocol":17,"map":"pl_barnblitz","folder":"tf","game":"Team Fortress","app_id":440,"player_count":24,"max_players":24,"Bots":0,"server_type":"Dedicated","server_os":"Linux","password":true,"vac":true,"version":"7723704","steam_id":85568392924742829,"keywords":["nocrits","nodmgspread","payload","uncletopia"],"game_id":440,"stv_port":27056,"stv_name":"Uncletopia | London | 5 | All Maps | STV","players":[{"user_id":170,"name":"YS üë∫","steam_id":76561198040128985,"connected_time":7722000000000,"state":"active","ping":60},{"user_id":212,"name":"wombatty","steam_id":76561198046873337,"connected_time":4315000000000,"state":"active","ping":53},{"user_id":132,"name":"dairy","steam_id":76561198117033273,"connected_time":9988000000000,"state":"active","ping":62},{"user_id":237,"name":"onku","steam_id":76561199230709660,"connected_time":1479000000000,"state":"active","ping":60},{"user_id":138,"name":"wombly bombly :3","steam_id":76561198010662796,"connected_time":9656000000000,"state":"active","ping":46},{"user_id":225,"name":"downtown boy","steam_id":76561197983094802,"connected_time":3084000000000,"state":"active","ping":84},{"user_id":227,"name":"Mari_Kross","steam_id":76561198130863086,"connected_time":2501000000000,"state":"active","ping":89},{"user_id":214,"name":"Wombussy","steam_id":76561198133901720,"connected_time":4040000000000,"state":"active","ping":75},{"user_id":235,"name":"Ecton","steam_id":76561198025103720,"connected_time":1594000000000,"state":"active","ping":56},{"user_id":205,"name":"soap lore","steam_id":76561198058879767,"connected_time":4755000000000,"state":"active","ping":50},{"user_id":226,"name":"101 000 tuns of democracy","steam_id":76561198218257120,"connected_time":2608000000000,"state":"active","ping":73},{"user_id":144,"name":"wombat","steam_id":76561198076219289,"connected_time":9375000000000,"state":"active","ping":60},{"user_id":240,"name":"hi wassup","steam_id":76561198811216100,"connected_time":1209000000000,"state":"active","ping":41},{"user_id":206,"name":"British Disapproval","steam_id":76561198001375260,"connected_time":4745000000000,"state":"active","ping":52},{"user_id":192,"name":"sock","steam_id":76561199117597830,"connected_time":5901000000000,"state":"active","ping":127},{"user_id":244,"name":"makiverem","steam_id":76561198425866216,"connected_time":601000000000,"state":"active","ping":83},{"user_id":241,"name":"tortellini in brodo","steam_id":76561198066071855,"connected_time":1059000000000,"state":"active","ping":73},{"user_id":223,"name":"VK2124 :D","steam_id":76561198111130688,"connected_time":3125000000000,"state":"active","ping":59},{"user_id":238,"name":"random_player691","steam_id":76561199209946306,"connected_time":1421000000000,"state":"active","ping":53},{"user_id":233,"name":"The Spectre of Vladimir Lenin","steam_id":76561199438120787,"connected_time":1817000000000,"state":"active","ping":62},{"user_id":243,"name":"-TA- skai","steam_id":76561198184881255,"connected_time":606000000000,"state":"active","ping":65},{"user_id":204,"name":"Hugz","steam_id":76561198069572147,"connected_time":4785000000000,"state":"active","ping":56},{"user_id":239,"name":"RaR | Camembert  Deluxe","steam_id":76561197970703784,"connected_time":1382000000000,"state":"active","ping":54},{"user_id":242,"name":"not a nihilist","steam_id":76561198004340466,"connected_time":776000000000,"state":"active","ping":47}]},{"server_id":22,"name":"Uncletopia | London | 6 | All Maps","name_short":"lon-6","host":"lon-1.uk.uncletopia.com","port":27065,"enabled":true,"region":"eu","cc":"gb","latitude":51.509865,"longitude":-0.118092,"reserved":0,"last_update":"0001-01-01T00:00:00Z","name_a2s":"Uncletopia | London | 6 | All Maps","protocol":17,"map":"pl_upward","folder":"tf","game":"Team Fortress","app_id":440,"player_count":24,"max_players":24,"Bots":0,"server_type":"Dedicated","server_os":"Linux","password":true,"vac":true,"version":"7723704","steam_id":85568392924742830,"keywords":["nocrits","nodmgspread","payload","uncletopia"],"game_id":440,"stv_port":27066,"stv_name":"Uncletopia | London | 6 | All Maps | STV","players":[{"user_id":61,"name":"Ged","steam_id":76561198079288943,"connected_time":712000000000,"state":"active","ping":125},{"user_id":54,"name":"eXo(T)","steam_id":76561198839841843,"connected_time":968000000000,"state":"active","ping":64},{"user_id":53,"name":"Yxel","steam_id":76561198123982890,"connected_time":977000000000,"state":"active","ping":69},{"user_id":24,"name":"Moral","steam_id":76561198130601123,"connected_time":2354000000000,"state":"active","ping":66},{"user_id":13,"name":"jormavainen","steam_id":76561198126115435,"connected_time":2656000000000,"state":"active","ping":142},{"user_id":14,"name":"Ducc","steam_id":76561198030677425,"connected_time":2605000000000,"state":"active","ping":61},{"user_id":15,"name":"Jonathan","steam_id":76561198087988880,"connected_time":2574000000000,"state":"active","ping":59},{"user_id":16,"name":"jeqer","steam_id":76561198256573643,"connected_time":2560000000000,"state":"active","ping":63},{"user_id":17,"name":"pano","steam_id":76561198157446722,"connected_time":2534000000000,"state":"active","ping":76},{"user_id":23,"name":"Tort","steam_id":76561198329646769,"connected_time":2378000000000,"state":"active","ping":50},{"user_id":25,"name":"M A D M A X","steam_id":76561198205304508,"connected_time":2351000000000,"state":"active","ping":53},{"user_id":21,"name":"Benameme","steam_id":76561198074097655,"connected_time":2440000000000,"state":"active","ping":49},{"user_id":26,"name":"Larry Penus","steam_id":76561198207546233,"connected_time":2336000000000,"state":"active","ping":44},{"user_id":38,"name":"full power heart attack","steam_id":76561199196568965,"connected_time":2168000000000,"state":"active","ping":121},{"user_id":46,"name":"fiyahstorm","steam_id":76561197992574261,"connected_time":1635000000000,"state":"active","ping":44},{"user_id":64,"name":"Mir","steam_id":76561198271925474,"connected_time":261000000000,"state":"active","ping":54},{"user_id":63,"name":"BingusDingus","steam_id":76561198310983903,"connected_time":659000000000,"state":"active","ping":47},{"user_id":49,"name":"One armed fiddle enthusiast","steam_id":76561198045847051,"connected_time":1271000000000,"state":"active","ping":59},{"user_id":33,"name":"Clamor_","steam_id":76561198104368295,"connected_time":2269000000000,"state":"active","ping":75},{"user_id":57,"name":"Economic crisis","steam_id":76561198063562843,"connected_time":908000000000,"state":"active","ping":65},{"user_id":35,"name":"Mankor","steam_id":76561198020439322,"connected_time":2245000000000,"state":"active","ping":60},{"user_id":59,"name":"Pachakamakk","steam_id":76561197989010401,"connected_time":799000000000,"state":"active","ping":49},{"user_id":39,"name":"BallinScout","steam_id":76561198152443697,"connected_time":2155000000000,"state":"active","ping":47},{"user_id":50,"name":"agentorange831","steam_id":76561199230862076,"connected_time":1151000000000,"state":"active","ping":71}]},{"server_id":40,"name":"Uncletopia | London | 7 | No Payload","name_short":"lon-7","host":"lon-1.uk.uncletopia.com","port":27075,"enabled":true,"region":"eu","cc":"gb","latitude":51.509865,"longitude":-0.118092,"reserved":0,"last_update":"0001-01-01T00:00:00Z","name_a2s":"Uncletopia | London | 7 | No Payload","protocol":17,"map":"plr_nightfall_final","folder":"tf","game":"Team Fortress","app_id":440,"player_count":0,"max_players":24,"Bots":0,"server_type":"Dedicated","server_os":"Linux","password":true,"vac":true,"version":"7723704","steam_id":85568392924964314,"keywords":["nocrits","nodmgspread","payload","uncletopia"],"game_id":440,"stv_port":27076,"stv_name":"Uncletopia | London | 7 | No Payload | STV","players":null},{"server_id":41,"name":"Uncletopia | London | 8 | Community","name_short":"lon-8","host":"lon-1.uk.uncletopia.com","port":27085,"enabled":true,"region":"eu","cc":"gb","latitude":51.509865,"longitude":-0.118092,"reserved":0,"last_update":"0001-01-01T00:00:00Z","name_a2s":"Uncletopia | London | 8 | Community","protocol":17,"map":"koth_highpass","folder":"tf","game":"Team Fortress","app_id":440,"player_count":1,"max_players":24,"Bots":0,"server_type":"Dedicated","server_os":"Linux","password":true,"vac":true,"version":"7723704","steam_id":85568392924964315,"keywords":["cp","nocrits","nodmgspread","uncletopia"],"game_id":440,"stv_port":27086,"stv_name":"Uncletopia | London | 8 | Community | STV","players":[{"user_id":16,"name":"xXx_Twink_Hunter_xXx","steam_id":76561198397024973,"connected_time":175000000000,"state":"active","ping":29}]},{"server_id":300,"name":"Uncletopia | Montr√©al | 1 | All Maps","name_short":"mtl-1","host":"mtl-1.ca.uncletopia.com","port":27015,"enabled":true,"region":"us-east","cc":"ca","latitude":45.50889,"longitude":-73.56167,"reserved":0,"last_update":"0001-01-01T00:00:00Z","name_a2s":"Uncletopia | Montr√©al | 1 | All Maps","protocol":17,"map":"cp_mountainlab","folder":"tf","game":"Team Fortress","app_id":440,"player_count":0,"max_players":24,"Bots":0,"server_type":"Dedicated","server_os":"Linux","password":true,"vac":true,"version":"7723704","steam_id":85568392924500087,"keywords":["cp","nocrits","nodmgspread","uncletopia"],"game_id":440,"stv_port":27016,"stv_name":"Uncletopia | Montr√©al | 1 | All Maps | STV","players":null},{"server_id":301,"name":"Uncletopia | Montr√©al | 2 | All Maps","name_short":"mtl-2","host":"mtl-1.ca.uncletopia.com","port":27025,"enabled":true,"region":"us-east","cc":"ca","latitude":45.50889,"longitude":-73.56167,"reserved":0,"last_update":"0001-01-01T00:00:00Z","name_a2s":"Uncletopia | Montr√©al | 2 | All Maps","protocol":17,"map":"cp_process_final","folder":"tf","game":"Team Fortress","app_id":440,"player_count":0,"max_players":24,"Bots":0,"server_type":"Dedicated","server_os":"Linux","password":true,"vac":true,"version":"7723704","steam_id":85568392924500088,"keywords":["cp","nocrits","nodmgspread","uncletopia"],"game_id":440,"stv_port":27026,"stv_name":"Uncletopia | Montr√©al | 2 | All Maps | STV","players":null},{"server_id":302,"name":"Uncletopia | Montr√©al | 3 | All Maps","name_short":"mtl-3","host":"mtl-1.ca.uncletopia.com","port":27035,"enabled":true,"region":"us-east","cc":"ca","latitude":45.50889,"longitude":-73.56167,"reserved":0,"last_update":"0001-01-01T00:00:00Z","name_a2s":"Uncletopia | Montr√©al | 3 | All Maps","protocol":17,"map":"pl_barnblitz","folder":"tf","game":"Team Fortress","app_id":440,"player_count":0,"max_players":24,"Bots":0,"server_type":"Dedicated","server_os":"Linux","password":true,"vac":true,"version":"7723704","steam_id":85568392924500089,"keywords":["nocrits","nodmgspread","payload","uncletopia"],"game_id":440,"stv_port":27036,"stv_name":"Uncletopia | Montr√©al | 3 | All Maps | STV","players":null},{"server_id":303,"name":"Uncletopia | Montr√©al | 4 | No Payload","name_short":"mtl-4","host":"mtl-1.ca.uncletopia.com","port":27045,"enabled":true,"region":"us-east","cc":"ca","latitude":45.50889,"longitude":-73.56167,"reserved":0,"last_update":"0001-01-01T00:00:00Z","name_a2s":"Uncletopia | Montr√©al | 4 | No Payload","protocol":17,"map":"koth_cascade","folder":"tf","game":"Team Fortress","app_id":440,"player_count":0,"max_players":24,"Bots":0,"server_type":"Dedicated","server_os":"Linux","password":true,"vac":true,"version":"7723704","steam_id":85568392924500090,"keywords":["cp","nocrits","nodmgspread","uncletopia"],"game_id":440,"stv_port":27046,"stv_name":"Uncletopia | Montr√©al | 4 | No Payload | STV","players":null},{"server_id":13,"name":"Uncletopia | New York City | 1 | All Maps","name_short":"nyc-1","host":"nyc-1.us.uncletopia.com","port":27015,"enabled":true,"region":"us-east","cc":"us","latitude":40.73061,"longitude":-73.93524,"reserved":0,"last_update":"0001-01-01T00:00:00Z","name_a2s":"Uncletopia | New York City | 1 | All Maps","protocol":17,"map":"pl_upward","folder":"tf","game":"Team Fortress","app_id":440,"player_count":0,"max_players":24,"Bots":0,"server_type":"Dedicated","server_os":"Linux","password":true,"vac":true,"version":"7723704","steam_id":85568392924469993,"keywords":["nocrits","nodmgspread","payload","uncletopia"],"game_id":440,"stv_port":27016,"stv_name":"Uncletopia | New York City | 1 | All Maps | STV","players":null},{"server_id":14,"name":"Uncletopia | New York City | 2 | All Maps","name_short":"nyc-2","host":"nyc-1.us.uncletopia.com","port":27025,"enabled":true,"region":"us-east","cc":"us","latitude":40.73061,"longitude":-73.93524,"reserved":0,"last_update":"0001-01-01T00:00:00Z","name_a2s":"Uncletopia | New York City | 2 | All Maps","protocol":17,"map":"pl_badwater","folder":"tf","game":"Team Fortress","app_id":440,"player_count":0,"max_players":24,"Bots":0,"server_type":"Dedicated","server_os":"Linux","password":true,"vac":true,"version":"7723704","steam_id":85568392924469994,"keywords":["nocrits","nodmgspread","payload","uncletopia"],"game_id":440,"stv_port":27026,"stv_name":"Uncletopia | New York City | 2 | All Maps | STV","players":null},{"server_id":15,"name":"Uncletopia | New York City | 3 | Stopwatch Beta","name_short":"nyc-3","host":"nyc-1.us.uncletopia.com","port":27035,"enabled":true,"region":"us-east","cc":"us","latitude":40.73061,"longitude":-73.93524,"reserved":0,"last_update":"0001-01-01T00:00:00Z","name_a2s":"Uncletopia | New York City | 3 | Stopwatch Beta","protocol":17,"map":"cp_process_final","folder":"tf","game":"Team Fortress","app_id":440,"player_count":0,"max_players":24,"Bots":0,"server_type":"Dedicated","server_os":"Linux","password":true,"vac":true,"version":"7723704","steam_id":85568392924742820,"keywords":["cp","nocrits","nodmgspread","uncletopia"],"game_id":440,"stv_port":27036,"stv_name":"Uncletopia | New York City | 3 | Stopwatch Beta | STV","players":null},{"server_id":16,"name":"Uncletopia | New York City | 4 | Community","name_short":"nyc-4","host":"nyc-1.us.uncletopia.com","port":27045,"enabled":true,"region":"us-east","cc":"us","latitude":40.73061,"longitude":-73.93524,"reserved":0,"last_update":"0001-01-01T00:00:00Z","name_a2s":"Uncletopia | New York City | 4 | Community","protocol":17,"map":"workshop/cp_caldera_rc2.ugc2834196889","folder":"tf","game":"Team Fortress","app_id":440,"player_count":0,"max_players":24,"Bots":0,"server_type":"Dedicated","server_os":"Linux","password":true,"vac":true,"version":"7723704","steam_id":85568392924742821,"keywords":["cp","nocrits","nodmgspread","uncletopia"],"game_id":440,"stv_port":27046,"stv_name":"Uncletopia | New York City | 4 | Community | STV","players":null},{"server_id":142,"name":"Uncletopia | S√£o Paulo | 1 | All Maps","name_short":"sao-1","host":"sao-1.br.uncletopia.com","port":27015,"enabled":true,"region":"sa","cc":"br","latitude":-23.533773,"longitude":-46.62529,"reserved":0,"last_update":"0001-01-01T00:00:00Z","name_a2s":"Uncletopia | S√£o Paulo | 1 | All Maps","protocol":17,"map":"pl_snowycoast","folder":"tf","game":"Team Fortress","app_id":440,"player_count":0,"max_players":24,"Bots":0,"server_type":"Dedicated","server_os":"Linux","password":true,"vac":true,"version":"7723704","steam_id":85568392924469996,"keywords":["nocrits","nodmgspread","payload","uncletopia"],"game_id":440,"stv_port":27016,"stv_name":"Uncletopia | S√£o Paulo | 1 | All Maps | STV","players":null},{"server_id":143,"name":"Uncletopia | S√£o Paulo | 2 | All Maps","name_short":"sao-2","host":"sao-2.br.uncletopia.com","port":27015,"enabled":true,"region":"sa","cc":"br","latitude":-23.533773,"longitude":-46.62529,"reserved":0,"last_update":"0001-01-01T00:00:00Z","name_a2s":"Uncletopia | S√£o Paulo | 2 | All Maps","protocol":17,"map":"cp_mountainlab","folder":"tf","game":"Team Fortress","app_id":440,"player_count":0,"max_players":24,"Bots":0,"server_type":"Dedicated","server_os":"Linux","password":true,"vac":true,"version":"7723704","steam_id":85568392924485349,"keywords":["cp","nocrits","nodmgspread","uncletopia"],"game_id":440,"stv_port":27016,"stv_name":"Uncletopia | S√£o Paulo | 2 | All Maps | STV","players":null},{"server_id":7,"name":"Uncletopia | Seattle | 1 | All Maps","name_short":"sea-1","host":"sea-1.us.uncletopia.com","port":27015,"enabled":true,"region":"us-west","cc":"us","latitude":47.608013,"longitude":-122.33517,"reserved":0,"last_update":"0001-01-01T00:00:00Z","name_a2s":"Uncletopia | Seattle | 1 | All Maps","protocol":17,"map":"koth_cascade","folder":"tf","game":"Team Fortress","app_id":440,"player_count":2,"max_players":24,"Bots":0,"server_type":"Dedicated","server_os":"Linux","password":true,"vac":true,"version":"7723704","steam_id":85568392924469997,"keywords":["cp","nocrits","nodmgspread","uncletopia"],"game_id":440,"stv_port":27016,"stv_name":"Uncletopia | Seattle | 1 | All Maps | STV","players":[{"user_id":26,"name":"D34dR4bbit","steam_id":76561198167411455,"connected_time":702000000000,"state":"active","ping":45},{"user_id":27,"name":"jheimpel2","steam_id":76561198052328309,"connected_time":152000000000,"state":"active","ping":107}]},{"server_id":119,"name":"Uncletopia | Seattle | 2 | All Maps","name_short":"sea-2","host":"sea-1.us.uncletopia.com","port":27025,"enabled":true,"region":"us-west","cc":"us","latitude":47.608013,"longitude":-122.33517,"reserved":0,"last_update":"0001-01-01T00:00:00Z","name_a2s":"Uncletopia | Seattle | 2 | All Maps","protocol":17,"map":"pl_swiftwater_final1","folder":"tf","game":"Team Fortress","app_id":440,"player_count":2,"max_players":24,"Bots":0,"server_type":"Dedicated","server_os":"Linux","password":true,"vac":true,"version":"7723704","steam_id":85568392924469998,"keywords":["nocrits","nodmgspread","payload","uncletopia"],"game_id":440,"stv_port":27026,"stv_name":"Uncletopia | Seattle | 2 | All Maps | STV","players":[{"user_id":19,"name":"Idontknow","steam_id":76561199207044048,"connected_time":114000000000,"state":"active","ping":45},{"user_id":20,"name":"TheBold","steam_id":76561199194787298,"connected_time":57000000000,"state":"active","ping":56}]},{"server_id":406,"name":"Uncletopia | Seattle | 3 | Stopwatch Beta","name_short":"sea-3","host":"sea-1.us.uncletopia.com","port":27035,"enabled":true,"region":"us-west","cc":"us","latitude":47.608013,"longitude":-122.33517,"reserved":0,"last_update":"0001-01-01T00:00:00Z","name_a2s":"Uncletopia | Seattle | 3 | Stopwatch Beta","protocol":17,"map":"cp_altitude","folder":"tf","game":"Team Fortress","app_id":440,"player_count":0,"max_players":24,"Bots":0,"server_type":"Dedicated","server_os":"Linux","password":true,"vac":false,"version":"7723704","steam_id":0,"keywords":["cp","nocrits","nodmgspread","uncletopia"],"game_id":440,"stv_port":27036,"stv_name":"Uncletopia | Seattle | 3 | Stopwatch Beta | STV","players":null},{"server_id":17,"name":"Uncletopia | San Francisco | 1 | All Maps","name_short":"sfo-1","host":"sfo-1.us.uncletopia.com","port":27015,"enabled":true,"region":"us-west","cc":"us","latitude":37.77397,"longitude":-122.4313,"reserved":0,"last_update":"0001-01-01T00:00:00Z","name_a2s":"Uncletopia | San Francisco | 1 | All Maps","protocol":17,"map":"cp_sunshine","folder":"tf","game":"Team Fortress","app_id":440,"player_count":0,"max_players":24,"Bots":0,"server_type":"Dedicated","server_os":"Linux","password":true,"vac":true,"version":"7723704","steam_id":85568392924469999,"keywords":["cp","nocrits","nodmgspread","uncletopia"],"game_id":440,"stv_port":27016,"stv_name":"Uncletopia | San Francisco | 1 | All Maps | STV","players":null},{"server_id":18,"name":"Uncletopia | San Francisco | 2 | All Maps","name_short":"sfo-2","host":"sfo-1.us.uncletopia.com","port":27025,"enabled":true,"region":"us-west","cc":"us","latitude":37.77397,"longitude":-122.4313,"reserved":0,"last_update":"0001-01-01T00:00:00Z","name_a2s":"Uncletopia | San Francisco | 2 | All Maps","protocol":17,"map":"pl_borneo","folder":"tf","game":"Team Fortress","app_id":440,"player_count":0,"max_players":24,"Bots":0,"server_type":"Dedicated","server_os":"Linux","password":true,"vac":true,"version":"7723704","steam_id":85568392924470000,"keywords":["nocrits","nodmgspread","payload","uncletopia"],"game_id":440,"stv_port":27026,"stv_name":"Uncletopia | San Francisco | 2 | All Maps | STV","players":null},{"server_id":19,"name":"Uncletopia | San Francisco | 3 | Stopwatch Beta","name_short":"sfo-3","host":"sfo-1.us.uncletopia.com","port":27035,"enabled":true,"region":"us-west","cc":"us","latitude":37.77397,"longitude":-122.4313,"reserved":0,"last_update":"0001-01-01T00:00:00Z","name_a2s":"Uncletopia | San Francisco | 3 | Stopwatch Beta","protocol":17,"map":"pl_pier","folder":"tf","game":"Team Fortress","app_id":440,"player_count":0,"max_players":24,"Bots":0,"server_type":"Dedicated","server_os":"Linux","password":true,"vac":true,"version":"7723704","steam_id":85568392924742824,"keywords":["nocrits","nodmgspread","payload","uncletopia"],"game_id":440,"stv_port":27036,"stv_name":"Uncletopia | San Francisco | 3 | Stopwatch Beta | STV","players":null},{"server_id":20,"name":"Uncletopia | San Francisco | 4 | Community","name_short":"sfo-4","host":"sfo-1.us.uncletopia.com","port":27045,"enabled":true,"region":"us-west","cc":"us","latitude":37.77397,"longitude":-122.4313,"reserved":0,"last_update":"0001-01-01T00:00:00Z","name_a2s":"Uncletopia | San Francisco | 4 | Community","protocol":17,"map":"koth_cascade","folder":"tf","game":"Team Fortress","app_id":440,"player_count":0,"max_players":24,"Bots":0,"server_type":"Dedicated","server_os":"Linux","password":true,"vac":true,"version":"7723704","steam_id":85568392924742826,"keywords":["cp","nocrits","nodmgspread","uncletopia"],"game_id":440,"stv_port":27046,"stv_name":"Uncletopia | San Francisco | 4 | Community | STV","players":null},{"server_id":141,"name":"Uncletopia | Sydney | 1 | All Maps","name_short":"syd-1","host":"syd-1.au.uncletopia.com","port":27015,"enabled":true,"region":"au","cc":"au","latitude":-33.865143,"longitude":151.2099,"reserved":0,"last_update":"0001-01-01T00:00:00Z","name_a2s":"Uncletopia | Sydney | 1 | All Maps","protocol":17,"map":"cp_dustbowl","folder":"tf","game":"Team Fortress","app_id":440,"player_count":0,"max_players":24,"Bots":0,"server_type":"Dedicated","server_os":"Linux","password":true,"vac":true,"version":"7723704","steam_id":85568392924470001,"keywords":["cp","nocrits","nodmgspread","uncletopia"],"game_id":440,"stv_port":27016,"stv_name":"Uncletopia | Sydney | 1 | All Maps | STV","players":null},{"server_id":123,"name":"Uncletopia | Sydney | 2 | All Maps","name_short":"syd-2","host":"syd-1.au.uncletopia.com","port":27025,"enabled":true,"region":"au","cc":"au","latitude":-33.865143,"longitude":151.2099,"reserved":0,"last_update":"0001-01-01T00:00:00Z","name_a2s":"Uncletopia | Sydney | 2 | All Maps","protocol":17,"map":"cp_mountainlab","folder":"tf","game":"Team Fortress","app_id":440,"player_count":0,"max_players":24,"Bots":0,"server_type":"Dedicated","server_os":"Linux","password":true,"vac":true,"version":"7723704","steam_id":85568392924470002,"keywords":["cp","nocrits","nodmgspread","uncletopia"],"game_id":440,"stv_port":27026,"stv_name":"Uncletopia | Sydney | 2 | All Maps | STV","players":null},{"server_id":395,"name":"Uncletopia | Sydney | 3 | All Maps","name_short":"syd-3","host":"syd-1.au.uncletopia.com","port":27035,"enabled":true,"region":"au","cc":"au","latitude":-33.865143,"longitude":151.2099,"reserved":0,"last_update":"0001-01-01T00:00:00Z","name_a2s":"Uncletopia | Sydney | 3 | All Maps","protocol":17,"map":"koth_highpass","folder":"tf","game":"Team Fortress","app_id":440,"player_count":0,"max_players":24,"Bots":0,"server_type":"Dedicated","server_os":"Linux","password":true,"vac":true,"version":"7723704","steam_id":85568392925194467,"keywords":["cp","nocrits","nodmgspread","uncletopia"],"game_id":440,"stv_port":27036,"stv_name":"Uncletopia | Sydney | 3 | All Maps | STV","players":null},{"server_id":396,"name":"Uncletopia | Sydney | 4 | All Maps","name_short":"syd-4","host":"syd-1.au.uncletopia.com","port":27045,"enabled":true,"region":"au","cc":"au","latitude":-33.865143,"longitude":151.2099,"reserved":0,"last_update":"0001-01-01T00:00:00Z","name_a2s":"Uncletopia | Sydney | 4 | All Maps","protocol":17,"map":"pl_pier","folder":"tf","game":"Team Fortress","app_id":440,"player_count":0,"max_players":24,"Bots":0,"server_type":"Dedicated","server_os":"Linux","password":true,"vac":true,"version":"7723704","steam_id":85568392925397958,"keywords":["nocrits","nodmgspread","payload","uncletopia"],"game_id":440,"stv_port":27046,"stv_name":"Uncletopia | Sydney | 4 | All Maps | STV","players":null},{"server_id":58,"name":"Uncletopia | Sydney | 5 | Stopwatch Beta","name_short":"syd-5","host":"syd-1.au.uncletopia.com","port":27055,"enabled":true,"region":"au","cc":"au","latitude":-33.865143,"longitude":151.2099,"reserved":0,"last_update":"0001-01-01T00:00:00Z","name_a2s":"Uncletopia | Sydney | 5 | Stopwatch Beta","protocol":17,"map":"cp_altitude","folder":"tf","game":"Team Fortress","app_id":440,"player_count":0,"max_players":24,"Bots":0,"server_type":"Dedicated","server_os":"Linux","password":true,"vac":true,"version":"7723704","steam_id":85568392925397959,"keywords":["cp","nocrits","nodmgspread","uncletopia"],"game_id":440,"stv_port":27056,"stv_name":"Uncletopia | Sydney | 5 | Stopwatch Beta | STV","players":null},{"server_id":59,"name":"Uncletopia | Sydney | 6 | Community","name_short":"syd-6","host":"syd-1.au.uncletopia.com","port":27065,"enabled":true,"region":"au","cc":"au","latitude":-33.865143,"longitude":151.2099,"reserved":0,"last_update":"0001-01-01T00:00:00Z","name_a2s":"Uncletopia | Sydney | 6 | Community","protocol":17,"map":"pl_frontier_final","folder":"tf","game":"Team Fortress","app_id":440,"player_count":0,"max_players":24,"Bots":0,"server_type":"Dedicated","server_os":"Linux","password":true,"vac":true,"version":"7723704","steam_id":85568392925397960,"keywords":["nocrits","nodmgspread","payload","uncletopia"],"game_id":440,"stv_port":27066,"stv_name":"Uncletopia | Sydney | 6 | Community | STV","players":null},{"server_id":49,"name":"Uncletopia | Warsaw | 1 | All Maps","name_short":"waw-1","host":"waw-1.pl.uncletopia.com","port":27015,"enabled":true,"region":"eu","cc":"pl","latitude":52.2297,"longitude":21.017532,"reserved":0,"last_update":"0001-01-01T00:00:00Z","name_a2s":"Uncletopia | Warsaw | 1 | All Maps","protocol":17,"map":"cp_altitude","folder":"tf","game":"Team Fortress","app_id":440,"player_count":0,"max_players":24,"Bots":0,"server_type":"Dedicated","server_os":"Linux","password":true,"vac":true,"version":"7723704","steam_id":85568392925397850,"keywords":["cp","nocrits","nodmgspread","uncletopia"],"game_id":440,"stv_port":27016,"stv_name":"Uncletopia | Warsaw | 1 | All Maps | STV","players":null},{"server_id":50,"name":"Uncletopia | Warsaw | 2 | All Maps","name_short":"waw-2","host":"waw-1.pl.uncletopia.com","port":27025,"enabled":true,"region":"eu","cc":"pl","latitude":52.2297,"longitude":21.017532,"reserved":0,"last_update":"0001-01-01T00:00:00Z","name_a2s":"Uncletopia | Warsaw | 2 | All Maps","protocol":17,"map":"cp_snakewater_final1","folder":"tf","game":"Team Fortress","app_id":440,"player_count":0,"max_players":24,"Bots":0,"server_type":"Dedicated","server_os":"Linux","password":true,"vac":true,"version":"7723704","steam_id":85568392925397851,"keywords":["cp","nocrits","nodmgspread","uncletopia"],"game_id":440,"stv_port":27026,"stv_name":"Uncletopia | Warsaw | 2 | All Maps | STV","players":null},{"server_id":51,"name":"Uncletopia | Warsaw | 3 | All Maps","name_short":"waw-3","host":"waw-1.pl.uncletopia.com","port":27035,"enabled":true,"region":"eu","cc":"pl","latitude":52.2297,"longitude":21.017532,"reserved":0,"last_update":"0001-01-01T00:00:00Z","name_a2s":"Uncletopia | Warsaw | 3 | All Maps","protocol":17,"map":"koth_viaduct","folder":"tf","game":"Team Fortress","app_id":440,"player_count":0,"max_players":24,"Bots":0,"server_type":"Dedicated","server_os":"Linux","password":true,"vac":true,"version":"7723704","steam_id":85568392925397852,"keywords":["cp","nocrits","nodmgspread","uncletopia"],"game_id":440,"stv_port":27036,"stv_name":"Uncletopia | Warsaw | 3 | All Maps | STV","players":null},{"server_id":52,"name":"Uncletopia | Warsaw | 4 | All Maps","name_short":"waw-4","host":"waw-1.pl.uncletopia.com","port":27045,"enabled":true,"region":"eu","cc":"pl","latitude":52.2297,"longitude":21.017532,"reserved":0,"last_update":"0001-01-01T00:00:00Z","name_a2s":"Uncletopia | Warsaw | 4 | All Maps","protocol":17,"map":"pl_snowycoast","folder":"tf","game":"Team Fortress","app_id":440,"player_count":0,"max_players":24,"Bots":0,"server_type":"Dedicated","server_os":"Linux","password":true,"vac":true,"version":"7723704","steam_id":85568392925397853,"keywords":["nocrits","nodmgspread","payload","uncletopia"],"game_id":440,"stv_port":27046,"stv_name":"Uncletopia | Warsaw | 4 | All Maps | STV","players":null},{"server_id":53,"name":"Uncletopia | Warsaw | 5 | Stopwatch Beta","name_short":"waw-5","host":"waw-1.pl.uncletopia.com","port":27055,"enabled":true,"region":"eu","cc":"pl","latitude":52.2297,"longitude":21.017532,"reserved":0,"last_update":"0001-01-01T00:00:00Z","name_a2s":"Uncletopia | Warsaw | 5 | Stopwatch Beta","protocol":17,"map":"cp_sunshine","folder":"tf","game":"Team Fortress","app_id":440,"player_count":0,"max_players":24,"Bots":0,"server_type":"Dedicated","server_os":"Linux","password":true,"vac":true,"version":"7723704","steam_id":85568392925397854,"keywords":["cp","nocrits","nodmgspread","uncletopia"],"game_id":440,"stv_port":27056,"stv_name":"Uncletopia | Warsaw | 5 | Stopwatch Beta | STV","players":null},{"server_id":54,"name":"Uncletopia | Warsaw | 6 | Community","name_short":"waw-6","host":"waw-1.pl.uncletopia.com","port":27065,"enabled":true,"region":"eu","cc":"pl","latitude":52.2297,"longitude":21.017532,"reserved":0,"last_update":"0001-01-01T00:00:00Z","name_a2s":"Uncletopia | Warsaw | 6 | Community","protocol":17,"map":"workshop/koth_synthetic_rc6a.ugc1549817316","folder":"tf","game":"Team Fortress","app_id":440,"player_count":0,"max_players":24,"Bots":0,"server_type":"Dedicated","server_os":"Linux","password":true,"vac":true,"version":"7723704","steam_id":85568392925397856,"keywords":["cp","nocrits","nodmgspread","uncletopia"],"game_id":440,"stv_port":27066,"stv_name":"Uncletopia | Warsaw | 6 | Community | STV","players":null}]}