{"status":true,"message":"","result":[{"server_id":9,"name":"Uncletopia | Atlanta | 1 | All Maps","name_short":"atl-1","host":"atl-1.us.uncletopia.com","port":27015,"enabled":true,"region":"us-east","cc":"us","latitude":33.753746,"longitude":-84.38633,"reserved":0,"last_update":"0001-01-01T00:00:00Z","name_a2s":"Uncletopia | Atlanta | 1 | All Maps","protocol":17,"map":"koth_viaduct","folder":"tf","game":"Team Fortress","app_id":440,"player_count":0,"max_players":24,"Bots":0,"server_type":"Dedicated","server_os":"Linux","password":true,"vac":true,"version":"7961495","steam_id":85568392924469982,"keywords":["cp","nocrits","nodmgspread","uncletopia"],"game_id":440,"stv_port":27016,"stv_name":"Uncletopia | Atlanta | 1 | All Maps | STV","players":null},{"server_id":104,"name":"Uncletopia | Atlanta | 2 | All Maps","name_short":"atl-2","host":"atl-1.us.uncletopia.com","port":27025,"enabled":true,"region":"us-east","cc":"us","latitude":33.753746,"longitude":-84.38633,"reserved":0,"last_update":"0001-01-01T00:00:00Z","name_a2s":"Uncletopia | Atlanta | 2 | All Maps","protocol":17,"map":"pl_pier","folder":"tf","game":"Team Fortress","app_id":440,"player_count":0,"max_players":24,"Bots":0,"server_type":"Dedicated","server_os":"Linux","password":true,"vac":true,"version":"7961495","steam_id":85568392924469983,"keywords":["nocrits","nodmgspread","payload","uncletopia"],"game_id":440,"stv_port":27026,"stv_name":"Uncletopia | Atlanta | 2 | All Maps | STV","players":null},{"server_id":400,"name":"Uncletopia | Atlanta | 3 | All Maps","name_short":"atl-3","host":"atl-1.us.uncletopia.com","port":27035,"enabled":true,"region":"us-east","cc":"us","latitude":33.753746,"longitude":-84.38633,"reserved":0,"last_update":"0001-01-01T00:00:00Z","name_a2s":"Uncletopia | Atlanta | 3 | All Maps","protocol":17,"map":"koth_lakeside_final","folder":"tf","game":"Team Fortress","app_id":440,"player_count":0,"max_players":24,"Bots":0,"server_type":"Dedicated","server_os":"Linux","password":true,"vac":true,"version":"7961495","steam_id":85568392924515187,"keywords":["cp","nocrits","nodmgspread","uncletopia"],"game_id":440,"stv_port":27036,"stv_name":"Uncletopia | Atlanta | 3 | All Maps | STV","players":null},{"server_id":401,"name":"Uncletopia | Atlanta | 4 | Community","name_short":"atl-4","host":"atl-1.us.uncletopia.com","port":27045,"enabled":true,"region":"us-east","cc":"us","latitude":33.753746,"longitude":-84.38633,"reserved":0,"last_update":"0001-01-01T00:00:00Z","name_a2s":"Uncletopia | Atlanta | 4 | Community","protocol":17,"map":"koth_kemptown_rc1","folder":"tf","game":"Team Fortress","app_id":440,"player_count":0,"max_players":24,"Bots":0,"server_type":"Dedicated","server_os":"Linux","password":true,"vac":true,"version":"7961495","steam_id":85568392924515188,"keywords":["cp","nocrits","nodmgspread","uncletopia"],"game_id":440,"stv_port":27046,"stv_name":"Uncletopia | Atlanta | 4 | Community | STV","players":null},{"server_id":2,"name":"Uncletopia | Chicago | 1 | All Maps","name_short":"chi-1","host":"chi-1.us.uncletopia.com","port":27015,"enabled":true,"region":"us-central","cc":"us","latitude":41.881832,"longitude":-87.62318,"reserved":0,"last_update":"0001-01-01T00:00:00Z","name_a2s":"Uncletopia | Chicago | 1 | All Maps","protocol":17,"map":"pl_frontier_final","folder":"tf","game":"Team Fortress","app_id":440,"player_count":13,"max_players":24,"Bots":0,"server_type":"Dedicated","server_os":"Linux","password":true,"vac":true,"version":"7961495","steam_id":85568392924469984,"keywords":["nocrits","nodmgspread","payload","uncletopia"],"game_id":440,"stv_port":27016,"stv_name":"Uncletopia | Chicago | 1 | All Maps | STV","players":[{"user_id":430,"name":"Kirbois","steam_id":76561198336383526,"connected_time":2665000000000,"state":"active","ping":79},{"user_id":426,"name":"AntiCapitalist","steam_id":76561198055447355,"connected_time":3536000000000,"state":"active","ping":60},{"user_id":449,"name":"Epifiny","steam_id":76561198027958086,"connected_time":179000000000,"state":"active","ping":70},{"user_id":450,"name":"D","steam_id":76561198292908619,"connected_time":91000000000,"state":"active","ping":75},{"user_id":451,"name":"‚ô• alixei! ‚ô•","steam_id":76561198014557455,"connected_time":81000000000,"state":"active","ping":52},{"user_id":428,"name":"Gul'dan","steam_id":76561198240466940,"connected_time":3257000000000,"state":"active","ping":166},{"user_id":440,"name":"maritalfuture36","steam_id":76561198272718247,"connected_time":973000000000,"state":"active","ping":160},{"user_id":445,"name":"BackToSchoolAds","steam_id":76561198870281128,"connected_time":415000000000,"state":"active","ping":81},{"user_id":443,"name":"Not Slavoj ≈Ωi≈æek","steam_id":76561198004619616,"connected_time":625000000000,"state":"active","ping":104},{"user_id":434,"name":"cajun thotsauce","steam_id":76561198101636066,"connected_time":1649000000000,"state":"active","ping":99},{"user_id":441,"name":"Menachem","steam_id":76561198041226420,"connected_time":753000000000,"state":"active","ping":47},{"user_id":446,"name":"shoxidizer","steam_id":76561198981983698,"connected_time":403000000000,"state":"active","ping":75},{"user_id":448,"name":"Raccoon.Of.Waffle.House","steam_id":76561199018770554,"connected_time":247000000000,"state":"active","ping":86}]},{"server_id":106,"name":"Uncletopia | Chicago | 2 | All Maps","name_short":"chi-2","host":"chi-1.us.uncletopia.com","port":27025,"enabled":true,"region":"us-central","cc":"us","latitude":41.881832,"longitude":-87.62318,"reserved":0,"last_update":"0001-01-01T00:00:00Z","name_a2s":"Uncletopia | Chicago | 2 | All Maps","protocol":17,"map":"cp_snakewater_final1","folder":"tf","game":"Team Fortress","app_id":440,"player_count":0,"max_players":24,"Bots":0,"server_type":"Dedicated","server_os":"Linux","password":true,"vac":true,"version":"7961495","steam_id":85568392924469985,"keywords":["cp","nocrits","nodmgspread","uncletopia"],"game_id":440,"stv_port":27026,"stv_name":"Uncletopia | Chicago | 2 | All Maps | STV","players":null},{"server_id":402,"name":"Uncletopia | Chicago | 3 | All Maps","name_short":"chi-3","host":"chi-1.us.uncletopia.com","port":27035,"enabled":true,"region":"us-central","cc":"us","latitude":41.881832,"longitude":-87.62318,"reserved":0,"last_update":"0001-01-01T00:00:00Z","name_a2s":"Uncletopia | Chicago | 3 | All Maps","protocol":17,"map":"koth_lakeside_final","folder":"tf","game":"Team Fortress","app_id":440,"player_count":0,"max_players":24,"Bots":0,"server_type":"Dedicated","server_os":"Linux","password":true,"vac":true,"version":"7961495","steam_id":85568392924515191,"keywords":["cp","nocrits","nodmgspread","uncletopia"],"game_id":440,"stv_port":27036,"stv_name":"Uncletopia | Chicago | 3 | All Maps | STV","players":null},{"server_id":403,"name":"Uncletopia | Chicago | 4 | All Maps","name_short":"chi-4","host":"chi-1.us.uncletopia.com","port":27045,"enabled":true,"region":"us-central","cc":"us","latitude":41.881832,"longitude":-87.62318,"reserved":0,"last_update":"0001-01-01T00:00:00Z","name_a2s":"Uncletopia | Chicago | 4 | All Maps","protocol":17,"map":"pl_frontier_final","folder":"tf","game":"Team Fortress","app_id":440,"player_count":0,"max_players":24,"Bots":0,"server_type":"Dedicated","server_os":"Linux","password":true,"vac":true,"version":"7961495","steam_id":85568392924515193,"keywords":["nocrits","nodmgspread","payload","uncletopia"],"game_id":440,"stv_port":27046,"stv_name":"Uncletopia | Chicago | 4 | All Maps | STV","players":null},{"server_id":36,"name":"Uncletopia | Chicago | 5 | All Maps","name_short":"chi-5","host":"chi-2.us.uncletopia.com","port":27015,"enabled":true,"region":"us-central","cc":"us","latitude":41.881832,"longitude":-87.62318,"reserved":0,"last_update":"0001-01-01T00:00:00Z","name_a2s":"Uncletopia | Chicago | 5 | All Maps","protocol":17,"map":"pl_pier","folder":"tf","game":"Team Fortress","app_id":440,"player_count":0,"max_players":24,"Bots":0,"server_type":"Dedicated","server_os":"Linux","password":true,"vac":true,"version":"7961495","steam_id":85568392924866362,"keywords":["nocrits","nodmgspread","payload","uncletopia"],"game_id":440,"stv_port":27016,"stv_name":"Uncletopia | Chicago | 5 | All Maps | STV","players":null},{"server_id":37,"name":"Uncletopia | Chicago | 6 | All Maps","name_short":"chi-6","host":"chi-2.us.uncletopia.com","port":27025,"enabled":true,"region":"us-central","cc":"us","latitude":41.881832,"longitude":-87.62318,"reserved":0,"last_update":"0001-01-01T00:00:00Z","name_a2s":"Uncletopia | Chicago | 6 | All Maps","protocol":17,"map":"koth_harvest_final","folder":"tf","game":"Team Fortress","app_id":440,"player_count":24,"max_players":24,"Bots":0,"server_type":"Dedicated","server_os":"Linux","password":true,"vac":true,"version":"7961495","steam_id":85568392924866363,"keywords":["cp","nocrits","nodmgspread","uncletopia"],"game_id":440,"stv_port":27026,"stv_name":"Uncletopia | Chicago | 6 | All Maps | STV","players":[{"user_id":474,"name":"Vynil","steam_id":76561198190004550,"connected_time":4558000000000,"state":"active","ping":49},{"user_id":487,"name":"Bryguy","steam_id":76561198092096120,"connected_time":4183000000000,"state":"active","ping":39},{"user_id":517,"name":"basilthenasa","steam_id":76561199388111764,"connected_time":1299000000000,"state":"active","ping":89},{"user_id":455,"name":"remanedur","steam_id":76561198059459507,"connected_time":6888000000000,"state":"active","ping":154},{"user_id":498,"name":"Xaukra","steam_id":76561198180742229,"connected_time":3388000000000,"state":"active","ping":75},{"user_id":522,"name":"Duk","steam_id":76561198450692568,"connected_time":820000000000,"state":"active","ping":62},{"user_id":510,"name":"Goon","steam_id":76561199381237443,"connected_time":1670000000000,"state":"active","ping":135},{"user_id":529,"name":"oskaroku00","steam_id":76561199025360128,"connected_time":323000000000,"state":"active","ping":164},{"user_id":530,"name":"ace_sanu","steam_id":76561199114573328,"connected_time":273000000000,"state":"active","ping":175},{"user_id":512,"name":"Feces","steam_id":76561198380219187,"connected_time":1571000000000,"state":"active","ping":75},{"user_id":524,"name":"Security Camera (Poltergeist)","steam_id":76561198968058652,"connected_time":740000000000,"state":"active","ping":101},{"user_id":532,"name":":D","steam_id":76561198049258493,"connected_time":176000000000,"state":"active","ping":120},{"user_id":489,"name":"Cakepants","steam_id":76561198032972455,"connected_time":4099000000000,"state":"active","ping":83},{"user_id":484,"name":"alN","steam_id":76561198329171346,"connected_time":4245000000000,"state":"active","ping":47},{"user_id":533,"name":"Arab","steam_id":76561198284164847,"connected_time":90000000000,"state":"active","ping":77},{"user_id":445,"name":"Driskulls","steam_id":76561198055213549,"connected_time":7248000000000,"state":"active","ping":59},{"user_id":520,"name":"StiaanSauce","steam_id":76561198091940547,"connected_time":979000000000,"state":"active","ping":58},{"user_id":527,"name":"werecat","steam_id":76561198005091213,"connected_time":485000000000,"state":"active","ping":59},{"user_id":505,"name":"corn","steam_id":76561198317434302,"connected_time":3097000000000,"state":"active","ping":51},{"user_id":506,"name":"Drachma","steam_id":76561198007310514,"connected_time":2835000000000,"state":"active","ping":57},{"user_id":485,"name":"Fray","steam_id":76561198030141282,"connected_time":4234000000000,"state":"active","ping":89},{"user_id":516,"name":"Philo","steam_id":76561198061873341,"connected_time":1383000000000,"state":"active","ping":88},{"user_id":492,"name":"Kantamoe","steam_id":76561198046661611,"connected_time":4032000000000,"state":"active","ping":84},{"user_id":493,"name":"Rat God","steam_id":76561198066161598,"connected_time":4027000000000,"state":"active","ping":58}]},{"server_id":38,"name":"Uncletopia | Chicago | 7 | Stopwatch Beta","name_short":"chi-7","host":"chi-2.us.uncletopia.com","port":27035,"enabled":true,"region":"us-central","cc":"us","latitude":41.881832,"longitude":-87.62318,"reserved":0,"last_update":"0001-01-01T00:00:00Z","name_a2s":"Uncletopia | Chicago | 7 | Stopwatch Beta","protocol":17,"map":"cp_process_final","folder":"tf","game":"Team Fortress","app_id":440,"player_count":0,"max_players":24,"Bots":0,"server_type":"Dedicated","server_os":"Linux","password":true,"vac":true,"version":"7961495","steam_id":85568392924866364,"keywords":["cp","nocrits","nodmgspread","uncletopia"],"game_id":440,"stv_port":27036,"stv_name":"Uncletopia | Chicago | 7 | Stopwatch Beta | STV","players":null},{"server_id":39,"name":"Uncletopia | Chicago | 8 | Community","name_short":"chi-8","host":"chi-2.us.uncletopia.com","port":27045,"enabled":true,"region":"us-central","cc":"us","latitude":41.881832,"longitude":-87.62318,"reserved":0,"last_update":"0001-01-01T00:00:00Z","name_a2s":"Uncletopia | Chicago | 8 | Community","protocol":17,"map":"workshop/koth_product_final.ugc454272353","folder":"tf","game":"Team Fortress","app_id":440,"player_count":0,"max_players":24,"Bots":0,"server_type":"Dedicated","server_os":"Linux","password":true,"vac":true,"version":"7961495","steam_id":85568392924866365,"keywords":["cp","nocrits","nodmgspread","uncletopia"],"game_id":440,"stv_port":27046,"stv_name":"Uncletopia | Chicago | 8 | Community | STV","players":null},{"server_id":8,"name":"Uncletopia | Dallas | 1 | All Maps","name_short":"dal-1","host":"dal-1.us.uncletopia.com","port":27015,"enabled":true,"region":"us-central","cc":"us","latitude":32.779167,"longitude":-96.80889,"reserved":0,"last_update":"0001-01-01T00:00:00Z","name_a2s":"Uncletopia | Dallas | 1 | All Maps","protocol":17,"map":"pl_barnblitz","folder":"tf","game":"Team Fortress","app_id":440,"player_count":24,"max_players":24,"Bots":0,"server_type":"Dedicated","server_os":"Linux","password":true,"vac":true,"version":"7961495","steam_id":85568392924469986,"keywords":["nocrits","nodmgspread","payload","uncletopia"],"game_id":440,"stv_port":27016,"stv_name":"Uncletopia | Dallas | 1 | All Maps | STV","players":[{"user_id":477,"name":"BL√òRG","steam_id":76561198036126673,"connected_time":1355000000000,"state":"active","ping":74},{"user_id":475,"name":"1000 Ping","steam_id":76561198098330939,"connected_time":1384000000000,"state":"active","ping":102},{"user_id":488,"name":"Meowhunter‚õß","steam_id":76561198319992602,"connected_time":890000000000,"state":"active","ping":60},{"user_id":490,"name":"OhTheMisery","steam_id":76561198155255282,"connected_time":313000000000,"state":"active","ping":63},{"user_id":478,"name":"‚í∑‚ì™‚ì™‚ì£‚ì®‚ìí‚ìê‚ìö‚ìî‚ì¢","steam_id":76561198088776421,"connected_time":1351000000000,"state":"active","ping":89},{"user_id":479,"name":"ChillinSquare","steam_id":76561198023745593,"connected_time":1348000000000,"state":"active","ping":87},{"user_id":480,"name":"Weed Dealer","steam_id":76561198418604400,"connected_time":1314000000000,"state":"active","ping":109},{"user_id":481,"name":"Creature","steam_id":76561198194585781,"connected_time":1313000000000,"state":"active","ping":83},{"user_id":464,"name":"6ix_God^ LIVING IN MUSHROOM PAR","steam_id":76561198097588802,"connected_time":2315000000000,"state":"active","ping":71},{"user_id":489,"name":"4 life","steam_id":76561198175961598,"connected_time":652000000000,"state":"active","ping":104},{"user_id":482,"name":"SneekiCheekiQbone","steam_id":76561198045077980,"connected_time":1298000000000,"state":"active","ping":76},{"user_id":468,"name":"Rusted Cake","steam_id":76561198209755931,"connected_time":2194000000000,"state":"active","ping":89},{"user_id":471,"name":"PackingPeanutt :]","steam_id":76561199053229413,"connected_time":2007000000000,"state":"active","ping":88},{"user_id":460,"name":"Discourse","steam_id":76561198984286678,"connected_time":2365000000000,"state":"active","ping":82},{"user_id":442,"name":"Toxic Ron","steam_id":76561198089302972,"connected_time":3999000000000,"state":"active","ping":80},{"user_id":461,"name":"Draven","steam_id":76561198074776388,"connected_time":2361000000000,"state":"active","ping":63},{"user_id":483,"name":"Levi","steam_id":76561198089832776,"connected_time":1221000000000,"state":"active","ping":56},{"user_id":473,"name":"HAT-WEARING‚Ñ¢ Maggot Gamer Cat","steam_id":76561197973992705,"connected_time":1816000000000,"state":"active","ping":99},{"user_id":446,"name":"BasedPoweredMan","steam_id":76561198183198382,"connected_time":3519000000000,"state":"active","ping":92},{"user_id":463,"name":"Azteck","steam_id":76561198073841466,"connected_time":2330000000000,"state":"active","ping":56},{"user_id":474,"name":"stall","steam_id":76561199152861652,"connected_time":1724000000000,"state":"active","ping":78},{"user_id":486,"name":"Zymiren","steam_id":76561198054985471,"connected_time":1104000000000,"state":"active","ping":104},{"user_id":491,"name":"Revenge of the Jews in 3D","steam_id":76561199381623663,"connected_time":21000000000,"state":"active","ping":213},{"user_id":470,"name":"teratoma","steam_id":76561198179249054,"connected_time":2075000000000,"state":"active","ping":84}]},{"server_id":108,"name":"Uncletopia | Dallas | 2 | All Maps","name_short":"dal-2","host":"dal-1.us.uncletopia.com","port":27025,"enabled":true,"region":"us-central","cc":"us","latitude":32.779167,"longitude":-96.80889,"reserved":0,"last_update":"0001-01-01T00:00:00Z","name_a2s":"Uncletopia | Dallas | 2 | All Maps","protocol":17,"map":"pl_pier","folder":"tf","game":"Team Fortress","app_id":440,"player_count":24,"max_players":24,"Bots":0,"server_type":"Dedicated","server_os":"Linux","password":true,"vac":true,"version":"7961495","steam_id":85568392924469988,"keywords":["nocrits","nodmgspread","payload","uncletopia"],"game_id":440,"stv_port":27026,"stv_name":"Uncletopia | Dallas | 2 | All Maps | STV","players":[{"user_id":487,"name":"Cyndaquil Fan","steam_id":76561198799205521,"connected_time":2440000000000,"state":"active","ping":78},{"user_id":488,"name":"‚òÜShinyMew112","steam_id":76561198042820161,"connected_time":2413000000000,"state":"active","ping":85},{"user_id":475,"name":"Alex Narex","steam_id":76561198814364412,"connected_time":2801000000000,"state":"active","ping":83},{"user_id":486,"name":"Catzs","steam_id":76561197996013572,"connected_time":2450000000000,"state":"active","ping":64},{"user_id":502,"name":"usmnt==chokers","steam_id":76561198043456370,"connected_time":1263000000000,"state":"active","ping":101},{"user_id":448,"name":"Faraday","steam_id":76561198089928357,"connected_time":5293000000000,"state":"active","ping":52},{"user_id":509,"name":"creamer","steam_id":76561198144095056,"connected_time":538000000000,"state":"active","ping":80},{"user_id":491,"name":"cozy","steam_id":76561199044037628,"connected_time":2061000000000,"state":"active","ping":87},{"user_id":511,"name":"Team Fartpiss Poo","steam_id":76561199163591880,"connected_time":144000000000,"state":"active","ping":96},{"user_id":438,"name":"Kaiyote","steam_id":76561198153443910,"connected_time":5582000000000,"state":"active","ping":98},{"user_id":498,"name":"blast a hoe","steam_id":76561198294281809,"connected_time":1759000000000,"state":"active","ping":75},{"user_id":466,"name":"Hindoto","steam_id":76561198876365283,"connected_time":3759000000000,"state":"active","ping":72},{"user_id":476,"name":"DarkForce8","steam_id":76561198853892261,"connected_time":2768000000000,"state":"active","ping":87},{"user_id":500,"name":"not a good idea","steam_id":76561198032259680,"connected_time":1350000000000,"state":"active","ping":91},{"user_id":478,"name":"loser","steam_id":76561198259380127,"connected_time":2666000000000,"state":"active","ping":80},{"user_id":504,"name":"craxyt","steam_id":76561198050192689,"connected_time":978000000000,"state":"active","ping":80},{"user_id":510,"name":"0","steam_id":76561198046065237,"connected_time":503000000000,"state":"active","ping":89},{"user_id":501,"name":"CheeseCake488","steam_id":76561199407617942,"connected_time":1342000000000,"state":"active","ping":172},{"user_id":506,"name":"Judge Dad (Proud)","steam_id":76561198071473697,"connected_time":914000000000,"state":"active","ping":93},{"user_id":499,"name":"Hoofuyu","steam_id":76561199022142345,"connected_time":1380000000000,"state":"active","ping":86},{"user_id":386,"name":"A Parliament of Owls","steam_id":76561197996200417,"connected_time":11033000000000,"state":"active","ping":88},{"user_id":480,"name":"Pitch is a Stick","steam_id":76561198800287853,"connected_time":2647000000000,"state":"active","ping":121},{"user_id":507,"name":"greenboy135","steam_id":76561198057146944,"connected_time":888000000000,"state":"active","ping":97},{"user_id":497,"name":"DS8U","steam_id":76561198151554321,"connected_time":1875000000000,"state":"active","ping":77}]},{"server_id":404,"name":"Uncletopia | Dallas | 3 | All Maps","name_short":"dal-3","host":"dal-1.us.uncletopia.com","port":27035,"enabled":true,"region":"us-central","cc":"us","latitude":32.779167,"longitude":-96.80889,"reserved":0,"last_update":"0001-01-01T00:00:00Z","name_a2s":"Uncletopia | Dallas | 3 | All Maps","protocol":17,"map":"koth_viaduct","folder":"tf","game":"Team Fortress","app_id":440,"player_count":0,"max_players":24,"Bots":0,"server_type":"Dedicated","server_os":"Linux","password":true,"vac":true,"version":"7961495","steam_id":85568392924515219,"keywords":["cp","nocrits","nodmgspread","uncletopia"],"game_id":440,"stv_port":27036,"stv_name":"Uncletopia | Dallas | 3 | All Maps | STV","players":null},{"server_id":405,"name":"Uncletopia | Dallas | 4 | Community","name_short":"dal-4","host":"dal-1.us.uncletopia.com","port":27045,"enabled":true,"region":"us-central","cc":"us","latitude":32.779167,"longitude":-96.80889,"reserved":0,"last_update":"0001-01-01T00:00:00Z","name_a2s":"Uncletopia | Dallas | 4 | Community","protocol":17,"map":"workshop/pl_cashworks_final1.ugc2904065412","folder":"tf","game":"Team Fortress","app_id":440,"player_count":0,"max_players":24,"Bots":0,"server_type":"Dedicated","server_os":"Linux","password":true,"vac":true,"version":"7961495","steam_id":85568392924515220,"keywords":["nocrits","nodmgspread","payload","uncletopia"],"game_id":440,"stv_port":27046,"stv_name":"Uncletopia | Dallas | 4 | Community | STV","players":null},{"server_id":5,"name":"Uncletopia | Frankfurt | 1 | All Maps","name_short":"frk-1","host":"frk-1.de.uncletopia.com","port":27015,"enabled":true,"region":"eu","cc":"de","latitude":50.110924,"longitude":8.682127,"reserved":0,"last_update":"0001-01-01T00:00:00Z","name_a2s":"Uncletopia | Frankfurt | 1 | All Maps","protocol":17,"map":"pl_borneo","folder":"tf","game":"Team Fortress","app_id":440,"player_count":24,"max_players":24,"Bots":0,"server_type":"Dedicated","server_os":"Linux","password":true,"vac":true,"version":"7961495","steam_id":85568392924469989,"keywords":["nocrits","nodmgspread","payload","uncletopia"],"game_id":440,"stv_port":27016,"stv_name":"Uncletopia | Frankfurt | 1 | All Maps | STV","players":[{"user_id":7,"name":"WHUSSKEY","steam_id":76561198137827441,"connected_time":3756000000000,"state":"active","ping":59},{"user_id":60,"name":"Marcus","steam_id":76561198205027963,"connected_time":401000000000,"state":"active","ping":62},{"user_id":50,"name":"Somephoenix","steam_id":76561198838424791,"connected_time":1367000000000,"state":"active","ping":46},{"user_id":68,"name":"ICookieBot","steam_id":76561198064569875,"connected_time":108000000000,"state":"active","ping":75},{"user_id":45,"name":"sussy spy","steam_id":76561199072684251,"connected_time":2341000000000,"state":"active","ping":88},{"user_id":11,"name":"GregerUlander","steam_id":76561198152375055,"connected_time":3598000000000,"state":"active","ping":77},{"user_id":64,"name":"FartGoing","steam_id":76561198122284275,"connected_time":334000000000,"state":"active","ping":73},{"user_id":29,"name":"spy among us","steam_id":76561198392537090,"connected_time":2951000000000,"state":"active","ping":49},{"user_id":15,"name":"Íí∞ À∂‚Ä¢ ‡ºù ‚Ä¢À∂Íí±","steam_id":76561198054474684,"connected_time":3348000000000,"state":"active","ping":70},{"user_id":69,"name":"herpderp3","steam_id":76561198301907564,"connected_time":77000000000,"state":"active","ping":84},{"user_id":24,"name":"lulu","steam_id":76561199147764133,"connected_time":3148000000000,"state":"active","ping":67},{"user_id":38,"name":"Largo","steam_id":76561198844368927,"connected_time":2721000000000,"state":"active","ping":68},{"user_id":19,"name":"Pelaxis„ÉÑ","steam_id":76561198180030121,"connected_time":3272000000000,"state":"active","ping":60},{"user_id":41,"name":"an idiot","steam_id":76561198172542535,"connected_time":2647000000000,"state":"active","ping":60},{"user_id":67,"name":"Cedric","steam_id":76561198042847997,"connected_time":120000000000,"state":"active","ping":56},{"user_id":31,"name":"are you dreaming ?","steam_id":76561198272166623,"connected_time":2934000000000,"state":"active","ping":58},{"user_id":36,"name":"deloreg (playing soldier)","steam_id":76561199487318962,"connected_time":2787000000000,"state":"active","ping":69},{"user_id":58,"name":"Bill_nye","steam_id":76561199216249214,"connected_time":513000000000,"state":"active","ping":134},{"user_id":70,"name":"kaacper340","steam_id":76561198267621418,"connected_time":62000000000,"state":"active","ping":71},{"user_id":54,"name":"KajaStorm","steam_id":76561199215842872,"connected_time":1246000000000,"state":"active","ping":130},{"user_id":55,"name":"Marky","steam_id":76561199474556920,"connected_time":1044000000000,"state":"active","ping":106},{"user_id":66,"name":"Inquisitor","steam_id":76561198110470565,"connected_time":278000000000,"state":"active","ping":97},{"user_id":46,"name":"Alyx","steam_id":76561198064654326,"connected_time":1988000000000,"state":"active","ping":50},{"user_id":49,"name":"Khrinde","steam_id":76561198036744526,"connected_time":1517000000000,"state":"active","ping":95}]},{"server_id":110,"name":"Uncletopia | Frankfurt | 2 | All Maps","name_short":"frk-2","host":"frk-1.de.uncletopia.com","port":27025,"enabled":true,"region":"eu","cc":"de","latitude":50.110924,"longitude":8.682127,"reserved":0,"last_update":"0001-01-01T00:00:00Z","name_a2s":"Uncletopia | Frankfurt | 2 | All Maps","protocol":17,"map":"pl_badwater","folder":"tf","game":"Team Fortress","app_id":440,"player_count":0,"max_players":24,"Bots":0,"server_type":"Dedicated","server_os":"Linux","password":true,"vac":true,"version":"7961495","steam_id":85568392924469990,"keywords":["nocrits","nodmgspread","payload","uncletopia"],"game_id":440,"stv_port":27026,"stv_name":"Uncletopia | Frankfurt | 2 | All Maps | STV","players":null},{"server_id":308,"name":"Uncletopia | Frankfurt | 3 | All Maps","name_short":"frk-3","host":"frk-1.de.uncletopia.com","port":27035,"enabled":true,"region":"eu","cc":"de","latitude":50.110924,"longitude":8.682127,"reserved":0,"last_update":"0001-01-01T00:00:00Z","name_a2s":"Uncletopia | Frankfurt | 3 | All Maps","protocol":17,"map":"koth_viaduct","folder":"tf","game":"Team Fortress","app_id":440,"player_count":0,"max_players":24,"Bots":0,"server_type":"Dedicated","server_os":"Linux","password":true,"vac":true,"version":"7961495","steam_id":85568392924504274,"keywords":["cp","nocrits","nodmgspread","uncletopia"],"game_id":440,"stv_port":27036,"stv_name":"Uncletopia | Frankfurt | 3 | All Maps | STV","players":null},{"server_id":309,"name":"Uncletopia | Frankfurt | 4 | All Maps","name_short":"frk-4","host":"frk-1.de.uncletopia.com","port":27045,"enabled":true,"region":"eu","cc":"de","latitude":50.110924,"longitude":8.682127,"reserved":0,"last_update":"0001-01-01T00:00:00Z","name_a2s":"Uncletopia | Frankfurt | 4 | All Maps","protocol":17,"map":"pl_frontier_final","folder":"tf","game":"Team Fortress","app_id":440,"player_count":0,"max_players":24,"Bots":0,"server_type":"Dedicated","server_os":"Linux","password":true,"vac":true,"version":"7961495","steam_id":85568392924504275,"keywords":["nocrits","nodmgspread","payload","uncletopia"],"game_id":440,"stv_port":27046,"stv_name":"Uncletopia | Frankfurt | 4 | All Maps | STV","players":null},{"server_id":310,"name":"Uncletopia | Frankfurt | 5 | All Maps","name_short":"frk-5","host":"frk-1.de.uncletopia.com","port":27055,"enabled":true,"region":"eu","cc":"de","latitude":50.110924,"longitude":8.682127,"reserved":0,"last_update":"0001-01-01T00:00:00Z","name_a2s":"Uncletopia | Frankfurt | 5 | All Maps","protocol":17,"map":"pl_swiftwater_final1","folder":"tf","game":"Team Fortress","app_id":440,"player_count":0,"max_players":24,"Bots":0,"server_type":"Dedicated","server_os":"Linux","password":true,"vac":true,"version":"7961495","steam_id":85568392924504277,"keywords":["nocrits","nodmgspread","payload","uncletopia"],"game_id":440,"stv_port":27056,"stv_name":"Uncletopia | Frankfurt | 5 | All Maps | STV","players":null},{"server_id":311,"name":"Uncletopia | Frankfurt | 6 | All Maps","name_short":"frk-6","host":"frk-1.de.uncletopia.com","port":27065,"enabled":true,"region":"eu","cc":"de","latitude":50.110924,"longitude":8.682127,"reserved":0,"last_update":"0001-01-01T00:00:00Z","name_a2s":"Uncletopia | Frankfurt | 6 | All Maps","protocol":17,"map":"pl_borneo","folder":"tf","game":"Team Fortress","app_id":440,"player_count":0,"max_players":24,"Bots":0,"server_type":"Dedicated","server_os":"Linux","password":true,"vac":true,"version":"7961495","steam_id":85568392924504278,"keywords":["nocrits","nodmgspread","payload","uncletopia"],"game_id":440,"stv_port":27066,"stv_name":"Uncletopia | Frankfurt | 6 | All Maps | STV","players":null},{"server_id":23,"name":"Uncletopia | Frankfurt | 7 | Stopwatch Beta","name_short":"frk-7","host":"frk-1.de.uncletopia.com","port":27075,"enabled":true,"region":"eu","cc":"de","latitude":50.110924,"longitude":8.682127,"reserved":0,"last_update":"0001-01-01T00:00:00Z","name_a2s":"Uncletopia | Frankfurt | 7 | Stopwatch Beta","protocol":17,"map":"pl_frontier_final","folder":"tf","game":"Team Fortress","app_id":440,"player_count":0,"max_players":24,"Bots":0,"server_type":"Dedicated","server_os":"Linux","password":true,"vac":true,"version":"7961495","steam_id":85568392924742827,"keywords":["nocrits","nodmgspread","payload","uncletopia"],"game_id":440,"stv_port":27076,"stv_name":"Uncletopia | Frankfurt | 7 | Stopwatch Beta | STV","players":null},{"server_id":24,"name":"Uncletopia | Frankfurt | 8 | Community","name_short":"frk-8","host":"frk-1.de.uncletopia.com","port":27085,"enabled":true,"region":"eu","cc":"de","latitude":50.110924,"longitude":8.682127,"reserved":0,"last_update":"0001-01-01T00:00:00Z","name_a2s":"Uncletopia | Frankfurt | 8 | Community","protocol":17,"map":"workshop/pl_corrode_rc2.ugc546577989","folder":"tf","game":"Team Fortress","app_id":440,"player_count":0,"max_players":24,"Bots":0,"server_type":"Dedicated","server_os":"Linux","password":true,"vac":true,"version":"7961495","steam_id":85568392924742828,"keywords":["nocrits","nodmgspread","payload","uncletopia"],"game_id":440,"stv_port":27086,"stv_name":"Uncletopia | Frankfurt | 8 | Community | STV","players":null},{"server_id":202,"name":"Uncletopia | Hong Kong | 1 | All Maps","name_short":"hgk-1","host":"hgk-1.hk.uncletopia.com","port":27015,"enabled":true,"region":"asia","cc":"hk","latitude":22.302711,"longitude":114.177216,"reserved":0,"last_update":"0001-01-01T00:00:00Z","name_a2s":"Uncletopia | Hong Kong | 1 | All Maps","protocol":17,"map":"pl_pier","folder":"tf","game":"Team Fortress","app_id":440,"player_count":24,"max_players":24,"Bots":0,"server_type":"Dedicated","server_os":"Linux","password":true,"vac":true,"version":"7961495","steam_id":85568392924494504,"keywords":["nocrits","nodmgspread","payload","uncletopia"],"game_id":440,"stv_port":27016,"stv_name":"Uncletopia | Hong Kong | 1 | All Maps | STV","players":[{"user_id":223,"name":"p1st0n","steam_id":76561198992723983,"connected_time":1007000000000,"state":"active","ping":100},{"user_id":159,"name":"ÍπÄÍ¥ëÎßå","steam_id":76561198295279503,"connected_time":5074000000000,"state":"active","ping":82},{"user_id":194,"name":"Vesha","steam_id":76561199208233146,"connected_time":2762000000000,"state":"active","ping":78},{"user_id":187,"name":"ticktick","steam_id":76561198156755977,"connected_time":3161000000000,"state":"active","ping":75},{"user_id":225,"name":"Samoyed","steam_id":76561198299150410,"connected_time":684000000000,"state":"active","ping":75},{"user_id":165,"name":"steame17","steam_id":76561199387872784,"connected_time":4415000000000,"state":"active","ping":117},{"user_id":193,"name":"jole","steam_id":76561198037292232,"connected_time":2790000000000,"state":"active","ping":101},{"user_id":208,"name":"condiment king","steam_id":76561199039560921,"connected_time":1500000000000,"state":"active","ping":75},{"user_id":219,"name":"allroundershana","steam_id":76561198114487344,"connected_time":1193000000000,"state":"active","ping":52},{"user_id":188,"name":"Kennny Rodgers","steam_id":76561199494089128,"connected_time":3062000000000,"state":"active","ping":70},{"user_id":213,"name":"Banana4789","steam_id":76561198165642787,"connected_time":1318000000000,"state":"active","ping":150},{"user_id":202,"name":"Kyo","steam_id":76561198088550274,"connected_time":2442000000000,"state":"active","ping":44},{"user_id":203,"name":"twon","steam_id":76561198965889429,"connected_time":2021000000000,"state":"active","ping":96},{"user_id":138,"name":"A Gap Hag","steam_id":76561198409766998,"connected_time":7176000000000,"state":"active","ping":63},{"user_id":206,"name":"Beef Wellington","steam_id":76561197995635241,"connected_time":1661000000000,"state":"active","ping":122},{"user_id":222,"name":"eekynetwo(F2P Piss Sniper)","steam_id":76561198990017441,"connected_time":1093000000000,"state":"active","ping":86},{"user_id":125,"name":"Taylor, The Manufacturer","steam_id":76561198074339034,"connected_time":8141000000000,"state":"active","ping":80},{"user_id":190,"name":"justwantfun04","steam_id":76561198879833903,"connected_time":3010000000000,"state":"active","ping":74},{"user_id":224,"name":"William Dafriend","steam_id":76561198033022301,"connected_time":767000000000,"state":"active","ping":57},{"user_id":220,"name":"Shinobimono","steam_id":76561198343322788,"connected_time":1181000000000,"state":"active","ping":128},{"user_id":226,"name":"MKLettuce","steam_id":76561198388775895,"connected_time":651000000000,"state":"active","ping":33},{"user_id":221,"name":"silver","steam_id":76561198899469437,"connected_time":1178000000000,"state":"active","ping":61},{"user_id":199,"name":"ain","steam_id":76561198201234109,"connected_time":2618000000000,"state":"active","ping":75},{"user_id":205,"name":"ThunderMoutaingame2011","steam_id":76561199187380315,"connected_time":1755000000000,"state":"active","ping":44}]},{"server_id":1,"name":"Uncletopia | Los Angeles | 1 | All Maps","name_short":"lax-1","host":"lax-1.us.uncletopia.com","port":27015,"enabled":true,"region":"us-west","cc":"us","latitude":33.94279,"longitude":-118.41004,"reserved":0,"last_update":"0001-01-01T00:00:00Z","name_a2s":"Uncletopia | Los Angeles | 1 | All Maps","protocol":17,"map":"koth_viaduct","folder":"tf","game":"Team Fortress","app_id":440,"player_count":20,"max_players":24,"Bots":0,"server_type":"Dedicated","server_os":"Linux","password":true,"vac":true,"version":"7961495","steam_id":85568392924469991,"keywords":["cp","nocrits","nodmgspread","uncletopia"],"game_id":440,"stv_port":27016,"stv_name":"Uncletopia | Los Angeles | 1 | All Maps | STV","players":[{"user_id":489,"name":"shakoiwa","steam_id":76561199059441773,"connected_time":407000000000,"state":"active","ping":51},{"user_id":483,"name":"LtK","steam_id":76561197993180943,"connected_time":1176000000000,"state":"active","ping":73},{"user_id":462,"name":"dopadream","steam_id":76561198068383694,"connected_time":2604000000000,"state":"active","ping":88},{"user_id":472,"name":"The Collective(Hypnotist)","steam_id":76561198170423483,"connected_time":1963000000000,"state":"active","ping":107},{"user_id":486,"name":"CRYHAV0C","steam_id":76561199129350925,"connected_time":771000000000,"state":"active","ping":100},{"user_id":494,"name":"vivi","steam_id":76561198881665250,"connected_time":72000000000,"state":"active","ping":73},{"user_id":415,"name":"Hakurei Reimu","steam_id":76561198045388290,"connected_time":5762000000000,"state":"active","ping":96},{"user_id":491,"name":"ashie","steam_id":76561198043990701,"connected_time":286000000000,"state":"active","ping":85},{"user_id":488,"name":"Giant","steam_id":76561198851536991,"connected_time":463000000000,"state":"active","ping":57},{"user_id":465,"name":"noble","steam_id":76561199082016496,"connected_time":2410000000000,"state":"active","ping":51},{"user_id":419,"name":"yellow ·óúÀ¨·óú","steam_id":76561198366474647,"connected_time":5646000000000,"state":"active","ping":38},{"user_id":492,"name":"eryn üó∫","steam_id":76561198004433070,"connected_time":183000000000,"state":"active","ping":84},{"user_id":493,"name":"Max","steam_id":76561197961272955,"connected_time":129000000000,"state":"active","ping":34},{"user_id":495,"name":"the big Mako","steam_id":76561199108551816,"connected_time":55000000000,"state":"active","ping":49},{"user_id":333,"name":"shitass (Reaping and Sowing)","steam_id":76561198210572481,"connected_time":12293000000000,"state":"active","ping":49},{"user_id":482,"name":"dewey.","steam_id":76561198138325039,"connected_time":1222000000000,"state":"active","ping":75},{"user_id":464,"name":"Mr. DeLarge","steam_id":76561198336820066,"connected_time":2525000000000,"state":"active","ping":87},{"user_id":390,"name":"[√òWQJ√ò]chubacaalatake","steam_id":76561198136201697,"connected_time":8360000000000,"state":"active","ping":89},{"user_id":487,"name":"SHADOW WIZARD MONEY GANG","steam_id":76561198141873995,"connected_time":707000000000,"state":"active","ping":68},{"user_id":485,"name":"Loot Bugs","steam_id":76561199028698726,"connected_time":1051000000000,"state":"active","ping":87}]},{"server_id":112,"name":"Uncletopia | Los Angeles | 2 | All Maps","name_short":"lax-2","host":"lax-1.us.uncletopia.com","port":27025,"enabled":true,"region":"us-west","cc":"us","latitude":33.94279,"longitude":-118.41004,"reserved":0,"last_update":"0001-01-01T00:00:00Z","name_a2s":"Uncletopia | Los Angeles | 2 | All Maps","protocol":17,"map":"koth_highpass","folder":"tf","game":"Team Fortress","app_id":440,"player_count":0,"max_players":24,"Bots":0,"server_type":"Dedicated","server_os":"Linux","password":true,"vac":true,"version":"7961495","steam_id":85568392924469992,"keywords":["cp","nocrits","nodmgspread","uncletopia"],"game_id":440,"stv_port":27026,"stv_name":"Uncletopia | Los Angeles | 2 | All Maps | STV","players":null},{"server_id":324,"name":"Uncletopia | Los Angeles | 3 | All Maps","name_short":"lax-3","host":"lax-1.us.uncletopia.com","port":27035,"enabled":true,"region":"us-west","cc":"us","latitude":33.94279,"longitude":-118.41004,"reserved":0,"last_update":"0001-01-01T00:00:00Z","name_a2s":"Uncletopia | Los Angeles | 3 | All Maps","protocol":17,"map":"koth_viaduct","folder":"tf","game":"Team Fortress","app_id":440,"player_count":0,"max_players":24,"Bots":0,"server_type":"Dedicated","server_os":"Linux","password":true,"vac":true,"version":"7961495","steam_id":85568392924510198,"keywords":["cp","nocrits","nodmgspread","uncletopia"],"game_id":440,"stv_port":27036,"stv_name":"Uncletopia | Los Angeles | 3 | All Maps | STV","players":null},{"server_id":25,"name":"Uncletopia | Los Angeles | 4 | Stopwatch","name_short":"lax-4","host":"lax-1.us.uncletopia.com","port":27045,"enabled":true,"region":"us-west","cc":"us","latitude":33.94279,"longitude":-118.41004,"reserved":0,"last_update":"0001-01-01T00:00:00Z","name_a2s":"Uncletopia | Los Angeles | 4 | Stopwatch","protocol":17,"map":"workshop/pl_barnblitz_pro7.ugc582280235","folder":"tf","game":"Team Fortress","app_id":440,"player_count":0,"max_players":24,"Bots":0,"server_type":"Dedicated","server_os":"Linux","password":true,"vac":true,"version":"7961495","steam_id":85568392924510199,"keywords":["nocrits","nodmgspread","payload","uncletopia"],"game_id":440,"stv_port":27046,"stv_name":"Uncletopia | Los Angeles | 4 | Stopwatch | STV","players":null},{"server_id":11,"name":"Uncletopia | London | 1 | All Maps","name_short":"lon-1","host":"lon-1.uk.uncletopia.com","port":27015,"enabled":true,"region":"eu","cc":"gb","latitude":51.509865,"longitude":-0.118092,"reserved":0,"last_update":"0001-01-01T00:00:00Z","name_a2s":"Uncletopia | London | 1 | All Maps","protocol":17,"map":"pl_snowycoast","folder":"tf","game":"Team Fortress","app_id":440,"player_count":16,"max_players":24,"Bots":0,"server_type":"Dedicated","server_os":"Linux","password":true,"vac":true,"version":"7961495","steam_id":85568392924367362,"keywords":["nocrits","nodmgspread","payload","uncletopia"],"game_id":440,"stv_port":27016,"stv_name":"Uncletopia | London | 1 | All Maps | STV","players":[{"user_id":5,"name":"unpronounceable","steam_id":76561198271860748,"connected_time":754000000000,"state":"active","ping":44},{"user_id":10,"name":"Random Romain","steam_id":76561198355825319,"connected_time":498000000000,"state":"active","ping":71},{"user_id":8,"name":"ultra lox","steam_id":76561199427318825,"connected_time":569000000000,"state":"active","ping":753},{"user_id":9,"name":"Ergas","steam_id":76561198860861032,"connected_time":505000000000,"state":"active","ping":65},{"user_id":13,"name":"CrazyIvan102","steam_id":76561198161335230,"connected_time":342000000000,"state":"active","ping":81},{"user_id":12,"name":"ZerCroix","steam_id":76561198199523226,"connected_time":452000000000,"state":"active","ping":72},{"user_id":14,"name":"Gender Offender","steam_id":76561198369227367,"connected_time":311000000000,"state":"active","ping":92},{"user_id":15,"name":"Osmo","steam_id":76561199286764992,"connected_time":274000000000,"state":"active","ping":82},{"user_id":16,"name":"aphextwinsucks","steam_id":76561198132185926,"connected_time":237000000000,"state":"active","ping":73},{"user_id":17,"name":"–°ool monke","steam_id":76561199074281438,"connected_time":205000000000,"state":"active","ping":69},{"user_id":18,"name":"EES719","steam_id":76561199367581233,"connected_time":193000000000,"state":"active","ping":70},{"user_id":19,"name":"heavy sings (real)","steam_id":76561199023804405,"connected_time":187000000000,"state":"active","ping":79},{"user_id":20,"name":"Kahvi","steam_id":76561198723244199,"connected_time":131000000000,"state":"active","ping":69},{"user_id":22,"name":"The One (and only)","steam_id":76561198827193499,"connected_time":97000000000,"state":"active","ping":73},{"user_id":23,"name":"scoutcasper","steam_id":76561199019266022,"connected_time":31000000000,"state":"active","ping":47},{"user_id":24,"name":"GIGA BIT","steam_id":76561199370600343,"connected_time":5000000000,"state":"spawning","ping":119}]},{"server_id":114,"name":"Uncletopia | London | 2 | All Maps","name_short":"lon-2","host":"lon-1.uk.uncletopia.com","port":27025,"enabled":true,"region":"eu","cc":"gb","latitude":51.509865,"longitude":-0.118092,"reserved":0,"last_update":"0001-01-01T00:00:00Z","name_a2s":"Uncletopia | London | 2 | All Maps","protocol":17,"map":"koth_lakeside_final","folder":"tf","game":"Team Fortress","app_id":440,"player_count":0,"max_players":24,"Bots":0,"server_type":"Dedicated","server_os":"Linux","password":true,"vac":true,"version":"7961495","steam_id":85568392924470941,"keywords":["cp","nocrits","nodmgspread","uncletopia"],"game_id":440,"stv_port":27026,"stv_name":"Uncletopia | London | 2 | All Maps | STV","players":null},{"server_id":320,"name":"Uncletopia | London | 3 | All Maps","name_short":"lon-3","host":"lon-1.uk.uncletopia.com","port":27035,"enabled":true,"region":"eu","cc":"gb","latitude":51.509865,"longitude":-0.118092,"reserved":0,"last_update":"0001-01-01T00:00:00Z","name_a2s":"Uncletopia | London | 3 | All Maps","protocol":17,"map":"koth_cascade","folder":"tf","game":"Team Fortress","app_id":440,"player_count":0,"max_players":24,"Bots":0,"server_type":"Dedicated","server_os":"Linux","password":true,"vac":true,"version":"7961495","steam_id":85568392924510192,"keywords":["cp","nocrits","nodmgspread","uncletopia"],"game_id":440,"stv_port":27036,"stv_name":"Uncletopia | London | 3 | All Maps | STV","players":null},{"server_id":321,"name":"Uncletopia | London | 4 | All Maps","name_short":"lon-4","host":"lon-1.uk.uncletopia.com","port":27045,"enabled":true,"region":"eu","cc":"gb","latitude":51.509865,"longitude":-0.118092,"reserved":0,"last_update":"0001-01-01T00:00:00Z","name_a2s":"Uncletopia | London | 4 | All Maps","protocol":17,"map":"pl_pier","folder":"tf","game":"Team Fortress","app_id":440,"player_count":24,"max_players":24,"Bots":0,"server_type":"Dedicated","server_os":"Linux","password":true,"vac":true,"version":"7961495","steam_id":85568392924510193,"keywords":["nocrits","nodmgspread","payload","uncletopia"],"game_id":440,"stv_port":27046,"stv_name":"Uncletopia | London | 4 | All Maps | STV","players":[{"user_id":112,"name":"clunk","steam_id":76561198836460767,"connected_time":6269000000000,"state":"active","ping":63},{"user_id":175,"name":"dove","steam_id":76561198026037217,"connected_time":636000000000,"state":"active","ping":75},{"user_id":119,"name":"spxcy","steam_id":76561198080296853,"connected_time":5327000000000,"state":"active","ping":75},{"user_id":139,"name":"The Jolly Hunting Man","steam_id":76561198343521899,"connected_time":4140000000000,"state":"active","ping":129},{"user_id":177,"name":"Saint","steam_id":76561198003296382,"connected_time":624000000000,"state":"active","ping":77},{"user_id":172,"name":"XxBenShapiro420xX","steam_id":76561199229373972,"connected_time":1196000000000,"state":"active","ping":59},{"user_id":174,"name":"Uselss Joe","steam_id":76561198275853629,"connected_time":1009000000000,"state":"active","ping":59},{"user_id":182,"name":"TechAchech","steam_id":76561198304077408,"connected_time":305000000000,"state":"active","ping":61},{"user_id":184,"name":"Spinya","steam_id":76561198086653667,"connected_time":199000000000,"state":"active","ping":59},{"user_id":183,"name":"Xriasp","steam_id":76561198104721321,"connected_time":296000000000,"state":"active","ping":101},{"user_id":157,"name":"yuno appreciator","steam_id":76561198083286511,"connected_time":2619000000000,"state":"active","ping":45},{"user_id":170,"name":"Mr. Bean","steam_id":76561198086929777,"connected_time":1460000000000,"state":"active","ping":59},{"user_id":162,"name":"thekoolest88","steam_id":76561199022415672,"connected_time":1767000000000,"state":"active","ping":133},{"user_id":179,"name":"admiral squatbar","steam_id":76561198148448716,"connected_time":608000000000,"state":"active","ping":47},{"user_id":180,"name":"Sir Andrei","steam_id":76561198805136461,"connected_time":571000000000,"state":"active","ping":51},{"user_id":158,"name":"per","steam_id":76561198124117349,"connected_time":2443000000000,"state":"active","ping":135},{"user_id":155,"name":"Keke","steam_id":76561198042032908,"connected_time":2712000000000,"state":"active","ping":92},{"user_id":148,"name":"Luckane","steam_id":76561198009695107,"connected_time":3175000000000,"state":"active","ping":56},{"user_id":171,"name":"HealthHazard","steam_id":76561198212549753,"connected_time":1460000000000,"state":"active","ping":57},{"user_id":130,"name":"‡πáMcTK","steam_id":76561199384193338,"connected_time":4824000000000,"state":"active","ping":71},{"user_id":166,"name":"Uncle Dane","steam_id":76561198839047710,"connected_time":1656000000000,"state":"active","ping":59},{"user_id":145,"name":"MaccyF","steam_id":76561198039214805,"connected_time":3443000000000,"state":"active","ping":44},{"user_id":143,"name":"Raph","steam_id":76561198154800858,"connected_time":3939000000000,"state":"active","ping":75},{"user_id":168,"name":"Reimu Hakurei","steam_id":76561198152478010,"connected_time":1628000000000,"state":"active","ping":89}]},{"server_id":21,"name":"Uncletopia | London | 5 | All Maps","name_short":"lon-5","host":"lon-1.uk.uncletopia.com","port":27055,"enabled":true,"region":"eu","cc":"gb","latitude":51.509865,"longitude":-0.118092,"reserved":0,"last_update":"0001-01-01T00:00:00Z","name_a2s":"Uncletopia | London | 5 | All Maps","protocol":17,"map":"pl_upward","folder":"tf","game":"Team Fortress","app_id":440,"player_count":0,"max_players":24,"Bots":0,"server_type":"Dedicated","server_os":"Linux","password":true,"vac":true,"version":"7961495","steam_id":85568392924742829,"keywords":["nocrits","nodmgspread","payload","uncletopia"],"game_id":440,"stv_port":27056,"stv_name":"Uncletopia | London | 5 | All Maps | STV","players":null},{"server_id":22,"name":"Uncletopia | London | 6 | All Maps","name_short":"lon-6","host":"lon-1.uk.uncletopia.com","port":27065,"enabled":true,"region":"eu","cc":"gb","latitude":51.509865,"longitude":-0.118092,"reserved":0,"last_update":"0001-01-01T00:00:00Z","name_a2s":"Uncletopia | London | 6 | All Maps","protocol":17,"map":"koth_lakeside_final","folder":"tf","game":"Team Fortress","app_id":440,"player_count":0,"max_players":24,"Bots":0,"server_type":"Dedicated","server_os":"Linux","password":true,"vac":true,"version":"7961495","steam_id":85568392924742830,"keywords":["cp","nocrits","nodmgspread","uncletopia"],"game_id":440,"stv_port":27066,"stv_name":"Uncletopia | London | 6 | All Maps | STV","players":null},{"server_id":40,"name":"Uncletopia | London | 7 | No Payload","name_short":"lon-7","host":"lon-1.uk.uncletopia.com","port":27075,"enabled":true,"region":"eu","cc":"gb","latitude":51.509865,"longitude":-0.118092,"reserved":0,"last_update":"0001-01-01T00:00:00Z","name_a2s":"Uncletopia | London | 7 | No Payload","protocol":17,"map":"cp_altitude","folder":"tf","game":"Team Fortress","app_id":440,"player_count":0,"max_players":24,"Bots":0,"server_type":"Dedicated","server_os":"Linux","password":true,"vac":true,"version":"7961495","steam_id":85568392924964314,"keywords":["cp","nocrits","nodmgspread","uncletopia"],"game_id":440,"stv_port":27076,"stv_name":"Uncletopia | London | 7 | No Payload | STV","players":null},{"server_id":41,"name":"Uncletopia | London | 8 | Community","name_short":"lon-8","host":"lon-1.uk.uncletopia.com","port":27085,"enabled":true,"region":"eu","cc":"gb","latitude":51.509865,"longitude":-0.118092,"reserved":0,"last_update":"0001-01-01T00:00:00Z","name_a2s":"Uncletopia | London | 8 | Community","protocol":17,"map":"pl_borneo","folder":"tf","game":"Team Fortress","app_id":440,"player_count":0,"max_players":24,"Bots":0,"server_type":"Dedicated","server_os":"Linux","password":true,"vac":true,"version":"7961495","steam_id":85568392924964315,"keywords":["nocrits","nodmgspread","payload","uncletopia"],"game_id":440,"stv_port":27086,"stv_name":"Uncletopia | London | 8 | Community | STV","players":null},{"server_id":300,"name":"Uncletopia | Montr√©al | 1 | All Maps","name_short":"mtl-1","host":"mtl-1.ca.uncletopia.com","port":27015,"enabled":true,"region":"us-east","cc":"ca","latitude":45.50889,"longitude":-73.56167,"reserved":0,"last_update":"0001-01-01T00:00:00Z","name_a2s":"","protocol":0,"map":"","folder":"","game":"","app_id":0,"player_count":0,"max_players":0,"Bots":0,"server_type":"","server_os":"","password":false,"vac":false,"version":"","steam_id":0,"keywords":null,"game_id":0,"stv_port":0,"stv_name":"","players":null},{"server_id":301,"name":"Uncletopia | Montr√©al | 2 | All Maps","name_short":"mtl-2","host":"mtl-1.ca.uncletopia.com","port":27025,"enabled":true,"region":"us-east","cc":"ca","latitude":45.50889,"longitude":-73.56167,"reserved":0,"last_update":"0001-01-01T00:00:00Z","name_a2s":"","protocol":0,"map":"","folder":"","game":"","app_id":0,"player_count":0,"max_players":0,"Bots":0,"server_type":"","server_os":"","password":false,"vac":false,"version":"","steam_id":0,"keywords":null,"game_id":0,"stv_port":0,"stv_name":"","players":null},{"server_id":302,"name":"Uncletopia | Montr√©al | 3 | All Maps","name_short":"mtl-3","host":"mtl-1.ca.uncletopia.com","port":27035,"enabled":true,"region":"us-east","cc":"ca","latitude":45.50889,"longitude":-73.56167,"reserved":0,"last_update":"0001-01-01T00:00:00Z","name_a2s":"","protocol":0,"map":"","folder":"","game":"","app_id":0,"player_count":0,"max_players":0,"Bots":0,"server_type":"","server_os":"","password":false,"vac":false,"version":"","steam_id":0,"keywords":null,"game_id":0,"stv_port":0,"stv_name":"","players":null},{"server_id":303,"name":"Uncletopia | Montr√©al | 4 | No Payload","name_short":"mtl-4","host":"mtl-1.ca.uncletopia.com","port":27045,"enabled":true,"region":"us-east","cc":"ca","latitude":45.50889,"longitude":-73.56167,"reserved":0,"last_update":"0001-01-01T00:00:00Z","name_a2s":"","protocol":0,"map":"","folder":"","game":"","app_id":0,"player_count":0,"max_players":0,"Bots":0,"server_type":"","server_os":"","password":false,"vac":false,"version":"","steam_id":0,"keywords":null,"game_id":0,"stv_port":0,"stv_name":"","players":null},{"server_id":13,"name":"Uncletopia | New York City | 1 | All Maps","name_short":"nyc-1","host":"nyc-1.us.uncletopia.com","port":27015,"enabled":true,"region":"us-east","cc":"us","latitude":40.73061,"longitude":-73.93524,"reserved":0,"last_update":"0001-01-01T00:00:00Z","name_a2s":"Uncletopia | New York City | 1 | All Maps","protocol":17,"map":"koth_cascade","folder":"tf","game":"Team Fortress","app_id":440,"player_count":0,"max_players":24,"Bots":0,"server_type":"Dedicated","server_os":"Linux","password":true,"vac":true,"version":"7961495","steam_id":85568392924469993,"keywords":["cp","nocrits","nodmgspread","uncletopia"],"game_id":440,"stv_port":27016,"stv_name":"Uncletopia | New York City | 1 | All Maps | STV","players":null},{"server_id":14,"name":"Uncletopia | New York City | 2 | All Maps","name_short":"nyc-2","host":"nyc-1.us.uncletopia.com","port":27025,"enabled":true,"region":"us-east","cc":"us","latitude":40.73061,"longitude":-73.93524,"reserved":0,"last_update":"0001-01-01T00:00:00Z","name_a2s":"Uncletopia | New York City | 2 | All Maps","protocol":17,"map":"koth_highpass","folder":"tf","game":"Team Fortress","app_id":440,"player_count":0,"max_players":24,"Bots":0,"server_type":"Dedicated","server_os":"Linux","password":true,"vac":true,"version":"7961495","steam_id":85568392924469994,"keywords":["cp","nocrits","nodmgspread","uncletopia"],"game_id":440,"stv_port":27026,"stv_name":"Uncletopia | New York City | 2 | All Maps | STV","players":null},{"server_id":15,"name":"Uncletopia | New York City | 3 | Stopwatch Beta","name_short":"nyc-3","host":"nyc-1.us.uncletopia.com","port":27035,"enabled":true,"region":"us-east","cc":"us","latitude":40.73061,"longitude":-73.93524,"reserved":0,"last_update":"0001-01-01T00:00:00Z","name_a2s":"Uncletopia | New York City | 3 | Stopwatch Beta","protocol":17,"map":"workshop/pl_summercoast_rc8e.ugc1761528829","folder":"tf","game":"Team Fortress","app_id":440,"player_count":0,"max_players":24,"Bots":0,"server_type":"Dedicated","server_os":"Linux","password":true,"vac":true,"version":"7961495","steam_id":85568392924742820,"keywords":["nocrits","nodmgspread","payload","uncletopia"],"game_id":440,"stv_port":27036,"stv_name":"Uncletopia | New York City | 3 | Stopwatch Beta | STV","players":null},{"server_id":16,"name":"Uncletopia | New York City | 4 | Community","name_short":"nyc-4","host":"nyc-1.us.uncletopia.com","port":27045,"enabled":true,"region":"us-east","cc":"us","latitude":40.73061,"longitude":-73.93524,"reserved":0,"last_update":"0001-01-01T00:00:00Z","name_a2s":"Uncletopia | New York City | 4 | Community","protocol":17,"map":"workshop/cp_fulgur_rc2a.ugc2068252300","folder":"tf","game":"Team Fortress","app_id":440,"player_count":0,"max_players":24,"Bots":0,"server_type":"Dedicated","server_os":"Linux","password":true,"vac":true,"version":"7961495","steam_id":85568392924742821,"keywords":["cp","nocrits","nodmgspread","uncletopia"],"game_id":440,"stv_port":27046,"stv_name":"Uncletopia | New York City | 4 | Community | STV","players":null},{"server_id":142,"name":"Uncletopia | S√£o Paulo | 1 | All Maps","name_short":"sao-1","host":"sao-1.br.uncletopia.com","port":27015,"enabled":true,"region":"sa","cc":"br","latitude":-23.533773,"longitude":-46.62529,"reserved":0,"last_update":"0001-01-01T00:00:00Z","name_a2s":"Uncletopia | S√£o Paulo | 1 | All Maps","protocol":17,"map":"koth_highpass","folder":"tf","game":"Team Fortress","app_id":440,"player_count":0,"max_players":24,"Bots":0,"server_type":"Dedicated","server_os":"Linux","password":true,"vac":true,"version":"7961495","steam_id":85568392924469996,"keywords":["cp","nocrits","nodmgspread","uncletopia"],"game_id":440,"stv_port":27016,"stv_name":"Uncletopia | S√£o Paulo | 1 | All Maps | STV","players":null},{"server_id":143,"name":"Uncletopia | S√£o Paulo | 2 | Community","name_short":"sao-2","host":"sao-2.br.uncletopia.com","port":27015,"enabled":true,"region":"sa","cc":"br","latitude":-23.533773,"longitude":-46.62529,"reserved":0,"last_update":"0001-01-01T00:00:00Z","name_a2s":"Uncletopia | S√£o Paulo | 2 | Community","protocol":17,"map":"workshop/cp_bruhstbowl_b6.ugc2878604990","folder":"tf","game":"Team Fortress","app_id":440,"player_count":0,"max_players":24,"Bots":0,"server_type":"Dedicated","server_os":"Linux","password":true,"vac":true,"version":"7961495","steam_id":85568392924485349,"keywords":["cp","nocrits","nodmgspread","uncletopia"],"game_id":440,"stv_port":27016,"stv_name":"Uncletopia | S√£o Paulo | 2 | Community | STV","players":null},{"server_id":7,"name":"Uncletopia | Seattle | 1 | All Maps","name_short":"sea-1","host":"sea-1.us.uncletopia.com","port":27015,"enabled":true,"region":"us-west","cc":"us","latitude":47.608013,"longitude":-122.33517,"reserved":0,"last_update":"0001-01-01T00:00:00Z","name_a2s":"Uncletopia | Seattle | 1 | All Maps","protocol":17,"map":"pl_borneo","folder":"tf","game":"Team Fortress","app_id":440,"player_count":24,"max_players":24,"Bots":0,"server_type":"Dedicated","server_os":"Linux","password":true,"vac":true,"version":"7961495","steam_id":85568392924469997,"keywords":["nocrits","nodmgspread","payload","uncletopia"],"game_id":440,"stv_port":27016,"stv_name":"Uncletopia | Seattle | 1 | All Maps | STV","players":[{"user_id":392,"name":"DiscoChickenNugget","steam_id":76561198114461685,"connected_time":185000000000,"state":"active","ping":91},{"user_id":374,"name":"zpalmtree","steam_id":76561198134307620,"connected_time":2302000000000,"state":"active","ping":111},{"user_id":386,"name":"KalmingKoz","steam_id":76561198362800060,"connected_time":324000000000,"state":"active","ping":50},{"user_id":397,"name":"lil boogie","steam_id":76561198064059721,"connected_time":86000000000,"state":"active","ping":43},{"user_id":391,"name":"Chap","steam_id":76561198294226443,"connected_time":267000000000,"state":"active","ping":82},{"user_id":388,"name":"Gm_Trash","steam_id":76561199445091548,"connected_time":310000000000,"state":"active","ping":70},{"user_id":332,"name":"rat gets the cheese","steam_id":76561198031234032,"connected_time":9008000000000,"state":"active","ping":89},{"user_id":372,"name":"Karrman","steam_id":76561198859737700,"connected_time":2402000000000,"state":"active","ping":94},{"user_id":305,"name":"Ayayayayayahuasca","steam_id":76561199002906056,"connected_time":12217000000000,"state":"active","ping":47},{"user_id":373,"name":"NEBULA","steam_id":76561198086878595,"connected_time":2369000000000,"state":"active","ping":67},{"user_id":390,"name":"rorywashere /·ê† - Àï -„Éû ‚≥ä","steam_id":76561198065825165,"connected_time":294000000000,"state":"active","ping":112},{"user_id":364,"name":"mike","steam_id":76561198163265338,"connected_time":3714000000000,"state":"active","ping":46},{"user_id":371,"name":"Butterscotch Poopies","steam_id":76561197985260403,"connected_time":2415000000000,"state":"active","ping":47},{"user_id":363,"name":"resh","steam_id":76561198239598834,"connected_time":3767000000000,"state":"active","ping":137},{"user_id":365,"name":"doopsies","steam_id":76561198083000867,"connected_time":3673000000000,"state":"active","ping":52},{"user_id":393,"name":"The Observer","steam_id":76561198830360058,"connected_time":169000000000,"state":"active","ping":79},{"user_id":389,"name":"ed LFB","steam_id":76561198080475712,"connected_time":304000000000,"state":"active","ping":69},{"user_id":395,"name":"Hyperstition","steam_id":76561198116425414,"connected_time":124000000000,"state":"active","ping":67},{"user_id":366,"name":"worker","steam_id":76561198039608940,"connected_time":3437000000000,"state":"active","ping":56},{"user_id":396,"name":"marty","steam_id":76561198032782746,"connected_time":124000000000,"state":"active","ping":42},{"user_id":380,"name":"ibu","steam_id":76561197968084065,"connected_time":1051000000000,"state":"active","ping":56},{"user_id":349,"name":"gorlab","steam_id":76561198025089694,"connected_time":5989000000000,"state":"active","ping":61},{"user_id":347,"name":"fart thief","steam_id":76561198046073848,"connected_time":6384000000000,"state":"active","ping":46},{"user_id":376,"name":"cheeto dorito","steam_id":76561198107941274,"connected_time":2021000000000,"state":"active","ping":149}]},{"server_id":119,"name":"Uncletopia | Seattle | 2 | All Maps","name_short":"sea-2","host":"sea-1.us.uncletopia.com","port":27025,"enabled":true,"region":"us-west","cc":"us","latitude":47.608013,"longitude":-122.33517,"reserved":0,"last_update":"0001-01-01T00:00:00Z","name_a2s":"Uncletopia | Seattle | 2 | All Maps","protocol":17,"map":"pl_swiftwater_final1","folder":"tf","game":"Team Fortress","app_id":440,"player_count":0,"max_players":24,"Bots":0,"server_type":"Dedicated","server_os":"Linux","password":true,"vac":true,"version":"7961495","steam_id":85568392924469998,"keywords":["nocrits","nodmgspread","payload","uncletopia"],"game_id":440,"stv_port":27026,"stv_name":"Uncletopia | Seattle | 2 | All Maps | STV","players":null},{"server_id":406,"name":"Uncletopia | Seattle | 3 | Stopwatch","name_short":"sea-3","host":"sea-1.us.uncletopia.com","port":27035,"enabled":true,"region":"us-west","cc":"us","latitude":47.608013,"longitude":-122.33517,"reserved":0,"last_update":"0001-01-01T00:00:00Z","name_a2s":"Uncletopia | Seattle | 3 | Stopwatch","protocol":17,"map":"workshop/koth_product_final.ugc454272353","folder":"tf","game":"Team Fortress","app_id":440,"player_count":0,"max_players":24,"Bots":0,"server_type":"Dedicated","server_os":"Linux","password":true,"vac":true,"version":"7961495","steam_id":85568392924515217,"keywords":["cp","nocrits","nodmgspread","uncletopia"],"game_id":440,"stv_port":27036,"stv_name":"Uncletopia | Seattle | 3 | Stopwatch | STV","players":null},{"server_id":17,"name":"Uncletopia | San Francisco | 1 | All Maps","name_short":"sfo-1","host":"sfo-1.us.uncletopia.com","port":27015,"enabled":true,"region":"us-west","cc":"us","latitude":37.77397,"longitude":-122.4313,"reserved":0,"last_update":"0001-01-01T00:00:00Z","name_a2s":"Uncletopia | San Francisco | 1 | All Maps","protocol":17,"map":"koth_highpass","folder":"tf","game":"Team Fortress","app_id":440,"player_count":0,"max_players":24,"Bots":0,"server_type":"Dedicated","server_os":"Linux","password":true,"vac":true,"version":"7961495","steam_id":85568392924469999,"keywords":["cp","nocrits","nodmgspread","uncletopia"],"game_id":440,"stv_port":27016,"stv_name":"Uncletopia | San Francisco | 1 | All Maps | STV","players":null},{"server_id":18,"name":"Uncletopia | San Francisco | 2 | All Maps","name_short":"sfo-2","host":"sfo-1.us.uncletopia.com","port":27025,"enabled":true,"region":"us-west","cc":"us","latitude":37.77397,"longitude":-122.4313,"reserved":0,"last_update":"0001-01-01T00:00:00Z","name_a2s":"Uncletopia | San Francisco | 2 | All Maps","protocol":17,"map":"pl_pier","folder":"tf","game":"Team Fortress","app_id":440,"player_count":12,"max_players":24,"Bots":0,"server_type":"Dedicated","server_os":"Linux","password":true,"vac":true,"version":"7961495","steam_id":85568392924470000,"keywords":["nocrits","nodmgspread","payload","uncletopia"],"game_id":440,"stv_port":27026,"stv_name":"Uncletopia | San Francisco | 2 | All Maps | STV","players":[{"user_id":514,"name":"Queso","steam_id":76561198081221384,"connected_time":1257000000000,"state":"active","ping":60},{"user_id":525,"name":"chocky","steam_id":76561198057491296,"connected_time":297000000000,"state":"active","ping":59},{"user_id":509,"name":"ydanay","steam_id":76561198088375486,"connected_time":2329000000000,"state":"active","ping":44},{"user_id":526,"name":"OzzyAkiro47","steam_id":76561199076449499,"connected_time":92000000000,"state":"active","ping":55},{"user_id":518,"name":"Dozzywozzit","steam_id":76561198110598577,"connected_time":1063000000000,"state":"active","ping":74},{"user_id":470,"name":"PulledPork","steam_id":76561198182077258,"connected_time":5229000000000,"state":"active","ping":59},{"user_id":511,"name":"Super Saiyan Bear","steam_id":76561198063118280,"connected_time":2316000000000,"state":"active","ping":61},{"user_id":504,"name":"MoonNasa","steam_id":76561198275962717,"connected_time":2815000000000,"state":"active","ping":69},{"user_id":522,"name":"sadlaxx","steam_id":76561198061354919,"connected_time":832000000000,"state":"active","ping":64},{"user_id":508,"name":"fitotutus","steam_id":76561197974993253,"connected_time":2605000000000,"state":"active","ping":155},{"user_id":506,"name":"PetorBoyo","steam_id":76561198176953113,"connected_time":2790000000000,"state":"active","ping":69},{"user_id":429,"name":"N√º√æ","steam_id":76561198043956703,"connected_time":9097000000000,"state":"active","ping":42}]},{"server_id":19,"name":"Uncletopia | San Francisco | 3 | Stopwatch","name_short":"sfo-3","host":"sfo-1.us.uncletopia.com","port":27035,"enabled":true,"region":"us-west","cc":"us","latitude":37.77397,"longitude":-122.4313,"reserved":0,"last_update":"0001-01-01T00:00:00Z","name_a2s":"Uncletopia | San Francisco | 3 | Stopwatch","protocol":17,"map":"cp_metalworks","folder":"tf","game":"Team Fortress","app_id":440,"player_count":0,"max_players":24,"Bots":0,"server_type":"Dedicated","server_os":"Linux","password":true,"vac":true,"version":"7961495","steam_id":85568392924742824,"keywords":["cp","nocrits","nodmgspread","uncletopia"],"game_id":440,"stv_port":27036,"stv_name":"Uncletopia | San Francisco | 3 | Stopwatch | STV","players":null},{"server_id":20,"name":"Uncletopia | San Francisco | 4 | Community","name_short":"sfo-4","host":"sfo-1.us.uncletopia.com","port":27045,"enabled":true,"region":"us-west","cc":"us","latitude":37.77397,"longitude":-122.4313,"reserved":0,"last_update":"0001-01-01T00:00:00Z","name_a2s":"Uncletopia | San Francisco | 4 | Community","protocol":17,"map":"cp_snakewater_final1","folder":"tf","game":"Team Fortress","app_id":440,"player_count":0,"max_players":24,"Bots":0,"server_type":"Dedicated","server_os":"Linux","password":true,"vac":true,"version":"7961495","steam_id":85568392924742826,"keywords":["cp","nocrits","nodmgspread","uncletopia"],"game_id":440,"stv_port":27046,"stv_name":"Uncletopia | San Francisco | 4 | Community | STV","players":null},{"server_id":141,"name":"Uncletopia | Sydney | 1 | All Maps","name_short":"syd-1","host":"syd-1.au.uncletopia.com","port":27015,"enabled":true,"region":"au","cc":"au","latitude":-33.865143,"longitude":151.2099,"reserved":0,"last_update":"0001-01-01T00:00:00Z","name_a2s":"Uncletopia | Sydney | 1 | All Maps","protocol":17,"map":"cp_dustbowl","folder":"tf","game":"Team Fortress","app_id":440,"player_count":23,"max_players":24,"Bots":0,"server_type":"Dedicated","server_os":"Linux","password":true,"vac":true,"version":"7961495","steam_id":85568392924470001,"keywords":["cp","nocrits","nodmgspread","uncletopia"],"game_id":440,"stv_port":27016,"stv_name":"Uncletopia | Sydney | 1 | All Maps | STV","players":[{"user_id":301,"name":"bostanc","steam_id":76561199125869659,"connected_time":418000000000,"state":"active","ping":51},{"user_id":278,"name":"D√ÑNK D0PER$√òN","steam_id":76561198127257666,"connected_time":1622000000000,"state":"active","ping":58},{"user_id":299,"name":"Exyn","steam_id":76561198130149901,"connected_time":661000000000,"state":"active","ping":61},{"user_id":266,"name":"4-Star Yelp Review","steam_id":76561197995258180,"connected_time":3005000000000,"state":"active","ping":54},{"user_id":271,"name":"Cogzy","steam_id":76561198012463402,"connected_time":2549000000000,"state":"active","ping":74},{"user_id":303,"name":"Granolarama","steam_id":76561198059129270,"connected_time":306000000000,"state":"active","ping":70},{"user_id":269,"name":"DAN-SKIES","steam_id":76561198148166363,"connected_time":2785000000000,"state":"active","ping":66},{"user_id":268,"name":"Pompadouraus","steam_id":76561198327530525,"connected_time":2906000000000,"state":"active","ping":74},{"user_id":298,"name":"Bill Nye","steam_id":76561198312898168,"connected_time":702000000000,"state":"active","ping":57},{"user_id":265,"name":"soupy","steam_id":76561198073734936,"connected_time":3245000000000,"state":"active","ping":90},{"user_id":288,"name":"jcoll444","steam_id":76561198143025380,"connected_time":1508000000000,"state":"active","ping":66},{"user_id":302,"name":"Sir Thomas","steam_id":76561197969366954,"connected_time":334000000000,"state":"active","ping":85},{"user_id":290,"name":"uso","steam_id":76561198028756598,"connected_time":1465000000000,"state":"active","ping":89},{"user_id":304,"name":"ladys man","steam_id":76561198048143510,"connected_time":266000000000,"state":"active","ping":128},{"user_id":294,"name":"SNIPERELEPHANT","steam_id":76561198053796020,"connected_time":1035000000000,"state":"active","ping":52},{"user_id":291,"name":"mada","steam_id":76561199436707447,"connected_time":1383000000000,"state":"active","ping":58},{"user_id":308,"name":"Resin","steam_id":76561198054911792,"connected_time":17000000000,"state":"spawning","ping":44},{"user_id":305,"name":"Kevin Parker","steam_id":76561198060677406,"connected_time":259000000000,"state":"active","ping":89},{"user_id":307,"name":"ManofWonder1","steam_id":76561198904788550,"connected_time":30000000000,"state":"active","ping":66},{"user_id":293,"name":"Zoey","steam_id":76561198126153554,"connected_time":1210000000000,"state":"active","ping":77},{"user_id":234,"name":"viirv","steam_id":76561198190097862,"connected_time":5613000000000,"state":"active","ping":67}]},{"server_id":123,"name":"Uncletopia | Sydney | 2 | All Maps","name_short":"syd-2","host":"syd-1.au.uncletopia.com","port":27025,"enabled":true,"region":"au","cc":"au","latitude":-33.865143,"longitude":151.2099,"reserved":0,"last_update":"0001-01-01T00:00:00Z","name_a2s":"Uncletopia | Sydney | 2 | All Maps","protocol":17,"map":"pl_upward","folder":"tf","game":"Team Fortress","app_id":440,"player_count":1,"max_players":24,"Bots":0,"server_type":"Dedicated","server_os":"Linux","password":true,"vac":true,"version":"7961495","steam_id":85568392924470002,"keywords":["nocrits","nodmgspread","payload","uncletopia"],"game_id":440,"stv_port":27026,"stv_name":"Uncletopia | Sydney | 2 | All Maps | STV","players":[{"user_id":85,"name":"gvd2002","steam_id":76561198346318605,"connected_time":362000000000,"state":"active","ping":340}]},{"server_id":395,"name":"Uncletopia | Sydney | 3 | All Maps","name_short":"syd-3","host":"syd-1.au.uncletopia.com","port":27035,"enabled":true,"region":"au","cc":"au","latitude":-33.865143,"longitude":151.2099,"reserved":0,"last_update":"0001-01-01T00:00:00Z","name_a2s":"Uncletopia | Sydney | 3 | All Maps","protocol":17,"map":"koth_lakeside_final","folder":"tf","game":"Team Fortress","app_id":440,"player_count":0,"max_players":24,"Bots":0,"server_type":"Dedicated","server_os":"Linux","password":true,"vac":true,"version":"7961495","steam_id":85568392925194467,"keywords":["cp","nocrits","nodmgspread","uncletopia"],"game_id":440,"stv_port":27036,"stv_name":"Uncletopia | Sydney | 3 | All Maps | STV","players":null},{"server_id":396,"name":"Uncletopia | Sydney | 4 | All Maps","name_short":"syd-4","host":"syd-1.au.uncletopia.com","port":27045,"enabled":true,"region":"au","cc":"au","latitude":-33.865143,"longitude":151.2099,"reserved":0,"last_update":"0001-01-01T00:00:00Z","name_a2s":"Uncletopia | Sydney | 4 | All Maps","protocol":17,"map":"koth_viaduct","folder":"tf","game":"Team Fortress","app_id":440,"player_count":0,"max_players":24,"Bots":0,"server_type":"Dedicated","server_os":"Linux","password":true,"vac":true,"version":"7961495","steam_id":85568392925397958,"keywords":["cp","nocrits","nodmgspread","uncletopia"],"game_id":440,"stv_port":27046,"stv_name":"Uncletopia | Sydney | 4 | All Maps | STV","players":null},{"server_id":58,"name":"Uncletopia | Sydney | 5 | Stopwatch Beta","name_short":"syd-5","host":"syd-1.au.uncletopia.com","port":27055,"enabled":true,"region":"au","cc":"au","latitude":-33.865143,"longitude":151.2099,"reserved":0,"last_update":"0001-01-01T00:00:00Z","name_a2s":"Uncletopia | Sydney | 5 | Stopwatch Beta","protocol":17,"map":"workshop/koth_ashville_final.ugc2130459942","folder":"tf","game":"Team Fortress","app_id":440,"player_count":2,"max_players":24,"Bots":0,"server_type":"Dedicated","server_os":"Linux","password":true,"vac":true,"version":"7961495","steam_id":85568392925397959,"keywords":["cp","nocrits","nodmgspread","uncletopia"],"game_id":440,"stv_port":27056,"stv_name":"Uncletopia | Sydney | 5 | Stopwatch Beta | STV","players":[{"user_id":16,"name":"Butterednuggies","steam_id":76561199443345581,"connected_time":472000000000,"state":"active","ping":42},{"user_id":17,"name":"themanofmanyA's","steam_id":76561198993507041,"connected_time":404000000000,"state":"active","ping":58}]},{"server_id":59,"name":"Uncletopia | Sydney | 6 | Community","name_short":"syd-6","host":"syd-1.au.uncletopia.com","port":27065,"enabled":true,"region":"au","cc":"au","latitude":-33.865143,"longitude":151.2099,"reserved":0,"last_update":"0001-01-01T00:00:00Z","name_a2s":"Uncletopia | Sydney | 6 | Community","protocol":17,"map":"workshop/cp_bruhstbowl_b6.ugc2878604990","folder":"tf","game":"Team Fortress","app_id":440,"player_count":0,"max_players":24,"Bots":0,"server_type":"Dedicated","server_os":"Linux","password":true,"vac":true,"version":"7961495","steam_id":85568392925397960,"keywords":["cp","nocrits","nodmgspread","uncletopia"],"game_id":440,"stv_port":27066,"stv_name":"Uncletopia | Sydney | 6 | Community | STV","players":null},{"server_id":49,"name":"Uncletopia | Warsaw | 1 | All Maps","name_short":"waw-1","host":"waw-1.pl.uncletopia.com","port":27015,"enabled":true,"region":"eu","cc":"pl","latitude":52.2297,"longitude":21.017532,"reserved":0,"last_update":"0001-01-01T00:00:00Z","name_a2s":"Uncletopia | Warsaw | 1 | All Maps","protocol":17,"map":"pl_upward","folder":"tf","game":"Team Fortress","app_id":440,"player_count":1,"max_players":24,"Bots":0,"server_type":"Dedicated","server_os":"Linux","password":true,"vac":true,"version":"7961495","steam_id":85568392925397850,"keywords":["nocrits","nodmgspread","payload","uncletopia"],"game_id":440,"stv_port":27016,"stv_name":"Uncletopia | Warsaw | 1 | All Maps | STV","players":[{"user_id":7,"name":"Buterbrod","steam_id":76561198829880730,"connected_time":87000000000,"state":"active","ping":71}]},{"server_id":50,"name":"Uncletopia | Warsaw | 2 | All Maps","name_short":"waw-2","host":"waw-1.pl.uncletopia.com","port":27025,"enabled":true,"region":"eu","cc":"pl","latitude":52.2297,"longitude":21.017532,"reserved":0,"last_update":"0001-01-01T00:00:00Z","name_a2s":"Uncletopia | Warsaw | 2 | All Maps","protocol":17,"map":"pl_badwater","folder":"tf","game":"Team Fortress","app_id":440,"player_count":0,"max_players":24,"Bots":0,"server_type":"Dedicated","server_os":"Linux","password":true,"vac":true,"version":"7961495","steam_id":85568392925397851,"keywords":["nocrits","nodmgspread","payload","uncletopia"],"game_id":440,"stv_port":27026,"stv_name":"Uncletopia | Warsaw | 2 | All Maps | STV","players":null},{"server_id":51,"name":"Uncletopia | Warsaw | 3 | All Maps","name_short":"waw-3","host":"waw-1.pl.uncletopia.com","port":27035,"enabled":true,"region":"eu","cc":"pl","latitude":52.2297,"longitude":21.017532,"reserved":0,"last_update":"0001-01-01T00:00:00Z","name_a2s":"Uncletopia | Warsaw | 3 | All Maps","protocol":17,"map":"cp_process_final","folder":"tf","game":"Team Fortress","app_id":440,"player_count":0,"max_players":24,"Bots":0,"server_type":"Dedicated","server_os":"Linux","password":true,"vac":true,"version":"7961495","steam_id":85568392925397852,"keywords":["cp","nocrits","nodmgspread","uncletopia"],"game_id":440,"stv_port":27036,"stv_name":"Uncletopia | Warsaw | 3 | All Maps | STV","players":null},{"server_id":52,"name":"Uncletopia | Warsaw | 4 | All Maps","name_short":"waw-4","host":"waw-1.pl.uncletopia.com","port":27045,"enabled":true,"region":"eu","cc":"pl","latitude":52.2297,"longitude":21.017532,"reserved":0,"last_update":"0001-01-01T00:00:00Z","name_a2s":"Uncletopia | Warsaw | 4 | All Maps","protocol":17,"map":"pl_badwater","folder":"tf","game":"Team Fortress","app_id":440,"player_count":0,"max_players":24,"Bots":0,"server_type":"Dedicated","server_os":"Linux","password":true,"vac":true,"version":"7961495","steam_id":85568392925397853,"keywords":["nocrits","nodmgspread","payload","uncletopia"],"game_id":440,"stv_port":27046,"stv_name":"Uncletopia | Warsaw | 4 | All Maps | STV","players":null},{"server_id":53,"name":"Uncletopia | Warsaw | 5 | Stopwatch Beta","name_short":"waw-5","host":"waw-1.pl.uncletopia.com","port":27055,"enabled":true,"region":"eu","cc":"pl","latitude":52.2297,"longitude":21.017532,"reserved":0,"last_update":"0001-01-01T00:00:00Z","name_a2s":"Uncletopia | Warsaw | 5 | Stopwatch Beta","protocol":17,"map":"pl_snowycoast","folder":"tf","game":"Team Fortress","app_id":440,"player_count":0,"max_players":24,"Bots":0,"server_type":"Dedicated","server_os":"Linux","password":true,"vac":true,"version":"7961495","steam_id":85568392925397854,"keywords":["nocrits","nodmgspread","payload","uncletopia"],"game_id":440,"stv_port":27056,"stv_name":"Uncletopia | Warsaw | 5 | Stopwatch Beta | STV","players":null},{"server_id":54,"name":"Uncletopia | Warsaw | 6 | Community","name_short":"waw-6","host":"waw-1.pl.uncletopia.com","port":27065,"enabled":true,"region":"eu","cc":"pl","latitude":52.2297,"longitude":21.017532,"reserved":0,"last_update":"0001-01-01T00:00:00Z","name_a2s":"Uncletopia | Warsaw | 6 | Community","protocol":17,"map":"pl_borneo","folder":"tf","game":"Team Fortress","app_id":440,"player_count":0,"max_players":24,"Bots":0,"server_type":"Dedicated","server_os":"Linux","password":true,"vac":true,"version":"7961495","steam_id":85568392925397856,"keywords":["nocrits","nodmgspread","payload","uncletopia"],"game_id":440,"stv_port":27066,"stv_name":"Uncletopia | Warsaw | 6 | Community | STV","players":null}]}