{"status":true,"message":"","result":[{"server_id":9,"name":"Uncletopia | Atlanta | 1 | All Maps","name_short":"atl-1","host":"atl-1.us.uncletopia.com","port":27015,"enabled":true,"region":"us-east","cc":"us","latitude":33.753746,"longitude":-84.38633,"reserved":0,"last_update":"0001-01-01T00:00:00Z","name_a2s":"Uncletopia | Atlanta | 1 | All Maps","protocol":17,"map":"pl_badwater","folder":"tf","game":"Team Fortress","app_id":440,"player_count":24,"max_players":24,"Bots":0,"server_type":"Dedicated","server_os":"Linux","password":true,"vac":true,"version":"7757534","steam_id":85568392924469982,"keywords":["nocrits","nodmgspread","payload","uncletopia"],"game_id":440,"stv_port":27016,"stv_name":"Uncletopia | Atlanta | 1 | All Maps | STV","players":[{"user_id":303,"name":"Hautboi","steam_id":76561199012329221,"connected_time":366000000000,"state":"active","ping":64},{"user_id":231,"name":"--_Cook_--","steam_id":76561198080855748,"connected_time":4510000000000,"state":"active","ping":49},{"user_id":270,"name":"Intro Bonito","steam_id":76561198119478838,"connected_time":2265000000000,"state":"active","ping":45},{"user_id":302,"name":"fortnite.jimmy.2014","steam_id":76561199177672325,"connected_time":375000000000,"state":"active","ping":39},{"user_id":211,"name":"muzain","steam_id":76561198082467289,"connected_time":5980000000000,"state":"active","ping":88},{"user_id":153,"name":"King Sans","steam_id":76561198294198517,"connected_time":9032000000000,"state":"active","ping":53},{"user_id":295,"name":"boylover54","steam_id":76561199030726701,"connected_time":986000000000,"state":"active","ping":85},{"user_id":292,"name":"Galaxy_42","steam_id":76561198845514831,"connected_time":1016000000000,"state":"active","ping":52},{"user_id":257,"name":"freyja #LetsEat","steam_id":76561198249206656,"connected_time":3160000000000,"state":"active","ping":76},{"user_id":245,"name":"Broken Cereal‚àö","steam_id":76561198087489795,"connected_time":3283000000000,"state":"active","ping":82},{"user_id":293,"name":"saviogustavi","steam_id":76561199250694662,"connected_time":1012000000000,"state":"active","ping":159},{"user_id":258,"name":"hoboways","steam_id":76561198168035195,"connected_time":3053000000000,"state":"active","ping":77},{"user_id":296,"name":"bot pov","steam_id":76561198197408802,"connected_time":982000000000,"state":"active","ping":88},{"user_id":227,"name":"kite","steam_id":76561198346516392,"connected_time":4989000000000,"state":"active","ping":85},{"user_id":281,"name":"Broadsword","steam_id":76561198011160411,"connected_time":1842000000000,"state":"active","ping":63},{"user_id":297,"name":"Legit_Jaxer","steam_id":76561198172234053,"connected_time":936000000000,"state":"active","ping":108},{"user_id":299,"name":"So Hygienic! Washed gamer","steam_id":76561198321627268,"connected_time":719000000000,"state":"active","ping":100},{"user_id":298,"name":"pumquinn","steam_id":76561198066386940,"connected_time":917000000000,"state":"active","ping":75},{"user_id":237,"name":"Ping","steam_id":76561198072947773,"connected_time":4379000000000,"state":"active","ping":57},{"user_id":300,"name":"Django","steam_id":76561197971158403,"connected_time":574000000000,"state":"active","ping":72},{"user_id":301,"name":"The_Stomach_Stone_Surgeon","steam_id":76561198044643725,"connected_time":451000000000,"state":"active","ping":55},{"user_id":304,"name":"meo ‚ô•","steam_id":76561197992719272,"connected_time":131000000000,"state":"active","ping":70},{"user_id":207,"name":"HarryjusttHarry","steam_id":76561198982810452,"connected_time":6026000000000,"state":"active","ping":78},{"user_id":246,"name":"‚ô°Alyx‚ô°","steam_id":76561198024303978,"connected_time":3283000000000,"state":"active","ping":61}]},{"server_id":104,"name":"Uncletopia | Atlanta | 2 | All Maps","name_short":"atl-2","host":"atl-1.us.uncletopia.com","port":27025,"enabled":true,"region":"us-east","cc":"us","latitude":33.753746,"longitude":-84.38633,"reserved":0,"last_update":"0001-01-01T00:00:00Z","name_a2s":"Uncletopia | Atlanta | 2 | All Maps","protocol":17,"map":"cp_metalworks","folder":"tf","game":"Team Fortress","app_id":440,"player_count":24,"max_players":24,"Bots":0,"server_type":"Dedicated","server_os":"Linux","password":true,"vac":true,"version":"7757534","steam_id":85568392924469983,"keywords":["cp","nocrits","nodmgspread","uncletopia"],"game_id":440,"stv_port":27026,"stv_name":"Uncletopia | Atlanta | 2 | All Maps | STV","players":[{"user_id":52,"name":"jema","steam_id":76561198276513608,"connected_time":916000000000,"state":"active","ping":166},{"user_id":28,"name":"Fresh Lychee","steam_id":76561198045399559,"connected_time":2140000000000,"state":"active","ping":73},{"user_id":15,"name":"Andyzhouse23","steam_id":76561198849192138,"connected_time":2974000000000,"state":"active","ping":73},{"user_id":56,"name":"Shattered Glass","steam_id":76561198116835391,"connected_time":783000000000,"state":"active","ping":89},{"user_id":24,"name":"Cheems","steam_id":76561199132111333,"connected_time":2400000000000,"state":"active","ping":81},{"user_id":59,"name":"cmjgamingOHHH YEA","steam_id":76561199124037552,"connected_time":750000000000,"state":"active","ping":50},{"user_id":34,"name":"skooma addict","steam_id":76561198291044221,"connected_time":1669000000000,"state":"active","ping":55},{"user_id":60,"name":"MetalTao","steam_id":76561198189408110,"connected_time":732000000000,"state":"active","ping":93},{"user_id":36,"name":"A_Malebolgia","steam_id":76561198097722818,"connected_time":1594000000000,"state":"active","ping":91},{"user_id":65,"name":"Bottom Ramen","steam_id":76561197970450546,"connected_time":530000000000,"state":"active","ping":127},{"user_id":43,"name":"Wumbologist","steam_id":76561198188729514,"connected_time":1284000000000,"state":"active","ping":47},{"user_id":71,"name":"daughtry_fan1991","steam_id":76561198073269122,"connected_time":40000000000,"state":"active","ping":68},{"user_id":53,"name":"Oil (feat. Stevie Nicks)","steam_id":76561198398677744,"connected_time":886000000000,"state":"active","ping":103},{"user_id":41,"name":"benjamoney","steam_id":76561199023027047,"connected_time":1403000000000,"state":"active","ping":129},{"user_id":42,"name":"Maxwell (head is full of rice)","steam_id":76561198244676730,"connected_time":1401000000000,"state":"active","ping":111},{"user_id":47,"name":"dr sex, md (sexologist)","steam_id":76561198115874625,"connected_time":1158000000000,"state":"active","ping":101},{"user_id":70,"name":"BiggSlorp","steam_id":76561199130776156,"connected_time":266000000000,"state":"active","ping":68},{"user_id":61,"name":"troll","steam_id":76561198040890252,"connected_time":725000000000,"state":"active","ping":52},{"user_id":54,"name":"Your Local NPR Station","steam_id":76561198143830279,"connected_time":817000000000,"state":"active","ping":41},{"user_id":55,"name":"you should watch emesis blue","steam_id":76561199431659591,"connected_time":808000000000,"state":"active","ping":97},{"user_id":64,"name":"Gary Budussy","steam_id":76561197969793969,"connected_time":557000000000,"state":"active","ping":73},{"user_id":62,"name":"Ether101","steam_id":76561198047764744,"connected_time":720000000000,"state":"active","ping":102},{"user_id":63,"name":"James 4:4","steam_id":76561198121933439,"connected_time":576000000000,"state":"active","ping":71},{"user_id":66,"name":"Marlboro Menthol 100s","steam_id":76561198263631055,"connected_time":502000000000,"state":"active","ping":47}]},{"server_id":400,"name":"Uncletopia | Atlanta | 3 | Community","name_short":"atl-3","host":"atl-1.us.uncletopia.com","port":27035,"enabled":true,"region":"us-east","cc":"us","latitude":33.753746,"longitude":-84.38633,"reserved":0,"last_update":"0001-01-01T00:00:00Z","name_a2s":"Uncletopia | Atlanta | 3 | Community","protocol":17,"map":"workshop/cp_sulfur_rc2.ugc619869471","folder":"tf","game":"Team Fortress","app_id":440,"player_count":0,"max_players":24,"Bots":0,"server_type":"Dedicated","server_os":"Linux","password":true,"vac":true,"version":"7757534","steam_id":85568392924515187,"keywords":["cp","nocrits","nodmgspread","uncletopia"],"game_id":440,"stv_port":27036,"stv_name":"Uncletopia | Atlanta | 3 | Community | STV","players":null},{"server_id":401,"name":"Uncletopia | Atlanta | 4 | No Payload","name_short":"atl-4","host":"atl-1.us.uncletopia.com","port":27045,"enabled":true,"region":"us-east","cc":"us","latitude":33.753746,"longitude":-84.38633,"reserved":0,"last_update":"0001-01-01T00:00:00Z","name_a2s":"","protocol":0,"map":"","folder":"","game":"","app_id":0,"player_count":0,"max_players":0,"Bots":0,"server_type":"","server_os":"","password":false,"vac":false,"version":"","steam_id":0,"keywords":null,"game_id":0,"stv_port":0,"stv_name":"","players":null},{"server_id":2,"name":"Uncletopia | Chicago | 1 | All Maps","name_short":"chi-1","host":"chi-1.us.uncletopia.com","port":27015,"enabled":true,"region":"us-central","cc":"us","latitude":41.881832,"longitude":-87.62318,"reserved":0,"last_update":"0001-01-01T00:00:00Z","name_a2s":"Uncletopia | Chicago | 1 | All Maps","protocol":17,"map":"pl_pier","folder":"tf","game":"Team Fortress","app_id":440,"player_count":24,"max_players":24,"Bots":0,"server_type":"Dedicated","server_os":"Linux","password":true,"vac":true,"version":"7757534","steam_id":85568392924469984,"keywords":["nocrits","nodmgspread","payload","uncletopia"],"game_id":440,"stv_port":27016,"stv_name":"Uncletopia | Chicago | 1 | All Maps | STV","players":[{"user_id":204,"name":"googa","steam_id":76561198133130452,"connected_time":10235000000000,"state":"active","ping":59},{"user_id":328,"name":"felted","steam_id":76561198099507130,"connected_time":176000000000,"state":"active","ping":80},{"user_id":321,"name":"Fiendish Frog","steam_id":76561198029478821,"connected_time":1123000000000,"state":"active","ping":67},{"user_id":261,"name":".JIFF","steam_id":76561198045181760,"connected_time":4958000000000,"state":"active","ping":54},{"user_id":322,"name":"ZeFizzyPop‚Ñ¢","steam_id":76561198258104981,"connected_time":1064000000000,"state":"active","ping":68},{"user_id":206,"name":"De","steam_id":76561198206728044,"connected_time":10193000000000,"state":"active","ping":75},{"user_id":330,"name":"Blue‚õßMelon","steam_id":76561197970926435,"connected_time":52000000000,"state":"active","ping":74},{"user_id":217,"name":"PKBEAST_7","steam_id":76561198177136537,"connected_time":8408000000000,"state":"active","ping":96},{"user_id":327,"name":"Thy.Roid","steam_id":76561198122291992,"connected_time":236000000000,"state":"active","ping":46},{"user_id":320,"name":"iggy destruction","steam_id":76561198081576799,"connected_time":1141000000000,"state":"active","ping":89},{"user_id":332,"name":"TeeTree","steam_id":76561198862307874,"connected_time":11000000000,"state":"spawning","ping":59},{"user_id":325,"name":"Alpaca Mc Maca","steam_id":76561198301576115,"connected_time":411000000000,"state":"active","ping":64},{"user_id":304,"name":"DuckKey","steam_id":76561198904477889,"connected_time":2692000000000,"state":"active","ping":60},{"user_id":329,"name":"captainbros","steam_id":76561198370989893,"connected_time":119000000000,"state":"active","ping":86},{"user_id":242,"name":"Goober","steam_id":76561198988863807,"connected_time":6571000000000,"state":"active","ping":75},{"user_id":324,"name":"Katy","steam_id":76561198079395814,"connected_time":581000000000,"state":"active","ping":65},{"user_id":331,"name":"SomeDude46","steam_id":76561198964389118,"connected_time":31000000000,"state":"active","ping":177},{"user_id":326,"name":"Craig Isonychia","steam_id":76561198272013678,"connected_time":339000000000,"state":"active","ping":72},{"user_id":221,"name":"Resh420","steam_id":76561198066619792,"connected_time":8338000000000,"state":"active","ping":72},{"user_id":287,"name":"HeyGamingLIVE","steam_id":76561199224811007,"connected_time":3962000000000,"state":"active","ping":76},{"user_id":275,"name":"Nexus935115","steam_id":76561199090105638,"connected_time":4756000000000,"state":"active","ping":53},{"user_id":305,"name":"AppleTruffle","steam_id":76561198031299571,"connected_time":2687000000000,"state":"active","ping":60},{"user_id":316,"name":"richard clock","steam_id":76561198048455671,"connected_time":1327000000000,"state":"active","ping":61},{"user_id":260,"name":"Lia_Rein","steam_id":76561198151569597,"connected_time":5019000000000,"state":"active","ping":150}]},{"server_id":106,"name":"Uncletopia | Chicago | 2 | All Maps","name_short":"chi-2","host":"chi-1.us.uncletopia.com","port":27025,"enabled":true,"region":"us-central","cc":"us","latitude":41.881832,"longitude":-87.62318,"reserved":0,"last_update":"0001-01-01T00:00:00Z","name_a2s":"Uncletopia | Chicago | 2 | All Maps","protocol":17,"map":"pl_upward","folder":"tf","game":"Team Fortress","app_id":440,"player_count":24,"max_players":24,"Bots":0,"server_type":"Dedicated","server_os":"Linux","password":true,"vac":true,"version":"7757534","steam_id":85568392924469985,"keywords":["nocrits","nodmgspread","payload","uncletopia"],"game_id":440,"stv_port":27026,"stv_name":"Uncletopia | Chicago | 2 | All Maps | STV","players":[{"user_id":108,"name":"Klitz Penischmidt (fukuinhalf)","steam_id":76561198050582941,"connected_time":162000000000,"state":"active","ping":59},{"user_id":92,"name":"I'm in your walls","steam_id":76561198153502981,"connected_time":1840000000000,"state":"active","ping":61},{"user_id":104,"name":"Mister Mundy","steam_id":76561198145675134,"connected_time":209000000000,"state":"active","ping":80},{"user_id":67,"name":"Big Trimpin'","steam_id":76561198140971525,"connected_time":4285000000000,"state":"active","ping":63},{"user_id":91,"name":"Milo","steam_id":76561198870491380,"connected_time":1871000000000,"state":"active","ping":72},{"user_id":107,"name":"touca","steam_id":76561198986534519,"connected_time":171000000000,"state":"active","ping":89},{"user_id":114,"name":"simp orbiter","steam_id":76561198067497459,"connected_time":39000000000,"state":"active","ping":73},{"user_id":81,"name":"Gnome Gaming |HM|","steam_id":76561199034149160,"connected_time":2706000000000,"state":"active","ping":99},{"user_id":102,"name":"THEY GOT THE MF NEWPORTS","steam_id":76561198104655642,"connected_time":791000000000,"state":"active","ping":59},{"user_id":99,"name":"Bond","steam_id":76561198089262776,"connected_time":946000000000,"state":"active","ping":82},{"user_id":87,"name":"Monsieur Wee Wee","steam_id":76561198316405246,"connected_time":2007000000000,"state":"active","ping":115},{"user_id":83,"name":"Sableye","steam_id":76561198061247147,"connected_time":2541000000000,"state":"active","ping":66},{"user_id":90,"name":"upside down cat","steam_id":76561198028288349,"connected_time":1966000000000,"state":"active","ping":87},{"user_id":105,"name":"psy","steam_id":76561198013195018,"connected_time":206000000000,"state":"active","ping":74},{"user_id":110,"name":"capeeKo","steam_id":76561197970346623,"connected_time":153000000000,"state":"active","ping":72},{"user_id":101,"name":"gumbort","steam_id":76561199161322235,"connected_time":907000000000,"state":"active","ping":62},{"user_id":103,"name":"AverageRundownJoe","steam_id":76561198059359620,"connected_time":251000000000,"state":"active","ping":77},{"user_id":75,"name":"TrashMann","steam_id":76561198040969743,"connected_time":3452000000000,"state":"active","ping":75},{"user_id":111,"name":"Cajun Crocodile Cooch","steam_id":76561198174428289,"connected_time":151000000000,"state":"active","ping":75},{"user_id":112,"name":"chr","steam_id":76561198129676737,"connected_time":148000000000,"state":"active","ping":59},{"user_id":98,"name":"ThatOneKnight","steam_id":76561198388583650,"connected_time":1202000000000,"state":"active","ping":56},{"user_id":58,"name":"Ozirion","steam_id":76561198108901767,"connected_time":4903000000000,"state":"active","ping":66},{"user_id":113,"name":"Blud walked 0 miles üò≠üò≠\ufffd\ufffd\ufffd","steam_id":76561199285074344,"connected_time":90000000000,"state":"active","ping":88},{"user_id":88,"name":"SharpStabbyThing","steam_id":76561199059465912,"connected_time":2007000000000,"state":"active","ping":92}]},{"server_id":402,"name":"Uncletopia | Chicago | 3 | All Maps","name_short":"chi-3","host":"chi-1.us.uncletopia.com","port":27035,"enabled":true,"region":"us-central","cc":"us","latitude":41.881832,"longitude":-87.62318,"reserved":0,"last_update":"0001-01-01T00:00:00Z","name_a2s":"Uncletopia | Chicago | 3 | All Maps","protocol":17,"map":"pl_swiftwater_final1","folder":"tf","game":"Team Fortress","app_id":440,"player_count":24,"max_players":24,"Bots":0,"server_type":"Dedicated","server_os":"Linux","password":true,"vac":true,"version":"7757534","steam_id":85568392924515191,"keywords":["nocrits","nodmgspread","payload","uncletopia"],"game_id":440,"stv_port":27036,"stv_name":"Uncletopia | Chicago | 3 | All Maps | STV","players":[{"user_id":202,"name":"vareh","steam_id":76561197993190926,"connected_time":592000000000,"state":"active","ping":105},{"user_id":189,"name":"Ceiling Man","steam_id":76561198003959902,"connected_time":1507000000000,"state":"active","ping":58},{"user_id":203,"name":"Dr. Robotniks Mean Bean Machine","steam_id":76561198047980627,"connected_time":544000000000,"state":"active","ping":47},{"user_id":204,"name":"maS","steam_id":76561198033846407,"connected_time":508000000000,"state":"active","ping":58},{"user_id":205,"name":"Fuzzy","steam_id":76561199100612353,"connected_time":493000000000,"state":"active","ping":50},{"user_id":211,"name":"shit uncontrollably","steam_id":76561198397662124,"connected_time":430000000000,"state":"active","ping":88},{"user_id":207,"name":"ayecodex","steam_id":76561199477598858,"connected_time":477000000000,"state":"active","ping":59},{"user_id":134,"name":"Your kinky Onee-san","steam_id":76561199146582356,"connected_time":6344000000000,"state":"active","ping":107},{"user_id":178,"name":"CamSoup","steam_id":76561198202483168,"connected_time":2786000000000,"state":"active","ping":69},{"user_id":164,"name":"Joe Sloppy","steam_id":76561198130329863,"connected_time":3899000000000,"state":"active","ping":54},{"user_id":215,"name":"bingus","steam_id":76561198283992686,"connected_time":62000000000,"state":"active","ping":71},{"user_id":196,"name":"Nigel","steam_id":76561198115574712,"connected_time":1019000000000,"state":"active","ping":55},{"user_id":199,"name":".Thomas","steam_id":76561198162759004,"connected_time":681000000000,"state":"active","ping":75},{"user_id":214,"name":"crap idiot","steam_id":76561198141359549,"connected_time":117000000000,"state":"active","ping":62},{"user_id":169,"name":"Deltaco","steam_id":76561198094572694,"connected_time":3268000000000,"state":"active","ping":109},{"user_id":212,"name":"baguette","steam_id":76561198066048980,"connected_time":404000000000,"state":"active","ping":44},{"user_id":209,"name":"George","steam_id":76561198020046873,"connected_time":473000000000,"state":"active","ping":53},{"user_id":181,"name":"irredeemable monster","steam_id":76561198337692867,"connected_time":1818000000000,"state":"active","ping":67},{"user_id":192,"name":"cow","steam_id":76561198117331762,"connected_time":1321000000000,"state":"active","ping":46},{"user_id":156,"name":"¬¨‚Äø¬¨","steam_id":76561198325526945,"connected_time":4958000000000,"state":"active","ping":70},{"user_id":200,"name":"Sloppy Hoes","steam_id":76561198114922735,"connected_time":674000000000,"state":"active","ping":61},{"user_id":210,"name":"DonoC","steam_id":76561198274473338,"connected_time":466000000000,"state":"active","ping":88},{"user_id":173,"name":"BarrowBaron","steam_id":76561198013633236,"connected_time":2976000000000,"state":"active","ping":70},{"user_id":163,"name":"GreekGoat_Coffee","steam_id":76561198129331088,"connected_time":3963000000000,"state":"active","ping":46}]},{"server_id":403,"name":"Uncletopia | Chicago | 4 | All Maps","name_short":"chi-4","host":"chi-1.us.uncletopia.com","port":27045,"enabled":true,"region":"us-central","cc":"us","latitude":41.881832,"longitude":-87.62318,"reserved":0,"last_update":"0001-01-01T00:00:00Z","name_a2s":"Uncletopia | Chicago | 4 | All Maps","protocol":17,"map":"koth_lakeside_final","folder":"tf","game":"Team Fortress","app_id":440,"player_count":0,"max_players":24,"Bots":0,"server_type":"Dedicated","server_os":"Linux","password":true,"vac":true,"version":"7757534","steam_id":85568392924515193,"keywords":["cp","nocrits","nodmgspread","uncletopia"],"game_id":440,"stv_port":27046,"stv_name":"Uncletopia | Chicago | 4 | All Maps | STV","players":null},{"server_id":36,"name":"Uncletopia | Chicago | 5 | All Maps","name_short":"chi-5","host":"chi-2.us.uncletopia.com","port":27015,"enabled":true,"region":"us-central","cc":"us","latitude":41.881832,"longitude":-87.62318,"reserved":0,"last_update":"0001-01-01T00:00:00Z","name_a2s":"Uncletopia | Chicago | 5 | All Maps","protocol":17,"map":"koth_cascade","folder":"tf","game":"Team Fortress","app_id":440,"player_count":0,"max_players":24,"Bots":0,"server_type":"Dedicated","server_os":"Linux","password":true,"vac":true,"version":"7757534","steam_id":85568392924866362,"keywords":["cp","nocrits","nodmgspread","uncletopia"],"game_id":440,"stv_port":27016,"stv_name":"Uncletopia | Chicago | 5 | All Maps | STV","players":null},{"server_id":37,"name":"Uncletopia | Chicago | 6 | All Maps","name_short":"chi-6","host":"chi-2.us.uncletopia.com","port":27025,"enabled":true,"region":"us-central","cc":"us","latitude":41.881832,"longitude":-87.62318,"reserved":0,"last_update":"0001-01-01T00:00:00Z","name_a2s":"Uncletopia | Chicago | 6 | All Maps","protocol":17,"map":"pl_borneo","folder":"tf","game":"Team Fortress","app_id":440,"player_count":23,"max_players":24,"Bots":0,"server_type":"Dedicated","server_os":"Linux","password":true,"vac":true,"version":"7757534","steam_id":85568392924866363,"keywords":["nocrits","nodmgspread","payload","uncletopia"],"game_id":440,"stv_port":27026,"stv_name":"Uncletopia | Chicago | 6 | All Maps | STV","players":[{"user_id":250,"name":"Fanthxm177","steam_id":76561198831301188,"connected_time":1873000000000,"state":"active","ping":84},{"user_id":208,"name":"all_classics","steam_id":76561198012738913,"connected_time":5432000000000,"state":"active","ping":85},{"user_id":225,"name":"parknich081","steam_id":76561198880414240,"connected_time":3867000000000,"state":"active","ping":116},{"user_id":285,"name":"MrChez198","steam_id":76561199243583673,"connected_time":55000000000,"state":"active","ping":77},{"user_id":276,"name":"dirty dank","steam_id":76561198360904432,"connected_time":1063000000000,"state":"active","ping":58},{"user_id":264,"name":"Communist Killing Candy Cactus\ufffd","steam_id":76561198074980635,"connected_time":1559000000000,"state":"active","ping":124},{"user_id":272,"name":"oh","steam_id":76561198076596506,"connected_time":1202000000000,"state":"active","ping":76},{"user_id":281,"name":"MacchuPeachu","steam_id":76561199093242587,"connected_time":600000000000,"state":"active","ping":76},{"user_id":284,"name":"Sunflower","steam_id":76561198081223793,"connected_time":131000000000,"state":"active","ping":64},{"user_id":280,"name":"Malikar (fake)","steam_id":76561199037497493,"connected_time":676000000000,"state":"active","ping":55},{"user_id":270,"name":"THEDINKY","steam_id":76561198190077399,"connected_time":1241000000000,"state":"active","ping":72},{"user_id":142,"name":"Purchase your tracks today","steam_id":76561198084422657,"connected_time":9458000000000,"state":"active","ping":85},{"user_id":268,"name":"Deki","steam_id":76561198031914490,"connected_time":1361000000000,"state":"active","ping":154},{"user_id":271,"name":"Temmie500","steam_id":76561199067942631,"connected_time":1237000000000,"state":"active","ping":45},{"user_id":243,"name":"Lunk","steam_id":76561198083037471,"connected_time":2582000000000,"state":"active","ping":40},{"user_id":227,"name":"johngaming220","steam_id":76561199119202785,"connected_time":3842000000000,"state":"active","ping":93},{"user_id":248,"name":"Carlos Spartan","steam_id":76561198362047478,"connected_time":1896000000000,"state":"active","ping":109},{"user_id":260,"name":"an unconventional loadout","steam_id":76561198069600113,"connected_time":1660000000000,"state":"active","ping":60},{"user_id":277,"name":"frog","steam_id":76561198836974477,"connected_time":1018000000000,"state":"active","ping":100},{"user_id":278,"name":"raidlps","steam_id":76561199208003679,"connected_time":1011000000000,"state":"active","ping":85},{"user_id":262,"name":"grim reefer","steam_id":76561198162927733,"connected_time":1647000000000,"state":"active","ping":108},{"user_id":238,"name":"bagel_man","steam_id":76561198164640460,"connected_time":2868000000000,"state":"active","ping":111},{"user_id":279,"name":"gummygeek","steam_id":76561198244543486,"connected_time":890000000000,"state":"active","ping":100}]},{"server_id":38,"name":"Uncletopia | Chicago | 7 | Stopwatch Beta","name_short":"chi-7","host":"chi-2.us.uncletopia.com","port":27035,"enabled":true,"region":"us-central","cc":"us","latitude":41.881832,"longitude":-87.62318,"reserved":0,"last_update":"0001-01-01T00:00:00Z","name_a2s":"Uncletopia | Chicago | 7 | Stopwatch Beta","protocol":17,"map":"pl_barnblitz","folder":"tf","game":"Team Fortress","app_id":440,"player_count":0,"max_players":24,"Bots":0,"server_type":"Dedicated","server_os":"Linux","password":true,"vac":true,"version":"7757534","steam_id":85568392924866364,"keywords":["nocrits","nodmgspread","payload","uncletopia"],"game_id":440,"stv_port":27036,"stv_name":"Uncletopia | Chicago | 7 | Stopwatch Beta | STV","players":null},{"server_id":39,"name":"Uncletopia | Chicago | 8 | Community","name_short":"chi-8","host":"chi-2.us.uncletopia.com","port":27045,"enabled":true,"region":"us-central","cc":"us","latitude":41.881832,"longitude":-87.62318,"reserved":0,"last_update":"0001-01-01T00:00:00Z","name_a2s":"Uncletopia | Chicago | 8 | Community","protocol":17,"map":"koth_cascade","folder":"tf","game":"Team Fortress","app_id":440,"player_count":0,"max_players":24,"Bots":0,"server_type":"Dedicated","server_os":"Linux","password":true,"vac":true,"version":"7757534","steam_id":85568392924866365,"keywords":["cp","nocrits","nodmgspread","uncletopia"],"game_id":440,"stv_port":27046,"stv_name":"Uncletopia | Chicago | 8 | Community | STV","players":null},{"server_id":8,"name":"Uncletopia | Dallas | 1 | All Maps","name_short":"dal-1","host":"dal-1.us.uncletopia.com","port":27015,"enabled":true,"region":"us-central","cc":"us","latitude":32.779167,"longitude":-96.80889,"reserved":0,"last_update":"0001-01-01T00:00:00Z","name_a2s":"Uncletopia | Dallas | 1 | All Maps","protocol":17,"map":"pl_upward","folder":"tf","game":"Team Fortress","app_id":440,"player_count":24,"max_players":24,"Bots":0,"server_type":"Dedicated","server_os":"Linux","password":true,"vac":true,"version":"7757534","steam_id":85568392924469986,"keywords":["nocrits","nodmgspread","payload","uncletopia"],"game_id":440,"stv_port":27016,"stv_name":"Uncletopia | Dallas | 1 | All Maps | STV","players":[{"user_id":148,"name":"Zero","steam_id":76561199383267408,"connected_time":6064000000000,"state":"active","ping":58},{"user_id":169,"name":"Tyler\u0026Fingers","steam_id":76561198085154485,"connected_time":4199000000000,"state":"active","ping":93},{"user_id":212,"name":"Big Smoke","steam_id":76561198278375987,"connected_time":846000000000,"state":"active","ping":64},{"user_id":144,"name":"amanofboys91","steam_id":76561199474653798,"connected_time":6541000000000,"state":"active","ping":140},{"user_id":210,"name":"CopperBox","steam_id":76561198068217248,"connected_time":947000000000,"state":"active","ping":71},{"user_id":218,"name":"Hunter","steam_id":76561199295283258,"connected_time":222000000000,"state":"active","ping":74},{"user_id":203,"name":"Borat Voice My Wife","steam_id":76561198020474727,"connected_time":1978000000000,"state":"active","ping":76},{"user_id":198,"name":"Reno Gato","steam_id":76561198048417246,"connected_time":2150000000000,"state":"active","ping":99},{"user_id":209,"name":"J.G. Klaus","steam_id":76561198001111196,"connected_time":1076000000000,"state":"active","ping":48},{"user_id":220,"name":"Mocanthl","steam_id":76561198043778324,"connected_time":97000000000,"state":"active","ping":72},{"user_id":186,"name":"4 Itchy Tasty","steam_id":76561198009869383,"connected_time":2990000000000,"state":"active","ping":85},{"user_id":219,"name":"Angstrom Boli","steam_id":76561198025670585,"connected_time":218000000000,"state":"active","ping":47},{"user_id":200,"name":"Yords","steam_id":76561198027925729,"connected_time":2008000000000,"state":"active","ping":55},{"user_id":216,"name":"westward","steam_id":76561198805512350,"connected_time":335000000000,"state":"active","ping":107},{"user_id":211,"name":"wahooka","steam_id":76561197981211922,"connected_time":946000000000,"state":"active","ping":82},{"user_id":193,"name":"Normalux","steam_id":76561198293891426,"connected_time":2432000000000,"state":"active","ping":106},{"user_id":159,"name":"Cofi","steam_id":76561199026721822,"connected_time":5342000000000,"state":"active","ping":91},{"user_id":140,"name":"wm1","steam_id":76561198265522923,"connected_time":6673000000000,"state":"active","ping":47},{"user_id":194,"name":"help me","steam_id":76561198306393090,"connected_time":2427000000000,"state":"active","ping":89},{"user_id":206,"name":"Ninty","steam_id":76561199364725776,"connected_time":1333000000000,"state":"active","ping":86},{"user_id":217,"name":"RarestGuide","steam_id":76561198050338923,"connected_time":247000000000,"state":"active","ping":82},{"user_id":201,"name":"Astrocircuit","steam_id":76561198014437544,"connected_time":2006000000000,"state":"active","ping":77},{"user_id":116,"name":"The Good","steam_id":76561198133253633,"connected_time":8402000000000,"state":"active","ping":95},{"user_id":215,"name":"Project_Counter","steam_id":76561198152786076,"connected_time":733000000000,"state":"active","ping":53}]},{"server_id":108,"name":"Uncletopia | Dallas | 2 | All Maps","name_short":"dal-2","host":"dal-1.us.uncletopia.com","port":27025,"enabled":true,"region":"us-central","cc":"us","latitude":32.779167,"longitude":-96.80889,"reserved":0,"last_update":"0001-01-01T00:00:00Z","name_a2s":"Uncletopia | Dallas | 2 | All Maps","protocol":17,"map":"cp_process_final","folder":"tf","game":"Team Fortress","app_id":440,"player_count":24,"max_players":24,"Bots":0,"server_type":"Dedicated","server_os":"Linux","password":true,"vac":true,"version":"7757534","steam_id":85568392924469988,"keywords":["cp","nocrits","nodmgspread","uncletopia"],"game_id":440,"stv_port":27026,"stv_name":"Uncletopia | Dallas | 2 | All Maps | STV","players":[{"user_id":181,"name":"sunny","steam_id":76561198069380992,"connected_time":897000000000,"state":"active","ping":68},{"user_id":183,"name":"0x01FE","steam_id":76561198838881917,"connected_time":825000000000,"state":"active","ping":61},{"user_id":180,"name":"Rin \"Hindwing\" Redtail","steam_id":76561199074865638,"connected_time":944000000000,"state":"active","ping":49},{"user_id":190,"name":"chikunt","steam_id":76561198307973218,"connected_time":619000000000,"state":"active","ping":66},{"user_id":41,"name":"Big Yoshi","steam_id":76561199160576376,"connected_time":4873000000000,"state":"active","ping":113},{"user_id":172,"name":"Tealim","steam_id":76561198330085713,"connected_time":1181000000000,"state":"active","ping":86},{"user_id":182,"name":"Proudaazz","steam_id":76561199015525980,"connected_time":894000000000,"state":"active","ping":71},{"user_id":185,"name":"SORPER","steam_id":76561198425503395,"connected_time":790000000000,"state":"active","ping":46},{"user_id":107,"name":"Bonk Co.","steam_id":76561198009355408,"connected_time":3047000000000,"state":"active","ping":94},{"user_id":191,"name":"reymundo","steam_id":76561197989412830,"connected_time":596000000000,"state":"active","ping":90},{"user_id":163,"name":"The Sydney Sleeper Itself","steam_id":76561198180251763,"connected_time":1375000000000,"state":"active","ping":57},{"user_id":192,"name":"Snoopy","steam_id":76561198273735974,"connected_time":594000000000,"state":"active","ping":75},{"user_id":127,"name":"Crazy Cane","steam_id":76561198993941174,"connected_time":2441000000000,"state":"active","ping":84},{"user_id":115,"name":"Metbol","steam_id":76561198001362410,"connected_time":2823000000000,"state":"active","ping":60},{"user_id":164,"name":"Luna","steam_id":76561198131342156,"connected_time":1372000000000,"state":"active","ping":56},{"user_id":174,"name":"Skyrim killable children mod","steam_id":76561198862836173,"connected_time":1131000000000,"state":"active","ping":74},{"user_id":142,"name":"H00DEDRIOT","steam_id":76561198351880498,"connected_time":1927000000000,"state":"active","ping":62},{"user_id":49,"name":"corpach","steam_id":76561198150418268,"connected_time":4644000000000,"state":"active","ping":102},{"user_id":154,"name":"jBracko","steam_id":76561198019261602,"connected_time":1620000000000,"state":"active","ping":88},{"user_id":193,"name":"not a spy main (early demo main","steam_id":76561199184617467,"connected_time":481000000000,"state":"active","ping":102},{"user_id":176,"name":"Kid B8","steam_id":76561198086764710,"connected_time":1102000000000,"state":"active","ping":75},{"user_id":177,"name":"27 blends","steam_id":76561197997100185,"connected_time":1030000000000,"state":"active","ping":74},{"user_id":178,"name":"G√¢mbito","steam_id":76561198073449644,"connected_time":971000000000,"state":"active","ping":144},{"user_id":197,"name":"ElMencho","steam_id":76561198968776936,"connected_time":450000000000,"state":"active","ping":63}]},{"server_id":5,"name":"Uncletopia | Frankfurt | 1 | All Maps","name_short":"frk-1","host":"frk-1.de.uncletopia.com","port":27015,"enabled":true,"region":"eu","cc":"de","latitude":50.110924,"longitude":8.682127,"reserved":0,"last_update":"0001-01-01T00:00:00Z","name_a2s":"Uncletopia | Frankfurt | 1 | All Maps","protocol":17,"map":"pl_pier","folder":"tf","game":"Team Fortress","app_id":440,"player_count":24,"max_players":24,"Bots":0,"server_type":"Dedicated","server_os":"Linux","password":true,"vac":true,"version":"7757534","steam_id":85568392924469989,"keywords":["nocrits","nodmgspread","payload","uncletopia"],"game_id":440,"stv_port":27016,"stv_name":"Uncletopia | Frankfurt | 1 | All Maps | STV","players":[{"user_id":102,"name":"Farmercy","steam_id":76561198000038039,"connected_time":3370000000000,"state":"active","ping":59},{"user_id":124,"name":"(wm) Das Fleisch","steam_id":76561198001250715,"connected_time":2226000000000,"state":"active","ping":53},{"user_id":100,"name":"FWDTRKR","steam_id":76561198060369427,"connected_time":3545000000000,"state":"active","ping":136},{"user_id":148,"name":"Hey, I¬¥m Andy!","steam_id":76561198060337777,"connected_time":534000000000,"state":"active","ping":79},{"user_id":136,"name":"BlackFireHealer","steam_id":76561198035912038,"connected_time":908000000000,"state":"active","ping":71},{"user_id":129,"name":"Rohnus","steam_id":76561198074049934,"connected_time":1818000000000,"state":"active","ping":67},{"user_id":134,"name":"Ladi","steam_id":76561198047735194,"connected_time":966000000000,"state":"active","ping":69},{"user_id":107,"name":"czet","steam_id":76561197969656357,"connected_time":3056000000000,"state":"active","ping":65},{"user_id":135,"name":"Shork","steam_id":76561198130195469,"connected_time":921000000000,"state":"active","ping":72},{"user_id":137,"name":"Darkmaen","steam_id":76561198060543390,"connected_time":903000000000,"state":"active","ping":50},{"user_id":147,"name":"DespawnedDiamond","steam_id":76561198841944417,"connected_time":605000000000,"state":"active","ping":73},{"user_id":109,"name":"Hoxton","steam_id":76561198129209505,"connected_time":2964000000000,"state":"active","ping":70},{"user_id":138,"name":"engie?","steam_id":76561198331852832,"connected_time":888000000000,"state":"active","ping":60},{"user_id":128,"name":"tallen","steam_id":76561198061708595,"connected_time":1862000000000,"state":"active","ping":88},{"user_id":126,"name":"BoPoe","steam_id":76561198093333882,"connected_time":2143000000000,"state":"active","ping":124},{"user_id":139,"name":"Doggen","steam_id":76561198061152504,"connected_time":855000000000,"state":"active","ping":72},{"user_id":130,"name":"h","steam_id":76561198273551016,"connected_time":1784000000000,"state":"active","ping":65},{"user_id":140,"name":"Femboypawnguy","steam_id":76561198274894771,"connected_time":850000000000,"state":"active","ping":53},{"user_id":141,"name":"Greasus (The Shockingly Obese)","steam_id":76561198027738546,"connected_time":836000000000,"state":"active","ping":83},{"user_id":108,"name":"elfos","steam_id":76561198050392844,"connected_time":3050000000000,"state":"active","ping":85},{"user_id":142,"name":"Taplo","steam_id":76561198045694019,"connected_time":836000000000,"state":"active","ping":66},{"user_id":143,"name":"One-Face","steam_id":76561197999384826,"connected_time":812000000000,"state":"active","ping":55},{"user_id":122,"name":"Zizman","steam_id":76561198446562910,"connected_time":2326000000000,"state":"active","ping":146},{"user_id":144,"name":"Mike","steam_id":76561198228455736,"connected_time":810000000000,"state":"active","ping":62}]},{"server_id":110,"name":"Uncletopia | Frankfurt | 2 | All Maps","name_short":"frk-2","host":"frk-1.de.uncletopia.com","port":27025,"enabled":true,"region":"eu","cc":"de","latitude":50.110924,"longitude":8.682127,"reserved":0,"last_update":"0001-01-01T00:00:00Z","name_a2s":"Uncletopia | Frankfurt | 2 | All Maps","protocol":17,"map":"cp_snakewater_final1","folder":"tf","game":"Team Fortress","app_id":440,"player_count":24,"max_players":24,"Bots":0,"server_type":"Dedicated","server_os":"Linux","password":true,"vac":true,"version":"7757534","steam_id":85568392924469990,"keywords":["cp","nocrits","nodmgspread","uncletopia"],"game_id":440,"stv_port":27026,"stv_name":"Uncletopia | Frankfurt | 2 | All Maps | STV","players":[{"user_id":298,"name":"Charmedelf","steam_id":76561197993611881,"connected_time":10221000000000,"state":"active","ping":60},{"user_id":433,"name":"Marquis de Hoto","steam_id":76561198080687708,"connected_time":304000000000,"state":"active","ping":68},{"user_id":423,"name":"RobTheKid","steam_id":76561198346638308,"connected_time":1177000000000,"state":"active","ping":60},{"user_id":426,"name":"Game Alex","steam_id":76561198325069908,"connected_time":1124000000000,"state":"active","ping":97},{"user_id":373,"name":"PIF","steam_id":76561197994712966,"connected_time":4612000000000,"state":"active","ping":115},{"user_id":366,"name":"madman hesus","steam_id":76561198159702599,"connected_time":4886000000000,"state":"active","ping":78},{"user_id":422,"name":"willus212","steam_id":76561199182615246,"connected_time":1199000000000,"state":"active","ping":87},{"user_id":434,"name":"DariusOne","steam_id":76561198206500585,"connected_time":287000000000,"state":"active","ping":76},{"user_id":431,"name":"Ren","steam_id":76561198064654390,"connected_time":822000000000,"state":"active","ping":79},{"user_id":430,"name":"TSpirit_Wycc","steam_id":76561198003876146,"connected_time":860000000000,"state":"active","ping":71},{"user_id":387,"name":"united chunk","steam_id":76561199017850298,"connected_time":3893000000000,"state":"active","ping":72},{"user_id":327,"name":"sareena","steam_id":76561198810194062,"connected_time":7104000000000,"state":"active","ping":88},{"user_id":390,"name":"‚ô• aura ‚ô•","steam_id":76561198066258544,"connected_time":3540000000000,"state":"active","ping":59},{"user_id":419,"name":"Tonuka","steam_id":76561198140929798,"connected_time":2059000000000,"state":"active","ping":39},{"user_id":415,"name":"Œ£mil |Potato Industries|","steam_id":76561198872406468,"connected_time":2281000000000,"state":"active","ping":71},{"user_id":379,"name":"fisch","steam_id":76561198382833003,"connected_time":4307000000000,"state":"active","ping":59},{"user_id":403,"name":"Ratatatatatatouille","steam_id":76561198182267098,"connected_time":3209000000000,"state":"active","ping":86},{"user_id":383,"name":"POOTISMAN","steam_id":76561197986793136,"connected_time":4269000000000,"state":"active","ping":55},{"user_id":428,"name":"Swedish Vegan","steam_id":76561198042775020,"connected_time":1015000000000,"state":"active","ping":75},{"user_id":416,"name":"Eme","steam_id":76561198171619442,"connected_time":2228000000000,"state":"active","ping":80},{"user_id":429,"name":"Gigachad tf2","steam_id":76561198324660577,"connected_time":1008000000000,"state":"active","ping":84},{"user_id":357,"name":"Cabbch","steam_id":76561198045955679,"connected_time":5259000000000,"state":"active","ping":56},{"user_id":400,"name":"Potat Master |Potato Industries","steam_id":76561199112380553,"connected_time":3317000000000,"state":"active","ping":92},{"user_id":409,"name":"NOM","steam_id":76561198062033234,"connected_time":2499000000000,"state":"active","ping":59}]},{"server_id":308,"name":"Uncletopia | Frankfurt | 3 | All Maps","name_short":"frk-3","host":"frk-1.de.uncletopia.com","port":27035,"enabled":true,"region":"eu","cc":"de","latitude":50.110924,"longitude":8.682127,"reserved":0,"last_update":"0001-01-01T00:00:00Z","name_a2s":"Uncletopia | Frankfurt | 3 | All Maps","protocol":17,"map":"pl_upward","folder":"tf","game":"Team Fortress","app_id":440,"player_count":24,"max_players":24,"Bots":0,"server_type":"Dedicated","server_os":"Linux","password":true,"vac":true,"version":"7757534","steam_id":85568392924504274,"keywords":["nocrits","nodmgspread","payload","uncletopia"],"game_id":440,"stv_port":27036,"stv_name":"Uncletopia | Frankfurt | 3 | All Maps | STV","players":[{"user_id":116,"name":"The punch fearer","steam_id":76561198798803845,"connected_time":3516000000000,"state":"active","ping":47},{"user_id":144,"name":"Polech","steam_id":76561199187916824,"connected_time":770000000000,"state":"active","ping":84},{"user_id":46,"name":"szkodagadaƒá","steam_id":76561198872190960,"connected_time":7711000000000,"state":"active","ping":70},{"user_id":112,"name":"Big Shit","steam_id":76561198035734320,"connected_time":3848000000000,"state":"active","ping":65},{"user_id":148,"name":"Tohseno","steam_id":76561197995813008,"connected_time":538000000000,"state":"active","ping":52},{"user_id":28,"name":"Nyhde","steam_id":76561198012771416,"connected_time":8477000000000,"state":"active","ping":88},{"user_id":145,"name":"pajer0","steam_id":76561198002913482,"connected_time":680000000000,"state":"active","ping":91},{"user_id":150,"name":"ü¶ê Tust ü¶ê","steam_id":76561198045694677,"connected_time":506000000000,"state":"active","ping":58},{"user_id":121,"name":"A STRANGER I REMAIN","steam_id":76561198090146457,"connected_time":2959000000000,"state":"active","ping":59},{"user_id":146,"name":"n[]bu","steam_id":76561198307037169,"connected_time":596000000000,"state":"active","ping":68},{"user_id":141,"name":"a convicted felon","steam_id":76561198058012525,"connected_time":1189000000000,"state":"active","ping":76},{"user_id":147,"name":"My penis is a scooter","steam_id":76561198173218318,"connected_time":594000000000,"state":"active","ping":52},{"user_id":149,"name":"Birdseye","steam_id":76561198025852216,"connected_time":517000000000,"state":"active","ping":60},{"user_id":151,"name":"Space","steam_id":76561198021572167,"connected_time":502000000000,"state":"active","ping":60},{"user_id":139,"name":"The Negapunch","steam_id":76561198044008976,"connected_time":1472000000000,"state":"active","ping":74},{"user_id":152,"name":"Daxie626","steam_id":76561198394588278,"connected_time":498000000000,"state":"active","ping":98},{"user_id":143,"name":"Soerlssoelss√∂en","steam_id":76561197993060585,"connected_time":914000000000,"state":"active","ping":78},{"user_id":106,"name":"The Punch","steam_id":76561198212488780,"connected_time":4222000000000,"state":"active","ping":60},{"user_id":156,"name":"drowning in kerosene","steam_id":76561198963378933,"connected_time":181000000000,"state":"active","ping":56},{"user_id":153,"name":"L√∂ss√∂","steam_id":76561197994254413,"connected_time":497000000000,"state":"active","ping":66},{"user_id":132,"name":"Misctek","steam_id":76561199037541925,"connected_time":2492000000000,"state":"active","ping":76},{"user_id":154,"name":"betonomeshalka","steam_id":76561198304548337,"connected_time":437000000000,"state":"active","ping":103},{"user_id":140,"name":"Ricky Dicky Grimes","steam_id":76561198065506317,"connected_time":1435000000000,"state":"active","ping":70},{"user_id":109,"name":"d u k k i","steam_id":76561198071807437,"connected_time":4214000000000,"state":"active","ping":80}]},{"server_id":309,"name":"Uncletopia | Frankfurt | 4 | All Maps","name_short":"frk-4","host":"frk-1.de.uncletopia.com","port":27045,"enabled":true,"region":"eu","cc":"de","latitude":50.110924,"longitude":8.682127,"reserved":0,"last_update":"0001-01-01T00:00:00Z","name_a2s":"Uncletopia | Frankfurt | 4 | All Maps","protocol":17,"map":"koth_highpass","folder":"tf","game":"Team Fortress","app_id":440,"player_count":5,"max_players":24,"Bots":0,"server_type":"Dedicated","server_os":"Linux","password":true,"vac":true,"version":"7757534","steam_id":85568392924504275,"keywords":["cp","nocrits","nodmgspread","uncletopia"],"game_id":440,"stv_port":27046,"stv_name":"Uncletopia | Frankfurt | 4 | All Maps | STV","players":[{"user_id":452,"name":"GeneralTamTam","steam_id":76561199079917952,"connected_time":1075000000000,"state":"active","ping":57},{"user_id":453,"name":"VeryKurz","steam_id":76561198218206849,"connected_time":1068000000000,"state":"active","ping":46},{"user_id":454,"name":"Dor_atar","steam_id":76561198973980542,"connected_time":920000000000,"state":"active","ping":57},{"user_id":456,"name":"RealManiHACK","steam_id":76561198408081068,"connected_time":527000000000,"state":"active","ping":58},{"user_id":460,"name":"F","steam_id":76561199149462792,"connected_time":155000000000,"state":"active","ping":65}]},{"server_id":310,"name":"Uncletopia | Frankfurt | 5 | All Maps","name_short":"frk-5","host":"frk-1.de.uncletopia.com","port":27055,"enabled":true,"region":"eu","cc":"de","latitude":50.110924,"longitude":8.682127,"reserved":0,"last_update":"0001-01-01T00:00:00Z","name_a2s":"Uncletopia | Frankfurt | 5 | All Maps","protocol":17,"map":"pl_badwater","folder":"tf","game":"Team Fortress","app_id":440,"player_count":23,"max_players":24,"Bots":0,"server_type":"Dedicated","server_os":"Linux","password":true,"vac":true,"version":"7757534","steam_id":85568392924504277,"keywords":["nocrits","nodmgspread","payload","uncletopia"],"game_id":440,"stv_port":27056,"stv_name":"Uncletopia | Frankfurt | 5 | All Maps | STV","players":[{"user_id":191,"name":"result","steam_id":76561198269200388,"connected_time":2874000000000,"state":"active","ping":96},{"user_id":222,"name":"the indomitable human spirit","steam_id":76561198718760200,"connected_time":1872000000000,"state":"active","ping":60},{"user_id":210,"name":"Fakie13","steam_id":76561197994582123,"connected_time":2430000000000,"state":"active","ping":75},{"user_id":238,"name":"Devil","steam_id":76561198129721935,"connected_time":484000000000,"state":"active","ping":85},{"user_id":235,"name":"LoLo","steam_id":76561199403387863,"connected_time":1097000000000,"state":"active","ping":67},{"user_id":239,"name":"kamekame","steam_id":76561198047108054,"connected_time":474000000000,"state":"active","ping":106},{"user_id":212,"name":"Xi Jingping","steam_id":76561198000958139,"connected_time":2418000000000,"state":"active","ping":68},{"user_id":204,"name":"Raulca25","steam_id":76561199068256964,"connected_time":2616000000000,"state":"active","ping":78},{"user_id":240,"name":"Dawu","steam_id":76561198060418376,"connected_time":394000000000,"state":"active","ping":89},{"user_id":241,"name":"Sir Skyber","steam_id":76561198064440004,"connected_time":388000000000,"state":"active","ping":104},{"user_id":257,"name":"FoOzTV","steam_id":76561197998636728,"connected_time":3000000000,"state":"spawning","ping":58},{"user_id":243,"name":"i buy negev","steam_id":76561198258882699,"connected_time":369000000000,"state":"active","ping":112},{"user_id":249,"name":"mrk_","steam_id":76561198120166752,"connected_time":253000000000,"state":"active","ping":71},{"user_id":224,"name":"Sarita's Caramel Sundae Enjoyer","steam_id":76561199309781798,"connected_time":1863000000000,"state":"active","ping":190},{"user_id":255,"name":"poy","steam_id":76561198114063534,"connected_time":108000000000,"state":"active","ping":45},{"user_id":231,"name":"British Disapproval","steam_id":76561198001375260,"connected_time":1573000000000,"state":"active","ping":72},{"user_id":234,"name":"Acbh","steam_id":76561198158271672,"connected_time":1265000000000,"state":"active","ping":66},{"user_id":248,"name":"Storm's Foreshadow","steam_id":76561198098462526,"connected_time":304000000000,"state":"active","ping":68},{"user_id":250,"name":"Bilbo Ballbaggins","steam_id":76561198070593514,"connected_time":252000000000,"state":"active","ping":56},{"user_id":252,"name":"Bumblebee","steam_id":76561198033551105,"connected_time":234000000000,"state":"active","ping":57},{"user_id":253,"name":"breedable","steam_id":76561198010300032,"connected_time":233000000000,"state":"active","ping":60},{"user_id":256,"name":"lawn","steam_id":76561198001243486,"connected_time":27000000000,"state":"active","ping":60},{"user_id":209,"name":"eXer","steam_id":76561198838634181,"connected_time":2542000000000,"state":"active","ping":97}]},{"server_id":311,"name":"Uncletopia | Frankfurt | 6 | All Maps","name_short":"frk-6","host":"frk-1.de.uncletopia.com","port":27065,"enabled":true,"region":"eu","cc":"de","latitude":50.110924,"longitude":8.682127,"reserved":0,"last_update":"0001-01-01T00:00:00Z","name_a2s":"Uncletopia | Frankfurt | 6 | All Maps","protocol":17,"map":"koth_harvest_final","folder":"tf","game":"Team Fortress","app_id":440,"player_count":24,"max_players":24,"Bots":0,"server_type":"Dedicated","server_os":"Linux","password":true,"vac":true,"version":"7757534","steam_id":85568392924504278,"keywords":["cp","nocrits","nodmgspread","uncletopia"],"game_id":440,"stv_port":27066,"stv_name":"Uncletopia | Frankfurt | 6 | All Maps | STV","players":[{"user_id":436,"name":"TheBeardedM1G","steam_id":76561198040208946,"connected_time":1635000000000,"state":"active","ping":54},{"user_id":456,"name":"Dr. Le Quack","steam_id":76561197995711176,"connected_time":515000000000,"state":"active","ping":82},{"user_id":438,"name":"not very „Ç≠„Çø„Éº„É≥ of you","steam_id":76561198295305088,"connected_time":1625000000000,"state":"active","ping":49},{"user_id":439,"name":"Magirby","steam_id":76561198818777390,"connected_time":1621000000000,"state":"active","ping":115},{"user_id":463,"name":"mp1mp2mp3","steam_id":76561198088967665,"connected_time":221000000000,"state":"active","ping":84},{"user_id":423,"name":"Average meme enjoyer","steam_id":76561199087566663,"connected_time":3128000000000,"state":"active","ping":82},{"user_id":371,"name":"kikyeredin","steam_id":76561199058651968,"connected_time":6672000000000,"state":"active","ping":123},{"user_id":408,"name":"Toasty5050","steam_id":76561198073540881,"connected_time":3775000000000,"state":"active","ping":43},{"user_id":453,"name":"Ichbaplaya","steam_id":76561198152701211,"connected_time":689000000000,"state":"active","ping":64},{"user_id":442,"name":"ran is running","steam_id":76561199443185667,"connected_time":1605000000000,"state":"active","ping":138},{"user_id":464,"name":"Engineer gaming","steam_id":76561198275942961,"connected_time":189000000000,"state":"active","ping":45},{"user_id":443,"name":"Testicular torsion","steam_id":76561198119547399,"connected_time":1585000000000,"state":"active","ping":58},{"user_id":444,"name":"nhtson","steam_id":76561199113295118,"connected_time":1524000000000,"state":"active","ping":80},{"user_id":458,"name":"Shearman360","steam_id":76561198193909685,"connected_time":454000000000,"state":"active","ping":82},{"user_id":462,"name":"Wimpyfox","steam_id":76561198096687561,"connected_time":349000000000,"state":"active","ping":65},{"user_id":460,"name":"Jan.","steam_id":76561197974066329,"connected_time":409000000000,"state":"active","ping":63},{"user_id":447,"name":"MR.CRAB","steam_id":76561198329833659,"connected_time":1460000000000,"state":"active","ping":77},{"user_id":449,"name":"gort","steam_id":76561198060339391,"connected_time":1176000000000,"state":"active","ping":44},{"user_id":418,"name":"cl","steam_id":76561199436640904,"connected_time":3306000000000,"state":"active","ping":81},{"user_id":465,"name":"Michael","steam_id":76561198003146906,"connected_time":124000000000,"state":"active","ping":60},{"user_id":433,"name":"IkeEsq","steam_id":76561197998394349,"connected_time":2436000000000,"state":"active","ping":149},{"user_id":451,"name":"1ggy","steam_id":76561199051285912,"connected_time":1053000000000,"state":"active","ping":69},{"user_id":466,"name":"Rimx","steam_id":76561198053034840,"connected_time":98000000000,"state":"active","ping":92},{"user_id":342,"name":"medicinal man","steam_id":76561198202668788,"connected_time":8494000000000,"state":"active","ping":64}]},{"server_id":23,"name":"Uncletopia | Frankfurt | 7 | Stopwatch Beta","name_short":"frk-7","host":"frk-1.de.uncletopia.com","port":27075,"enabled":true,"region":"eu","cc":"de","latitude":50.110924,"longitude":8.682127,"reserved":0,"last_update":"0001-01-01T00:00:00Z","name_a2s":"Uncletopia | Frankfurt | 7 | Stopwatch Beta","protocol":17,"map":"workshop/koth_ramjam_rc1.ugc459778887","folder":"tf","game":"Team Fortress","app_id":440,"player_count":0,"max_players":24,"Bots":0,"server_type":"Dedicated","server_os":"Linux","password":true,"vac":true,"version":"7757534","steam_id":85568392924742827,"keywords":["cp","nocrits","nodmgspread","uncletopia"],"game_id":440,"stv_port":27076,"stv_name":"Uncletopia | Frankfurt | 7 | Stopwatch Beta | STV","players":null},{"server_id":24,"name":"Uncletopia | Frankfurt | 8 | Community","name_short":"frk-8","host":"frk-1.de.uncletopia.com","port":27085,"enabled":true,"region":"eu","cc":"de","latitude":50.110924,"longitude":8.682127,"reserved":0,"last_update":"0001-01-01T00:00:00Z","name_a2s":"Uncletopia | Frankfurt | 8 | Community","protocol":17,"map":"workshop/koth_bagel_rc6.ugc2514036946","folder":"tf","game":"Team Fortress","app_id":440,"player_count":24,"max_players":24,"Bots":0,"server_type":"Dedicated","server_os":"Linux","password":true,"vac":true,"version":"7757534","steam_id":85568392924742828,"keywords":["cp","nocrits","nodmgspread","uncletopia"],"game_id":440,"stv_port":27086,"stv_name":"Uncletopia | Frankfurt | 8 | Community | STV","players":[{"user_id":247,"name":"PizzaPete123","steam_id":76561198089478290,"connected_time":449000000000,"state":"active","ping":54},{"user_id":211,"name":"Matael","steam_id":76561198452200894,"connected_time":3497000000000,"state":"active","ping":61},{"user_id":252,"name":"_lesadams_","steam_id":76561198876047711,"connected_time":297000000000,"state":"active","ping":58},{"user_id":188,"name":"Irbynx","steam_id":76561197980421195,"connected_time":4796000000000,"state":"active","ping":76},{"user_id":224,"name":"silicon based life form","steam_id":76561199127121346,"connected_time":2380000000000,"state":"active","ping":70},{"user_id":256,"name":"Avoo","steam_id":76561198186954897,"connected_time":73000000000,"state":"active","ping":67},{"user_id":209,"name":"‚ò†Holy(cz)‚ò†","steam_id":76561197985535494,"connected_time":3610000000000,"state":"active","ping":76},{"user_id":237,"name":"Egor Pomidor","steam_id":76561199175688390,"connected_time":1306000000000,"state":"active","ping":82},{"user_id":253,"name":"Spoockybro","steam_id":76561198257695061,"connected_time":231000000000,"state":"active","ping":80},{"user_id":179,"name":"‚ô•ImWithMilk","steam_id":76561198269577569,"connected_time":5344000000000,"state":"active","ping":65},{"user_id":249,"name":"padillacampos","steam_id":76561198161923970,"connected_time":379000000000,"state":"active","ping":88},{"user_id":254,"name":"Topme","steam_id":76561198091734693,"connected_time":207000000000,"state":"active","ping":75},{"user_id":219,"name":"Ach Wheesht","steam_id":76561197996993222,"connected_time":2773000000000,"state":"active","ping":53},{"user_id":229,"name":"MisterSleider","steam_id":76561198063840611,"connected_time":1917000000000,"state":"active","ping":72},{"user_id":244,"name":"mud","steam_id":76561198141497461,"connected_time":924000000000,"state":"active","ping":62},{"user_id":251,"name":"skille","steam_id":76561198005794325,"connected_time":341000000000,"state":"active","ping":68},{"user_id":210,"name":"ASAP","steam_id":76561198322078500,"connected_time":3565000000000,"state":"active","ping":95},{"user_id":205,"name":"juku06","steam_id":76561198953966982,"connected_time":3887000000000,"state":"active","ping":103},{"user_id":246,"name":"askulap","steam_id":76561197992018795,"connected_time":734000000000,"state":"active","ping":80},{"user_id":133,"name":"Fat Pigeon","steam_id":76561198817940142,"connected_time":8993000000000,"state":"active","ping":59},{"user_id":242,"name":"Dolcelatte","steam_id":76561198038501770,"connected_time":1123000000000,"state":"active","ping":49},{"user_id":255,"name":"tWx","steam_id":76561198123145824,"connected_time":93000000000,"state":"active","ping":75},{"user_id":245,"name":"SwingyWingyShoes","steam_id":76561198089547302,"connected_time":871000000000,"state":"active","ping":67},{"user_id":217,"name":"AleXandriX","steam_id":76561198035203950,"connected_time":2963000000000,"state":"active","ping":57}]},{"server_id":202,"name":"Uncletopia | Hong Kong | 1 | All Maps","name_short":"hgk-1","host":"hgk-1.hk.uncletopia.com","port":27015,"enabled":true,"region":"asia","cc":"hk","latitude":22.302711,"longitude":114.177216,"reserved":0,"last_update":"0001-01-01T00:00:00Z","name_a2s":"Uncletopia | Hong Kong | 1 | All Maps","protocol":17,"map":"cp_mountainlab","folder":"tf","game":"Team Fortress","app_id":440,"player_count":0,"max_players":24,"Bots":0,"server_type":"Dedicated","server_os":"Linux","password":true,"vac":true,"version":"7757534","steam_id":85568392924494504,"keywords":["cp","nocrits","nodmgspread","uncletopia"],"game_id":440,"stv_port":27016,"stv_name":"Uncletopia | Hong Kong | 1 | All Maps | STV","players":null},{"server_id":1,"name":"Uncletopia | Los Angeles | 1 | All Maps","name_short":"lax-1","host":"lax-1.us.uncletopia.com","port":27015,"enabled":true,"region":"us-west","cc":"us","latitude":33.94279,"longitude":-118.41004,"reserved":0,"last_update":"0001-01-01T00:00:00Z","name_a2s":"Uncletopia | Los Angeles | 1 | All Maps","protocol":17,"map":"cp_dustbowl","folder":"tf","game":"Team Fortress","app_id":440,"player_count":23,"max_players":24,"Bots":0,"server_type":"Dedicated","server_os":"Linux","password":true,"vac":true,"version":"7757534","steam_id":85568392924469991,"keywords":["cp","nocrits","nodmgspread","uncletopia"],"game_id":440,"stv_port":27016,"stv_name":"Uncletopia | Los Angeles | 1 | All Maps | STV","players":[{"user_id":105,"name":"OrphanObliterator","steam_id":76561199185087795,"connected_time":124000000000,"state":"active","ping":97},{"user_id":85,"name":"Nyges","steam_id":76561198139236154,"connected_time":1311000000000,"state":"active","ping":45},{"user_id":88,"name":"Skabbety","steam_id":76561198168044257,"connected_time":1010000000000,"state":"active","ping":72},{"user_id":95,"name":"Chafn","steam_id":76561197969386702,"connected_time":462000000000,"state":"active","ping":58},{"user_id":91,"name":"Drive-By-Fish-Guy","steam_id":76561198105513652,"connected_time":887000000000,"state":"active","ping":57},{"user_id":86,"name":"[SDVG] Clear Shenanigans","steam_id":76561198053702025,"connected_time":1253000000000,"state":"active","ping":55},{"user_id":110,"name":"zogs (she/her)","steam_id":76561198323491654,"connected_time":56000000000,"state":"active","ping":60},{"user_id":92,"name":"The Adventurous Proctologist","steam_id":76561198039425906,"connected_time":822000000000,"state":"active","ping":94},{"user_id":96,"name":"greens beans","steam_id":76561198153611491,"connected_time":453000000000,"state":"active","ping":73},{"user_id":106,"name":"Stupid Sexy Flanders","steam_id":76561198136311983,"connected_time":114000000000,"state":"active","ping":129},{"user_id":111,"name":"The Pizza King","steam_id":76561198024287176,"connected_time":35000000000,"state":"spawning","ping":83},{"user_id":84,"name":"roach","steam_id":76561198354811369,"connected_time":1439000000000,"state":"active","ping":48},{"user_id":73,"name":"Dani","steam_id":76561198348012378,"connected_time":1924000000000,"state":"active","ping":112},{"user_id":97,"name":"Just Dez","steam_id":76561199327664719,"connected_time":444000000000,"state":"active","ping":145},{"user_id":107,"name":"flo rida","steam_id":76561198226169704,"connected_time":94000000000,"state":"active","ping":48},{"user_id":108,"name":"lucil3 on Bandcamp","steam_id":76561198149063013,"connected_time":86000000000,"state":"active","ping":109},{"user_id":100,"name":"Cyanid3","steam_id":76561198259972621,"connected_time":382000000000,"state":"active","ping":52},{"user_id":109,"name":"Someone","steam_id":76561199121969306,"connected_time":82000000000,"state":"active","ping":137},{"user_id":89,"name":"Johnson, Navin R.","steam_id":76561197961107982,"connected_time":980000000000,"state":"active","ping":115},{"user_id":101,"name":"Maid 'n' China","steam_id":76561198423392976,"connected_time":382000000000,"state":"active","ping":58},{"user_id":67,"name":"Training Arc","steam_id":76561198038832034,"connected_time":2293000000000,"state":"active","ping":90},{"user_id":112,"name":"Cakepeep","steam_id":76561199168555813,"connected_time":8000000000,"state":"active","ping":145},{"user_id":50,"name":"Javis","steam_id":76561198204163123,"connected_time":3712000000000,"state":"active","ping":99}]},{"server_id":112,"name":"Uncletopia | Los Angeles | 2 | All Maps","name_short":"lax-2","host":"lax-1.us.uncletopia.com","port":27025,"enabled":true,"region":"us-west","cc":"us","latitude":33.94279,"longitude":-118.41004,"reserved":0,"last_update":"0001-01-01T00:00:00Z","name_a2s":"Uncletopia | Los Angeles | 2 | All Maps","protocol":17,"map":"cp_process_final","folder":"tf","game":"Team Fortress","app_id":440,"player_count":1,"max_players":24,"Bots":0,"server_type":"Dedicated","server_os":"Linux","password":true,"vac":true,"version":"7757534","steam_id":85568392924469992,"keywords":["cp","nocrits","nodmgspread","uncletopia"],"game_id":440,"stv_port":27026,"stv_name":"Uncletopia | Los Angeles | 2 | All Maps | STV","players":[{"user_id":10,"name":"SIIIIMPLE","steam_id":76561198339527138,"connected_time":1332000000000,"state":"active","ping":41}]},{"server_id":324,"name":"Uncletopia | Los Angeles | 3 | All Maps","name_short":"lax-3","host":"lax-1.us.uncletopia.com","port":27035,"enabled":true,"region":"us-west","cc":"us","latitude":33.94279,"longitude":-118.41004,"reserved":0,"last_update":"0001-01-01T00:00:00Z","name_a2s":"Uncletopia | Los Angeles | 3 | All Maps","protocol":17,"map":"koth_viaduct","folder":"tf","game":"Team Fortress","app_id":440,"player_count":0,"max_players":24,"Bots":0,"server_type":"Dedicated","server_os":"Linux","password":true,"vac":true,"version":"7757534","steam_id":85568392924510198,"keywords":["cp","nocrits","nodmgspread","uncletopia"],"game_id":440,"stv_port":27036,"stv_name":"Uncletopia | Los Angeles | 3 | All Maps | STV","players":null},{"server_id":25,"name":"Uncletopia | Los Angeles | 4 | Stopwatch Beta","name_short":"lax-4","host":"lax-1.us.uncletopia.com","port":27045,"enabled":true,"region":"us-west","cc":"us","latitude":33.94279,"longitude":-118.41004,"reserved":0,"last_update":"0001-01-01T00:00:00Z","name_a2s":"Uncletopia | Los Angeles | 4 | Stopwatch Beta","protocol":17,"map":"pl_swiftwater_final1","folder":"tf","game":"Team Fortress","app_id":440,"player_count":0,"max_players":24,"Bots":0,"server_type":"Dedicated","server_os":"Linux","password":true,"vac":true,"version":"7757534","steam_id":85568392924510199,"keywords":["nocrits","nodmgspread","payload","uncletopia"],"game_id":440,"stv_port":27046,"stv_name":"Uncletopia | Los Angeles | 4 | Stopwatch Beta | STV","players":null},{"server_id":11,"name":"Uncletopia | London | 1 | All Maps","name_short":"lon-1","host":"lon-1.uk.uncletopia.com","port":27015,"enabled":true,"region":"eu","cc":"gb","latitude":51.509865,"longitude":-0.118092,"reserved":0,"last_update":"0001-01-01T00:00:00Z","name_a2s":"Uncletopia | London | 1 | All Maps","protocol":17,"map":"pl_swiftwater_final1","folder":"tf","game":"Team Fortress","app_id":440,"player_count":24,"max_players":24,"Bots":0,"server_type":"Dedicated","server_os":"Linux","password":true,"vac":true,"version":"7757534","steam_id":85568392924367362,"keywords":["nocrits","nodmgspread","payload","uncletopia"],"game_id":440,"stv_port":27016,"stv_name":"Uncletopia | London | 1 | All Maps | STV","players":[{"user_id":452,"name":"dec","steam_id":76561198009660168,"connected_time":4056000000000,"state":"active","ping":53},{"user_id":477,"name":"G6 sherlock","steam_id":76561198802967796,"connected_time":1816000000000,"state":"active","ping":110},{"user_id":435,"name":"Davey","steam_id":76561198256879107,"connected_time":5605000000000,"state":"active","ping":71},{"user_id":390,"name":"Neo Kojiro","steam_id":76561198000967076,"connected_time":7342000000000,"state":"active","ping":133},{"user_id":488,"name":"Laurie","steam_id":76561198082951750,"connected_time":40000000000,"state":"active","ping":48},{"user_id":458,"name":"Bonca","steam_id":76561198137503531,"connected_time":3626000000000,"state":"active","ping":75},{"user_id":481,"name":"SuperBob103","steam_id":76561199175360012,"connected_time":1351000000000,"state":"active","ping":50},{"user_id":486,"name":"Jofiah/TTV","steam_id":76561197977233962,"connected_time":60000000000,"state":"active","ping":91},{"user_id":490,"name":"yacrackmagdak222crack","steam_id":76561198118407436,"connected_time":24000000000,"state":"spawning","ping":64},{"user_id":482,"name":"shooer! :D \u003e\u003c(((¬∫\u003e","steam_id":76561198110531281,"connected_time":1307000000000,"state":"spawning","ping":68},{"user_id":487,"name":"beebo","steam_id":76561199120277007,"connected_time":46000000000,"state":"active","ping":38},{"user_id":464,"name":"The Sex Defender","steam_id":76561198165732391,"connected_time":3217000000000,"state":"active","ping":90},{"user_id":483,"name":"eoy","steam_id":76561198116511067,"connected_time":1133000000000,"state":"active","ping":80},{"user_id":446,"name":"goff","steam_id":76561198118989010,"connected_time":4360000000000,"state":"active","ping":45},{"user_id":471,"name":"yard man","steam_id":76561198019477093,"connected_time":2363000000000,"state":"active","ping":77},{"user_id":468,"name":"Debbie M (radio gal)","steam_id":76561198063093802,"connected_time":2383000000000,"state":"active","ping":38},{"user_id":489,"name":"Relon Frolik","steam_id":76561198106492874,"connected_time":35000000000,"state":"active","ping":68},{"user_id":459,"name":"astra","steam_id":76561198042980579,"connected_time":3624000000000,"state":"active","ping":65},{"user_id":476,"name":"ARYZON","steam_id":76561198070705087,"connected_time":1947000000000,"state":"active","ping":47},{"user_id":480,"name":"Kretur","steam_id":76561198161086266,"connected_time":1387000000000,"state":"active","ping":114},{"user_id":485,"name":"Prome","steam_id":76561199050383942,"connected_time":511000000000,"state":"active","ping":56},{"user_id":484,"name":"ÀêmissingÀê","steam_id":76561198080541279,"connected_time":1018000000000,"state":"active","ping":90},{"user_id":454,"name":"Enda","steam_id":76561198202980164,"connected_time":4036000000000,"state":"active","ping":85},{"user_id":491,"name":"orml777038314.day","steam_id":76561198089330547,"connected_time":24000000000,"state":"spawning","ping":65}]},{"server_id":114,"name":"Uncletopia | London | 2 | All Maps","name_short":"lon-2","host":"lon-1.uk.uncletopia.com","port":27025,"enabled":true,"region":"eu","cc":"gb","latitude":51.509865,"longitude":-0.118092,"reserved":0,"last_update":"0001-01-01T00:00:00Z","name_a2s":"Uncletopia | London | 2 | All Maps","protocol":17,"map":"koth_viaduct","folder":"tf","game":"Team Fortress","app_id":440,"player_count":0,"max_players":24,"Bots":0,"server_type":"Dedicated","server_os":"Linux","password":true,"vac":true,"version":"7757534","steam_id":85568392924470941,"keywords":["cp","nocrits","nodmgspread","uncletopia"],"game_id":440,"stv_port":27026,"stv_name":"Uncletopia | London | 2 | All Maps | STV","players":null},{"server_id":320,"name":"Uncletopia | London | 3 | All Maps","name_short":"lon-3","host":"lon-1.uk.uncletopia.com","port":27035,"enabled":true,"region":"eu","cc":"gb","latitude":51.509865,"longitude":-0.118092,"reserved":0,"last_update":"0001-01-01T00:00:00Z","name_a2s":"Uncletopia | London | 3 | All Maps","protocol":17,"map":"pl_borneo","folder":"tf","game":"Team Fortress","app_id":440,"player_count":24,"max_players":24,"Bots":0,"server_type":"Dedicated","server_os":"Linux","password":true,"vac":true,"version":"7757534","steam_id":85568392924510192,"keywords":["nocrits","nodmgspread","payload","uncletopia"],"game_id":440,"stv_port":27036,"stv_name":"Uncletopia | London | 3 | All Maps | STV","players":[{"user_id":265,"name":"generic alias","steam_id":76561198271607226,"connected_time":2376000000000,"state":"active","ping":87},{"user_id":278,"name":"Insain Bolt!","steam_id":76561198025687726,"connected_time":1352000000000,"state":"active","ping":80},{"user_id":298,"name":"xXx_LegionProPlayer420_xXx","steam_id":76561198114838182,"connected_time":52000000000,"state":"active","ping":156},{"user_id":279,"name":"‚ù§G a n K","steam_id":76561199125995565,"connected_time":1279000000000,"state":"active","ping":63},{"user_id":224,"name":"zvekan","steam_id":76561198381101196,"connected_time":4244000000000,"state":"active","ping":66},{"user_id":286,"name":"TheCosmicLizard","steam_id":76561198861751742,"connected_time":604000000000,"state":"active","ping":72},{"user_id":294,"name":"Jesus Enjoyer","steam_id":76561198840259819,"connected_time":111000000000,"state":"active","ping":59},{"user_id":295,"name":"Stoic","steam_id":76561199088506542,"connected_time":90000000000,"state":"active","ping":78},{"user_id":246,"name":"shh... tiny carrots r sleeping","steam_id":76561198069649097,"connected_time":3466000000000,"state":"active","ping":45},{"user_id":296,"name":"Kapitan Dagistan","steam_id":76561198010500289,"connected_time":72000000000,"state":"active","ping":99},{"user_id":234,"name":"Mancomb Seepgood","steam_id":76561197974116369,"connected_time":3888000000000,"state":"active","ping":41},{"user_id":277,"name":"Holy f stewie, I am sh√≠tting.","steam_id":76561198147173457,"connected_time":1376000000000,"state":"active","ping":78},{"user_id":297,"name":"SynthBox3","steam_id":76561199094075745,"connected_time":64000000000,"state":"active","ping":94},{"user_id":287,"name":"JujuBalu","steam_id":76561198207253071,"connected_time":392000000000,"state":"active","ping":33},{"user_id":276,"name":"fshfkr","steam_id":76561198095979282,"connected_time":1379000000000,"state":"active","ping":41},{"user_id":292,"name":"One Shiny Boi‚Ñ¢","steam_id":76561198199193627,"connected_time":279000000000,"state":"active","ping":76},{"user_id":247,"name":"k.piano","steam_id":76561198199729461,"connected_time":3361000000000,"state":"active","ping":54},{"user_id":226,"name":"After8","steam_id":76561198090750865,"connected_time":4186000000000,"state":"active","ping":71},{"user_id":288,"name":"Anri Okita's Massive Milkers","steam_id":76561199186352720,"connected_time":354000000000,"state":"active","ping":62},{"user_id":260,"name":"snuy","steam_id":76561199380115431,"connected_time":2529000000000,"state":"active","ping":59},{"user_id":289,"name":"VEH-DEH-VEH","steam_id":76561198010978989,"connected_time":299000000000,"state":"active","ping":72},{"user_id":285,"name":"Pineapple Okan","steam_id":76561198069199449,"connected_time":1029000000000,"state":"active","ping":103},{"user_id":230,"name":"dimitrij_6ix_god","steam_id":76561199023275543,"connected_time":3950000000000,"state":"active","ping":81},{"user_id":274,"name":"Schwarzschild radius(Rg=2GM/c^2","steam_id":76561198179463343,"connected_time":1604000000000,"state":"active","ping":44}]},{"server_id":321,"name":"Uncletopia | London | 4 | All Maps","name_short":"lon-4","host":"lon-1.uk.uncletopia.com","port":27045,"enabled":true,"region":"eu","cc":"gb","latitude":51.509865,"longitude":-0.118092,"reserved":0,"last_update":"0001-01-01T00:00:00Z","name_a2s":"Uncletopia | London | 4 | All Maps","protocol":17,"map":"cp_dustbowl","folder":"tf","game":"Team Fortress","app_id":440,"player_count":24,"max_players":24,"Bots":0,"server_type":"Dedicated","server_os":"Linux","password":true,"vac":true,"version":"7757534","steam_id":85568392924510193,"keywords":["cp","nocrits","nodmgspread","uncletopia"],"game_id":440,"stv_port":27046,"stv_name":"Uncletopia | London | 4 | All Maps | STV","players":[{"user_id":189,"name":"vanman1975","steam_id":76561198078872891,"connected_time":8016000000000,"state":"active","ping":70},{"user_id":219,"name":"THE LOATHSOME DUNG EATER","steam_id":76561198805375543,"connected_time":4943000000000,"state":"active","ping":44},{"user_id":291,"name":"Acey","steam_id":76561198114457284,"connected_time":1160000000000,"state":"active","ping":75},{"user_id":279,"name":"mercurial","steam_id":76561198046227550,"connected_time":1795000000000,"state":"active","ping":56},{"user_id":260,"name":"Yogurt","steam_id":76561198356902094,"connected_time":2189000000000,"state":"active","ping":69},{"user_id":257,"name":"Cirilla.gif","steam_id":76561198090586031,"connected_time":2205000000000,"state":"active","ping":82},{"user_id":227,"name":"Lwyz016","steam_id":76561199164626058,"connected_time":4090000000000,"state":"active","ping":83},{"user_id":293,"name":"ufomaster1111111","steam_id":76561198837347666,"connected_time":662000000000,"state":"active","ping":49},{"user_id":292,"name":"r06u3","steam_id":76561198254099253,"connected_time":782000000000,"state":"active","ping":179},{"user_id":266,"name":"Snowmotion","steam_id":76561198075022454,"connected_time":2047000000000,"state":"active","ping":66},{"user_id":259,"name":"–∏–¥–∏ –ø–æ–ø–ª–∞—á—å –∫ –º–∞–º","steam_id":76561198090790555,"connected_time":2195000000000,"state":"active","ping":119},{"user_id":287,"name":"Danin Civilnetworks.net","steam_id":76561198197542067,"connected_time":1493000000000,"state":"active","ping":98},{"user_id":289,"name":"Gameing4\u003c3","steam_id":76561198879748233,"connected_time":1362000000000,"state":"active","ping":61},{"user_id":290,"name":"normal hole","steam_id":76561199095366133,"connected_time":1210000000000,"state":"active","ping":60},{"user_id":264,"name":"nyanezt","steam_id":76561198253734265,"connected_time":2103000000000,"state":"active","ping":102},{"user_id":278,"name":"Druid5333","steam_id":76561198348066287,"connected_time":1813000000000,"state":"active","ping":66},{"user_id":280,"name":"„Åà„Å™„Å™„Çì","steam_id":76561199427679148,"connected_time":1749000000000,"state":"active","ping":149},{"user_id":267,"name":"Nero Claudius","steam_id":76561198173936397,"connected_time":2046000000000,"state":"active","ping":101},{"user_id":242,"name":"YBOT554","steam_id":76561198836830645,"connected_time":2841000000000,"state":"active","ping":44},{"user_id":273,"name":"Ardaaaaaaaaaaaaaaaaaaaaaaaaaaa","steam_id":76561199004214779,"connected_time":2021000000000,"state":"active","ping":103},{"user_id":294,"name":"Mirage","steam_id":76561199013190566,"connected_time":556000000000,"state":"active","ping":53},{"user_id":270,"name":"limbicsystem","steam_id":76561198025612680,"connected_time":2032000000000,"state":"active","ping":55},{"user_id":271,"name":"poopthepoop12","steam_id":76561199135483712,"connected_time":2031000000000,"state":"active","ping":147},{"user_id":251,"name":"Jon_595","steam_id":76561198846843547,"connected_time":2727000000000,"state":"active","ping":142}]},{"server_id":21,"name":"Uncletopia | London | 5 | All Maps","name_short":"lon-5","host":"lon-1.uk.uncletopia.com","port":27055,"enabled":true,"region":"eu","cc":"gb","latitude":51.509865,"longitude":-0.118092,"reserved":0,"last_update":"0001-01-01T00:00:00Z","name_a2s":"Uncletopia | London | 5 | All Maps","protocol":17,"map":"koth_viaduct","folder":"tf","game":"Team Fortress","app_id":440,"player_count":2,"max_players":24,"Bots":0,"server_type":"Dedicated","server_os":"Linux","password":true,"vac":true,"version":"7757534","steam_id":85568392924742829,"keywords":["cp","nocrits","nodmgspread","uncletopia"],"game_id":440,"stv_port":27056,"stv_name":"Uncletopia | London | 5 | All Maps | STV","players":[{"user_id":59,"name":"oRANGUTAN","steam_id":76561198977729289,"connected_time":533000000000,"state":"active","ping":86},{"user_id":60,"name":"Arvydas","steam_id":76561198393447599,"connected_time":519000000000,"state":"active","ping":85}]},{"server_id":22,"name":"Uncletopia | London | 6 | All Maps","name_short":"lon-6","host":"lon-1.uk.uncletopia.com","port":27065,"enabled":true,"region":"eu","cc":"gb","latitude":51.509865,"longitude":-0.118092,"reserved":0,"last_update":"0001-01-01T00:00:00Z","name_a2s":"Uncletopia | London | 6 | All Maps","protocol":17,"map":"koth_sawmill","folder":"tf","game":"Team Fortress","app_id":440,"player_count":24,"max_players":24,"Bots":0,"server_type":"Dedicated","server_os":"Linux","password":true,"vac":true,"version":"7757534","steam_id":85568392924742830,"keywords":["cp","nocrits","nodmgspread","uncletopia"],"game_id":440,"stv_port":27066,"stv_name":"Uncletopia | London | 6 | All Maps | STV","players":[{"user_id":465,"name":"and i'm javert!","steam_id":76561198117033273,"connected_time":1672000000000,"state":"active","ping":52},{"user_id":438,"name":"grim reaper god","steam_id":76561199394194512,"connected_time":3323000000000,"state":"active","ping":56},{"user_id":480,"name":"Aleyway","steam_id":76561198799137475,"connected_time":205000000000,"state":"active","ping":53},{"user_id":461,"name":"Û†Ä°Û†Ä°‚Åß‚ÅßÁà™ÂçÇ·é∂‰πá","steam_id":76561198353389145,"connected_time":2213000000000,"state":"active","ping":55},{"user_id":430,"name":"Duck_N_Dur","steam_id":76561198123930515,"connected_time":3932000000000,"state":"active","ping":135},{"user_id":482,"name":"Alfred","steam_id":76561198348799252,"connected_time":21000000000,"state":"active","ping":61},{"user_id":423,"name":"Green_Lil_Man","steam_id":76561198030681443,"connected_time":4128000000000,"state":"active","ping":68},{"user_id":441,"name":"ThePigKing","steam_id":76561198124945814,"connected_time":3245000000000,"state":"active","ping":61},{"user_id":447,"name":"Tom/MrSnowman","steam_id":76561198964524404,"connected_time":3046000000000,"state":"active","ping":60},{"user_id":444,"name":"mumbler","steam_id":76561197970641239,"connected_time":3132000000000,"state":"active","ping":58},{"user_id":471,"name":"tommi heavy","steam_id":76561198025916703,"connected_time":1154000000000,"state":"active","ping":74},{"user_id":478,"name":"MT Foxtrot","steam_id":76561198058003989,"connected_time":541000000000,"state":"active","ping":54},{"user_id":463,"name":"nefarious_gamer99","steam_id":76561199078847021,"connected_time":2069000000000,"state":"active","ping":83},{"user_id":400,"name":"AMD8806","steam_id":76561198959208483,"connected_time":5491000000000,"state":"active","ping":81},{"user_id":466,"name":"Demoflower","steam_id":76561198827103130,"connected_time":1592000000000,"state":"active","ping":45},{"user_id":464,"name":"Edtwee","steam_id":76561198079372656,"connected_time":2043000000000,"state":"active","ping":59},{"user_id":436,"name":"Steven Seagal","steam_id":76561198122074582,"connected_time":3536000000000,"state":"active","ping":85},{"user_id":427,"name":"Contemporary_Chaos","steam_id":76561198138784538,"connected_time":4077000000000,"state":"active","ping":80},{"user_id":474,"name":"tiktok vasectomy","steam_id":76561198260363522,"connected_time":1008000000000,"state":"active","ping":81},{"user_id":473,"name":"quickfast","steam_id":76561199438900919,"connected_time":1091000000000,"state":"active","ping":44},{"user_id":477,"name":"dollar foot long","steam_id":76561199250808808,"connected_time":711000000000,"state":"active","ping":79},{"user_id":479,"name":"Dwevy","steam_id":76561198090379437,"connected_time":235000000000,"state":"active","ping":56},{"user_id":476,"name":"DeanAdamFry","steam_id":76561198054153160,"connected_time":992000000000,"state":"active","ping":52},{"user_id":457,"name":"A Dumbass","steam_id":76561198819665089,"connected_time":2848000000000,"state":"active","ping":75}]},{"server_id":40,"name":"Uncletopia | London | 7 | No Payload","name_short":"lon-7","host":"lon-1.uk.uncletopia.com","port":27075,"enabled":true,"region":"eu","cc":"gb","latitude":51.509865,"longitude":-0.118092,"reserved":0,"last_update":"0001-01-01T00:00:00Z","name_a2s":"Uncletopia | London | 7 | No Payload","protocol":17,"map":"koth_cascade","folder":"tf","game":"Team Fortress","app_id":440,"player_count":4,"max_players":24,"Bots":0,"server_type":"Dedicated","server_os":"Linux","password":true,"vac":true,"version":"7757534","steam_id":85568392924964314,"keywords":["cp","nocrits","nodmgspread","uncletopia"],"game_id":440,"stv_port":27076,"stv_name":"Uncletopia | London | 7 | No Payload | STV","players":[{"user_id":243,"name":"AAAAAAAAAAAAAAAAAAAAA","steam_id":76561199452855953,"connected_time":683000000000,"state":"active","ping":106},{"user_id":239,"name":"fried","steam_id":76561198307522022,"connected_time":2110000000000,"state":"active","ping":56},{"user_id":244,"name":"slightly drunk","steam_id":76561199184873889,"connected_time":468000000000,"state":"active","ping":61},{"user_id":245,"name":"meow (they/them)","steam_id":76561198416657815,"connected_time":228000000000,"state":"active","ping":109}]},{"server_id":41,"name":"Uncletopia | London | 8 | Community","name_short":"lon-8","host":"lon-1.uk.uncletopia.com","port":27085,"enabled":true,"region":"eu","cc":"gb","latitude":51.509865,"longitude":-0.118092,"reserved":0,"last_update":"0001-01-01T00:00:00Z","name_a2s":"Uncletopia | London | 8 | Community","protocol":17,"map":"workshop/cp_logjam_rc12.ugc454812035","folder":"tf","game":"Team Fortress","app_id":440,"player_count":0,"max_players":24,"Bots":0,"server_type":"Dedicated","server_os":"Linux","password":true,"vac":true,"version":"7757534","steam_id":85568392924964315,"keywords":["cp","nocrits","nodmgspread","uncletopia"],"game_id":440,"stv_port":27086,"stv_name":"Uncletopia | London | 8 | Community | STV","players":null},{"server_id":300,"name":"Uncletopia | Montr√©al | 1 | All Maps","name_short":"mtl-1","host":"mtl-1.ca.uncletopia.com","port":27015,"enabled":true,"region":"us-east","cc":"ca","latitude":45.50889,"longitude":-73.56167,"reserved":0,"last_update":"0001-01-01T00:00:00Z","name_a2s":"Uncletopia | Montr√©al | 1 | All Maps","protocol":17,"map":"cp_process_final","folder":"tf","game":"Team Fortress","app_id":440,"player_count":0,"max_players":24,"Bots":0,"server_type":"Dedicated","server_os":"Linux","password":true,"vac":true,"version":"7757534","steam_id":85568392924500087,"keywords":["cp","nocrits","nodmgspread","uncletopia"],"game_id":440,"stv_port":27016,"stv_name":"Uncletopia | Montr√©al | 1 | All Maps | STV","players":null},{"server_id":301,"name":"Uncletopia | Montr√©al | 2 | All Maps","name_short":"mtl-2","host":"mtl-1.ca.uncletopia.com","port":27025,"enabled":true,"region":"us-east","cc":"ca","latitude":45.50889,"longitude":-73.56167,"reserved":0,"last_update":"0001-01-01T00:00:00Z","name_a2s":"Uncletopia | Montr√©al | 2 | All Maps","protocol":17,"map":"pl_snowycoast","folder":"tf","game":"Team Fortress","app_id":440,"player_count":0,"max_players":24,"Bots":0,"server_type":"Dedicated","server_os":"Linux","password":true,"vac":true,"version":"7757534","steam_id":85568392924500088,"keywords":["nocrits","nodmgspread","payload","uncletopia"],"game_id":440,"stv_port":27026,"stv_name":"Uncletopia | Montr√©al | 2 | All Maps | STV","players":null},{"server_id":302,"name":"Uncletopia | Montr√©al | 3 | All Maps","name_short":"mtl-3","host":"mtl-1.ca.uncletopia.com","port":27035,"enabled":true,"region":"us-east","cc":"ca","latitude":45.50889,"longitude":-73.56167,"reserved":0,"last_update":"0001-01-01T00:00:00Z","name_a2s":"Uncletopia | Montr√©al | 3 | All Maps","protocol":17,"map":"koth_lakeside_final","folder":"tf","game":"Team Fortress","app_id":440,"player_count":0,"max_players":24,"Bots":0,"server_type":"Dedicated","server_os":"Linux","password":true,"vac":true,"version":"7757534","steam_id":85568392924500089,"keywords":["cp","nocrits","nodmgspread","uncletopia"],"game_id":440,"stv_port":27036,"stv_name":"Uncletopia | Montr√©al | 3 | All Maps | STV","players":null},{"server_id":303,"name":"Uncletopia | Montr√©al | 4 | No Payload","name_short":"mtl-4","host":"mtl-1.ca.uncletopia.com","port":27045,"enabled":true,"region":"us-east","cc":"ca","latitude":45.50889,"longitude":-73.56167,"reserved":0,"last_update":"0001-01-01T00:00:00Z","name_a2s":"Uncletopia | Montr√©al | 4 | No Payload","protocol":17,"map":"pl_pier","folder":"tf","game":"Team Fortress","app_id":440,"player_count":0,"max_players":24,"Bots":0,"server_type":"Dedicated","server_os":"Linux","password":true,"vac":true,"version":"7757534","steam_id":85568392924500090,"keywords":["nocrits","nodmgspread","payload","uncletopia"],"game_id":440,"stv_port":27046,"stv_name":"Uncletopia | Montr√©al | 4 | No Payload | STV","players":null},{"server_id":13,"name":"Uncletopia | New York City | 1 | All Maps","name_short":"nyc-1","host":"nyc-1.us.uncletopia.com","port":27015,"enabled":true,"region":"us-east","cc":"us","latitude":40.73061,"longitude":-73.93524,"reserved":0,"last_update":"0001-01-01T00:00:00Z","name_a2s":"Uncletopia | New York City | 1 | All Maps","protocol":17,"map":"plr_nightfall_final","folder":"tf","game":"Team Fortress","app_id":440,"player_count":24,"max_players":24,"Bots":0,"server_type":"Dedicated","server_os":"Linux","password":true,"vac":true,"version":"7757534","steam_id":85568392924469993,"keywords":["nocrits","nodmgspread","payload","uncletopia"],"game_id":440,"stv_port":27016,"stv_name":"Uncletopia | New York City | 1 | All Maps | STV","players":[{"user_id":212,"name":"Bush.exe","steam_id":76561198124385307,"connected_time":5160000000000,"state":"active","ping":64},{"user_id":292,"name":"aiden","steam_id":76561198449527009,"connected_time":468000000000,"state":"active","ping":111},{"user_id":297,"name":"meteora by linkin park","steam_id":76561198332694127,"connected_time":185000000000,"state":"active","ping":48},{"user_id":267,"name":"orcluvr69","steam_id":76561198068712028,"connected_time":2357000000000,"state":"active","ping":63},{"user_id":289,"name":"Jeeper","steam_id":76561198155583692,"connected_time":558000000000,"state":"active","ping":84},{"user_id":244,"name":"Oh no","steam_id":76561198123441203,"connected_time":3355000000000,"state":"active","ping":74},{"user_id":279,"name":"Token","steam_id":76561198067814426,"connected_time":1611000000000,"state":"active","ping":116},{"user_id":290,"name":"CrazyCow750","steam_id":76561199087412063,"connected_time":521000000000,"state":"active","ping":62},{"user_id":285,"name":"roby","steam_id":76561198044660393,"connected_time":1059000000000,"state":"active","ping":134},{"user_id":281,"name":"Aeonspassed","steam_id":76561198014016451,"connected_time":1550000000000,"state":"active","ping":76},{"user_id":275,"name":"Mr.Pwesident","steam_id":76561198058114703,"connected_time":1836000000000,"state":"active","ping":89},{"user_id":269,"name":"Porcupine's Revenge!","steam_id":76561199121615234,"connected_time":2316000000000,"state":"active","ping":52},{"user_id":286,"name":"Ritzy","steam_id":76561198381955342,"connected_time":1018000000000,"state":"active","ping":116},{"user_id":283,"name":"catfish from toontown","steam_id":76561198060070002,"connected_time":1333000000000,"state":"active","ping":108},{"user_id":229,"name":"Tsukiortu","steam_id":76561198086796109,"connected_time":4119000000000,"state":"active","ping":57},{"user_id":210,"name":"Fat Ass Catboy","steam_id":76561198119033986,"connected_time":5229000000000,"state":"active","ping":47},{"user_id":282,"name":"Goat","steam_id":76561198068447650,"connected_time":1510000000000,"state":"active","ping":101},{"user_id":296,"name":"Poi","steam_id":76561198176914898,"connected_time":191000000000,"state":"active","ping":86},{"user_id":222,"name":"box","steam_id":76561198985635309,"connected_time":4670000000000,"state":"active","ping":90},{"user_id":273,"name":"toastJP","steam_id":76561199028751406,"connected_time":2010000000000,"state":"active","ping":87},{"user_id":295,"name":"p","steam_id":76561198030291655,"connected_time":302000000000,"state":"active","ping":78},{"user_id":293,"name":"Wattle","steam_id":76561198036756626,"connected_time":321000000000,"state":"active","ping":59},{"user_id":196,"name":"Grand Piano Tuna","steam_id":76561198135137213,"connected_time":6231000000000,"state":"active","ping":111},{"user_id":260,"name":"Joyous Jenny","steam_id":76561198127998866,"connected_time":2505000000000,"state":"active","ping":57}]},{"server_id":14,"name":"Uncletopia | New York City | 2 | All Maps","name_short":"nyc-2","host":"nyc-1.us.uncletopia.com","port":27025,"enabled":true,"region":"us-east","cc":"us","latitude":40.73061,"longitude":-73.93524,"reserved":0,"last_update":"0001-01-01T00:00:00Z","name_a2s":"Uncletopia | New York City | 2 | All Maps","protocol":17,"map":"pl_barnblitz","folder":"tf","game":"Team Fortress","app_id":440,"player_count":24,"max_players":24,"Bots":0,"server_type":"Dedicated","server_os":"Linux","password":true,"vac":true,"version":"7757534","steam_id":85568392924469994,"keywords":["nocrits","nodmgspread","payload","uncletopia"],"game_id":440,"stv_port":27026,"stv_name":"Uncletopia | New York City | 2 | All Maps | STV","players":[{"user_id":214,"name":"Viokik","steam_id":76561198408846602,"connected_time":1446000000000,"state":"active","ping":56},{"user_id":182,"name":"dkosciotrupa2","steam_id":76561199474923376,"connected_time":3289000000000,"state":"active","ping":171},{"user_id":233,"name":"panziemniak466","steam_id":76561199140876865,"connected_time":385000000000,"state":"active","ping":218},{"user_id":195,"name":"Thai Cobra-Snake","steam_id":76561198128928443,"connected_time":2677000000000,"state":"active","ping":59},{"user_id":199,"name":"pussyfart12362","steam_id":76561198284576334,"connected_time":2280000000000,"state":"active","ping":32},{"user_id":227,"name":"rafaelbragasantos","steam_id":76561198060141773,"connected_time":675000000000,"state":"active","ping":180},{"user_id":224,"name":"Ashman0116","steam_id":76561198367986558,"connected_time":852000000000,"state":"active","ping":92},{"user_id":225,"name":"gghfgfgfg","steam_id":76561198064823861,"connected_time":721000000000,"state":"active","ping":57},{"user_id":205,"name":"Scoobery Doobery","steam_id":76561198023634449,"connected_time":1954000000000,"state":"active","ping":65},{"user_id":226,"name":"Brain Tumor","steam_id":76561198805526881,"connected_time":707000000000,"state":"active","ping":65},{"user_id":210,"name":"I ‚ô° Mustangs","steam_id":76561199014893268,"connected_time":1652000000000,"state":"active","ping":130},{"user_id":206,"name":"Rurigade Towers","steam_id":76561198148598905,"connected_time":1941000000000,"state":"active","ping":125},{"user_id":218,"name":"scrapheap","steam_id":76561198202407087,"connected_time":1222000000000,"state":"active","ping":79},{"user_id":188,"name":"Cuttle's Fish","steam_id":76561198280483257,"connected_time":3088000000000,"state":"active","ping":65},{"user_id":201,"name":"Kalhoun","steam_id":76561197999648122,"connected_time":2139000000000,"state":"active","ping":65},{"user_id":197,"name":"non_ai","steam_id":76561198270951938,"connected_time":2591000000000,"state":"active","ping":45},{"user_id":220,"name":"Sim","steam_id":76561198119227922,"connected_time":1132000000000,"state":"active","ping":51},{"user_id":219,"name":"Missing Minus","steam_id":76561198120822928,"connected_time":1147000000000,"state":"active","ping":60},{"user_id":229,"name":"Potato Zilla","steam_id":76561199220230400,"connected_time":667000000000,"state":"active","ping":82},{"user_id":216,"name":"Treebeard","steam_id":76561198053508571,"connected_time":1430000000000,"state":"active","ping":73},{"user_id":217,"name":"government assigned catgirl","steam_id":76561198833468802,"connected_time":1324000000000,"state":"active","ping":75},{"user_id":208,"name":"oxygen user","steam_id":76561199111975528,"connected_time":1824000000000,"state":"active","ping":87},{"user_id":228,"name":"Hertz","steam_id":76561198245322982,"connected_time":671000000000,"state":"active","ping":49},{"user_id":231,"name":"Spring Beans","steam_id":76561197978546259,"connected_time":585000000000,"state":"active","ping":75}]},{"server_id":15,"name":"Uncletopia | New York City | 3 | Stopwatch Beta","name_short":"nyc-3","host":"nyc-1.us.uncletopia.com","port":27035,"enabled":true,"region":"us-east","cc":"us","latitude":40.73061,"longitude":-73.93524,"reserved":0,"last_update":"0001-01-01T00:00:00Z","name_a2s":"Uncletopia | New York City | 3 | Stopwatch Beta","protocol":17,"map":"pl_upward","folder":"tf","game":"Team Fortress","app_id":440,"player_count":0,"max_players":24,"Bots":0,"server_type":"Dedicated","server_os":"Linux","password":true,"vac":true,"version":"7757534","steam_id":85568392924742820,"keywords":["nocrits","nodmgspread","payload","uncletopia"],"game_id":440,"stv_port":27036,"stv_name":"Uncletopia | New York City | 3 | Stopwatch Beta | STV","players":null},{"server_id":16,"name":"Uncletopia | New York City | 4 | Community","name_short":"nyc-4","host":"nyc-1.us.uncletopia.com","port":27045,"enabled":true,"region":"us-east","cc":"us","latitude":40.73061,"longitude":-73.93524,"reserved":0,"last_update":"0001-01-01T00:00:00Z","name_a2s":"Uncletopia | New York City | 4 | Community","protocol":17,"map":"workshop/koth_product_final.ugc454272353","folder":"tf","game":"Team Fortress","app_id":440,"player_count":0,"max_players":24,"Bots":0,"server_type":"Dedicated","server_os":"Linux","password":true,"vac":true,"version":"7757534","steam_id":85568392924742821,"keywords":["cp","nocrits","nodmgspread","uncletopia"],"game_id":440,"stv_port":27046,"stv_name":"Uncletopia | New York City | 4 | Community | STV","players":null},{"server_id":142,"name":"Uncletopia | S√£o Paulo | 1 | All Maps","name_short":"sao-1","host":"sao-1.br.uncletopia.com","port":27015,"enabled":true,"region":"sa","cc":"br","latitude":-23.533773,"longitude":-46.62529,"reserved":0,"last_update":"0001-01-01T00:00:00Z","name_a2s":"Uncletopia | S√£o Paulo | 1 | All Maps","protocol":17,"map":"koth_lakeside_final","folder":"tf","game":"Team Fortress","app_id":440,"player_count":0,"max_players":24,"Bots":0,"server_type":"Dedicated","server_os":"Linux","password":true,"vac":true,"version":"7757534","steam_id":85568392924469996,"keywords":["cp","nocrits","nodmgspread","uncletopia"],"game_id":440,"stv_port":27016,"stv_name":"Uncletopia | S√£o Paulo | 1 | All Maps | STV","players":null},{"server_id":143,"name":"Uncletopia | S√£o Paulo | 2 | All Maps","name_short":"sao-2","host":"sao-2.br.uncletopia.com","port":27015,"enabled":true,"region":"sa","cc":"br","latitude":-23.533773,"longitude":-46.62529,"reserved":0,"last_update":"0001-01-01T00:00:00Z","name_a2s":"Uncletopia | S√£o Paulo | 2 | All Maps","protocol":17,"map":"cp_dustbowl","folder":"tf","game":"Team Fortress","app_id":440,"player_count":0,"max_players":24,"Bots":0,"server_type":"Dedicated","server_os":"Linux","password":true,"vac":true,"version":"7757534","steam_id":85568392924485349,"keywords":["cp","nocrits","nodmgspread","uncletopia"],"game_id":440,"stv_port":27016,"stv_name":"Uncletopia | S√£o Paulo | 2 | All Maps | STV","players":null},{"server_id":7,"name":"Uncletopia | Seattle | 1 | All Maps","name_short":"sea-1","host":"sea-1.us.uncletopia.com","port":27015,"enabled":true,"region":"us-west","cc":"us","latitude":47.608013,"longitude":-122.33517,"reserved":0,"last_update":"0001-01-01T00:00:00Z","name_a2s":"Uncletopia | Seattle | 1 | All Maps","protocol":17,"map":"pl_pier","folder":"tf","game":"Team Fortress","app_id":440,"player_count":23,"max_players":24,"Bots":0,"server_type":"Dedicated","server_os":"Linux","password":true,"vac":true,"version":"7757534","steam_id":85568392924469997,"keywords":["nocrits","nodmgspread","payload","uncletopia"],"game_id":440,"stv_port":27016,"stv_name":"Uncletopia | Seattle | 1 | All Maps | STV","players":[{"user_id":158,"name":"AmiableNebula","steam_id":76561198094306627,"connected_time":4279000000000,"state":"active","ping":70},{"user_id":162,"name":"chuck","steam_id":76561198035695976,"connected_time":3424000000000,"state":"active","ping":49},{"user_id":174,"name":"Merekitten","steam_id":76561198066307477,"connected_time":1868000000000,"state":"active","ping":88},{"user_id":185,"name":"Konnor","steam_id":76561199136300254,"connected_time":889000000000,"state":"active","ping":76},{"user_id":144,"name":"mizurush","steam_id":76561198039595304,"connected_time":5480000000000,"state":"active","ping":131},{"user_id":178,"name":"Bolder","steam_id":76561199061754867,"connected_time":1014000000000,"state":"active","ping":133},{"user_id":180,"name":"doomshroom","steam_id":76561198092827250,"connected_time":971000000000,"state":"active","ping":58},{"user_id":175,"name":"dust | she/it","steam_id":76561198045218909,"connected_time":1239000000000,"state":"active","ping":42},{"user_id":188,"name":"KeZ","steam_id":76561198275364564,"connected_time":548000000000,"state":"active","ping":47},{"user_id":195,"name":"Bastee1021","steam_id":76561199456141163,"connected_time":159000000000,"state":"active","ping":101},{"user_id":167,"name":"toodles","steam_id":76561198025463883,"connected_time":2289000000000,"state":"active","ping":54},{"user_id":196,"name":"Mr. Klauk","steam_id":76561199085666301,"connected_time":132000000000,"state":"active","ping":126},{"user_id":197,"name":"Mormon Discoball","steam_id":76561198028006216,"connected_time":124000000000,"state":"active","ping":68},{"user_id":187,"name":"HolyKirbo","steam_id":76561199001855562,"connected_time":704000000000,"state":"active","ping":56},{"user_id":168,"name":"Engynier Gaimeang (F2P)","steam_id":76561199013888779,"connected_time":2281000000000,"state":"active","ping":81},{"user_id":198,"name":"Humble Homunculus","steam_id":76561198052507878,"connected_time":107000000000,"state":"active","ping":47},{"user_id":179,"name":"lili ezili","steam_id":76561199391478575,"connected_time":973000000000,"state":"active","ping":88},{"user_id":189,"name":"Cup O' Tea","steam_id":76561199181963791,"connected_time":515000000000,"state":"active","ping":76},{"user_id":199,"name":"Fish","steam_id":76561199016308078,"connected_time":101000000000,"state":"active","ping":79},{"user_id":200,"name":"Give Me Chicken","steam_id":76561199376462977,"connected_time":63000000000,"state":"active","ping":121},{"user_id":193,"name":"jayeskae","steam_id":76561198144220801,"connected_time":220000000000,"state":"active","ping":47},{"user_id":191,"name":"summerlis","steam_id":76561198165324438,"connected_time":480000000000,"state":"active","ping":62},{"user_id":194,"name":"Depths","steam_id":76561198343435310,"connected_time":184000000000,"state":"active","ping":109}]},{"server_id":119,"name":"Uncletopia | Seattle | 2 | All Maps","name_short":"sea-2","host":"sea-1.us.uncletopia.com","port":27025,"enabled":true,"region":"us-west","cc":"us","latitude":47.608013,"longitude":-122.33517,"reserved":0,"last_update":"0001-01-01T00:00:00Z","name_a2s":"Uncletopia | Seattle | 2 | All Maps","protocol":17,"map":"cp_powerhouse","folder":"tf","game":"Team Fortress","app_id":440,"player_count":24,"max_players":24,"Bots":0,"server_type":"Dedicated","server_os":"Linux","password":true,"vac":true,"version":"7757534","steam_id":85568392924469998,"keywords":["cp","nocrits","nodmgspread","uncletopia"],"game_id":440,"stv_port":27026,"stv_name":"Uncletopia | Seattle | 2 | All Maps | STV","players":[{"user_id":143,"name":"Brumpo Tungus","steam_id":76561198054669779,"connected_time":4529000000000,"state":"active","ping":94},{"user_id":161,"name":"Spectre","steam_id":76561198025652246,"connected_time":3436000000000,"state":"active","ping":80},{"user_id":119,"name":"CreamFreaker","steam_id":76561198320293423,"connected_time":5909000000000,"state":"active","ping":54},{"user_id":188,"name":"Aiko","steam_id":76561198262395873,"connected_time":1257000000000,"state":"active","ping":85},{"user_id":194,"name":"Wafflemuscle","steam_id":76561198868628982,"connected_time":665000000000,"state":"active","ping":52},{"user_id":155,"name":"SkyGhost","steam_id":76561198271474593,"connected_time":3599000000000,"state":"active","ping":124},{"user_id":195,"name":"xberri","steam_id":76561199091768306,"connected_time":662000000000,"state":"active","ping":57},{"user_id":193,"name":"Big Jack Horner","steam_id":76561198847690613,"connected_time":673000000000,"state":"active","ping":130},{"user_id":117,"name":"CR3EP","steam_id":76561198071554862,"connected_time":6106000000000,"state":"active","ping":64},{"user_id":186,"name":"Raining Outside","steam_id":76561198004386727,"connected_time":1399000000000,"state":"active","ping":79},{"user_id":170,"name":"Ekuseebia","steam_id":76561198037504112,"connected_time":2908000000000,"state":"active","ping":80},{"user_id":187,"name":"hoOmIN","steam_id":76561198334947079,"connected_time":1341000000000,"state":"active","ping":70},{"user_id":182,"name":"worker","steam_id":76561198039608940,"connected_time":2056000000000,"state":"active","ping":65},{"user_id":192,"name":"purple‚Ñ¢ | they/she","steam_id":76561198057459725,"connected_time":1036000000000,"state":"active","ping":56},{"user_id":198,"name":"omgitisme321","steam_id":76561198437173029,"connected_time":271000000000,"state":"active","ping":87},{"user_id":154,"name":"barbiegirl","steam_id":76561198213450215,"connected_time":3603000000000,"state":"active","ping":118},{"user_id":191,"name":"Tea","steam_id":76561198004133638,"connected_time":1148000000000,"state":"active","ping":92},{"user_id":197,"name":"ùì°ùîÇùì™ùì∑","steam_id":76561198067641129,"connected_time":509000000000,"state":"active","ping":56},{"user_id":125,"name":"TheCowledWiz","steam_id":76561198016735868,"connected_time":5296000000000,"state":"active","ping":48},{"user_id":158,"name":"Floating Necc","steam_id":76561199040115358,"connected_time":3527000000000,"state":"active","ping":128},{"user_id":122,"name":"Limp Pumpo Discography Fan Club","steam_id":76561198145748479,"connected_time":5760000000000,"state":"active","ping":55},{"user_id":169,"name":"Mr. Dick‚Ñ¢","steam_id":76561198047309044,"connected_time":2968000000000,"state":"active","ping":116},{"user_id":184,"name":"some nerd","steam_id":76561198297272878,"connected_time":1497000000000,"state":"active","ping":68},{"user_id":145,"name":"mub","steam_id":76561197961943948,"connected_time":4401000000000,"state":"active","ping":47}]},{"server_id":406,"name":"Uncletopia | Seattle | 3 | Stopwatch Beta","name_short":"sea-3","host":"sea-1.us.uncletopia.com","port":27035,"enabled":true,"region":"us-west","cc":"us","latitude":47.608013,"longitude":-122.33517,"reserved":0,"last_update":"0001-01-01T00:00:00Z","name_a2s":"Uncletopia | Seattle | 3 | Stopwatch Beta","protocol":17,"map":"pl_borneo","folder":"tf","game":"Team Fortress","app_id":440,"player_count":0,"max_players":24,"Bots":0,"server_type":"Dedicated","server_os":"Linux","password":true,"vac":true,"version":"7757534","steam_id":85568392924515217,"keywords":["nocrits","nodmgspread","payload","uncletopia"],"game_id":440,"stv_port":27036,"stv_name":"Uncletopia | Seattle | 3 | Stopwatch Beta | STV","players":null},{"server_id":17,"name":"Uncletopia | San Francisco | 1 | All Maps","name_short":"sfo-1","host":"sfo-1.us.uncletopia.com","port":27015,"enabled":true,"region":"us-west","cc":"us","latitude":37.77397,"longitude":-122.4313,"reserved":0,"last_update":"0001-01-01T00:00:00Z","name_a2s":"Uncletopia | San Francisco | 1 | All Maps","protocol":17,"map":"koth_viaduct","folder":"tf","game":"Team Fortress","app_id":440,"player_count":0,"max_players":24,"Bots":0,"server_type":"Dedicated","server_os":"Linux","password":true,"vac":true,"version":"7757534","steam_id":85568392924469999,"keywords":["cp","nocrits","nodmgspread","uncletopia"],"game_id":440,"stv_port":27016,"stv_name":"Uncletopia | San Francisco | 1 | All Maps | STV","players":null},{"server_id":18,"name":"Uncletopia | San Francisco | 2 | All Maps","name_short":"sfo-2","host":"sfo-1.us.uncletopia.com","port":27025,"enabled":true,"region":"us-west","cc":"us","latitude":37.77397,"longitude":-122.4313,"reserved":0,"last_update":"0001-01-01T00:00:00Z","name_a2s":"Uncletopia | San Francisco | 2 | All Maps","protocol":17,"map":"koth_highpass","folder":"tf","game":"Team Fortress","app_id":440,"player_count":0,"max_players":24,"Bots":0,"server_type":"Dedicated","server_os":"Linux","password":true,"vac":true,"version":"7757534","steam_id":85568392924470000,"keywords":["cp","nocrits","nodmgspread","uncletopia"],"game_id":440,"stv_port":27026,"stv_name":"Uncletopia | San Francisco | 2 | All Maps | STV","players":null},{"server_id":19,"name":"Uncletopia | San Francisco | 3 | Stopwatch Beta","name_short":"sfo-3","host":"sfo-1.us.uncletopia.com","port":27035,"enabled":true,"region":"us-west","cc":"us","latitude":37.77397,"longitude":-122.4313,"reserved":0,"last_update":"0001-01-01T00:00:00Z","name_a2s":"Uncletopia | San Francisco | 3 | Stopwatch Beta","protocol":17,"map":"koth_lakeside_final","folder":"tf","game":"Team Fortress","app_id":440,"player_count":0,"max_players":24,"Bots":0,"server_type":"Dedicated","server_os":"Linux","password":true,"vac":true,"version":"7757534","steam_id":85568392924742824,"keywords":["cp","nocrits","nodmgspread","uncletopia"],"game_id":440,"stv_port":27036,"stv_name":"Uncletopia | San Francisco | 3 | Stopwatch Beta | STV","players":null},{"server_id":20,"name":"Uncletopia | San Francisco | 4 | Community","name_short":"sfo-4","host":"sfo-1.us.uncletopia.com","port":27045,"enabled":true,"region":"us-west","cc":"us","latitude":37.77397,"longitude":-122.4313,"reserved":0,"last_update":"0001-01-01T00:00:00Z","name_a2s":"Uncletopia | San Francisco | 4 | Community","protocol":17,"map":"workshop/cp_alloy_rc3.ugc592805587","folder":"tf","game":"Team Fortress","app_id":440,"player_count":0,"max_players":24,"Bots":0,"server_type":"Dedicated","server_os":"Linux","password":true,"vac":true,"version":"7757534","steam_id":85568392924742826,"keywords":["cp","nocrits","nodmgspread","uncletopia"],"game_id":440,"stv_port":27046,"stv_name":"Uncletopia | San Francisco | 4 | Community | STV","players":null},{"server_id":141,"name":"Uncletopia | Sydney | 1 | All Maps","name_short":"syd-1","host":"syd-1.au.uncletopia.com","port":27015,"enabled":true,"region":"au","cc":"au","latitude":-33.865143,"longitude":151.2099,"reserved":0,"last_update":"0001-01-01T00:00:00Z","name_a2s":"Uncletopia | Sydney | 1 | All Maps","protocol":17,"map":"koth_viaduct","folder":"tf","game":"Team Fortress","app_id":440,"player_count":0,"max_players":24,"Bots":0,"server_type":"Dedicated","server_os":"Linux","password":true,"vac":true,"version":"7757534","steam_id":85568392924470001,"keywords":["cp","nocrits","nodmgspread","uncletopia"],"game_id":440,"stv_port":27016,"stv_name":"Uncletopia | Sydney | 1 | All Maps | STV","players":null},{"server_id":123,"name":"Uncletopia | Sydney | 2 | All Maps","name_short":"syd-2","host":"syd-1.au.uncletopia.com","port":27025,"enabled":true,"region":"au","cc":"au","latitude":-33.865143,"longitude":151.2099,"reserved":0,"last_update":"0001-01-01T00:00:00Z","name_a2s":"Uncletopia | Sydney | 2 | All Maps","protocol":17,"map":"cp_process_final","folder":"tf","game":"Team Fortress","app_id":440,"player_count":0,"max_players":24,"Bots":0,"server_type":"Dedicated","server_os":"Linux","password":true,"vac":true,"version":"7757534","steam_id":85568392924470002,"keywords":["cp","nocrits","nodmgspread","uncletopia"],"game_id":440,"stv_port":27026,"stv_name":"Uncletopia | Sydney | 2 | All Maps | STV","players":null},{"server_id":395,"name":"Uncletopia | Sydney | 3 | All Maps","name_short":"syd-3","host":"syd-1.au.uncletopia.com","port":27035,"enabled":true,"region":"au","cc":"au","latitude":-33.865143,"longitude":151.2099,"reserved":0,"last_update":"0001-01-01T00:00:00Z","name_a2s":"Uncletopia | Sydney | 3 | All Maps","protocol":17,"map":"pl_swiftwater_final1","folder":"tf","game":"Team Fortress","app_id":440,"player_count":0,"max_players":24,"Bots":0,"server_type":"Dedicated","server_os":"Linux","password":true,"vac":true,"version":"7757534","steam_id":85568392925194467,"keywords":["nocrits","nodmgspread","payload","uncletopia"],"game_id":440,"stv_port":27036,"stv_name":"Uncletopia | Sydney | 3 | All Maps | STV","players":null},{"server_id":396,"name":"Uncletopia | Sydney | 4 | All Maps","name_short":"syd-4","host":"syd-1.au.uncletopia.com","port":27045,"enabled":true,"region":"au","cc":"au","latitude":-33.865143,"longitude":151.2099,"reserved":0,"last_update":"0001-01-01T00:00:00Z","name_a2s":"Uncletopia | Sydney | 4 | All Maps","protocol":17,"map":"koth_highpass","folder":"tf","game":"Team Fortress","app_id":440,"player_count":0,"max_players":24,"Bots":0,"server_type":"Dedicated","server_os":"Linux","password":true,"vac":true,"version":"7757534","steam_id":85568392925397958,"keywords":["cp","nocrits","nodmgspread","uncletopia"],"game_id":440,"stv_port":27046,"stv_name":"Uncletopia | Sydney | 4 | All Maps | STV","players":null},{"server_id":58,"name":"Uncletopia | Sydney | 5 | Stopwatch Beta","name_short":"syd-5","host":"syd-1.au.uncletopia.com","port":27055,"enabled":true,"region":"au","cc":"au","latitude":-33.865143,"longitude":151.2099,"reserved":0,"last_update":"0001-01-01T00:00:00Z","name_a2s":"Uncletopia | Sydney | 5 | Stopwatch Beta","protocol":17,"map":"koth_cascade","folder":"tf","game":"Team Fortress","app_id":440,"player_count":0,"max_players":24,"Bots":0,"server_type":"Dedicated","server_os":"Linux","password":true,"vac":true,"version":"7757534","steam_id":85568392925397959,"keywords":["cp","nocrits","nodmgspread","uncletopia"],"game_id":440,"stv_port":27056,"stv_name":"Uncletopia | Sydney | 5 | Stopwatch Beta | STV","players":null},{"server_id":59,"name":"Uncletopia | Sydney | 6 | Community","name_short":"syd-6","host":"syd-1.au.uncletopia.com","port":27065,"enabled":true,"region":"au","cc":"au","latitude":-33.865143,"longitude":151.2099,"reserved":0,"last_update":"0001-01-01T00:00:00Z","name_a2s":"Uncletopia | Sydney | 6 | Community","protocol":17,"map":"cp_snakewater_final1","folder":"tf","game":"Team Fortress","app_id":440,"player_count":0,"max_players":24,"Bots":0,"server_type":"Dedicated","server_os":"Linux","password":true,"vac":true,"version":"7757534","steam_id":85568392925397960,"keywords":["cp","nocrits","nodmgspread","uncletopia"],"game_id":440,"stv_port":27066,"stv_name":"Uncletopia | Sydney | 6 | Community | STV","players":null},{"server_id":49,"name":"Uncletopia | Warsaw | 1 | All Maps","name_short":"waw-1","host":"waw-1.pl.uncletopia.com","port":27015,"enabled":true,"region":"eu","cc":"pl","latitude":52.2297,"longitude":21.017532,"reserved":0,"last_update":"0001-01-01T00:00:00Z","name_a2s":"","protocol":0,"map":"","folder":"","game":"","app_id":0,"player_count":0,"max_players":0,"Bots":0,"server_type":"","server_os":"","password":false,"vac":false,"version":"","steam_id":0,"keywords":null,"game_id":0,"stv_port":0,"stv_name":"","players":null},{"server_id":50,"name":"Uncletopia | Warsaw | 2 | All Maps","name_short":"waw-2","host":"waw-1.pl.uncletopia.com","port":27025,"enabled":true,"region":"eu","cc":"pl","latitude":52.2297,"longitude":21.017532,"reserved":0,"last_update":"0001-01-01T00:00:00Z","name_a2s":"Uncletopia | Warsaw | 2 | All Maps","protocol":17,"map":"cp_steel","folder":"tf","game":"Team Fortress","app_id":440,"player_count":19,"max_players":24,"Bots":0,"server_type":"Dedicated","server_os":"Linux","password":true,"vac":true,"version":"7757534","steam_id":85568392925397851,"keywords":["cp","nocrits","nodmgspread","uncletopia"],"game_id":440,"stv_port":27026,"stv_name":"Uncletopia | Warsaw | 2 | All Maps | STV","players":[{"user_id":55,"name":"The","steam_id":76561199028541854,"connected_time":417000000000,"state":"active","ping":93},{"user_id":33,"name":"TSx* Ciastek","steam_id":76561198035745785,"connected_time":1816000000000,"state":"active","ping":50},{"user_id":51,"name":"Lordware","steam_id":76561198022011299,"connected_time":739000000000,"state":"active","ping":102},{"user_id":50,"name":"Azurh","steam_id":76561199330143102,"connected_time":861000000000,"state":"active","ping":55},{"user_id":37,"name":"Gilbert","steam_id":76561198127732887,"connected_time":1466000000000,"state":"active","ping":84},{"user_id":32,"name":"TSx* Osa__PL","steam_id":76561198027016799,"connected_time":1826000000000,"state":"active","ping":49},{"user_id":34,"name":"TSx* {Demon-Angel}","steam_id":76561198151486463,"connected_time":1796000000000,"state":"active","ping":60},{"user_id":44,"name":"someone","steam_id":76561198377208758,"connected_time":1295000000000,"state":"active","ping":90},{"user_id":56,"name":"Ixsus\u003c3","steam_id":76561198094756869,"connected_time":391000000000,"state":"active","ping":73},{"user_id":38,"name":"Walter Hartwell White","steam_id":76561198833826885,"connected_time":1422000000000,"state":"active","ping":102},{"user_id":52,"name":"Knoxxen","steam_id":76561198071114510,"connected_time":674000000000,"state":"active","ping":88},{"user_id":53,"name":"LOBZIK","steam_id":76561198114830120,"connected_time":601000000000,"state":"active","ping":48},{"user_id":54,"name":"Flint","steam_id":76561197995920776,"connected_time":589000000000,"state":"active","ping":60},{"user_id":57,"name":"monke","steam_id":76561199098819786,"connected_time":384000000000,"state":"active","ping":81},{"user_id":58,"name":"Crispy Water","steam_id":76561198351688009,"connected_time":359000000000,"state":"active","ping":187},{"user_id":59,"name":"ƒêesmond","steam_id":76561198097676225,"connected_time":310000000000,"state":"active","ping":90},{"user_id":60,"name":"Woman (Real)","steam_id":76561199151823932,"connected_time":198000000000,"state":"active","ping":62},{"user_id":62,"name":"CouT1nho","steam_id":76561198203926376,"connected_time":162000000000,"state":"active","ping":61},{"user_id":63,"name":"I fucking hate this game","steam_id":76561198347336086,"connected_time":119000000000,"state":"active","ping":74}]},{"server_id":51,"name":"Uncletopia | Warsaw | 3 | All Maps","name_short":"waw-3","host":"waw-1.pl.uncletopia.com","port":27035,"enabled":true,"region":"eu","cc":"pl","latitude":52.2297,"longitude":21.017532,"reserved":0,"last_update":"0001-01-01T00:00:00Z","name_a2s":"Uncletopia | Warsaw | 3 | All Maps","protocol":17,"map":"koth_viaduct","folder":"tf","game":"Team Fortress","app_id":440,"player_count":0,"max_players":24,"Bots":0,"server_type":"Dedicated","server_os":"Linux","password":true,"vac":true,"version":"7757534","steam_id":85568392925397852,"keywords":["cp","nocrits","nodmgspread","uncletopia"],"game_id":440,"stv_port":27036,"stv_name":"Uncletopia | Warsaw | 3 | All Maps | STV","players":null},{"server_id":52,"name":"Uncletopia | Warsaw | 4 | All Maps","name_short":"waw-4","host":"waw-1.pl.uncletopia.com","port":27045,"enabled":true,"region":"eu","cc":"pl","latitude":52.2297,"longitude":21.017532,"reserved":0,"last_update":"0001-01-01T00:00:00Z","name_a2s":"Uncletopia | Warsaw | 4 | All Maps","protocol":17,"map":"koth_highpass","folder":"tf","game":"Team Fortress","app_id":440,"player_count":0,"max_players":24,"Bots":0,"server_type":"Dedicated","server_os":"Linux","password":true,"vac":true,"version":"7757534","steam_id":85568392925397853,"keywords":["cp","nocrits","nodmgspread","uncletopia"],"game_id":440,"stv_port":27046,"stv_name":"Uncletopia | Warsaw | 4 | All Maps | STV","players":null},{"server_id":53,"name":"Uncletopia | Warsaw | 5 | Stopwatch Beta","name_short":"waw-5","host":"waw-1.pl.uncletopia.com","port":27055,"enabled":true,"region":"eu","cc":"pl","latitude":52.2297,"longitude":21.017532,"reserved":0,"last_update":"0001-01-01T00:00:00Z","name_a2s":"Uncletopia | Warsaw | 5 | Stopwatch Beta","protocol":17,"map":"pl_borneo","folder":"tf","game":"Team Fortress","app_id":440,"player_count":0,"max_players":24,"Bots":0,"server_type":"Dedicated","server_os":"Linux","password":true,"vac":true,"version":"7757534","steam_id":85568392925397854,"keywords":["nocrits","nodmgspread","payload","uncletopia"],"game_id":440,"stv_port":27056,"stv_name":"Uncletopia | Warsaw | 5 | Stopwatch Beta | STV","players":null},{"server_id":54,"name":"Uncletopia | Warsaw | 6 | Community","name_short":"waw-6","host":"waw-1.pl.uncletopia.com","port":27065,"enabled":true,"region":"eu","cc":"pl","latitude":52.2297,"longitude":21.017532,"reserved":0,"last_update":"0001-01-01T00:00:00Z","name_a2s":"Uncletopia | Warsaw | 6 | Community","protocol":17,"map":"koth_lakeside_final","folder":"tf","game":"Team Fortress","app_id":440,"player_count":0,"max_players":24,"Bots":0,"server_type":"Dedicated","server_os":"Linux","password":true,"vac":true,"version":"7757534","steam_id":85568392925397856,"keywords":["cp","nocrits","nodmgspread","uncletopia"],"game_id":440,"stv_port":27066,"stv_name":"Uncletopia | Warsaw | 6 | Community | STV","players":null}]}