{"status":true,"message":"","result":[{"server_id":9,"name":"Uncletopia | Atlanta | 1 | All Maps","name_short":"atl-1","host":"atl-1.us.uncletopia.com","port":27015,"enabled":true,"region":"us-east","cc":"us","latitude":33.753746,"longitude":-84.38633,"reserved":0,"last_update":"0001-01-01T00:00:00Z","name_a2s":"Uncletopia | Atlanta | 1 | All Maps","protocol":17,"map":"pl_badwater","folder":"tf","game":"Team Fortress","app_id":440,"player_count":24,"max_players":24,"Bots":0,"server_type":"Dedicated","server_os":"Linux","password":true,"vac":true,"version":"7723704","steam_id":85568392924469982,"keywords":["nocrits","nodmgspread","payload","uncletopia"],"game_id":440,"stv_port":27016,"stv_name":"Uncletopia | Atlanta | 1 | All Maps | STV","players":[{"user_id":276,"name":"\u003cNULL\u003e","steam_id":76561198079489150,"connected_time":468000000000,"state":"active","ping":134},{"user_id":289,"name":"lost in spaaaaace","steam_id":76561199085974120,"connected_time":263000000000,"state":"active","ping":60},{"user_id":44,"name":"BLOOD !","steam_id":76561198004400850,"connected_time":8741000000000,"state":"active","ping":78},{"user_id":297,"name":"Cthulwho?","steam_id":76561198165550810,"connected_time":145000000000,"state":"active","ping":77},{"user_id":263,"name":"Bean Chuffer","steam_id":76561198049561220,"connected_time":604000000000,"state":"active","ping":76},{"user_id":208,"name":"shadow","steam_id":76561198161824724,"connected_time":1620000000000,"state":"active","ping":88},{"user_id":203,"name":"name him golfball","steam_id":76561198068958789,"connected_time":1679000000000,"state":"active","ping":47},{"user_id":93,"name":"Turtle","steam_id":76561198262110064,"connected_time":5416000000000,"state":"active","ping":114},{"user_id":225,"name":"fiber1","steam_id":76561198095518320,"connected_time":1246000000000,"state":"active","ping":97},{"user_id":284,"name":"Jim Lamb, Angel of Death","steam_id":76561198053131184,"connected_time":345000000000,"state":"active","ping":60},{"user_id":294,"name":"Pixler544","steam_id":76561198240575132,"connected_time":217000000000,"state":"active","ping":71},{"user_id":139,"name":"Seru","steam_id":76561199219827214,"connected_time":3128000000000,"state":"active","ping":84},{"user_id":291,"name":"caberknight tf2","steam_id":76561199273882768,"connected_time":245000000000,"state":"active","ping":60},{"user_id":287,"name":"AMD Ryzen #SaveTF2","steam_id":76561198181028110,"connected_time":282000000000,"state":"active","ping":77},{"user_id":285,"name":"LightBulbGlue #SaveTF2","steam_id":76561198329573529,"connected_time":317000000000,"state":"active","ping":79},{"user_id":204,"name":"Scout.tf","steam_id":76561199241807676,"connected_time":1664000000000,"state":"active","ping":113},{"user_id":288,"name":"♦WestHarlow♦","steam_id":76561198251977820,"connected_time":265000000000,"state":"active","ping":104},{"user_id":36,"name":"Red Velveeta Cake","steam_id":76561198073764084,"connected_time":9265000000000,"state":"active","ping":90},{"user_id":140,"name":"Manu","steam_id":76561198145330934,"connected_time":2959000000000,"state":"active","ping":110},{"user_id":123,"name":"Slowth","steam_id":76561198093849916,"connected_time":4536000000000,"state":"active","ping":84},{"user_id":224,"name":"Ye (I Love Hitler) West","steam_id":76561198068830312,"connected_time":1285000000000,"state":"active","ping":60},{"user_id":131,"name":"Mithrandir","steam_id":76561197995003142,"connected_time":4202000000000,"state":"active","ping":87},{"user_id":270,"name":"Nyle","steam_id":76561198045652639,"connected_time":572000000000,"state":"active","ping":120},{"user_id":184,"name":"Chloemew | TFConnect 2022!","steam_id":76561198042071762,"connected_time":1882000000000,"state":"active","ping":150}]},{"server_id":400,"name":"Uncletopia | Atlanta | 3 | Stopwatch Beta","name_short":"atl-3","host":"atl-1.us.uncletopia.com","port":27035,"enabled":true,"region":"us-east","cc":"us","latitude":33.753746,"longitude":-84.38633,"reserved":0,"last_update":"0001-01-01T00:00:00Z","name_a2s":"Uncletopia | Atlanta | 3 | Stopwatch Beta","protocol":17,"map":"koth_cascade","folder":"tf","game":"Team Fortress","app_id":440,"player_count":0,"max_players":24,"Bots":0,"server_type":"Dedicated","server_os":"Linux","password":true,"vac":true,"version":"7723704","steam_id":85568392924515187,"keywords":["cp","nocrits","nodmgspread","uncletopia"],"game_id":440,"stv_port":27036,"stv_name":"Uncletopia | Atlanta | 3 | Stopwatch Beta | STV","players":null},{"server_id":401,"name":"Uncletopia | Atlanta | 4 | No Payload","name_short":"atl-4","host":"atl-1.us.uncletopia.com","port":27045,"enabled":true,"region":"us-east","cc":"us","latitude":33.753746,"longitude":-84.38633,"reserved":0,"last_update":"0001-01-01T00:00:00Z","name_a2s":"Uncletopia | Atlanta | 4 | No Payload","protocol":17,"map":"pl_pier","folder":"tf","game":"Team Fortress","app_id":440,"player_count":0,"max_players":24,"Bots":0,"server_type":"Dedicated","server_os":"Linux","password":true,"vac":true,"version":"7723704","steam_id":85568392924515188,"keywords":["nocrits","nodmgspread","payload","uncletopia"],"game_id":440,"stv_port":27046,"stv_name":"Uncletopia | Atlanta | 4 | No Payload | STV","players":null},{"server_id":2,"name":"Uncletopia | Chicago | 1 | All Maps","name_short":"chi-1","host":"chi-1.us.uncletopia.com","port":27015,"enabled":true,"region":"us-central","cc":"us","latitude":41.881832,"longitude":-87.62318,"reserved":0,"last_update":"0001-01-01T00:00:00Z","name_a2s":"Uncletopia | Chicago | 1 | All Maps","protocol":17,"map":"pl_pier","folder":"tf","game":"Team Fortress","app_id":440,"player_count":1,"max_players":24,"Bots":0,"server_type":"Dedicated","server_os":"Linux","password":true,"vac":true,"version":"7723704","steam_id":85568392924469984,"keywords":["nocrits","nodmgspread","payload","uncletopia"],"game_id":440,"stv_port":27016,"stv_name":"Uncletopia | Chicago | 1 | All Maps | STV","players":[{"user_id":4,"name":"raspy","steam_id":76561198027298961,"connected_time":23000000000,"state":"active","ping":45}]},{"server_id":106,"name":"Uncletopia | Chicago | 2 | All Maps","name_short":"chi-2","host":"chi-1.us.uncletopia.com","port":27025,"enabled":true,"region":"us-central","cc":"us","latitude":41.881832,"longitude":-87.62318,"reserved":0,"last_update":"0001-01-01T00:00:00Z","name_a2s":"Uncletopia | Chicago | 2 | All Maps","protocol":17,"map":"koth_highpass","folder":"tf","game":"Team Fortress","app_id":440,"player_count":0,"max_players":24,"Bots":0,"server_type":"Dedicated","server_os":"Linux","password":true,"vac":true,"version":"7723704","steam_id":85568392924469985,"keywords":["cp","nocrits","nodmgspread","uncletopia"],"game_id":440,"stv_port":27026,"stv_name":"Uncletopia | Chicago | 2 | All Maps | STV","players":null},{"server_id":402,"name":"Uncletopia | Chicago | 3 | All Maps","name_short":"chi-3","host":"chi-1.us.uncletopia.com","port":27035,"enabled":true,"region":"us-central","cc":"us","latitude":41.881832,"longitude":-87.62318,"reserved":0,"last_update":"0001-01-01T00:00:00Z","name_a2s":"Uncletopia | Chicago | 3 | All Maps","protocol":17,"map":"cp_mountainlab","folder":"tf","game":"Team Fortress","app_id":440,"player_count":0,"max_players":24,"Bots":0,"server_type":"Dedicated","server_os":"Linux","password":true,"vac":true,"version":"7723704","steam_id":85568392924515191,"keywords":["cp","nocrits","nodmgspread","uncletopia"],"game_id":440,"stv_port":27036,"stv_name":"Uncletopia | Chicago | 3 | All Maps | STV","players":null},{"server_id":403,"name":"Uncletopia | Chicago | 4 | All Maps","name_short":"chi-4","host":"chi-1.us.uncletopia.com","port":27045,"enabled":true,"region":"us-central","cc":"us","latitude":41.881832,"longitude":-87.62318,"reserved":0,"last_update":"0001-01-01T00:00:00Z","name_a2s":"Uncletopia | Chicago | 4 | All Maps","protocol":17,"map":"pl_pier","folder":"tf","game":"Team Fortress","app_id":440,"player_count":0,"max_players":24,"Bots":0,"server_type":"Dedicated","server_os":"Linux","password":true,"vac":true,"version":"7723704","steam_id":85568392924515193,"keywords":["nocrits","nodmgspread","payload","uncletopia"],"game_id":440,"stv_port":27046,"stv_name":"Uncletopia | Chicago | 4 | All Maps | STV","players":null},{"server_id":36,"name":"Uncletopia | Chicago | 5 | All Maps","name_short":"chi-5","host":"chi-2.us.uncletopia.com","port":27015,"enabled":true,"region":"us-central","cc":"us","latitude":41.881832,"longitude":-87.62318,"reserved":0,"last_update":"0001-01-01T00:00:00Z","name_a2s":"Uncletopia | Chicago | 5 | All Maps","protocol":17,"map":"cp_altitude","folder":"tf","game":"Team Fortress","app_id":440,"player_count":0,"max_players":24,"Bots":0,"server_type":"Dedicated","server_os":"Linux","password":true,"vac":true,"version":"7723704","steam_id":85568392924866362,"keywords":["cp","nocrits","nodmgspread","uncletopia"],"game_id":440,"stv_port":27016,"stv_name":"Uncletopia | Chicago | 5 | All Maps | STV","players":null},{"server_id":37,"name":"Uncletopia | Chicago | 6 | All Maps","name_short":"chi-6","host":"chi-2.us.uncletopia.com","port":27025,"enabled":true,"region":"us-central","cc":"us","latitude":41.881832,"longitude":-87.62318,"reserved":0,"last_update":"0001-01-01T00:00:00Z","name_a2s":"Uncletopia | Chicago | 6 | All Maps","protocol":17,"map":"pl_swiftwater_final1","folder":"tf","game":"Team Fortress","app_id":440,"player_count":0,"max_players":24,"Bots":0,"server_type":"Dedicated","server_os":"Linux","password":true,"vac":true,"version":"7723704","steam_id":85568392924866363,"keywords":["nocrits","nodmgspread","payload","uncletopia"],"game_id":440,"stv_port":27026,"stv_name":"Uncletopia | Chicago | 6 | All Maps | STV","players":null},{"server_id":38,"name":"Uncletopia | Chicago | 7 | Stopwatch Beta","name_short":"chi-7","host":"chi-2.us.uncletopia.com","port":27035,"enabled":true,"region":"us-central","cc":"us","latitude":41.881832,"longitude":-87.62318,"reserved":0,"last_update":"0001-01-01T00:00:00Z","name_a2s":"Uncletopia | Chicago | 7 | Stopwatch Beta","protocol":17,"map":"pl_upward","folder":"tf","game":"Team Fortress","app_id":440,"player_count":0,"max_players":24,"Bots":0,"server_type":"Dedicated","server_os":"Linux","password":true,"vac":true,"version":"7723704","steam_id":85568392924866364,"keywords":["nocrits","nodmgspread","payload","uncletopia"],"game_id":440,"stv_port":27036,"stv_name":"Uncletopia | Chicago | 7 | Stopwatch Beta | STV","players":null},{"server_id":39,"name":"Uncletopia | Chicago | 8 | Community","name_short":"chi-8","host":"chi-2.us.uncletopia.com","port":27045,"enabled":true,"region":"us-central","cc":"us","latitude":41.881832,"longitude":-87.62318,"reserved":0,"last_update":"0001-01-01T00:00:00Z","name_a2s":"Uncletopia | Chicago | 8 | Community","protocol":17,"map":"pl_frontier_final","folder":"tf","game":"Team Fortress","app_id":440,"player_count":0,"max_players":24,"Bots":0,"server_type":"Dedicated","server_os":"Linux","password":true,"vac":true,"version":"7723704","steam_id":85568392924866365,"keywords":["nocrits","nodmgspread","payload","uncletopia"],"game_id":440,"stv_port":27046,"stv_name":"Uncletopia | Chicago | 8 | Community | STV","players":null},{"server_id":8,"name":"Uncletopia | Dallas | 1 | All Maps","name_short":"dal-1","host":"dal-1.us.uncletopia.com","port":27015,"enabled":true,"region":"us-central","cc":"us","latitude":32.779167,"longitude":-96.80889,"reserved":0,"last_update":"0001-01-01T00:00:00Z","name_a2s":"Uncletopia | Dallas | 1 | All Maps","protocol":17,"map":"pl_barnblitz","folder":"tf","game":"Team Fortress","app_id":440,"player_count":0,"max_players":24,"Bots":0,"server_type":"Dedicated","server_os":"Linux","password":true,"vac":true,"version":"7723704","steam_id":85568392924469986,"keywords":["nocrits","nodmgspread","payload","uncletopia"],"game_id":440,"stv_port":27016,"stv_name":"Uncletopia | Dallas | 1 | All Maps | STV","players":null},{"server_id":108,"name":"Uncletopia | Dallas | 2 | All Maps","name_short":"dal-2","host":"dal-1.us.uncletopia.com","port":27025,"enabled":true,"region":"us-central","cc":"us","latitude":32.779167,"longitude":-96.80889,"reserved":0,"last_update":"0001-01-01T00:00:00Z","name_a2s":"Uncletopia | Dallas | 2 | All Maps","protocol":17,"map":"pl_borneo","folder":"tf","game":"Team Fortress","app_id":440,"player_count":0,"max_players":24,"Bots":0,"server_type":"Dedicated","server_os":"Linux","password":true,"vac":true,"version":"7723704","steam_id":85568392924469988,"keywords":["nocrits","nodmgspread","payload","uncletopia"],"game_id":440,"stv_port":27026,"stv_name":"Uncletopia | Dallas | 2 | All Maps | STV","players":null},{"server_id":5,"name":"Uncletopia | Frankfurt | 1 | All Maps","name_short":"frk-1","host":"frk-1.de.uncletopia.com","port":27015,"enabled":true,"region":"eu","cc":"de","latitude":50.110924,"longitude":8.682127,"reserved":0,"last_update":"0001-01-01T00:00:00Z","name_a2s":"Uncletopia | Frankfurt | 1 | All Maps","protocol":17,"map":"pl_badwater","folder":"tf","game":"Team Fortress","app_id":440,"player_count":24,"max_players":24,"Bots":0,"server_type":"Dedicated","server_os":"Linux","password":true,"vac":true,"version":"7723704","steam_id":85568392924469989,"keywords":["nocrits","nodmgspread","payload","uncletopia"],"game_id":440,"stv_port":27016,"stv_name":"Uncletopia | Frankfurt | 1 | All Maps | STV","players":[{"user_id":72,"name":"JugoTopia","steam_id":76561197996067209,"connected_time":1499000000000,"state":"active","ping":119},{"user_id":78,"name":"Donete333","steam_id":76561198409266344,"connected_time":874000000000,"state":"active","ping":76},{"user_id":73,"name":"seishiliar","steam_id":76561198355587569,"connected_time":1279000000000,"state":"active","ping":102},{"user_id":80,"name":"солевой вездеход","steam_id":76561198827892036,"connected_time":795000000000,"state":"active","ping":82},{"user_id":83,"name":"Well","steam_id":76561198411337640,"connected_time":514000000000,"state":"active","ping":93},{"user_id":58,"name":"Urfangonultasadana","steam_id":76561199389286151,"connected_time":3289000000000,"state":"active","ping":90},{"user_id":60,"name":"tristan","steam_id":76561198096097448,"connected_time":2835000000000,"state":"active","ping":52},{"user_id":14,"name":"Djarlem","steam_id":76561198080968386,"connected_time":5787000000000,"state":"active","ping":56},{"user_id":61,"name":"hello my name is devil may cry","steam_id":76561198115106008,"connected_time":2242000000000,"state":"active","ping":83},{"user_id":52,"name":"Guppy","steam_id":76561198055351185,"connected_time":3666000000000,"state":"active","ping":66},{"user_id":31,"name":"DeCypher","steam_id":76561198171992619,"connected_time":4825000000000,"state":"active","ping":62},{"user_id":81,"name":"Pachakamakk","steam_id":76561197989010401,"connected_time":606000000000,"state":"active","ping":57},{"user_id":79,"name":"The_FireNuke_PL","steam_id":76561198202641469,"connected_time":841000000000,"state":"active","ping":64},{"user_id":85,"name":"[Festive] deadinside letmedie z","steam_id":76561198103660553,"connected_time":14000000000,"state":"spawning","ping":100},{"user_id":69,"name":"Him","steam_id":76561198086400484,"connected_time":1652000000000,"state":"active","ping":80},{"user_id":77,"name":"43291842381","steam_id":76561198038160325,"connected_time":898000000000,"state":"active","ping":72},{"user_id":28,"name":"Frogs eater","steam_id":76561199082469459,"connected_time":5056000000000,"state":"active","ping":54},{"user_id":62,"name":"Umbro","steam_id":76561198087930438,"connected_time":1923000000000,"state":"active","ping":75},{"user_id":35,"name":"Itai","steam_id":76561198804555329,"connected_time":4634000000000,"state":"active","ping":106},{"user_id":75,"name":"Alich","steam_id":76561198054110232,"connected_time":914000000000,"state":"active","ping":89},{"user_id":39,"name":"Luke SpyWalker","steam_id":76561198008643276,"connected_time":4609000000000,"state":"active","ping":61},{"user_id":70,"name":"Dramagizio","steam_id":76561198047935918,"connected_time":1603000000000,"state":"active","ping":57},{"user_id":43,"name":"sjef kef","steam_id":76561198131951354,"connected_time":4411000000000,"state":"active","ping":70},{"user_id":84,"name":"Eyencia","steam_id":76561198834995822,"connected_time":411000000000,"state":"active","ping":84}]},{"server_id":110,"name":"Uncletopia | Frankfurt | 2 | All Maps","name_short":"frk-2","host":"frk-1.de.uncletopia.com","port":27025,"enabled":true,"region":"eu","cc":"de","latitude":50.110924,"longitude":8.682127,"reserved":0,"last_update":"0001-01-01T00:00:00Z","name_a2s":"Uncletopia | Frankfurt | 2 | All Maps","protocol":17,"map":"pl_badwater","folder":"tf","game":"Team Fortress","app_id":440,"player_count":24,"max_players":24,"Bots":0,"server_type":"Dedicated","server_os":"Linux","password":true,"vac":true,"version":"7723704","steam_id":85568392924469990,"keywords":["nocrits","nodmgspread","payload","uncletopia"],"game_id":440,"stv_port":27026,"stv_name":"Uncletopia | Frankfurt | 2 | All Maps | STV","players":[{"user_id":50,"name":"Fischer","steam_id":76561198301481739,"connected_time":902000000000,"state":"active","ping":45},{"user_id":43,"name":"3 Italians in a trenchcoat.","steam_id":76561198094993151,"connected_time":1084000000000,"state":"active","ping":59},{"user_id":51,"name":"Caskye","steam_id":76561198165430888,"connected_time":797000000000,"state":"active","ping":70},{"user_id":37,"name":"Bouba 1er","steam_id":76561198050971038,"connected_time":1336000000000,"state":"active","ping":65},{"user_id":16,"name":"Crab that ate amelia earhart","steam_id":76561198103175187,"connected_time":2013000000000,"state":"active","ping":67},{"user_id":58,"name":"biGGGie","steam_id":76561198148582638,"connected_time":13000000000,"state":"spawning","ping":77},{"user_id":57,"name":"some edgy nickname","steam_id":76561198040241299,"connected_time":188000000000,"state":"active","ping":57},{"user_id":32,"name":"Vertically Challenged","steam_id":76561198257158275,"connected_time":1516000000000,"state":"active","ping":142},{"user_id":24,"name":"ion","steam_id":76561198390406243,"connected_time":1873000000000,"state":"active","ping":71},{"user_id":21,"name":"Sedoy","steam_id":76561198390666516,"connected_time":1957000000000,"state":"active","ping":88},{"user_id":56,"name":"PhantomStriker","steam_id":76561199116689935,"connected_time":246000000000,"state":"active","ping":70},{"user_id":29,"name":"Jonas Destark","steam_id":76561198030327441,"connected_time":1648000000000,"state":"active","ping":59},{"user_id":33,"name":"Nix (they/them)","steam_id":76561198150006573,"connected_time":1515000000000,"state":"active","ping":62},{"user_id":31,"name":"snake9544","steam_id":76561198083076205,"connected_time":1591000000000,"state":"active","ping":68},{"user_id":34,"name":"Leibeigener","steam_id":76561199275478305,"connected_time":1512000000000,"state":"active","ping":43},{"user_id":35,"name":"Lapa Mato","steam_id":76561199052049475,"connected_time":1484000000000,"state":"active","ping":80},{"user_id":38,"name":"Edgey","steam_id":76561198271461309,"connected_time":1313000000000,"state":"active","ping":171},{"user_id":52,"name":"[dopijus]","steam_id":76561198943009513,"connected_time":669000000000,"state":"active","ping":89},{"user_id":41,"name":"Meat Prince","steam_id":76561198836130113,"connected_time":1175000000000,"state":"active","ping":160},{"user_id":44,"name":"ViktorYoshi","steam_id":76561199157555246,"connected_time":1062000000000,"state":"active","ping":67},{"user_id":45,"name":"GBG vekkiny","steam_id":76561198214848887,"connected_time":1053000000000,"state":"active","ping":60},{"user_id":55,"name":"Ampiong99","steam_id":76561199245197481,"connected_time":257000000000,"state":"active","ping":59},{"user_id":47,"name":"Suomenjuusto","steam_id":76561198991491758,"connected_time":1036000000000,"state":"active","ping":80},{"user_id":49,"name":"NALA","steam_id":76561198039806469,"connected_time":1011000000000,"state":"active","ping":71}]},{"server_id":308,"name":"Uncletopia | Frankfurt | 3 | All Maps","name_short":"frk-3","host":"frk-1.de.uncletopia.com","port":27035,"enabled":true,"region":"eu","cc":"de","latitude":50.110924,"longitude":8.682127,"reserved":0,"last_update":"0001-01-01T00:00:00Z","name_a2s":"Uncletopia | Frankfurt | 3 | All Maps","protocol":17,"map":"pl_frontier_final","folder":"tf","game":"Team Fortress","app_id":440,"player_count":24,"max_players":24,"Bots":0,"server_type":"Dedicated","server_os":"Linux","password":true,"vac":true,"version":"7723704","steam_id":85568392924504274,"keywords":["nocrits","nodmgspread","payload","uncletopia"],"game_id":440,"stv_port":27036,"stv_name":"Uncletopia | Frankfurt | 3 | All Maps | STV","players":[{"user_id":232,"name":"Typical","steam_id":76561199009805172,"connected_time":414000000000,"state":"active","ping":53},{"user_id":227,"name":"I lick moth feet","steam_id":76561198065314267,"connected_time":733000000000,"state":"active","ping":71},{"user_id":214,"name":"bubblojoe","steam_id":76561198044534119,"connected_time":1637000000000,"state":"active","ping":71},{"user_id":205,"name":".::[SerafeTTiN]::.","steam_id":76561198009471724,"connected_time":1839000000000,"state":"active","ping":81},{"user_id":163,"name":"Keelan","steam_id":76561198013665543,"connected_time":4125000000000,"state":"active","ping":79},{"user_id":207,"name":"Ultra_swimmer","steam_id":76561198049382217,"connected_time":1798000000000,"state":"active","ping":65},{"user_id":231,"name":"MehuMummo","steam_id":76561198054344941,"connected_time":518000000000,"state":"active","ping":95},{"user_id":230,"name":"where is my egg?","steam_id":76561198172542535,"connected_time":633000000000,"state":"active","ping":77},{"user_id":206,"name":"zinzyk","steam_id":76561198128011822,"connected_time":1810000000000,"state":"active","ping":53},{"user_id":233,"name":"Artock","steam_id":76561198808599713,"connected_time":54000000000,"state":"active","ping":74},{"user_id":226,"name":"dafydd","steam_id":76561198052200325,"connected_time":774000000000,"state":"active","ping":83},{"user_id":223,"name":"Avoonix","steam_id":76561198186954897,"connected_time":1003000000000,"state":"active","ping":61},{"user_id":222,"name":"DannyM","steam_id":76561198351165570,"connected_time":1093000000000,"state":"active","ping":162},{"user_id":192,"name":"jmp","steam_id":76561198168283286,"connected_time":2871000000000,"state":"active","ping":73},{"user_id":234,"name":"Darwin","steam_id":76561198935082230,"connected_time":31000000000,"state":"spawning","ping":89},{"user_id":228,"name":"Furry Enjoyer","steam_id":76561198046219588,"connected_time":711000000000,"state":"active","ping":68},{"user_id":191,"name":"PONCHO 90","steam_id":76561198412197820,"connected_time":2882000000000,"state":"active","ping":81},{"user_id":235,"name":"Magical","steam_id":76561198150913565,"connected_time":22000000000,"state":"active","ping":67},{"user_id":170,"name":"Hexagon","steam_id":76561198151205758,"connected_time":4108000000000,"state":"active","ping":58},{"user_id":224,"name":"[K.sTyLe] fabinhO;","steam_id":76561197982416891,"connected_time":961000000000,"state":"active","ping":53},{"user_id":181,"name":"Rops","steam_id":76561198031608011,"connected_time":3451000000000,"state":"active","ping":88},{"user_id":210,"name":"GOT Ya :)","steam_id":76561198877246517,"connected_time":1753000000000,"state":"active","ping":96},{"user_id":197,"name":"Nick","steam_id":76561198036109469,"connected_time":2601000000000,"state":"active","ping":92},{"user_id":212,"name":"MAKENTAKEN","steam_id":76561199127359587,"connected_time":1696000000000,"state":"active","ping":86}]},{"server_id":309,"name":"Uncletopia | Frankfurt | 4 | All Maps","name_short":"frk-4","host":"frk-1.de.uncletopia.com","port":27045,"enabled":true,"region":"eu","cc":"de","latitude":50.110924,"longitude":8.682127,"reserved":0,"last_update":"0001-01-01T00:00:00Z","name_a2s":"Uncletopia | Frankfurt | 4 | All Maps","protocol":17,"map":"pl_snowycoast","folder":"tf","game":"Team Fortress","app_id":440,"player_count":0,"max_players":24,"Bots":0,"server_type":"Dedicated","server_os":"Linux","password":true,"vac":true,"version":"7723704","steam_id":85568392924504275,"keywords":["nocrits","nodmgspread","payload","uncletopia"],"game_id":440,"stv_port":27046,"stv_name":"Uncletopia | Frankfurt | 4 | All Maps | STV","players":null},{"server_id":310,"name":"Uncletopia | Frankfurt | 5 | All Maps","name_short":"frk-5","host":"frk-1.de.uncletopia.com","port":27055,"enabled":true,"region":"eu","cc":"de","latitude":50.110924,"longitude":8.682127,"reserved":0,"last_update":"0001-01-01T00:00:00Z","name_a2s":"Uncletopia | Frankfurt | 5 | All Maps","protocol":17,"map":"pl_borneo","folder":"tf","game":"Team Fortress","app_id":440,"player_count":24,"max_players":24,"Bots":0,"server_type":"Dedicated","server_os":"Linux","password":true,"vac":true,"version":"7723704","steam_id":85568392924504277,"keywords":["nocrits","nodmgspread","payload","uncletopia"],"game_id":440,"stv_port":27056,"stv_name":"Uncletopia | Frankfurt | 5 | All Maps | STV","players":[{"user_id":90,"name":"Ben Dover","steam_id":76561198034264020,"connected_time":862000000000,"state":"active","ping":119},{"user_id":98,"name":"DONGUS","steam_id":76561198042774930,"connected_time":91000000000,"state":"active","ping":78},{"user_id":94,"name":"M3talBlue","steam_id":76561198966031884,"connected_time":396000000000,"state":"active","ping":49},{"user_id":93,"name":"delta man","steam_id":76561198204491245,"connected_time":427000000000,"state":"active","ping":143},{"user_id":51,"name":"jt7","steam_id":76561198073655162,"connected_time":5028000000000,"state":"active","ping":60},{"user_id":86,"name":"Michael","steam_id":76561198003146906,"connected_time":1235000000000,"state":"active","ping":60},{"user_id":95,"name":"Csanod","steam_id":76561198216576375,"connected_time":377000000000,"state":"active","ping":81},{"user_id":16,"name":"Independent","steam_id":76561198068999873,"connected_time":6458000000000,"state":"active","ping":78},{"user_id":92,"name":"simon.crossland1","steam_id":76561198035664908,"connected_time":452000000000,"state":"active","ping":72},{"user_id":82,"name":"NotFionn","steam_id":76561198890525176,"connected_time":1601000000000,"state":"active","ping":81},{"user_id":87,"name":"Frog Dude","steam_id":76561198859366097,"connected_time":1224000000000,"state":"active","ping":75},{"user_id":85,"name":"Dummy","steam_id":76561198349741126,"connected_time":1314000000000,"state":"active","ping":80},{"user_id":67,"name":"azzy","steam_id":76561198061293740,"connected_time":2796000000000,"state":"active","ping":78},{"user_id":96,"name":"Handy","steam_id":76561198125055365,"connected_time":369000000000,"state":"active","ping":75},{"user_id":64,"name":"Sgreff","steam_id":76561198036304365,"connected_time":3840000000000,"state":"active","ping":60},{"user_id":97,"name":"Proto-arc","steam_id":76561198012776747,"connected_time":351000000000,"state":"active","ping":60},{"user_id":43,"name":"lol","steam_id":76561198322087870,"connected_time":5487000000000,"state":"active","ping":115},{"user_id":31,"name":"Sverhrazym","steam_id":76561198868708664,"connected_time":5838000000000,"state":"active","ping":93},{"user_id":100,"name":"Gramma!","steam_id":76561198340989175,"connected_time":86000000000,"state":"active","ping":178},{"user_id":70,"name":"gamer man","steam_id":76561198436817109,"connected_time":2470000000000,"state":"active","ping":70},{"user_id":57,"name":"christmas eve","steam_id":76561197973182789,"connected_time":4222000000000,"state":"active","ping":62},{"user_id":39,"name":"Hot Beverage Enjoyer","steam_id":76561198060638325,"connected_time":5680000000000,"state":"active","ping":48},{"user_id":40,"name":"Smissmin","steam_id":76561198005342133,"connected_time":5678000000000,"state":"active","ping":61},{"user_id":77,"name":"vroom-vroom","steam_id":76561199190415509,"connected_time":1837000000000,"state":"active","ping":76}]},{"server_id":311,"name":"Uncletopia | Frankfurt | 6 | All Maps","name_short":"frk-6","host":"frk-1.de.uncletopia.com","port":27065,"enabled":true,"region":"eu","cc":"de","latitude":50.110924,"longitude":8.682127,"reserved":0,"last_update":"0001-01-01T00:00:00Z","name_a2s":"Uncletopia | Frankfurt | 6 | All Maps","protocol":17,"map":"pl_pier","folder":"tf","game":"Team Fortress","app_id":440,"player_count":24,"max_players":24,"Bots":0,"server_type":"Dedicated","server_os":"Linux","password":true,"vac":true,"version":"7723704","steam_id":85568392924504278,"keywords":["nocrits","nodmgspread","payload","uncletopia"],"game_id":440,"stv_port":27066,"stv_name":"Uncletopia | Frankfurt | 6 | All Maps | STV","players":[{"user_id":270,"name":"soap lore","steam_id":76561198058879767,"connected_time":1489000000000,"state":"active","ping":61},{"user_id":291,"name":"Ella","steam_id":76561198008694077,"connected_time":195000000000,"state":"active","ping":77},{"user_id":184,"name":"Here's Johnny!","steam_id":76561198065506317,"connected_time":7411000000000,"state":"active","ping":63},{"user_id":261,"name":"no_name.dll","steam_id":76561199011969062,"connected_time":1903000000000,"state":"active","ping":50},{"user_id":252,"name":"Yaire","steam_id":76561198017343510,"connected_time":2516000000000,"state":"active","ping":71},{"user_id":287,"name":"FaceShackle","steam_id":76561198038371397,"connected_time":888000000000,"state":"active","ping":43},{"user_id":292,"name":"blue_axolotl64","steam_id":76561199121285443,"connected_time":193000000000,"state":"active","ping":137},{"user_id":272,"name":"Okacha","steam_id":76561198341166854,"connected_time":1463000000000,"state":"active","ping":104},{"user_id":281,"name":"stankboxers #savetf2","steam_id":76561198058609582,"connected_time":982000000000,"state":"active","ping":144},{"user_id":182,"name":"Carpe diem.","steam_id":76561199065917088,"connected_time":7560000000000,"state":"active","ping":72},{"user_id":274,"name":"Lav","steam_id":76561198991138683,"connected_time":1333000000000,"state":"active","ping":67},{"user_id":293,"name":"Hoshungen","steam_id":76561198064498861,"connected_time":173000000000,"state":"active","ping":112},{"user_id":179,"name":"Jin","steam_id":76561198248878364,"connected_time":7837000000000,"state":"active","ping":44},{"user_id":229,"name":"Blyatwork","steam_id":76561198825379598,"connected_time":4250000000000,"state":"active","ping":44},{"user_id":296,"name":"Engineer gaming","steam_id":76561198846232110,"connected_time":109000000000,"state":"active","ping":172},{"user_id":215,"name":"Mean Green Peen","steam_id":76561198228455736,"connected_time":4961000000000,"state":"active","ping":67},{"user_id":251,"name":"Kurage","steam_id":76561198021221288,"connected_time":2733000000000,"state":"active","ping":66},{"user_id":283,"name":"lulu","steam_id":76561199147764133,"connected_time":963000000000,"state":"active","ping":84},{"user_id":295,"name":"Pro_kiler_09","steam_id":76561199382659780,"connected_time":168000000000,"state":"active","ping":133},{"user_id":284,"name":"HanhiGaming","steam_id":76561198877007477,"connected_time":954000000000,"state":"active","ping":90},{"user_id":290,"name":"a fruitful and unwind","steam_id":76561198978029443,"connected_time":326000000000,"state":"active","ping":96},{"user_id":288,"name":"ʙʀᴜᴄʜᴘɪʟøᴛ","steam_id":76561198152205547,"connected_time":693000000000,"state":"active","ping":68},{"user_id":285,"name":"Zenos","steam_id":76561198212366199,"connected_time":941000000000,"state":"active","ping":60},{"user_id":268,"name":"Shabab","steam_id":76561198095932210,"connected_time":1834000000000,"state":"active","ping":60}]},{"server_id":23,"name":"Uncletopia | Frankfurt | 7 | Stopwatch Beta","name_short":"frk-7","host":"frk-1.de.uncletopia.com","port":27075,"enabled":true,"region":"eu","cc":"de","latitude":50.110924,"longitude":8.682127,"reserved":0,"last_update":"0001-01-01T00:00:00Z","name_a2s":"Uncletopia | Frankfurt | 7 | Stopwatch Beta","protocol":17,"map":"workshop/pl_barnblitz_pro7.ugc582280235","folder":"tf","game":"Team Fortress","app_id":440,"player_count":0,"max_players":24,"Bots":0,"server_type":"Dedicated","server_os":"Linux","password":true,"vac":true,"version":"7723704","steam_id":85568392924742827,"keywords":["nocrits","nodmgspread","payload","uncletopia"],"game_id":440,"stv_port":27076,"stv_name":"Uncletopia | Frankfurt | 7 | Stopwatch Beta | STV","players":null},{"server_id":24,"name":"Uncletopia | Frankfurt | 8 | Community","name_short":"frk-8","host":"frk-1.de.uncletopia.com","port":27085,"enabled":true,"region":"eu","cc":"de","latitude":50.110924,"longitude":8.682127,"reserved":0,"last_update":"0001-01-01T00:00:00Z","name_a2s":"Uncletopia | Frankfurt | 8 | Community","protocol":17,"map":"pl_frontier_final","folder":"tf","game":"Team Fortress","app_id":440,"player_count":0,"max_players":24,"Bots":0,"server_type":"Dedicated","server_os":"Linux","password":true,"vac":true,"version":"7723704","steam_id":85568392924742828,"keywords":["nocrits","nodmgspread","payload","uncletopia"],"game_id":440,"stv_port":27086,"stv_name":"Uncletopia | Frankfurt | 8 | Community | STV","players":null},{"server_id":202,"name":"Uncletopia | Hong Kong | 1 | All Maps","name_short":"hgk-1","host":"hgk-1.hk.uncletopia.com","port":27015,"enabled":true,"region":"asia","cc":"hk","latitude":22.302711,"longitude":114.177216,"reserved":0,"last_update":"0001-01-01T00:00:00Z","name_a2s":"Uncletopia | Hong Kong | 1 | All Maps","protocol":17,"map":"pl_pier","folder":"tf","game":"Team Fortress","app_id":440,"player_count":24,"max_players":24,"Bots":0,"server_type":"Dedicated","server_os":"Linux","password":true,"vac":true,"version":"7723704","steam_id":85568392924494504,"keywords":["nocrits","nodmgspread","payload","uncletopia"],"game_id":440,"stv_port":27016,"stv_name":"Uncletopia | Hong Kong | 1 | All Maps | STV","players":[{"user_id":509,"name":"GlacialHex","steam_id":76561198854397761,"connected_time":2906000000000,"state":"active","ping":83},{"user_id":468,"name":"Banana Milk","steam_id":76561198005156257,"connected_time":7023000000000,"state":"active","ping":133},{"user_id":507,"name":"母の肉団子","steam_id":76561198069561896,"connected_time":2920000000000,"state":"active","ping":42},{"user_id":488,"name":"(no sound) oppai protons","steam_id":76561198008307645,"connected_time":5860000000000,"state":"active","ping":72},{"user_id":503,"name":"Rev3lation","steam_id":76561198935157203,"connected_time":3423000000000,"state":"active","ping":89},{"user_id":490,"name":"+W+","steam_id":76561197997220367,"connected_time":5843000000000,"state":"active","ping":46},{"user_id":512,"name":"Puddin","steam_id":76561198140052918,"connected_time":2145000000000,"state":"active","ping":88},{"user_id":506,"name":"click on back","steam_id":76561198059439540,"connected_time":3210000000000,"state":"active","ping":41},{"user_id":514,"name":"Tin-Tin \u003c3","steam_id":76561199247983065,"connected_time":1049000000000,"state":"active","ping":73},{"user_id":494,"name":"uptriste","steam_id":76561198158666692,"connected_time":4856000000000,"state":"active","ping":42},{"user_id":497,"name":"Lud","steam_id":76561198828840546,"connected_time":4454000000000,"state":"active","ping":88},{"user_id":516,"name":"j_rex","steam_id":76561198132473926,"connected_time":860000000000,"state":"active","ping":56},{"user_id":476,"name":"A Toilet","steam_id":76561198148278657,"connected_time":6770000000000,"state":"active","ping":102},{"user_id":481,"name":"Talkk More","steam_id":76561198305424433,"connected_time":6454000000000,"state":"active","ping":104},{"user_id":510,"name":"Nago(ne)riyuki","steam_id":76561198795895050,"connected_time":2727000000000,"state":"active","ping":79},{"user_id":511,"name":"Javariced","steam_id":76561198069402937,"connected_time":2157000000000,"state":"active","ping":66},{"user_id":515,"name":"trillionaire grindset sigma","steam_id":76561198160089663,"connected_time":1043000000000,"state":"active","ping":84},{"user_id":502,"name":"r/leroy","steam_id":76561199137927625,"connected_time":3689000000000,"state":"active","ping":116},{"user_id":496,"name":"Kurtie","steam_id":76561198144737876,"connected_time":4840000000000,"state":"active","ping":67},{"user_id":484,"name":"Buttman","steam_id":76561198044693388,"connected_time":6199000000000,"state":"active","ping":51},{"user_id":513,"name":"ZCary","steam_id":76561198173516050,"connected_time":2116000000000,"state":"active","ping":82},{"user_id":480,"name":"Krayken","steam_id":76561197997933283,"connected_time":6531000000000,"state":"active","ping":94},{"user_id":441,"name":"deadass sleepless","steam_id":76561198255521007,"connected_time":10408000000000,"state":"active","ping":47},{"user_id":493,"name":"ZUdolph, the Robo-reindeer","steam_id":76561198179320563,"connected_time":5449000000000,"state":"active","ping":90}]},{"server_id":1,"name":"Uncletopia | Los Angeles | 1 | All Maps","name_short":"lax-1","host":"lax-1.us.uncletopia.com","port":27015,"enabled":true,"region":"us-west","cc":"us","latitude":33.94279,"longitude":-118.41004,"reserved":0,"last_update":"0001-01-01T00:00:00Z","name_a2s":"Uncletopia | Los Angeles | 1 | All Maps","protocol":17,"map":"pl_pier","folder":"tf","game":"Team Fortress","app_id":440,"player_count":0,"max_players":24,"Bots":0,"server_type":"Dedicated","server_os":"Linux","password":true,"vac":true,"version":"7723704","steam_id":85568392924469991,"keywords":["nocrits","nodmgspread","payload","uncletopia"],"game_id":440,"stv_port":27016,"stv_name":"Uncletopia | Los Angeles | 1 | All Maps | STV","players":null},{"server_id":112,"name":"Uncletopia | Los Angeles | 2 | All Maps","name_short":"lax-2","host":"lax-1.us.uncletopia.com","port":27025,"enabled":true,"region":"us-west","cc":"us","latitude":33.94279,"longitude":-118.41004,"reserved":0,"last_update":"0001-01-01T00:00:00Z","name_a2s":"Uncletopia | Los Angeles | 2 | All Maps","protocol":17,"map":"koth_viaduct","folder":"tf","game":"Team Fortress","app_id":440,"player_count":0,"max_players":24,"Bots":0,"server_type":"Dedicated","server_os":"Linux","password":true,"vac":true,"version":"7723704","steam_id":85568392924469992,"keywords":["cp","nocrits","nodmgspread","uncletopia"],"game_id":440,"stv_port":27026,"stv_name":"Uncletopia | Los Angeles | 2 | All Maps | STV","players":null},{"server_id":324,"name":"Uncletopia | Los Angeles | 3 | All Maps","name_short":"lax-3","host":"lax-1.us.uncletopia.com","port":27035,"enabled":true,"region":"us-west","cc":"us","latitude":33.94279,"longitude":-118.41004,"reserved":0,"last_update":"0001-01-01T00:00:00Z","name_a2s":"Uncletopia | Los Angeles | 3 | All Maps","protocol":17,"map":"koth_viaduct","folder":"tf","game":"Team Fortress","app_id":440,"player_count":0,"max_players":24,"Bots":0,"server_type":"Dedicated","server_os":"Linux","password":true,"vac":true,"version":"7723704","steam_id":85568392924510198,"keywords":["cp","nocrits","nodmgspread","uncletopia"],"game_id":440,"stv_port":27036,"stv_name":"Uncletopia | Los Angeles | 3 | All Maps | STV","players":null},{"server_id":25,"name":"Uncletopia | Los Angeles | 4 | Stopwatch Beta","name_short":"lax-4","host":"lax-1.us.uncletopia.com","port":27045,"enabled":true,"region":"us-west","cc":"us","latitude":33.94279,"longitude":-118.41004,"reserved":0,"last_update":"0001-01-01T00:00:00Z","name_a2s":"Uncletopia | Los Angeles | 4 | Stopwatch Beta","protocol":17,"map":"cp_sunshine","folder":"tf","game":"Team Fortress","app_id":440,"player_count":0,"max_players":24,"Bots":0,"server_type":"Dedicated","server_os":"Linux","password":true,"vac":true,"version":"7723704","steam_id":85568392924510199,"keywords":["cp","nocrits","nodmgspread","uncletopia"],"game_id":440,"stv_port":27046,"stv_name":"Uncletopia | Los Angeles | 4 | Stopwatch Beta | STV","players":null},{"server_id":11,"name":"Uncletopia | London | 1 | All Maps","name_short":"lon-1","host":"lon-1.uk.uncletopia.com","port":27015,"enabled":true,"region":"eu","cc":"gb","latitude":51.509865,"longitude":-0.118092,"reserved":0,"last_update":"0001-01-01T00:00:00Z","name_a2s":"Uncletopia | London | 1 | All Maps","protocol":17,"map":"pl_borneo","folder":"tf","game":"Team Fortress","app_id":440,"player_count":21,"max_players":24,"Bots":0,"server_type":"Dedicated","server_os":"Linux","password":true,"vac":true,"version":"7723704","steam_id":85568392924367362,"keywords":["nocrits","nodmgspread","payload","uncletopia"],"game_id":440,"stv_port":27016,"stv_name":"Uncletopia | London | 1 | All Maps | STV","players":[{"user_id":289,"name":"BroHood(active only in weekends","steam_id":76561198044766151,"connected_time":9741000000000,"state":"active","ping":96},{"user_id":368,"name":"Carmine","steam_id":76561198426477450,"connected_time":757000000000,"state":"active","ping":35},{"user_id":325,"name":"Nexosert","steam_id":76561198941142018,"connected_time":6406000000000,"state":"active","ping":68},{"user_id":349,"name":"Sweetcheesus","steam_id":76561198022299033,"connected_time":2760000000000,"state":"active","ping":59},{"user_id":382,"name":"Dr. WAH","steam_id":76561198297778149,"connected_time":5000000000,"state":"spawning","ping":61},{"user_id":365,"name":"naaaa","steam_id":76561198136259553,"connected_time":788000000000,"state":"active","ping":97},{"user_id":304,"name":"TheGreenWolf","steam_id":76561198170607033,"connected_time":8551000000000,"state":"active","ping":68},{"user_id":380,"name":"Iru","steam_id":76561198077602040,"connected_time":307000000000,"state":"active","ping":59},{"user_id":358,"name":"Fluke","steam_id":76561199006077551,"connected_time":1579000000000,"state":"active","ping":57},{"user_id":345,"name":"Coac","steam_id":76561198085265740,"connected_time":3296000000000,"state":"active","ping":65},{"user_id":369,"name":"HUGO","steam_id":76561198317134996,"connected_time":724000000000,"state":"active","ping":82},{"user_id":291,"name":":)","steam_id":76561198103988618,"connected_time":9730000000000,"state":"active","ping":55},{"user_id":362,"name":"Dr Doe Gaming","steam_id":76561199104748293,"connected_time":1456000000000,"state":"active","ping":88},{"user_id":356,"name":"ciliorkun18","steam_id":76561198228942500,"connected_time":1975000000000,"state":"active","ping":90},{"user_id":354,"name":"tam","steam_id":76561198149140991,"connected_time":2363000000000,"state":"active","ping":103},{"user_id":292,"name":"sleuth","steam_id":76561198102752414,"connected_time":9718000000000,"state":"active","ping":59},{"user_id":353,"name":"Tryrn","steam_id":76561198075487436,"connected_time":2532000000000,"state":"active","ping":75},{"user_id":351,"name":"Baconcat","steam_id":76561198079354676,"connected_time":2746000000000,"state":"active","ping":114},{"user_id":374,"name":"After8","steam_id":76561198090750865,"connected_time":629000000000,"state":"active","ping":65},{"user_id":363,"name":"Sorky","steam_id":76561198007502339,"connected_time":1439000000000,"state":"active","ping":70},{"user_id":381,"name":"Milk","steam_id":76561198125876588,"connected_time":223000000000,"state":"active","ping":42}]},{"server_id":114,"name":"Uncletopia | London | 2 | All Maps","name_short":"lon-2","host":"lon-1.uk.uncletopia.com","port":27025,"enabled":true,"region":"eu","cc":"gb","latitude":51.509865,"longitude":-0.118092,"reserved":0,"last_update":"0001-01-01T00:00:00Z","name_a2s":"Uncletopia | London | 2 | All Maps","protocol":17,"map":"pl_swiftwater_final1","folder":"tf","game":"Team Fortress","app_id":440,"player_count":24,"max_players":24,"Bots":0,"server_type":"Dedicated","server_os":"Linux","password":true,"vac":true,"version":"7723704","steam_id":85568392924470941,"keywords":["nocrits","nodmgspread","payload","uncletopia"],"game_id":440,"stv_port":27026,"stv_name":"Uncletopia | London | 2 | All Maps | STV","players":[{"user_id":207,"name":"Nedge","steam_id":76561197963549701,"connected_time":4573000000000,"state":"active","ping":48},{"user_id":255,"name":"YourDoom","steam_id":76561198080790857,"connected_time":1469000000000,"state":"active","ping":44},{"user_id":269,"name":"T_G_G","steam_id":76561199114568070,"connected_time":459000000000,"state":"active","ping":68},{"user_id":276,"name":"Honey_Darlin","steam_id":76561199437522058,"connected_time":104000000000,"state":"active","ping":149},{"user_id":266,"name":"Caesium_R4","steam_id":76561198432410602,"connected_time":1157000000000,"state":"active","ping":50},{"user_id":277,"name":"Bongo Player","steam_id":76561198839688800,"connected_time":92000000000,"state":"spawning","ping":152},{"user_id":258,"name":"Engineer Gaming","steam_id":76561198866730509,"connected_time":1403000000000,"state":"active","ping":84},{"user_id":271,"name":"Zazou","steam_id":76561198028076362,"connected_time":407000000000,"state":"active","ping":54},{"user_id":260,"name":"Ivun","steam_id":76561198250199228,"connected_time":1352000000000,"state":"active","ping":136},{"user_id":247,"name":"big al","steam_id":76561198800662675,"connected_time":2380000000000,"state":"active","ping":56},{"user_id":275,"name":"Orso_Kurin","steam_id":76561198304718637,"connected_time":130000000000,"state":"active","ping":101},{"user_id":243,"name":":)","steam_id":76561198977420882,"connected_time":2728000000000,"state":"active","ping":45},{"user_id":280,"name":"SaltyCupcakes","steam_id":76561198256386417,"connected_time":39000000000,"state":"active","ping":44},{"user_id":274,"name":"ddq'⛧","steam_id":76561199339220938,"connected_time":285000000000,"state":"active","ping":60},{"user_id":250,"name":"One armed fiddle enthusiast","steam_id":76561198045847051,"connected_time":2143000000000,"state":"active","ping":61},{"user_id":270,"name":"Adam Sandler","steam_id":76561198310408309,"connected_time":436000000000,"state":"active","ping":51},{"user_id":95,"name":"wombat","steam_id":76561198076219289,"connected_time":12177000000000,"state":"active","ping":48},{"user_id":273,"name":"Даниил","steam_id":76561197990391253,"connected_time":312000000000,"state":"active","ping":76},{"user_id":272,"name":"Perämiehenä","steam_id":76561197968945306,"connected_time":367000000000,"state":"active","ping":72},{"user_id":279,"name":"yes","steam_id":76561198088924666,"connected_time":84000000000,"state":"active","ping":78},{"user_id":252,"name":"SimplePig","steam_id":76561198071862153,"connected_time":1799000000000,"state":"active","ping":102},{"user_id":268,"name":"eMcP!","steam_id":76561198382509396,"connected_time":563000000000,"state":"active","ping":53},{"user_id":115,"name":"wombatty","steam_id":76561198046873337,"connected_time":11200000000000,"state":"active","ping":56},{"user_id":265,"name":"Dolcelatte","steam_id":76561198038501770,"connected_time":1203000000000,"state":"active","ping":62}]},{"server_id":320,"name":"Uncletopia | London | 3 | All Maps","name_short":"lon-3","host":"lon-1.uk.uncletopia.com","port":27035,"enabled":true,"region":"eu","cc":"gb","latitude":51.509865,"longitude":-0.118092,"reserved":0,"last_update":"0001-01-01T00:00:00Z","name_a2s":"Uncletopia | London | 3 | All Maps","protocol":17,"map":"pl_borneo","folder":"tf","game":"Team Fortress","app_id":440,"player_count":24,"max_players":24,"Bots":0,"server_type":"Dedicated","server_os":"Linux","password":true,"vac":true,"version":"7723704","steam_id":85568392924510192,"keywords":["nocrits","nodmgspread","payload","uncletopia"],"game_id":440,"stv_port":27036,"stv_name":"Uncletopia | London | 3 | All Maps | STV","players":[{"user_id":172,"name":"WinRAR™","steam_id":76561198056522270,"connected_time":2338000000000,"state":"active","ping":65},{"user_id":167,"name":"Righty","steam_id":76561199224705434,"connected_time":2403000000000,"state":"active","ping":127},{"user_id":168,"name":"Fiddlah","steam_id":76561198077916925,"connected_time":2402000000000,"state":"active","ping":35},{"user_id":169,"name":"goofy goober","steam_id":76561198013237629,"connected_time":2395000000000,"state":"active","ping":85},{"user_id":183,"name":"Virgil","steam_id":76561198248786778,"connected_time":1556000000000,"state":"active","ping":114},{"user_id":182,"name":"Schapster","steam_id":76561198089111874,"connected_time":1582000000000,"state":"active","ping":101},{"user_id":165,"name":"Lukas","steam_id":76561198009118452,"connected_time":2805000000000,"state":"active","ping":61},{"user_id":108,"name":"grandpa engineer","steam_id":76561199218074926,"connected_time":6924000000000,"state":"active","ping":65},{"user_id":164,"name":"YILK","steam_id":76561198077913307,"connected_time":3165000000000,"state":"active","ping":47},{"user_id":90,"name":"UNO, The Ubisoft Original","steam_id":76561198846784757,"connected_time":8005000000000,"state":"active","ping":55},{"user_id":166,"name":"Ghilly","steam_id":76561198800993575,"connected_time":2421000000000,"state":"active","ping":45},{"user_id":188,"name":"axl","steam_id":76561198991661832,"connected_time":1062000000000,"state":"active","ping":73},{"user_id":189,"name":"Vi","steam_id":76561198036546142,"connected_time":1043000000000,"state":"active","ping":38},{"user_id":187,"name":"Vezage","steam_id":76561198064916164,"connected_time":1131000000000,"state":"active","ping":77},{"user_id":184,"name":"Red-Kite","steam_id":76561199141255034,"connected_time":1531000000000,"state":"active","ping":47},{"user_id":193,"name":"PrinceGrotle","steam_id":76561198206131603,"connected_time":468000000000,"state":"active","ping":128},{"user_id":192,"name":"Shortyyy","steam_id":76561198059005030,"connected_time":862000000000,"state":"active","ping":46},{"user_id":194,"name":"Hubba","steam_id":76561199447136263,"connected_time":144000000000,"state":"active","ping":76},{"user_id":186,"name":"C0d3s","steam_id":76561198093907544,"connected_time":1252000000000,"state":"active","ping":100},{"user_id":163,"name":"varjeniks viena gabala","steam_id":76561198117322354,"connected_time":3448000000000,"state":"active","ping":91},{"user_id":174,"name":"arcticcu the croc","steam_id":76561198002435882,"connected_time":2289000000000,"state":"active","ping":101},{"user_id":181,"name":"Meff","steam_id":76561197970610839,"connected_time":1613000000000,"state":"active","ping":46},{"user_id":191,"name":"Untermenshh","steam_id":76561198284636705,"connected_time":971000000000,"state":"active","ping":97},{"user_id":159,"name":"fierce_A2","steam_id":76561198301836443,"connected_time":3666000000000,"state":"active","ping":120}]},{"server_id":321,"name":"Uncletopia | London | 4 | All Maps","name_short":"lon-4","host":"lon-1.uk.uncletopia.com","port":27045,"enabled":true,"region":"eu","cc":"gb","latitude":51.509865,"longitude":-0.118092,"reserved":0,"last_update":"0001-01-01T00:00:00Z","name_a2s":"Uncletopia | London | 4 | All Maps","protocol":17,"map":"koth_lakeside_final","folder":"tf","game":"Team Fortress","app_id":440,"player_count":0,"max_players":24,"Bots":0,"server_type":"Dedicated","server_os":"Linux","password":true,"vac":true,"version":"7723704","steam_id":85568392924510193,"keywords":["cp","nocrits","nodmgspread","uncletopia"],"game_id":440,"stv_port":27046,"stv_name":"Uncletopia | London | 4 | All Maps | STV","players":null},{"server_id":21,"name":"Uncletopia | London | 5 | All Maps","name_short":"lon-5","host":"lon-1.uk.uncletopia.com","port":27055,"enabled":true,"region":"eu","cc":"gb","latitude":51.509865,"longitude":-0.118092,"reserved":0,"last_update":"0001-01-01T00:00:00Z","name_a2s":"Uncletopia | London | 5 | All Maps","protocol":17,"map":"cp_snakewater_final1","folder":"tf","game":"Team Fortress","app_id":440,"player_count":0,"max_players":24,"Bots":0,"server_type":"Dedicated","server_os":"Linux","password":true,"vac":true,"version":"7723704","steam_id":85568392924742829,"keywords":["cp","nocrits","nodmgspread","uncletopia"],"game_id":440,"stv_port":27056,"stv_name":"Uncletopia | London | 5 | All Maps | STV","players":null},{"server_id":22,"name":"Uncletopia | London | 6 | All Maps","name_short":"lon-6","host":"lon-1.uk.uncletopia.com","port":27065,"enabled":true,"region":"eu","cc":"gb","latitude":51.509865,"longitude":-0.118092,"reserved":0,"last_update":"0001-01-01T00:00:00Z","name_a2s":"Uncletopia | London | 6 | All Maps","protocol":17,"map":"koth_lakeside_final","folder":"tf","game":"Team Fortress","app_id":440,"player_count":0,"max_players":24,"Bots":0,"server_type":"Dedicated","server_os":"Linux","password":true,"vac":true,"version":"7723704","steam_id":85568392924742830,"keywords":["cp","nocrits","nodmgspread","uncletopia"],"game_id":440,"stv_port":27066,"stv_name":"Uncletopia | London | 6 | All Maps | STV","players":null},{"server_id":40,"name":"Uncletopia | London | 7 | No Payload","name_short":"lon-7","host":"lon-1.uk.uncletopia.com","port":27075,"enabled":true,"region":"eu","cc":"gb","latitude":51.509865,"longitude":-0.118092,"reserved":0,"last_update":"0001-01-01T00:00:00Z","name_a2s":"Uncletopia | London | 7 | No Payload","protocol":17,"map":"koth_viaduct","folder":"tf","game":"Team Fortress","app_id":440,"player_count":0,"max_players":24,"Bots":0,"server_type":"Dedicated","server_os":"Linux","password":true,"vac":true,"version":"7723704","steam_id":85568392924964314,"keywords":["cp","nocrits","nodmgspread","uncletopia"],"game_id":440,"stv_port":27076,"stv_name":"Uncletopia | London | 7 | No Payload | STV","players":null},{"server_id":41,"name":"Uncletopia | London | 8 | Community","name_short":"lon-8","host":"lon-1.uk.uncletopia.com","port":27085,"enabled":true,"region":"eu","cc":"gb","latitude":51.509865,"longitude":-0.118092,"reserved":0,"last_update":"0001-01-01T00:00:00Z","name_a2s":"Uncletopia | London | 8 | Community","protocol":17,"map":"koth_highpass","folder":"tf","game":"Team Fortress","app_id":440,"player_count":0,"max_players":24,"Bots":0,"server_type":"Dedicated","server_os":"Linux","password":true,"vac":true,"version":"7723704","steam_id":85568392924964315,"keywords":["cp","nocrits","nodmgspread","uncletopia"],"game_id":440,"stv_port":27086,"stv_name":"Uncletopia | London | 8 | Community | STV","players":null},{"server_id":300,"name":"Uncletopia | Montréal | 1 | All Maps","name_short":"mtl-1","host":"mtl-1.ca.uncletopia.com","port":27015,"enabled":true,"region":"us-east","cc":"ca","latitude":45.50889,"longitude":-73.56167,"reserved":0,"last_update":"0001-01-01T00:00:00Z","name_a2s":"Uncletopia | Montréal | 1 | All Maps","protocol":17,"map":"pl_snowycoast","folder":"tf","game":"Team Fortress","app_id":440,"player_count":0,"max_players":24,"Bots":0,"server_type":"Dedicated","server_os":"Linux","password":true,"vac":true,"version":"7723704","steam_id":85568392924500087,"keywords":["nocrits","nodmgspread","payload","uncletopia"],"game_id":440,"stv_port":27016,"stv_name":"Uncletopia | Montréal | 1 | All Maps | STV","players":null},{"server_id":301,"name":"Uncletopia | Montréal | 2 | All Maps","name_short":"mtl-2","host":"mtl-1.ca.uncletopia.com","port":27025,"enabled":true,"region":"us-east","cc":"ca","latitude":45.50889,"longitude":-73.56167,"reserved":0,"last_update":"0001-01-01T00:00:00Z","name_a2s":"Uncletopia | Montréal | 2 | All Maps","protocol":17,"map":"cp_process_final","folder":"tf","game":"Team Fortress","app_id":440,"player_count":0,"max_players":24,"Bots":0,"server_type":"Dedicated","server_os":"Linux","password":true,"vac":true,"version":"7723704","steam_id":85568392924500088,"keywords":["cp","nocrits","nodmgspread","uncletopia"],"game_id":440,"stv_port":27026,"stv_name":"Uncletopia | Montréal | 2 | All Maps | STV","players":null},{"server_id":302,"name":"Uncletopia | Montréal | 3 | All Maps","name_short":"mtl-3","host":"mtl-1.ca.uncletopia.com","port":27035,"enabled":true,"region":"us-east","cc":"ca","latitude":45.50889,"longitude":-73.56167,"reserved":0,"last_update":"0001-01-01T00:00:00Z","name_a2s":"Uncletopia | Montréal | 3 | All Maps","protocol":17,"map":"pl_barnblitz","folder":"tf","game":"Team Fortress","app_id":440,"player_count":0,"max_players":24,"Bots":0,"server_type":"Dedicated","server_os":"Linux","password":true,"vac":true,"version":"7723704","steam_id":85568392924500089,"keywords":["nocrits","nodmgspread","payload","uncletopia"],"game_id":440,"stv_port":27036,"stv_name":"Uncletopia | Montréal | 3 | All Maps | STV","players":null},{"server_id":303,"name":"Uncletopia | Montréal | 4 | No Payload","name_short":"mtl-4","host":"mtl-1.ca.uncletopia.com","port":27045,"enabled":true,"region":"us-east","cc":"ca","latitude":45.50889,"longitude":-73.56167,"reserved":0,"last_update":"0001-01-01T00:00:00Z","name_a2s":"Uncletopia | Montréal | 4 | No Payload","protocol":17,"map":"koth_cascade","folder":"tf","game":"Team Fortress","app_id":440,"player_count":0,"max_players":24,"Bots":0,"server_type":"Dedicated","server_os":"Linux","password":true,"vac":true,"version":"7723704","steam_id":85568392924500090,"keywords":["cp","nocrits","nodmgspread","uncletopia"],"game_id":440,"stv_port":27046,"stv_name":"Uncletopia | Montréal | 4 | No Payload | STV","players":null},{"server_id":13,"name":"Uncletopia | New York City | 1 | All Maps","name_short":"nyc-1","host":"nyc-1.us.uncletopia.com","port":27015,"enabled":true,"region":"us-east","cc":"us","latitude":40.73061,"longitude":-73.93524,"reserved":0,"last_update":"0001-01-01T00:00:00Z","name_a2s":"Uncletopia | New York City | 1 | All Maps","protocol":17,"map":"koth_highpass","folder":"tf","game":"Team Fortress","app_id":440,"player_count":0,"max_players":24,"Bots":0,"server_type":"Dedicated","server_os":"Linux","password":true,"vac":true,"version":"7723704","steam_id":85568392924469993,"keywords":["cp","nocrits","nodmgspread","uncletopia"],"game_id":440,"stv_port":27016,"stv_name":"Uncletopia | New York City | 1 | All Maps | STV","players":null},{"server_id":14,"name":"Uncletopia | New York City | 2 | All Maps","name_short":"nyc-2","host":"nyc-1.us.uncletopia.com","port":27025,"enabled":true,"region":"us-east","cc":"us","latitude":40.73061,"longitude":-73.93524,"reserved":0,"last_update":"0001-01-01T00:00:00Z","name_a2s":"Uncletopia | New York City | 2 | All Maps","protocol":17,"map":"pl_barnblitz","folder":"tf","game":"Team Fortress","app_id":440,"player_count":0,"max_players":24,"Bots":0,"server_type":"Dedicated","server_os":"Linux","password":true,"vac":true,"version":"7723704","steam_id":85568392924469994,"keywords":["nocrits","nodmgspread","payload","uncletopia"],"game_id":440,"stv_port":27026,"stv_name":"Uncletopia | New York City | 2 | All Maps | STV","players":null},{"server_id":15,"name":"Uncletopia | New York City | 3 | Stopwatch Beta","name_short":"nyc-3","host":"nyc-1.us.uncletopia.com","port":27035,"enabled":true,"region":"us-east","cc":"us","latitude":40.73061,"longitude":-73.93524,"reserved":0,"last_update":"0001-01-01T00:00:00Z","name_a2s":"Uncletopia | New York City | 3 | Stopwatch Beta","protocol":17,"map":"cp_sunshine","folder":"tf","game":"Team Fortress","app_id":440,"player_count":0,"max_players":24,"Bots":0,"server_type":"Dedicated","server_os":"Linux","password":true,"vac":true,"version":"7723704","steam_id":85568392924742820,"keywords":["cp","nocrits","nodmgspread","uncletopia"],"game_id":440,"stv_port":27036,"stv_name":"Uncletopia | New York City | 3 | Stopwatch Beta | STV","players":null},{"server_id":16,"name":"Uncletopia | New York City | 4 | Community","name_short":"nyc-4","host":"nyc-1.us.uncletopia.com","port":27045,"enabled":true,"region":"us-east","cc":"us","latitude":40.73061,"longitude":-73.93524,"reserved":0,"last_update":"0001-01-01T00:00:00Z","name_a2s":"Uncletopia | New York City | 4 | Community","protocol":17,"map":"pl_frontier_final","folder":"tf","game":"Team Fortress","app_id":440,"player_count":0,"max_players":24,"Bots":0,"server_type":"Dedicated","server_os":"Linux","password":true,"vac":true,"version":"7723704","steam_id":85568392924742821,"keywords":["nocrits","nodmgspread","payload","uncletopia"],"game_id":440,"stv_port":27046,"stv_name":"Uncletopia | New York City | 4 | Community | STV","players":null},{"server_id":142,"name":"Uncletopia | São Paulo | 1 | All Maps","name_short":"sao-1","host":"sao-1.br.uncletopia.com","port":27015,"enabled":true,"region":"sa","cc":"br","latitude":-23.533773,"longitude":-46.62529,"reserved":0,"last_update":"0001-01-01T00:00:00Z","name_a2s":"Uncletopia | São Paulo | 1 | All Maps","protocol":17,"map":"koth_cascade","folder":"tf","game":"Team Fortress","app_id":440,"player_count":0,"max_players":24,"Bots":0,"server_type":"Dedicated","server_os":"Linux","password":true,"vac":true,"version":"7723704","steam_id":85568392924469996,"keywords":["cp","nocrits","nodmgspread","uncletopia"],"game_id":440,"stv_port":27016,"stv_name":"Uncletopia | São Paulo | 1 | All Maps | STV","players":null},{"server_id":143,"name":"Uncletopia | São Paulo | 2 | All Maps","name_short":"sao-2","host":"sao-2.br.uncletopia.com","port":27015,"enabled":true,"region":"sa","cc":"br","latitude":-23.533773,"longitude":-46.62529,"reserved":0,"last_update":"0001-01-01T00:00:00Z","name_a2s":"Uncletopia | São Paulo | 2 | All Maps","protocol":17,"map":"koth_viaduct","folder":"tf","game":"Team Fortress","app_id":440,"player_count":0,"max_players":24,"Bots":0,"server_type":"Dedicated","server_os":"Linux","password":true,"vac":true,"version":"7723704","steam_id":85568392924485349,"keywords":["cp","nocrits","nodmgspread","uncletopia"],"game_id":440,"stv_port":27016,"stv_name":"Uncletopia | São Paulo | 2 | All Maps | STV","players":null},{"server_id":7,"name":"Uncletopia | Seattle | 1 | All Maps","name_short":"sea-1","host":"sea-1.us.uncletopia.com","port":27015,"enabled":true,"region":"us-west","cc":"us","latitude":47.608013,"longitude":-122.33517,"reserved":0,"last_update":"0001-01-01T00:00:00Z","name_a2s":"Uncletopia | Seattle | 1 | All Maps","protocol":17,"map":"pl_borneo","folder":"tf","game":"Team Fortress","app_id":440,"player_count":24,"max_players":24,"Bots":0,"server_type":"Dedicated","server_os":"Linux","password":true,"vac":true,"version":"7723704","steam_id":85568392924469997,"keywords":["nocrits","nodmgspread","payload","uncletopia"],"game_id":440,"stv_port":27016,"stv_name":"Uncletopia | Seattle | 1 | All Maps | STV","players":[{"user_id":3,"name":"PoobMann6","steam_id":76561198411029238,"connected_time":3108000000000,"state":"active","ping":78},{"user_id":65,"name":"duneblaster0","steam_id":76561198040364680,"connected_time":285000000000,"state":"active","ping":91},{"user_id":68,"name":"BIG HOG","steam_id":76561198079923652,"connected_time":49000000000,"state":"active","ping":104},{"user_id":38,"name":"Zero","steam_id":76561199383267408,"connected_time":1505000000000,"state":"active","ping":92},{"user_id":30,"name":"rkp!","steam_id":76561199053070819,"connected_time":1903000000000,"state":"active","ping":84},{"user_id":59,"name":"conscripted monk","steam_id":76561199029246232,"connected_time":597000000000,"state":"active","ping":94},{"user_id":24,"name":"Vem","steam_id":76561198117273112,"connected_time":2178000000000,"state":"active","ping":124},{"user_id":14,"name":"CassandraRC7 (She/her)","steam_id":76561198094123940,"connected_time":2917000000000,"state":"active","ping":116},{"user_id":42,"name":"Bubbamanme","steam_id":76561198119778504,"connected_time":1190000000000,"state":"active","ping":51},{"user_id":17,"name":"Onyx","steam_id":76561198328592996,"connected_time":2570000000000,"state":"active","ping":111},{"user_id":49,"name":"Sir Loincloth","steam_id":76561198033073991,"connected_time":847000000000,"state":"active","ping":64},{"user_id":64,"name":"dog water","steam_id":76561198210322871,"connected_time":362000000000,"state":"active","ping":67},{"user_id":48,"name":"Eleanor Skittle","steam_id":76561198116903554,"connected_time":884000000000,"state":"active","ping":52},{"user_id":21,"name":"Mouse Button 1","steam_id":76561198288696308,"connected_time":2478000000000,"state":"active","ping":79},{"user_id":44,"name":"HUGE ANIME TITTIES","steam_id":76561198208316165,"connected_time":1130000000000,"state":"active","ping":134},{"user_id":56,"name":"Literally a trans woman","steam_id":76561198054639925,"connected_time":723000000000,"state":"active","ping":103},{"user_id":45,"name":"sentry turret","steam_id":76561198327057433,"connected_time":993000000000,"state":"active","ping":125},{"user_id":46,"name":"LORD MC CHUBS","steam_id":76561199396661854,"connected_time":989000000000,"state":"active","ping":96},{"user_id":47,"name":"Taste the Pain","steam_id":76561198081617990,"connected_time":960000000000,"state":"active","ping":99},{"user_id":52,"name":"ermit the claus","steam_id":76561199230929836,"connected_time":788000000000,"state":"active","ping":110},{"user_id":67,"name":"xanxiety","steam_id":76561199115020683,"connected_time":111000000000,"state":"active","ping":190},{"user_id":54,"name":"yo quiero bacon","steam_id":76561198875054696,"connected_time":737000000000,"state":"active","ping":69},{"user_id":62,"name":"Iggy","steam_id":76561198237693240,"connected_time":535000000000,"state":"active","ping":124},{"user_id":66,"name":"Anxious Nerd Bird","steam_id":76561198112178602,"connected_time":285000000000,"state":"active","ping":89}]},{"server_id":119,"name":"Uncletopia | Seattle | 2 | All Maps","name_short":"sea-2","host":"sea-1.us.uncletopia.com","port":27025,"enabled":true,"region":"us-west","cc":"us","latitude":47.608013,"longitude":-122.33517,"reserved":0,"last_update":"0001-01-01T00:00:00Z","name_a2s":"Uncletopia | Seattle | 2 | All Maps","protocol":17,"map":"pl_barnblitz","folder":"tf","game":"Team Fortress","app_id":440,"player_count":0,"max_players":24,"Bots":0,"server_type":"Dedicated","server_os":"Linux","password":true,"vac":true,"version":"7723704","steam_id":85568392924469998,"keywords":["nocrits","nodmgspread","payload","uncletopia"],"game_id":440,"stv_port":27026,"stv_name":"Uncletopia | Seattle | 2 | All Maps | STV","players":null},{"server_id":406,"name":"Uncletopia | Seattle | 3 | Stopwatch Beta","name_short":"sea-3","host":"sea-1.us.uncletopia.com","port":27035,"enabled":true,"region":"us-west","cc":"us","latitude":47.608013,"longitude":-122.33517,"reserved":0,"last_update":"0001-01-01T00:00:00Z","name_a2s":"Uncletopia | Seattle | 3 | Stopwatch Beta","protocol":17,"map":"cp_altitude","folder":"tf","game":"Team Fortress","app_id":440,"player_count":0,"max_players":24,"Bots":0,"server_type":"Dedicated","server_os":"Linux","password":true,"vac":false,"version":"7723704","steam_id":0,"keywords":["cp","nocrits","nodmgspread","uncletopia"],"game_id":440,"stv_port":27036,"stv_name":"Uncletopia | Seattle | 3 | Stopwatch Beta | STV","players":null},{"server_id":17,"name":"Uncletopia | San Francisco | 1 | All Maps","name_short":"sfo-1","host":"sfo-1.us.uncletopia.com","port":27015,"enabled":true,"region":"us-west","cc":"us","latitude":37.77397,"longitude":-122.4313,"reserved":0,"last_update":"0001-01-01T00:00:00Z","name_a2s":"Uncletopia | San Francisco | 1 | All Maps","protocol":17,"map":"pl_swiftwater_final1","folder":"tf","game":"Team Fortress","app_id":440,"player_count":0,"max_players":24,"Bots":0,"server_type":"Dedicated","server_os":"Linux","password":true,"vac":true,"version":"7723704","steam_id":85568392924469999,"keywords":["nocrits","nodmgspread","payload","uncletopia"],"game_id":440,"stv_port":27016,"stv_name":"Uncletopia | San Francisco | 1 | All Maps | STV","players":null},{"server_id":18,"name":"Uncletopia | San Francisco | 2 | All Maps","name_short":"sfo-2","host":"sfo-1.us.uncletopia.com","port":27025,"enabled":true,"region":"us-west","cc":"us","latitude":37.77397,"longitude":-122.4313,"reserved":0,"last_update":"0001-01-01T00:00:00Z","name_a2s":"Uncletopia | San Francisco | 2 | All Maps","protocol":17,"map":"pl_upward","folder":"tf","game":"Team Fortress","app_id":440,"player_count":0,"max_players":24,"Bots":0,"server_type":"Dedicated","server_os":"Linux","password":true,"vac":true,"version":"7723704","steam_id":85568392924470000,"keywords":["nocrits","nodmgspread","payload","uncletopia"],"game_id":440,"stv_port":27026,"stv_name":"Uncletopia | San Francisco | 2 | All Maps | STV","players":null},{"server_id":19,"name":"Uncletopia | San Francisco | 3 | Stopwatch Beta","name_short":"sfo-3","host":"sfo-1.us.uncletopia.com","port":27035,"enabled":true,"region":"us-west","cc":"us","latitude":37.77397,"longitude":-122.4313,"reserved":0,"last_update":"0001-01-01T00:00:00Z","name_a2s":"Uncletopia | San Francisco | 3 | Stopwatch Beta","protocol":17,"map":"pl_pier","folder":"tf","game":"Team Fortress","app_id":440,"player_count":0,"max_players":24,"Bots":0,"server_type":"Dedicated","server_os":"Linux","password":true,"vac":true,"version":"7723704","steam_id":85568392924742824,"keywords":["nocrits","nodmgspread","payload","uncletopia"],"game_id":440,"stv_port":27036,"stv_name":"Uncletopia | San Francisco | 3 | Stopwatch Beta | STV","players":null},{"server_id":20,"name":"Uncletopia | San Francisco | 4 | Community","name_short":"sfo-4","host":"sfo-1.us.uncletopia.com","port":27045,"enabled":true,"region":"us-west","cc":"us","latitude":37.77397,"longitude":-122.4313,"reserved":0,"last_update":"0001-01-01T00:00:00Z","name_a2s":"Uncletopia | San Francisco | 4 | Community","protocol":17,"map":"koth_cascade","folder":"tf","game":"Team Fortress","app_id":440,"player_count":0,"max_players":24,"Bots":0,"server_type":"Dedicated","server_os":"Linux","password":true,"vac":true,"version":"7723704","steam_id":85568392924742826,"keywords":["cp","nocrits","nodmgspread","uncletopia"],"game_id":440,"stv_port":27046,"stv_name":"Uncletopia | San Francisco | 4 | Community | STV","players":null},{"server_id":141,"name":"Uncletopia | Sydney | 1 | All Maps","name_short":"syd-1","host":"syd-1.au.uncletopia.com","port":27015,"enabled":true,"region":"au","cc":"au","latitude":-33.865143,"longitude":151.2099,"reserved":0,"last_update":"0001-01-01T00:00:00Z","name_a2s":"Uncletopia | Sydney | 1 | All Maps","protocol":17,"map":"cp_altitude","folder":"tf","game":"Team Fortress","app_id":440,"player_count":0,"max_players":24,"Bots":0,"server_type":"Dedicated","server_os":"Linux","password":true,"vac":true,"version":"7723704","steam_id":85568392924470001,"keywords":["cp","nocrits","nodmgspread","uncletopia"],"game_id":440,"stv_port":27016,"stv_name":"Uncletopia | Sydney | 1 | All Maps | STV","players":null},{"server_id":123,"name":"Uncletopia | Sydney | 2 | All Maps","name_short":"syd-2","host":"syd-1.au.uncletopia.com","port":27025,"enabled":true,"region":"au","cc":"au","latitude":-33.865143,"longitude":151.2099,"reserved":0,"last_update":"0001-01-01T00:00:00Z","name_a2s":"Uncletopia | Sydney | 2 | All Maps","protocol":17,"map":"koth_king","folder":"tf","game":"Team Fortress","app_id":440,"player_count":0,"max_players":24,"Bots":0,"server_type":"Dedicated","server_os":"Linux","password":true,"vac":true,"version":"7723704","steam_id":85568392924470002,"keywords":["cp","nocrits","nodmgspread","uncletopia"],"game_id":440,"stv_port":27026,"stv_name":"Uncletopia | Sydney | 2 | All Maps | STV","players":null},{"server_id":395,"name":"Uncletopia | Sydney | 3 | All Maps","name_short":"syd-3","host":"syd-1.au.uncletopia.com","port":27035,"enabled":true,"region":"au","cc":"au","latitude":-33.865143,"longitude":151.2099,"reserved":0,"last_update":"0001-01-01T00:00:00Z","name_a2s":"Uncletopia | Sydney | 3 | All Maps","protocol":17,"map":"pl_borneo","folder":"tf","game":"Team Fortress","app_id":440,"player_count":0,"max_players":24,"Bots":0,"server_type":"Dedicated","server_os":"Linux","password":true,"vac":true,"version":"7723704","steam_id":85568392925194467,"keywords":["nocrits","nodmgspread","payload","uncletopia"],"game_id":440,"stv_port":27036,"stv_name":"Uncletopia | Sydney | 3 | All Maps | STV","players":null},{"server_id":396,"name":"Uncletopia | Sydney | 4 | All Maps","name_short":"syd-4","host":"syd-1.au.uncletopia.com","port":27045,"enabled":true,"region":"au","cc":"au","latitude":-33.865143,"longitude":151.2099,"reserved":0,"last_update":"0001-01-01T00:00:00Z","name_a2s":"Uncletopia | Sydney | 4 | All Maps","protocol":17,"map":"koth_viaduct","folder":"tf","game":"Team Fortress","app_id":440,"player_count":0,"max_players":24,"Bots":0,"server_type":"Dedicated","server_os":"Linux","password":true,"vac":true,"version":"7723704","steam_id":85568392925397958,"keywords":["cp","nocrits","nodmgspread","uncletopia"],"game_id":440,"stv_port":27046,"stv_name":"Uncletopia | Sydney | 4 | All Maps | STV","players":null},{"server_id":58,"name":"Uncletopia | Sydney | 5 | Stopwatch Beta","name_short":"syd-5","host":"syd-1.au.uncletopia.com","port":27055,"enabled":true,"region":"au","cc":"au","latitude":-33.865143,"longitude":151.2099,"reserved":0,"last_update":"0001-01-01T00:00:00Z","name_a2s":"Uncletopia | Sydney | 5 | Stopwatch Beta","protocol":17,"map":"cp_altitude","folder":"tf","game":"Team Fortress","app_id":440,"player_count":0,"max_players":24,"Bots":0,"server_type":"Dedicated","server_os":"Linux","password":true,"vac":true,"version":"7723704","steam_id":85568392925397959,"keywords":["cp","nocrits","nodmgspread","uncletopia"],"game_id":440,"stv_port":27056,"stv_name":"Uncletopia | Sydney | 5 | Stopwatch Beta | STV","players":null},{"server_id":59,"name":"Uncletopia | Sydney | 6 | Community","name_short":"syd-6","host":"syd-1.au.uncletopia.com","port":27065,"enabled":true,"region":"au","cc":"au","latitude":-33.865143,"longitude":151.2099,"reserved":0,"last_update":"0001-01-01T00:00:00Z","name_a2s":"Uncletopia | Sydney | 6 | Community","protocol":17,"map":"workshop/koth_ramjam_v2_b2.ugc2865676487","folder":"tf","game":"Team Fortress","app_id":440,"player_count":0,"max_players":24,"Bots":0,"server_type":"Dedicated","server_os":"Linux","password":true,"vac":true,"version":"7723704","steam_id":85568392925397960,"keywords":["cp","nocrits","nodmgspread","uncletopia"],"game_id":440,"stv_port":27066,"stv_name":"Uncletopia | Sydney | 6 | Community | STV","players":null},{"server_id":49,"name":"Uncletopia | Warsaw | 1 | All Maps","name_short":"waw-1","host":"waw-1.pl.uncletopia.com","port":27015,"enabled":true,"region":"eu","cc":"pl","latitude":52.2297,"longitude":21.017532,"reserved":0,"last_update":"0001-01-01T00:00:00Z","name_a2s":"Uncletopia | Warsaw | 1 | All Maps","protocol":17,"map":"koth_cascade","folder":"tf","game":"Team Fortress","app_id":440,"player_count":0,"max_players":24,"Bots":0,"server_type":"Dedicated","server_os":"Linux","password":true,"vac":true,"version":"7723704","steam_id":85568392925397850,"keywords":["cp","nocrits","nodmgspread","uncletopia"],"game_id":440,"stv_port":27016,"stv_name":"Uncletopia | Warsaw | 1 | All Maps | STV","players":null},{"server_id":50,"name":"Uncletopia | Warsaw | 2 | All Maps","name_short":"waw-2","host":"waw-1.pl.uncletopia.com","port":27025,"enabled":true,"region":"eu","cc":"pl","latitude":52.2297,"longitude":21.017532,"reserved":0,"last_update":"0001-01-01T00:00:00Z","name_a2s":"Uncletopia | Warsaw | 2 | All Maps","protocol":17,"map":"pl_barnblitz","folder":"tf","game":"Team Fortress","app_id":440,"player_count":0,"max_players":24,"Bots":0,"server_type":"Dedicated","server_os":"Linux","password":true,"vac":true,"version":"7723704","steam_id":85568392925397851,"keywords":["nocrits","nodmgspread","payload","uncletopia"],"game_id":440,"stv_port":27026,"stv_name":"Uncletopia | Warsaw | 2 | All Maps | STV","players":null},{"server_id":51,"name":"Uncletopia | Warsaw | 3 | All Maps","name_short":"waw-3","host":"waw-1.pl.uncletopia.com","port":27035,"enabled":true,"region":"eu","cc":"pl","latitude":52.2297,"longitude":21.017532,"reserved":0,"last_update":"0001-01-01T00:00:00Z","name_a2s":"Uncletopia | Warsaw | 3 | All Maps","protocol":17,"map":"pl_barnblitz","folder":"tf","game":"Team Fortress","app_id":440,"player_count":0,"max_players":24,"Bots":0,"server_type":"Dedicated","server_os":"Linux","password":true,"vac":true,"version":"7723704","steam_id":85568392925397852,"keywords":["nocrits","nodmgspread","payload","uncletopia"],"game_id":440,"stv_port":27036,"stv_name":"Uncletopia | Warsaw | 3 | All Maps | STV","players":null},{"server_id":52,"name":"Uncletopia | Warsaw | 4 | All Maps","name_short":"waw-4","host":"waw-1.pl.uncletopia.com","port":27045,"enabled":true,"region":"eu","cc":"pl","latitude":52.2297,"longitude":21.017532,"reserved":0,"last_update":"0001-01-01T00:00:00Z","name_a2s":"Uncletopia | Warsaw | 4 | All Maps","protocol":17,"map":"koth_lakeside_final","folder":"tf","game":"Team Fortress","app_id":440,"player_count":0,"max_players":24,"Bots":0,"server_type":"Dedicated","server_os":"Linux","password":true,"vac":true,"version":"7723704","steam_id":85568392925397853,"keywords":["cp","nocrits","nodmgspread","uncletopia"],"game_id":440,"stv_port":27046,"stv_name":"Uncletopia | Warsaw | 4 | All Maps | STV","players":null},{"server_id":53,"name":"Uncletopia | Warsaw | 5 | Stopwatch Beta","name_short":"waw-5","host":"waw-1.pl.uncletopia.com","port":27055,"enabled":true,"region":"eu","cc":"pl","latitude":52.2297,"longitude":21.017532,"reserved":0,"last_update":"0001-01-01T00:00:00Z","name_a2s":"Uncletopia | Warsaw | 5 | Stopwatch Beta","protocol":17,"map":"cp_sunshine","folder":"tf","game":"Team Fortress","app_id":440,"player_count":0,"max_players":24,"Bots":0,"server_type":"Dedicated","server_os":"Linux","password":true,"vac":true,"version":"7723704","steam_id":85568392925397854,"keywords":["cp","nocrits","nodmgspread","uncletopia"],"game_id":440,"stv_port":27056,"stv_name":"Uncletopia | Warsaw | 5 | Stopwatch Beta | STV","players":null},{"server_id":54,"name":"Uncletopia | Warsaw | 6 | Community","name_short":"waw-6","host":"waw-1.pl.uncletopia.com","port":27065,"enabled":true,"region":"eu","cc":"pl","latitude":52.2297,"longitude":21.017532,"reserved":0,"last_update":"0001-01-01T00:00:00Z","name_a2s":"Uncletopia | Warsaw | 6 | Community","protocol":17,"map":"workshop/koth_slaughter_rc1.ugc1712845210","folder":"tf","game":"Team Fortress","app_id":440,"player_count":3,"max_players":24,"Bots":0,"server_type":"Dedicated","server_os":"Linux","password":true,"vac":true,"version":"7723704","steam_id":85568392925397856,"keywords":["cp","nocrits","nodmgspread","uncletopia"],"game_id":440,"stv_port":27066,"stv_name":"Uncletopia | Warsaw | 6 | Community | STV","players":[{"user_id":20,"name":"Darky","steam_id":76561198004733239,"connected_time":646000000000,"state":"active","ping":67},{"user_id":5,"name":"Kocksaku Kawajiri","steam_id":76561198815127418,"connected_time":3588000000000,"state":"active","ping":91},{"user_id":21,"name":"Lukero","steam_id":76561198301594341,"connected_time":612000000000,"state":"active","ping":69}]}]}