{"status":true,"message":"","result":[{"server_id":9,"name":"Uncletopia | Atlanta | 1 | All Maps","name_short":"atl-1","host":"atl-1.us.uncletopia.com","port":27015,"enabled":true,"region":"us-east","cc":"us","latitude":33.753746,"longitude":-84.38633,"reserved":0,"last_update":"0001-01-01T00:00:00Z","name_a2s":"Uncletopia | Atlanta | 1 | All Maps","protocol":17,"map":"cp_process_final","folder":"tf","game":"Team Fortress","app_id":440,"player_count":24,"max_players":24,"Bots":0,"server_type":"Dedicated","server_os":"Linux","password":true,"vac":true,"version":"7701286","steam_id":85568392924469982,"keywords":["cp","nocrits","nodmgspread","uncletopia"],"game_id":440,"stv_port":27016,"stv_name":"Uncletopia | Atlanta | 1 | All Maps | STV","players":[{"user_id":531,"name":"ATL6 loot","steam_id":76561198069954956,"connected_time":1397000000000,"state":"active","ping":46},{"user_id":517,"name":"ATL1 | merryy","steam_id":76561198968001329,"connected_time":2326000000000,"state":"active","ping":45},{"user_id":317,"name":"SuperJagops","steam_id":76561198034689716,"connected_time":13393000000000,"state":"active","ping":75},{"user_id":454,"name":"FROYO donovin","steam_id":76561198045679387,"connected_time":7206000000000,"state":"active","ping":66},{"user_id":486,"name":"jacobobxbackup01","steam_id":76561199441787165,"connected_time":5657000000000,"state":"active","ping":77},{"user_id":521,"name":"bdkaine1","steam_id":76561198133545467,"connected_time":2294000000000,"state":"active","ping":52},{"user_id":512,"name":"The Squid Gamer™","steam_id":76561198340621517,"connected_time":3171000000000,"state":"active","ping":105},{"user_id":567,"name":"sim65","steam_id":76561197985428155,"connected_time":137000000000,"state":"active","ping":81},{"user_id":501,"name":"harry gooch","steam_id":76561198024817457,"connected_time":4755000000000,"state":"active","ping":59},{"user_id":532,"name":"Intro Bonito","steam_id":76561198119478838,"connected_time":1125000000000,"state":"active","ping":59},{"user_id":548,"name":"lyra","steam_id":76561198200002859,"connected_time":385000000000,"state":"active","ping":45},{"user_id":497,"name":"HALO 3","steam_id":76561198020825795,"connected_time":4969000000000,"state":"active","ping":60},{"user_id":522,"name":"tight end","steam_id":76561198073103529,"connected_time":2264000000000,"state":"active","ping":60},{"user_id":534,"name":"Salty_4k","steam_id":76561199003853524,"connected_time":1081000000000,"state":"active","ping":61},{"user_id":519,"name":"Intran","steam_id":76561198124907032,"connected_time":2319000000000,"state":"active","ping":54},{"user_id":443,"name":"Ziath","steam_id":76561198094009164,"connected_time":8332000000000,"state":"active","ping":76},{"user_id":536,"name":"Mage","steam_id":76561198285026879,"connected_time":886000000000,"state":"active","ping":87},{"user_id":505,"name":"Abbashea","steam_id":76561199182136969,"connected_time":3585000000000,"state":"active","ping":109},{"user_id":549,"name":"sansa musa","steam_id":76561198163723555,"connected_time":384000000000,"state":"active","ping":75},{"user_id":507,"name":"p4ka (in a pear tree)","steam_id":76561198315291317,"connected_time":3538000000000,"state":"active","ping":71},{"user_id":515,"name":"rose","steam_id":76561198048882285,"connected_time":2340000000000,"state":"active","ping":60},{"user_id":552,"name":"barry from jetpack joyride","steam_id":76561198881575174,"connected_time":275000000000,"state":"active","ping":256},{"user_id":525,"name":"Zillers","steam_id":76561198095248744,"connected_time":2047000000000,"state":"active","ping":68},{"user_id":492,"name":"✿ self-cannibalizing customer","steam_id":76561198294013916,"connected_time":5039000000000,"state":"active","ping":67}]},{"server_id":400,"name":"Uncletopia | Atlanta | 3 | All Maps","name_short":"atl-3","host":"atl-1.us.uncletopia.com","port":27035,"enabled":true,"region":"us-east","cc":"us","latitude":33.753746,"longitude":-84.38633,"reserved":0,"last_update":"0001-01-01T00:00:00Z","name_a2s":"Uncletopia | Atlanta | 3 | All Maps","protocol":17,"map":"koth_highpass","folder":"tf","game":"Team Fortress","app_id":440,"player_count":0,"max_players":24,"Bots":0,"server_type":"Dedicated","server_os":"Linux","password":true,"vac":true,"version":"7701286","steam_id":85568392924515187,"keywords":["cp","nocrits","nodmgspread","uncletopia"],"game_id":440,"stv_port":0,"stv_name":"","players":null},{"server_id":401,"name":"Uncletopia | Atlanta | 4 | No Payload","name_short":"atl-4","host":"atl-1.us.uncletopia.com","port":27045,"enabled":true,"region":"us-east","cc":"us","latitude":33.753746,"longitude":-84.38633,"reserved":0,"last_update":"0001-01-01T00:00:00Z","name_a2s":"Uncletopia | Atlanta | 4 | No Payload","protocol":17,"map":"koth_brazil","folder":"tf","game":"Team Fortress","app_id":440,"player_count":0,"max_players":24,"Bots":0,"server_type":"Dedicated","server_os":"Linux","password":true,"vac":true,"version":"7701286","steam_id":85568392924515188,"keywords":["cp","nocrits","nodmgspread","uncletopia"],"game_id":440,"stv_port":27046,"stv_name":"Uncletopia | Atlanta | 4 | No Payload | STV","players":null},{"server_id":2,"name":"Uncletopia | Chicago | 1 | All Maps","name_short":"chi-1","host":"chi-1.us.uncletopia.com","port":27015,"enabled":true,"region":"us-central","cc":"us","latitude":41.881832,"longitude":-87.62318,"reserved":0,"last_update":"0001-01-01T00:00:00Z","name_a2s":"Uncletopia | Chicago | 1 | All Maps","protocol":17,"map":"cp_5gorge","folder":"tf","game":"Team Fortress","app_id":440,"player_count":18,"max_players":24,"Bots":0,"server_type":"Dedicated","server_os":"Linux","password":true,"vac":true,"version":"7701286","steam_id":85568392924469984,"keywords":["cp","nocrits","nodmgspread","uncletopia"],"game_id":440,"stv_port":27016,"stv_name":"Uncletopia | Chicago | 1 | All Maps | STV","players":[{"user_id":331,"name":"frid","steam_id":76561198005806915,"connected_time":13000000000,"state":"spawning","ping":98},{"user_id":328,"name":"Kevin Y.","steam_id":76561198364331423,"connected_time":256000000000,"state":"spawning","ping":128},{"user_id":329,"name":"MikeLovesRabbit","steam_id":76561197997742625,"connected_time":183000000000,"state":"spawning","ping":120},{"user_id":272,"name":"TreesRUs","steam_id":76561198305740611,"connected_time":4385000000000,"state":"spawning","ping":176},{"user_id":332,"name":"DagyDin","steam_id":76561199212257554,"connected_time":7000000000,"state":"spawning","ping":253},{"user_id":295,"name":"dyragu","steam_id":76561198172046883,"connected_time":2688000000000,"state":"spawning","ping":119},{"user_id":316,"name":"miles","steam_id":76561198006838401,"connected_time":804000000000,"state":"spawning","ping":160},{"user_id":326,"name":"Guwahavel","steam_id":76561198246181902,"connected_time":404000000000,"state":"spawning","ping":133},{"user_id":287,"name":"IGotTheLettuce","steam_id":76561198062473897,"connected_time":3013000000000,"state":"spawning","ping":105},{"user_id":301,"name":"CAdaverOusPRophet","steam_id":76561198045304110,"connected_time":1928000000000,"state":"spawning","ping":117},{"user_id":271,"name":"GuyGoom","steam_id":76561198254522178,"connected_time":4396000000000,"state":"spawning","ping":96},{"user_id":323,"name":"goodheartchris","steam_id":76561198045836210,"connected_time":492000000000,"state":"spawning","ping":164},{"user_id":327,"name":"Spicy Within Reason","steam_id":76561198066700370,"connected_time":351000000000,"state":"spawning","ping":197},{"user_id":317,"name":"Astrozombeez","steam_id":76561198113754079,"connected_time":797000000000,"state":"spawning","ping":154},{"user_id":321,"name":"Turnups","steam_id":76561199078299198,"connected_time":656000000000,"state":"spawning","ping":173},{"user_id":276,"name":"Tay1Qr","steam_id":76561198082809935,"connected_time":4213000000000,"state":"spawning","ping":178},{"user_id":324,"name":"Alt","steam_id":76561197992591984,"connected_time":424000000000,"state":"spawning","ping":149},{"user_id":320,"name":"Ras","steam_id":76561198123546775,"connected_time":745000000000,"state":"spawning","ping":144}]},{"server_id":106,"name":"Uncletopia | Chicago | 2 | All Maps","name_short":"chi-2","host":"chi-1.us.uncletopia.com","port":27025,"enabled":true,"region":"us-central","cc":"us","latitude":41.881832,"longitude":-87.62318,"reserved":0,"last_update":"0001-01-01T00:00:00Z","name_a2s":"Uncletopia | Chicago | 2 | All Maps","protocol":17,"map":"koth_viaduct","folder":"tf","game":"Team Fortress","app_id":440,"player_count":0,"max_players":24,"Bots":0,"server_type":"Dedicated","server_os":"Linux","password":true,"vac":true,"version":"7701286","steam_id":85568392924469985,"keywords":["cp","nocrits","nodmgspread","uncletopia"],"game_id":440,"stv_port":27026,"stv_name":"Uncletopia | Chicago | 2 | All Maps | STV","players":null},{"server_id":402,"name":"Uncletopia | Chicago | 3 | All Maps","name_short":"chi-3","host":"chi-1.us.uncletopia.com","port":27035,"enabled":true,"region":"us-central","cc":"us","latitude":41.881832,"longitude":-87.62318,"reserved":0,"last_update":"0001-01-01T00:00:00Z","name_a2s":"Uncletopia | Chicago | 3 | All Maps","protocol":17,"map":"pl_barnblitz","folder":"tf","game":"Team Fortress","app_id":440,"player_count":13,"max_players":24,"Bots":0,"server_type":"Dedicated","server_os":"Linux","password":true,"vac":true,"version":"7701286","steam_id":85568392924515191,"keywords":["nocrits","nodmgspread","payload","uncletopia"],"game_id":440,"stv_port":27036,"stv_name":"Uncletopia | Chicago | 3 | All Maps | STV","players":[{"user_id":19,"name":"Vanya","steam_id":76561198042631561,"connected_time":295000000000,"state":"active","ping":68},{"user_id":20,"name":"billy bed bugs","steam_id":76561198334410076,"connected_time":275000000000,"state":"active","ping":56},{"user_id":9,"name":"SqueakyPiston","steam_id":76561198092321743,"connected_time":957000000000,"state":"active","ping":57},{"user_id":12,"name":"Impresio","steam_id":76561198129127347,"connected_time":907000000000,"state":"active","ping":56},{"user_id":11,"name":"majorbobfunction","steam_id":76561198042464632,"connected_time":947000000000,"state":"active","ping":56},{"user_id":13,"name":"Aittrium","steam_id":76561199435287672,"connected_time":834000000000,"state":"active","ping":60},{"user_id":14,"name":"Lethal","steam_id":76561198055545714,"connected_time":822000000000,"state":"active","ping":92},{"user_id":15,"name":"Animal Slices","steam_id":76561198137545511,"connected_time":741000000000,"state":"active","ping":54},{"user_id":16,"name":"exotic reindeers","steam_id":76561199046490785,"connected_time":663000000000,"state":"active","ping":65},{"user_id":17,"name":"piss killer killer","steam_id":76561198068701341,"connected_time":551000000000,"state":"active","ping":66},{"user_id":21,"name":"Salty Otter","steam_id":76561199076097396,"connected_time":217000000000,"state":"active","ping":75},{"user_id":23,"name":"[festive] coms","steam_id":76561198359456881,"connected_time":118000000000,"state":"active","ping":60},{"user_id":24,"name":"I'm Glenn Quagmire","steam_id":76561198196211121,"connected_time":86000000000,"state":"spawning","ping":76}]},{"server_id":403,"name":"Uncletopia | Chicago | 4 | All Maps","name_short":"chi-4","host":"chi-1.us.uncletopia.com","port":27045,"enabled":true,"region":"us-central","cc":"us","latitude":41.881832,"longitude":-87.62318,"reserved":0,"last_update":"0001-01-01T00:00:00Z","name_a2s":"Uncletopia | Chicago | 4 | All Maps","protocol":17,"map":"pl_barnblitz","folder":"tf","game":"Team Fortress","app_id":440,"player_count":24,"max_players":24,"Bots":0,"server_type":"Dedicated","server_os":"Linux","password":true,"vac":true,"version":"7701286","steam_id":85568392924515193,"keywords":["nocrits","nodmgspread","payload","uncletopia"],"game_id":440,"stv_port":27046,"stv_name":"Uncletopia | Chicago | 4 | All Maps | STV","players":[{"user_id":84,"name":"floppy muppet","steam_id":76561198003076261,"connected_time":399000000000,"state":"active","ping":89},{"user_id":58,"name":"porz","steam_id":76561198195711453,"connected_time":1961000000000,"state":"active","ping":70},{"user_id":85,"name":"megaboi796","steam_id":76561198122995438,"connected_time":391000000000,"state":"active","ping":70},{"user_id":83,"name":"Vladimir Chirgin","steam_id":76561198170035235,"connected_time":484000000000,"state":"active","ping":42},{"user_id":75,"name":"in trouble? call a crackhead","steam_id":76561198072657891,"connected_time":951000000000,"state":"active","ping":56},{"user_id":15,"name":"Fredfredfood","steam_id":76561198072824802,"connected_time":3437000000000,"state":"active","ping":51},{"user_id":77,"name":"stop","steam_id":76561198268686419,"connected_time":793000000000,"state":"active","ping":57},{"user_id":40,"name":"boats\u003c3","steam_id":76561198118810297,"connected_time":2596000000000,"state":"active","ping":99},{"user_id":65,"name":"Cardjitsu Blackbelt","steam_id":76561199099203623,"connected_time":1490000000000,"state":"active","ping":90},{"user_id":66,"name":"Grumbo","steam_id":76561199002106124,"connected_time":1484000000000,"state":"active","ping":106},{"user_id":20,"name":"Pimpin' Aint Easy","steam_id":76561198228972504,"connected_time":3371000000000,"state":"active","ping":64},{"user_id":80,"name":"MEGATON","steam_id":76561198334418685,"connected_time":663000000000,"state":"active","ping":52},{"user_id":86,"name":"ED","steam_id":76561198441715445,"connected_time":308000000000,"state":"active","ping":59},{"user_id":64,"name":"Randy Butternubs","steam_id":76561197983738629,"connected_time":1556000000000,"state":"active","ping":50},{"user_id":70,"name":"Scorpianswag","steam_id":76561198260651036,"connected_time":1300000000000,"state":"active","ping":91},{"user_id":71,"name":"Catboy Potemkin","steam_id":76561198078474420,"connected_time":1269000000000,"state":"active","ping":67},{"user_id":31,"name":"Brandino!","steam_id":76561198000446932,"connected_time":2839000000000,"state":"active","ping":71},{"user_id":79,"name":"Ahzain","steam_id":76561198035894333,"connected_time":737000000000,"state":"active","ping":128},{"user_id":33,"name":"parsee","steam_id":76561198095139889,"connected_time":2836000000000,"state":"active","ping":66},{"user_id":74,"name":"Klep","steam_id":76561198117832167,"connected_time":1069000000000,"state":"active","ping":98},{"user_id":61,"name":"defs98","steam_id":76561198134813102,"connected_time":1862000000000,"state":"active","ping":58},{"user_id":82,"name":"Medic","steam_id":76561198067869016,"connected_time":536000000000,"state":"active","ping":42},{"user_id":87,"name":"Chrome Knight","steam_id":76561198851348871,"connected_time":303000000000,"state":"active","ping":76},{"user_id":81,"name":"jumbert","steam_id":76561198355231658,"connected_time":613000000000,"state":"active","ping":84}]},{"server_id":36,"name":"Uncletopia | Chicago | 5 | All Maps","name_short":"chi-5","host":"chi-2.us.uncletopia.com","port":27015,"enabled":true,"region":"us-central","cc":"us","latitude":41.881832,"longitude":-87.62318,"reserved":0,"last_update":"0001-01-01T00:00:00Z","name_a2s":"Uncletopia | Chicago | 5 | All Maps","protocol":17,"map":"pl_badwater","folder":"tf","game":"Team Fortress","app_id":440,"player_count":0,"max_players":24,"Bots":0,"server_type":"Dedicated","server_os":"Linux","password":true,"vac":true,"version":"7701286","steam_id":85568392924866362,"keywords":["nocrits","nodmgspread","payload","uncletopia"],"game_id":440,"stv_port":27016,"stv_name":"Uncletopia | Chicago | 5 | All Maps | STV","players":null},{"server_id":37,"name":"Uncletopia | Chicago | 6 | All Maps","name_short":"chi-6","host":"chi-2.us.uncletopia.com","port":27025,"enabled":true,"region":"us-central","cc":"us","latitude":41.881832,"longitude":-87.62318,"reserved":0,"last_update":"0001-01-01T00:00:00Z","name_a2s":"Uncletopia | Chicago | 6 | All Maps","protocol":17,"map":"cp_mountainlab","folder":"tf","game":"Team Fortress","app_id":440,"player_count":0,"max_players":24,"Bots":0,"server_type":"Dedicated","server_os":"Linux","password":true,"vac":true,"version":"7701286","steam_id":85568392924866363,"keywords":["cp","nocrits","nodmgspread","uncletopia"],"game_id":440,"stv_port":0,"stv_name":"","players":null},{"server_id":38,"name":"Uncletopia | Chicago | 7 | No Payload","name_short":"chi-7","host":"chi-2.us.uncletopia.com","port":27035,"enabled":true,"region":"us-central","cc":"us","latitude":41.881832,"longitude":-87.62318,"reserved":0,"last_update":"0001-01-01T00:00:00Z","name_a2s":"Uncletopia | Chicago | 7 | No Payload","protocol":17,"map":"cp_snakewater_final1","folder":"tf","game":"Team Fortress","app_id":440,"player_count":0,"max_players":24,"Bots":0,"server_type":"Dedicated","server_os":"Linux","password":true,"vac":true,"version":"7701286","steam_id":85568392924866364,"keywords":["cp","nocrits","nodmgspread","uncletopia"],"game_id":440,"stv_port":0,"stv_name":"","players":null},{"server_id":39,"name":"Uncletopia | Chicago | 8 | Community","name_short":"chi-8","host":"chi-2.us.uncletopia.com","port":27045,"enabled":true,"region":"us-central","cc":"us","latitude":41.881832,"longitude":-87.62318,"reserved":0,"last_update":"0001-01-01T00:00:00Z","name_a2s":"Uncletopia | Chicago | 8 | Community","protocol":17,"map":"koth_cascade","folder":"tf","game":"Team Fortress","app_id":440,"player_count":0,"max_players":24,"Bots":0,"server_type":"Dedicated","server_os":"Linux","password":true,"vac":true,"version":"7701286","steam_id":85568392924866365,"keywords":["cp","nocrits","nodmgspread","uncletopia"],"game_id":440,"stv_port":0,"stv_name":"","players":null},{"server_id":8,"name":"Uncletopia | Dallas | 1 | All Maps","name_short":"dal-1","host":"dal-1.us.uncletopia.com","port":27015,"enabled":true,"region":"us-central","cc":"us","latitude":32.779167,"longitude":-96.80889,"reserved":0,"last_update":"0001-01-01T00:00:00Z","name_a2s":"Uncletopia | Dallas | 1 | All Maps","protocol":17,"map":"pl_pier","folder":"tf","game":"Team Fortress","app_id":440,"player_count":22,"max_players":24,"Bots":0,"server_type":"Dedicated","server_os":"Linux","password":true,"vac":true,"version":"7701286","steam_id":85568392924469986,"keywords":["nocrits","nodmgspread","payload","uncletopia"],"game_id":440,"stv_port":27016,"stv_name":"Uncletopia | Dallas | 1 | All Maps | STV","players":[{"user_id":154,"name":"[LINUX] F2P=S*(M/B)+H || Spy!","steam_id":76561198093538786,"connected_time":235000000000,"state":"active","ping":43},{"user_id":156,"name":"Lil B (Based God)","steam_id":76561198058485742,"connected_time":179000000000,"state":"active","ping":57},{"user_id":151,"name":"Gnat","steam_id":76561198109747863,"connected_time":288000000000,"state":"active","ping":55},{"user_id":19,"name":"Eightyy  Fourr","steam_id":76561197960374225,"connected_time":10441000000000,"state":"active","ping":46},{"user_id":135,"name":"BlueKanary","steam_id":76561198818539418,"connected_time":2074000000000,"state":"active","ping":87},{"user_id":101,"name":"Reyloko","steam_id":76561198172480913,"connected_time":5441000000000,"state":"active","ping":75},{"user_id":110,"name":"Ⓑ⓪⓪ⓣⓨⓒⓐⓚⓔⓢ","steam_id":76561198088776421,"connected_time":4600000000000,"state":"active","ping":89},{"user_id":155,"name":"covid kid","steam_id":76561198059056366,"connected_time":227000000000,"state":"active","ping":68},{"user_id":152,"name":"KhorneBread ︻デ 一","steam_id":76561198097069958,"connected_time":260000000000,"state":"active","ping":89},{"user_id":129,"name":"the Sho","steam_id":76561199383245112,"connected_time":2522000000000,"state":"active","ping":88},{"user_id":157,"name":"HellRaiser","steam_id":76561199051660033,"connected_time":155000000000,"state":"active","ping":74},{"user_id":158,"name":"Zelumie","steam_id":76561198147335801,"connected_time":142000000000,"state":"active","ping":94},{"user_id":55,"name":"PROFILE NAME","steam_id":76561199438851854,"connected_time":8833000000000,"state":"active","ping":120},{"user_id":133,"name":"Jen Shine","steam_id":76561198127039453,"connected_time":2185000000000,"state":"active","ping":81},{"user_id":144,"name":"HUNTER","steam_id":76561198085325660,"connected_time":1256000000000,"state":"active","ping":76},{"user_id":148,"name":"PizzaFratello","steam_id":76561199059951970,"connected_time":986000000000,"state":"active","ping":80},{"user_id":146,"name":"Sicko Mode (Chris Pratt Cover)","steam_id":76561198315786174,"connected_time":1140000000000,"state":"active","ping":113},{"user_id":147,"name":"Spunk Mikunkel","steam_id":76561198116765135,"connected_time":1106000000000,"state":"active","ping":99},{"user_id":47,"name":"Mr.Oxiclean","steam_id":76561198144729009,"connected_time":9135000000000,"state":"active","ping":81},{"user_id":114,"name":"xbox record that","steam_id":76561198150117455,"connected_time":4558000000000,"state":"active","ping":67},{"user_id":159,"name":"Godspeed","steam_id":76561198021570008,"connected_time":86000000000,"state":"active","ping":91},{"user_id":51,"name":"Anon","steam_id":76561198109740776,"connected_time":9066000000000,"state":"active","ping":87}]},{"server_id":108,"name":"Uncletopia | Dallas | 2 | All Maps","name_short":"dal-2","host":"dal-1.us.uncletopia.com","port":27025,"enabled":true,"region":"us-central","cc":"us","latitude":32.779167,"longitude":-96.80889,"reserved":0,"last_update":"0001-01-01T00:00:00Z","name_a2s":"Uncletopia | Dallas | 2 | All Maps","protocol":17,"map":"koth_lakeside_final","folder":"tf","game":"Team Fortress","app_id":440,"player_count":0,"max_players":24,"Bots":0,"server_type":"Dedicated","server_os":"Linux","password":true,"vac":true,"version":"7701286","steam_id":85568392924469988,"keywords":["cp","nocrits","nodmgspread","uncletopia"],"game_id":440,"stv_port":27026,"stv_name":"Uncletopia | Dallas | 2 | All Maps | STV","players":null},{"server_id":5,"name":"Uncletopia | Frankfurt | 1 | All Maps","name_short":"frk-1","host":"frk-1.de.uncletopia.com","port":27015,"enabled":true,"region":"eu","cc":"de","latitude":50.110924,"longitude":8.682127,"reserved":0,"last_update":"0001-01-01T00:00:00Z","name_a2s":"Uncletopia | Frankfurt | 1 | All Maps","protocol":17,"map":"pl_frontier_final","folder":"tf","game":"Team Fortress","app_id":440,"player_count":24,"max_players":24,"Bots":0,"server_type":"Dedicated","server_os":"Linux","password":true,"vac":true,"version":"7701286","steam_id":85568392924469989,"keywords":["nocrits","nodmgspread","payload","uncletopia"],"game_id":440,"stv_port":27016,"stv_name":"Uncletopia | Frankfurt | 1 | All Maps | STV","players":[{"user_id":450,"name":"pl_zławoda","steam_id":76561198040588109,"connected_time":3734000000000,"state":"active","ping":119},{"user_id":439,"name":"mafutbolero","steam_id":76561199233664005,"connected_time":4833000000000,"state":"active","ping":65},{"user_id":493,"name":"Qatuk","steam_id":76561198857696199,"connected_time":184000000000,"state":"active","ping":62},{"user_id":490,"name":"yusef","steam_id":76561198108481078,"connected_time":817000000000,"state":"active","ping":103},{"user_id":481,"name":"ruby (ribbit)","steam_id":76561198040870467,"connected_time":1701000000000,"state":"active","ping":61},{"user_id":462,"name":"Cippo95","steam_id":76561198255311582,"connected_time":3143000000000,"state":"active","ping":65},{"user_id":494,"name":"jo","steam_id":76561198109074418,"connected_time":88000000000,"state":"active","ping":66},{"user_id":445,"name":"ToyTolga","steam_id":76561199021867253,"connected_time":4047000000000,"state":"active","ping":109},{"user_id":477,"name":"Jag är ett anka","steam_id":76561198059978438,"connected_time":1945000000000,"state":"active","ping":50},{"user_id":487,"name":"VIN WEASEL","steam_id":76561198014387066,"connected_time":872000000000,"state":"active","ping":50},{"user_id":482,"name":"Marty™","steam_id":76561198060073673,"connected_time":1696000000000,"state":"active","ping":62},{"user_id":367,"name":"a mild inconvenience","steam_id":76561199087055541,"connected_time":8263000000000,"state":"active","ping":97},{"user_id":463,"name":"muza♥","steam_id":76561198220183377,"connected_time":2920000000000,"state":"active","ping":111},{"user_id":467,"name":"E_WM","steam_id":76561198283432737,"connected_time":2613000000000,"state":"active","ping":81},{"user_id":343,"name":"Serton♝","steam_id":76561198011061126,"connected_time":9522000000000,"state":"active","ping":94},{"user_id":492,"name":"Redmailbox","steam_id":76561198042930322,"connected_time":438000000000,"state":"active","ping":60},{"user_id":440,"name":"Tao","steam_id":76561198036750896,"connected_time":4757000000000,"state":"active","ping":49},{"user_id":461,"name":"Grønkjær","steam_id":76561198041075280,"connected_time":3348000000000,"state":"active","ping":90},{"user_id":480,"name":"Burgoo_King","steam_id":76561198133572225,"connected_time":1714000000000,"state":"active","ping":65},{"user_id":479,"name":"1","steam_id":76561199259135692,"connected_time":1731000000000,"state":"active","ping":106},{"user_id":421,"name":"Gardvord","steam_id":76561198120715753,"connected_time":5565000000000,"state":"active","ping":69},{"user_id":489,"name":"Johnny Boy","steam_id":76561197969525453,"connected_time":847000000000,"state":"active","ping":77},{"user_id":391,"name":"pl_badwater","steam_id":76561198152184280,"connected_time":7029000000000,"state":"active","ping":72},{"user_id":398,"name":"ghost","steam_id":76561198189940229,"connected_time":6549000000000,"state":"active","ping":65}]},{"server_id":110,"name":"Uncletopia | Frankfurt | 2 | All Maps","name_short":"frk-2","host":"frk-1.de.uncletopia.com","port":27025,"enabled":true,"region":"eu","cc":"de","latitude":50.110924,"longitude":8.682127,"reserved":0,"last_update":"0001-01-01T00:00:00Z","name_a2s":"Uncletopia | Frankfurt | 2 | All Maps","protocol":17,"map":"cp_steel","folder":"tf","game":"Team Fortress","app_id":440,"player_count":24,"max_players":24,"Bots":0,"server_type":"Dedicated","server_os":"Linux","password":true,"vac":true,"version":"7701286","steam_id":85568392924469990,"keywords":["cp","nocrits","nodmgspread","uncletopia"],"game_id":440,"stv_port":27026,"stv_name":"Uncletopia | Frankfurt | 2 | All Maps | STV","players":[{"user_id":212,"name":"Persephone \u003c3","steam_id":76561198045694137,"connected_time":2495000000000,"state":"active","ping":78},{"user_id":242,"name":"Tibor","steam_id":76561198268827760,"connected_time":817000000000,"state":"active","ping":71},{"user_id":217,"name":"drippin jimmy","steam_id":76561198219243969,"connected_time":2451000000000,"state":"active","ping":57},{"user_id":222,"name":"jovi_","steam_id":76561198449280552,"connected_time":2270000000000,"state":"active","ping":60},{"user_id":209,"name":"ardaduck","steam_id":76561198092609064,"connected_time":2917000000000,"state":"active","ping":51},{"user_id":216,"name":"FuckThisI'mOut","steam_id":76561198229777208,"connected_time":2464000000000,"state":"active","ping":58},{"user_id":241,"name":"Jempo","steam_id":76561198099270807,"connected_time":1103000000000,"state":"active","ping":115},{"user_id":218,"name":"xXdoge gaming 42069Xx","steam_id":76561198372971096,"connected_time":2447000000000,"state":"active","ping":76},{"user_id":219,"name":"greatest legal mind i ever knew","steam_id":76561199234889615,"connected_time":2447000000000,"state":"active","ping":75},{"user_id":232,"name":"Dark Lord","steam_id":76561198047359132,"connected_time":2060000000000,"state":"active","ping":72},{"user_id":171,"name":"Hexagon","steam_id":76561198151205758,"connected_time":4876000000000,"state":"active","ping":54},{"user_id":243,"name":"KORF","steam_id":76561197981904410,"connected_time":306000000000,"state":"active","ping":174},{"user_id":195,"name":"Nick","steam_id":76561198036109469,"connected_time":3887000000000,"state":"active","ping":87},{"user_id":244,"name":"Makeways","steam_id":76561198274466477,"connected_time":157000000000,"state":"active","ping":70},{"user_id":238,"name":"goblinninja110","steam_id":76561198269159354,"connected_time":1153000000000,"state":"active","ping":67},{"user_id":174,"name":"Mr. Mundy","steam_id":76561198132008918,"connected_time":4853000000000,"state":"active","ping":75},{"user_id":185,"name":"NALA","steam_id":76561198039806469,"connected_time":4332000000000,"state":"active","ping":70},{"user_id":239,"name":"where is my egg?","steam_id":76561198172542535,"connected_time":1144000000000,"state":"active","ping":95},{"user_id":211,"name":"Sim","steam_id":76561198086641180,"connected_time":2564000000000,"state":"active","ping":67},{"user_id":204,"name":"Arcad","steam_id":76561198059786891,"connected_time":3223000000000,"state":"active","ping":89},{"user_id":233,"name":"stun","steam_id":76561198276681691,"connected_time":1568000000000,"state":"active","ping":61},{"user_id":240,"name":"totto","steam_id":76561198313721515,"connected_time":1138000000000,"state":"active","ping":58},{"user_id":203,"name":"☩ Knightz ☩","steam_id":76561198040936414,"connected_time":3380000000000,"state":"active","ping":118},{"user_id":141,"name":"Sir Oldryn Shootsalot","steam_id":76561198060264635,"connected_time":5887000000000,"state":"active","ping":46}]},{"server_id":308,"name":"Uncletopia | Frankfurt | 3 | All Maps","name_short":"frk-3","host":"frk-1.de.uncletopia.com","port":27035,"enabled":true,"region":"eu","cc":"de","latitude":50.110924,"longitude":8.682127,"reserved":0,"last_update":"0001-01-01T00:00:00Z","name_a2s":"Uncletopia | Frankfurt | 3 | All Maps","protocol":17,"map":"cp_snakewater_final1","folder":"tf","game":"Team Fortress","app_id":440,"player_count":24,"max_players":24,"Bots":0,"server_type":"Dedicated","server_os":"Linux","password":true,"vac":true,"version":"7701286","steam_id":85568392924504274,"keywords":["cp","nocrits","nodmgspread","uncletopia"],"game_id":440,"stv_port":27036,"stv_name":"Uncletopia | Frankfurt | 3 | All Maps | STV","players":[{"user_id":491,"name":"slav heavy","steam_id":76561198324316160,"connected_time":2672000000000,"state":"active","ping":60},{"user_id":514,"name":"Kofoed","steam_id":76561198053101628,"connected_time":1286000000000,"state":"active","ping":60},{"user_id":519,"name":"Caskye","steam_id":76561198165430888,"connected_time":888000000000,"state":"active","ping":68},{"user_id":520,"name":"mat","steam_id":76561198824697295,"connected_time":883000000000,"state":"active","ping":73},{"user_id":506,"name":"donk","steam_id":76561198742407927,"connected_time":2051000000000,"state":"active","ping":66},{"user_id":417,"name":"bigwish | bmod.tf","steam_id":76561197997859723,"connected_time":6415000000000,"state":"active","ping":71},{"user_id":488,"name":"Swedde","steam_id":76561198297296440,"connected_time":2695000000000,"state":"active","ping":66},{"user_id":495,"name":"Phiphler","steam_id":76561197994055715,"connected_time":2547000000000,"state":"active","ping":75},{"user_id":449,"name":"moser23","steam_id":76561197960543171,"connected_time":4337000000000,"state":"active","ping":42},{"user_id":530,"name":"Löysä Masa","steam_id":76561198343396172,"connected_time":422000000000,"state":"active","ping":119},{"user_id":515,"name":"Rops","steam_id":76561198031608011,"connected_time":1244000000000,"state":"active","ping":81},{"user_id":528,"name":"sesw","steam_id":76561198057332404,"connected_time":452000000000,"state":"active","ping":55},{"user_id":521,"name":"Regan","steam_id":76561198100631086,"connected_time":835000000000,"state":"active","ping":61},{"user_id":531,"name":"puck","steam_id":76561198121260981,"connected_time":414000000000,"state":"active","ping":50},{"user_id":505,"name":"COFFEE","steam_id":76561198869355986,"connected_time":2117000000000,"state":"active","ping":65},{"user_id":526,"name":"The Right Hand Of Vegeta","steam_id":76561198048481082,"connected_time":719000000000,"state":"active","ping":71},{"user_id":504,"name":"Kagyol","steam_id":76561198312938996,"connected_time":2153000000000,"state":"active","ping":65},{"user_id":460,"name":"( ]KROAN[ )","steam_id":76561198022840710,"connected_time":3940000000000,"state":"active","ping":72},{"user_id":525,"name":"Bobo","steam_id":76561198052308399,"connected_time":778000000000,"state":"active","ping":53},{"user_id":527,"name":"PoisonedPC","steam_id":76561198280169179,"connected_time":480000000000,"state":"active","ping":82},{"user_id":535,"name":":(","steam_id":76561198044465070,"connected_time":296000000000,"state":"active","ping":89},{"user_id":508,"name":"oser","steam_id":76561198153989118,"connected_time":2026000000000,"state":"active","ping":64},{"user_id":542,"name":"PixelHyde","steam_id":76561198040878617,"connected_time":194000000000,"state":"active","ping":72},{"user_id":534,"name":"Zateske","steam_id":76561198047446276,"connected_time":342000000000,"state":"active","ping":60}]},{"server_id":309,"name":"Uncletopia | Frankfurt | 4 | All Maps","name_short":"frk-4","host":"frk-1.de.uncletopia.com","port":27045,"enabled":true,"region":"eu","cc":"de","latitude":50.110924,"longitude":8.682127,"reserved":0,"last_update":"0001-01-01T00:00:00Z","name_a2s":"Uncletopia | Frankfurt | 4 | All Maps","protocol":17,"map":"pl_upward","folder":"tf","game":"Team Fortress","app_id":440,"player_count":24,"max_players":24,"Bots":0,"server_type":"Dedicated","server_os":"Linux","password":true,"vac":true,"version":"7701286","steam_id":85568392924504275,"keywords":["nocrits","nodmgspread","payload","uncletopia"],"game_id":440,"stv_port":27046,"stv_name":"Uncletopia | Frankfurt | 4 | All Maps | STV","players":[{"user_id":193,"name":"Rory","steam_id":76561198354037580,"connected_time":3748000000000,"state":"active","ping":54},{"user_id":238,"name":"Proto-arc","steam_id":76561198012776747,"connected_time":432000000000,"state":"active","ping":59},{"user_id":70,"name":"gamer_","steam_id":76561198094125769,"connected_time":13211000000000,"state":"active","ping":75},{"user_id":137,"name":"DeepBlue","steam_id":76561198140075795,"connected_time":8619000000000,"state":"active","ping":55},{"user_id":210,"name":"Fat Pigeon","steam_id":76561198817940142,"connected_time":2810000000000,"state":"active","ping":48},{"user_id":239,"name":"witxes","steam_id":76561199442579490,"connected_time":355000000000,"state":"active","ping":57},{"user_id":214,"name":"greg","steam_id":76561198872353720,"connected_time":2616000000000,"state":"active","ping":72},{"user_id":202,"name":"Vratis","steam_id":76561198062957725,"connected_time":3230000000000,"state":"active","ping":63},{"user_id":230,"name":"Animatic","steam_id":76561198186421601,"connected_time":1328000000000,"state":"active","ping":175},{"user_id":233,"name":"Mar","steam_id":76561198127633424,"connected_time":772000000000,"state":"active","ping":81},{"user_id":220,"name":"dddd","steam_id":76561198120894372,"connected_time":1643000000000,"state":"active","ping":107},{"user_id":228,"name":"nabster","steam_id":76561198117906576,"connected_time":1428000000000,"state":"active","ping":64},{"user_id":146,"name":"Micheal","steam_id":76561198010791637,"connected_time":8382000000000,"state":"active","ping":52},{"user_id":232,"name":"Lersu OK GOOD YES lovemilky","steam_id":76561198050389376,"connected_time":806000000000,"state":"active","ping":89},{"user_id":225,"name":"KarlRanzeier","steam_id":76561198066281337,"connected_time":1541000000000,"state":"active","ping":49},{"user_id":180,"name":"Recurracy","steam_id":76561197993421597,"connected_time":4919000000000,"state":"active","ping":53},{"user_id":218,"name":"Carry Krypl","steam_id":76561198136938121,"connected_time":1697000000000,"state":"active","ping":54},{"user_id":172,"name":"Yony","steam_id":76561199070569941,"connected_time":6054000000000,"state":"active","ping":60},{"user_id":221,"name":"Pieck Finger","steam_id":76561198043743639,"connected_time":1624000000000,"state":"active","ping":58},{"user_id":181,"name":"M76030","steam_id":76561198046651252,"connected_time":4916000000000,"state":"active","ping":52},{"user_id":182,"name":"Appelflap64","steam_id":76561198012819017,"connected_time":4902000000000,"state":"active","ping":64},{"user_id":207,"name":"JackFighter","steam_id":76561198032798785,"connected_time":3109000000000,"state":"active","ping":75},{"user_id":236,"name":"zinzyk","steam_id":76561198128011822,"connected_time":464000000000,"state":"active","ping":60},{"user_id":229,"name":"Flex Finster","steam_id":76561198061632224,"connected_time":1427000000000,"state":"active","ping":46}]},{"server_id":310,"name":"Uncletopia | Frankfurt | 5 | All Maps","name_short":"frk-5","host":"frk-1.de.uncletopia.com","port":27055,"enabled":true,"region":"eu","cc":"de","latitude":50.110924,"longitude":8.682127,"reserved":0,"last_update":"0001-01-01T00:00:00Z","name_a2s":"Uncletopia | Frankfurt | 5 | All Maps","protocol":17,"map":"pl_borneo","folder":"tf","game":"Team Fortress","app_id":440,"player_count":5,"max_players":24,"Bots":0,"server_type":"Dedicated","server_os":"Linux","password":true,"vac":true,"version":"7701286","steam_id":85568392924504277,"keywords":["nocrits","nodmgspread","payload","uncletopia"],"game_id":440,"stv_port":27056,"stv_name":"Uncletopia | Frankfurt | 5 | All Maps | STV","players":[{"user_id":156,"name":"Montana","steam_id":76561198449437002,"connected_time":34000000000,"state":"active","ping":86},{"user_id":127,"name":"Frazzles","steam_id":76561199228009586,"connected_time":2710000000000,"state":"active","ping":63},{"user_id":143,"name":"ух Александр","steam_id":76561198995476261,"connected_time":1410000000000,"state":"active","ping":90},{"user_id":154,"name":"ViktorYoshi","steam_id":76561199157555246,"connected_time":463000000000,"state":"active","ping":67},{"user_id":144,"name":"ух Никитка","steam_id":76561199227727933,"connected_time":1407000000000,"state":"active","ping":104}]},{"server_id":311,"name":"Uncletopia | Frankfurt | 6 | All Maps","name_short":"frk-6","host":"frk-1.de.uncletopia.com","port":27065,"enabled":true,"region":"eu","cc":"de","latitude":50.110924,"longitude":8.682127,"reserved":0,"last_update":"0001-01-01T00:00:00Z","name_a2s":"Uncletopia | Frankfurt | 6 | All Maps","protocol":17,"map":"cp_snakewater_final1","folder":"tf","game":"Team Fortress","app_id":440,"player_count":0,"max_players":24,"Bots":0,"server_type":"Dedicated","server_os":"Linux","password":true,"vac":true,"version":"7701286","steam_id":85568392924504278,"keywords":["cp","nocrits","nodmgspread","uncletopia"],"game_id":440,"stv_port":27066,"stv_name":"Uncletopia | Frankfurt | 6 | All Maps | STV","players":null},{"server_id":23,"name":"Uncletopia | Frankfurt | 7 | No Payload","name_short":"frk-7","host":"frk-1.de.uncletopia.com","port":27075,"enabled":true,"region":"eu","cc":"de","latitude":50.110924,"longitude":8.682127,"reserved":0,"last_update":"0001-01-01T00:00:00Z","name_a2s":"Uncletopia | Frankfurt | 7 | No Payload","protocol":17,"map":"koth_harvest_final","folder":"tf","game":"Team Fortress","app_id":440,"player_count":0,"max_players":24,"Bots":0,"server_type":"Dedicated","server_os":"Linux","password":true,"vac":true,"version":"7701286","steam_id":85568392924742827,"keywords":["cp","nocrits","nodmgspread","uncletopia"],"game_id":440,"stv_port":27076,"stv_name":"Uncletopia | Frankfurt | 7 | No Payload | STV","players":null},{"server_id":24,"name":"Uncletopia | Frankfurt | 8 | Community","name_short":"frk-8","host":"frk-1.de.uncletopia.com","port":27085,"enabled":true,"region":"eu","cc":"de","latitude":50.110924,"longitude":8.682127,"reserved":0,"last_update":"0001-01-01T00:00:00Z","name_a2s":"Uncletopia | Frankfurt | 8 | Community","protocol":17,"map":"workshop/koth_ashville_final.ugc2130459942","folder":"tf","game":"Team Fortress","app_id":440,"player_count":0,"max_players":24,"Bots":0,"server_type":"Dedicated","server_os":"Linux","password":true,"vac":true,"version":"7701286","steam_id":85568392924742828,"keywords":["cp","nocrits","nodmgspread","uncletopia"],"game_id":440,"stv_port":27086,"stv_name":"Uncletopia | Frankfurt | 8 | Community | STV","players":null},{"server_id":202,"name":"Uncletopia | Hong Kong | 1 | All Maps","name_short":"hgk-1","host":"hgk-1.hk.uncletopia.com","port":27015,"enabled":true,"region":"asia","cc":"hk","latitude":22.302711,"longitude":114.177216,"reserved":0,"last_update":"0001-01-01T00:00:00Z","name_a2s":"Uncletopia | Hong Kong | 1 | All Maps","protocol":17,"map":"koth_cascade","folder":"tf","game":"Team Fortress","app_id":440,"player_count":0,"max_players":24,"Bots":0,"server_type":"Dedicated","server_os":"Linux","password":true,"vac":true,"version":"7701286","steam_id":85568392924494504,"keywords":["cp","nocrits","nodmgspread","uncletopia"],"game_id":440,"stv_port":27016,"stv_name":"Uncletopia | Hong Kong | 1 | All Maps | STV","players":null},{"server_id":1,"name":"Uncletopia | Los Angeles | 1 | All Maps","name_short":"lax-1","host":"lax-1.us.uncletopia.com","port":27015,"enabled":true,"region":"us-west","cc":"us","latitude":33.94279,"longitude":-118.41004,"reserved":0,"last_update":"0001-01-01T00:00:00Z","name_a2s":"Uncletopia | Los Angeles | 1 | All Maps","protocol":17,"map":"koth_lakeside_final","folder":"tf","game":"Team Fortress","app_id":440,"player_count":0,"max_players":24,"Bots":0,"server_type":"Dedicated","server_os":"Linux","password":true,"vac":true,"version":"7701286","steam_id":85568392924469991,"keywords":["cp","nocrits","nodmgspread","uncletopia"],"game_id":440,"stv_port":0,"stv_name":"","players":null},{"server_id":112,"name":"Uncletopia | Los Angeles | 2 | All Maps","name_short":"lax-2","host":"lax-1.us.uncletopia.com","port":27025,"enabled":true,"region":"us-west","cc":"us","latitude":33.94279,"longitude":-118.41004,"reserved":0,"last_update":"0001-01-01T00:00:00Z","name_a2s":"Uncletopia | Los Angeles | 2 | All Maps","protocol":17,"map":"cp_snakewater_final1","folder":"tf","game":"Team Fortress","app_id":440,"player_count":0,"max_players":24,"Bots":0,"server_type":"Dedicated","server_os":"Linux","password":true,"vac":true,"version":"7701286","steam_id":85568392924469992,"keywords":["cp","nocrits","nodmgspread","uncletopia"],"game_id":440,"stv_port":0,"stv_name":"","players":null},{"server_id":324,"name":"Uncletopia | Los Angeles | 3 | All Maps","name_short":"lax-3","host":"lax-1.us.uncletopia.com","port":27035,"enabled":true,"region":"us-west","cc":"us","latitude":33.94279,"longitude":-118.41004,"reserved":0,"last_update":"0001-01-01T00:00:00Z","name_a2s":"Uncletopia | Los Angeles | 3 | All Maps","protocol":17,"map":"koth_lakeside_final","folder":"tf","game":"Team Fortress","app_id":440,"player_count":0,"max_players":24,"Bots":0,"server_type":"Dedicated","server_os":"Linux","password":true,"vac":true,"version":"7701286","steam_id":85568392924510198,"keywords":["cp","nocrits","nodmgspread","uncletopia"],"game_id":440,"stv_port":27036,"stv_name":"Uncletopia | Los Angeles | 3 | All Maps | STV","players":null},{"server_id":25,"name":"Uncletopia | Los Angeles | 4 | No Payload","name_short":"lax-4","host":"lax-1.us.uncletopia.com","port":27045,"enabled":true,"region":"us-west","cc":"us","latitude":33.94279,"longitude":-118.41004,"reserved":0,"last_update":"0001-01-01T00:00:00Z","name_a2s":"Uncletopia | Los Angeles | 4 | No Payload","protocol":17,"map":"pl_badwater","folder":"tf","game":"Team Fortress","app_id":440,"player_count":0,"max_players":24,"Bots":0,"server_type":"Dedicated","server_os":"Linux","password":true,"vac":true,"version":"7701286","steam_id":85568392924510199,"keywords":["nocrits","nodmgspread","payload","uncletopia"],"game_id":440,"stv_port":0,"stv_name":"","players":null},{"server_id":11,"name":"Uncletopia | London | 1 | All Maps","name_short":"lon-1","host":"lon-1.uk.uncletopia.com","port":27015,"enabled":true,"region":"eu","cc":"gb","latitude":51.509865,"longitude":-0.118092,"reserved":0,"last_update":"0001-01-01T00:00:00Z","name_a2s":"Uncletopia | London | 1 | All Maps","protocol":17,"map":"pl_borneo","folder":"tf","game":"Team Fortress","app_id":440,"player_count":24,"max_players":24,"Bots":0,"server_type":"Dedicated","server_os":"Linux","password":true,"vac":true,"version":"7701286","steam_id":85568392924367362,"keywords":["nocrits","nodmgspread","payload","uncletopia"],"game_id":440,"stv_port":27016,"stv_name":"Uncletopia | London | 1 | All Maps | STV","players":[{"user_id":315,"name":"Badger","steam_id":76561198155481888,"connected_time":3526000000000,"state":"active","ping":70},{"user_id":323,"name":"glyph","steam_id":76561197980736364,"connected_time":2902000000000,"state":"active","ping":91},{"user_id":343,"name":"Windows 98 SE","steam_id":76561198041938976,"connected_time":759000000000,"state":"active","ping":51},{"user_id":345,"name":"Hasamnas","steam_id":76561199125038537,"connected_time":483000000000,"state":"active","ping":58},{"user_id":337,"name":"Mi Manchi","steam_id":76561198171573129,"connected_time":1517000000000,"state":"active","ping":73},{"user_id":351,"name":"Ivun","steam_id":76561198250199228,"connected_time":108000000000,"state":"active","ping":144},{"user_id":341,"name":"Mango","steam_id":76561198139555709,"connected_time":1194000000000,"state":"active","ping":60},{"user_id":306,"name":"NonProphet","steam_id":76561198280149820,"connected_time":4107000000000,"state":"active","ping":50},{"user_id":346,"name":"Davidoff","steam_id":76561199099163283,"connected_time":343000000000,"state":"active","ping":75},{"user_id":239,"name":"VK2124 :D","steam_id":76561198111130688,"connected_time":9378000000000,"state":"active","ping":59},{"user_id":259,"name":"✪ Danny","steam_id":76561198104483241,"connected_time":8086000000000,"state":"active","ping":52},{"user_id":339,"name":"SaltyCupcakes","steam_id":76561198256386417,"connected_time":1456000000000,"state":"active","ping":45},{"user_id":333,"name":"Christuhfar","steam_id":76561198044496678,"connected_time":1904000000000,"state":"active","ping":62},{"user_id":329,"name":"Joseph Stalin LFT","steam_id":76561198033199746,"connected_time":2123000000000,"state":"active","ping":49},{"user_id":316,"name":"Wuffington","steam_id":76561198033762881,"connected_time":3517000000000,"state":"active","ping":54},{"user_id":348,"name":"Dont Uber Me | #SAVETF2","steam_id":76561198038579548,"connected_time":273000000000,"state":"active","ping":44},{"user_id":309,"name":"Rudebwoyyy","steam_id":76561199387956486,"connected_time":4087000000000,"state":"active","ping":60},{"user_id":322,"name":"daimao622","steam_id":76561198042082838,"connected_time":3071000000000,"state":"active","ping":60},{"user_id":342,"name":"(っ◔◡◔)っ ♥","steam_id":76561199026097466,"connected_time":1167000000000,"state":"active","ping":77},{"user_id":192,"name":"festive jones","steam_id":76561198073975078,"connected_time":12985000000000,"state":"active","ping":47},{"user_id":330,"name":"Grim the lemon","steam_id":76561199083433988,"connected_time":2010000000000,"state":"active","ping":49},{"user_id":347,"name":"Lods of Emone","steam_id":76561198188642265,"connected_time":322000000000,"state":"active","ping":95},{"user_id":231,"name":"Nomad994","steam_id":76561198051908201,"connected_time":9786000000000,"state":"active","ping":92},{"user_id":326,"name":"Megamain","steam_id":76561198923772036,"connected_time":2727000000000,"state":"active","ping":49}]},{"server_id":114,"name":"Uncletopia | London | 2 | All Maps","name_short":"lon-2","host":"lon-1.uk.uncletopia.com","port":27025,"enabled":true,"region":"eu","cc":"gb","latitude":51.509865,"longitude":-0.118092,"reserved":0,"last_update":"0001-01-01T00:00:00Z","name_a2s":"Uncletopia | London | 2 | All Maps","protocol":17,"map":"koth_lakeside_final","folder":"tf","game":"Team Fortress","app_id":440,"player_count":24,"max_players":24,"Bots":0,"server_type":"Dedicated","server_os":"Linux","password":true,"vac":true,"version":"7701286","steam_id":85568392924470941,"keywords":["cp","nocrits","nodmgspread","uncletopia"],"game_id":440,"stv_port":27026,"stv_name":"Uncletopia | London | 2 | All Maps | STV","players":[{"user_id":319,"name":"Enrico Pallazzo","steam_id":76561197993555892,"connected_time":1857000000000,"state":"active","ping":33},{"user_id":341,"name":"Mailer","steam_id":76561198062690074,"connected_time":566000000000,"state":"active","ping":58},{"user_id":269,"name":"Swayer","steam_id":76561198056192460,"connected_time":5395000000000,"state":"active","ping":56},{"user_id":346,"name":"calum92","steam_id":76561197992188760,"connected_time":465000000000,"state":"active","ping":63},{"user_id":330,"name":"Maksivad","steam_id":76561198134394882,"connected_time":1270000000000,"state":"active","ping":90},{"user_id":351,"name":".jar.","steam_id":76561198042545701,"connected_time":17000000000,"state":"active","ping":83},{"user_id":331,"name":"Dispenser(Dispenser)","steam_id":76561199211831658,"connected_time":1262000000000,"state":"active","ping":48},{"user_id":316,"name":"Klik","steam_id":76561198891046692,"connected_time":1924000000000,"state":"active","ping":74},{"user_id":337,"name":"Noob_with_source","steam_id":76561198870362103,"connected_time":1162000000000,"state":"active","ping":52},{"user_id":328,"name":"Weegee","steam_id":76561198215760711,"connected_time":1530000000000,"state":"active","ping":51},{"user_id":270,"name":"Sgreff","steam_id":76561198036304365,"connected_time":5352000000000,"state":"active","ping":44},{"user_id":347,"name":"AneveX","steam_id":76561198111905804,"connected_time":253000000000,"state":"active","ping":47},{"user_id":348,"name":"Dkz","steam_id":76561197970673402,"connected_time":248000000000,"state":"active","ping":45},{"user_id":238,"name":"Rob","steam_id":76561198797266244,"connected_time":6924000000000,"state":"active","ping":75},{"user_id":327,"name":"doodgie","steam_id":76561198264934115,"connected_time":1579000000000,"state":"active","ping":48},{"user_id":350,"name":"elijah","steam_id":76561198093936708,"connected_time":37000000000,"state":"active","ping":56},{"user_id":241,"name":"THE TOAD APPEARS ! ! !","steam_id":76561198870327755,"connected_time":6768000000000,"state":"active","ping":79},{"user_id":322,"name":"RogatiyZhuk","steam_id":76561199386822589,"connected_time":1788000000000,"state":"active","ping":77},{"user_id":321,"name":"spillr-.-","steam_id":76561198031330889,"connected_time":1841000000000,"state":"active","ping":68},{"user_id":329,"name":"supremacy","steam_id":76561198066321637,"connected_time":1492000000000,"state":"active","ping":105},{"user_id":305,"name":"Captain Winter","steam_id":76561198102128562,"connected_time":2763000000000,"state":"active","ping":69},{"user_id":318,"name":"Tortoise","steam_id":76561198229648184,"connected_time":1920000000000,"state":"active","ping":40},{"user_id":255,"name":"soil.dirt.earth","steam_id":76561198014377623,"connected_time":6324000000000,"state":"active","ping":51},{"user_id":345,"name":"shoras","steam_id":76561198019680159,"connected_time":475000000000,"state":"active","ping":98}]},{"server_id":320,"name":"Uncletopia | London | 3 | All Maps","name_short":"lon-3","host":"lon-1.uk.uncletopia.com","port":27035,"enabled":true,"region":"eu","cc":"gb","latitude":51.509865,"longitude":-0.118092,"reserved":0,"last_update":"0001-01-01T00:00:00Z","name_a2s":"Uncletopia | London | 3 | All Maps","protocol":17,"map":"pl_borneo","folder":"tf","game":"Team Fortress","app_id":440,"player_count":24,"max_players":24,"Bots":0,"server_type":"Dedicated","server_os":"Linux","password":true,"vac":true,"version":"7701286","steam_id":85568392924510192,"keywords":["nocrits","nodmgspread","payload","uncletopia"],"game_id":440,"stv_port":27036,"stv_name":"Uncletopia | London | 3 | All Maps | STV","players":[{"user_id":242,"name":"Big Benn","steam_id":76561199024168373,"connected_time":1514000000000,"state":"active","ping":57},{"user_id":283,"name":"scottland survivor","steam_id":76561199042470246,"connected_time":59000000000,"state":"active","ping":67},{"user_id":271,"name":"Tuxedo Terrorist","steam_id":76561199015038728,"connected_time":382000000000,"state":"active","ping":50},{"user_id":257,"name":"Markein","steam_id":76561198360754280,"connected_time":870000000000,"state":"active","ping":44},{"user_id":258,"name":"RQsC FeQuR","steam_id":76561198090884017,"connected_time":840000000000,"state":"active","ping":49},{"user_id":267,"name":"denji741games","steam_id":76561198067499762,"connected_time":499000000000,"state":"active","ping":87},{"user_id":220,"name":"Zoodly","steam_id":76561198080594440,"connected_time":2257000000000,"state":"active","ping":48},{"user_id":213,"name":"VictorCG","steam_id":76561198070118014,"connected_time":2789000000000,"state":"active","ping":92},{"user_id":263,"name":"padillacampos","steam_id":76561198161923970,"connected_time":773000000000,"state":"active","ping":68},{"user_id":276,"name":"Lukas","steam_id":76561198009118452,"connected_time":359000000000,"state":"active","ping":64},{"user_id":273,"name":".quickfast.","steam_id":76561199438900919,"connected_time":370000000000,"state":"active","ping":70},{"user_id":277,"name":"lulu","steam_id":76561199147764133,"connected_time":345000000000,"state":"active","ping":67},{"user_id":278,"name":"Mor'du","steam_id":76561198274105878,"connected_time":335000000000,"state":"active","ping":76},{"user_id":279,"name":"[F2P] MalCo","steam_id":76561197994930440,"connected_time":209000000000,"state":"active","ping":45},{"user_id":280,"name":"Thors","steam_id":76561197968739075,"connected_time":94000000000,"state":"active","ping":45},{"user_id":268,"name":"Asfreild","steam_id":76561198055901120,"connected_time":427000000000,"state":"active","ping":62},{"user_id":237,"name":"Gearslut","steam_id":76561198114601678,"connected_time":1731000000000,"state":"active","ping":53},{"user_id":274,"name":"Lyell","steam_id":76561198350329389,"connected_time":369000000000,"state":"active","ping":80},{"user_id":247,"name":"wasteland","steam_id":76561198189686075,"connected_time":1406000000000,"state":"active","ping":51},{"user_id":264,"name":"disposablesuperbread","steam_id":76561199074703607,"connected_time":646000000000,"state":"active","ping":67},{"user_id":281,"name":"эмо бой 2007","steam_id":76561198243917964,"connected_time":94000000000,"state":"active","ping":104},{"user_id":250,"name":"Morgulan","steam_id":76561198046564543,"connected_time":1355000000000,"state":"active","ping":60},{"user_id":251,"name":"Kylul_","steam_id":76561198042981061,"connected_time":1352000000000,"state":"active","ping":43},{"user_id":275,"name":"BloodTree2704","steam_id":76561198069267198,"connected_time":369000000000,"state":"active","ping":73}]},{"server_id":321,"name":"Uncletopia | London | 4 | All Maps","name_short":"lon-4","host":"lon-1.uk.uncletopia.com","port":27045,"enabled":true,"region":"eu","cc":"gb","latitude":51.509865,"longitude":-0.118092,"reserved":0,"last_update":"0001-01-01T00:00:00Z","name_a2s":"Uncletopia | London | 4 | All Maps","protocol":17,"map":"cp_sunshine","folder":"tf","game":"Team Fortress","app_id":440,"player_count":24,"max_players":24,"Bots":0,"server_type":"Dedicated","server_os":"Linux","password":true,"vac":true,"version":"7701286","steam_id":85568392924510193,"keywords":["cp","nocrits","nodmgspread","uncletopia"],"game_id":440,"stv_port":27046,"stv_name":"Uncletopia | London | 4 | All Maps | STV","players":[{"user_id":215,"name":"filo","steam_id":76561198103633797,"connected_time":288000000000,"state":"active","ping":128},{"user_id":197,"name":"Clown","steam_id":76561199063268772,"connected_time":1273000000000,"state":"active","ping":60},{"user_id":208,"name":"Radčik","steam_id":76561198069181828,"connected_time":463000000000,"state":"active","ping":92},{"user_id":226,"name":"Nithle","steam_id":76561198025372740,"connected_time":88000000000,"state":"active","ping":60},{"user_id":212,"name":"Boldozofuriozo","steam_id":76561198088667146,"connected_time":361000000000,"state":"active","ping":65},{"user_id":206,"name":"plays tation 3","steam_id":76561198885548458,"connected_time":520000000000,"state":"active","ping":149},{"user_id":221,"name":"S164","steam_id":76561198802694108,"connected_time":195000000000,"state":"active","ping":66},{"user_id":204,"name":"\"Dominus.\"","steam_id":76561199065917088,"connected_time":574000000000,"state":"active","ping":57},{"user_id":205,"name":"r06u3","steam_id":76561198254099253,"connected_time":549000000000,"state":"active","ping":179},{"user_id":207,"name":"CampMaster49","steam_id":76561198353096926,"connected_time":507000000000,"state":"active","ping":97},{"user_id":209,"name":"Demoman TF2","steam_id":76561198832870190,"connected_time":429000000000,"state":"active","ping":59},{"user_id":216,"name":"Mr.Schnittlauch","steam_id":76561198295868113,"connected_time":260000000000,"state":"active","ping":64},{"user_id":191,"name":"TheFlames","steam_id":76561198179314694,"connected_time":2008000000000,"state":"active","ping":64},{"user_id":213,"name":"Flint","steam_id":76561197995920776,"connected_time":352000000000,"state":"active","ping":45},{"user_id":214,"name":"king251311","steam_id":76561199063310889,"connected_time":352000000000,"state":"active","ping":150},{"user_id":225,"name":"Robzy","steam_id":76561198082387972,"connected_time":111000000000,"state":"active","ping":60},{"user_id":183,"name":"chocolate flavoured femboy","steam_id":76561198819353867,"connected_time":2495000000000,"state":"active","ping":30},{"user_id":218,"name":"Lego","steam_id":76561198064536870,"connected_time":230000000000,"state":"active","ping":86},{"user_id":219,"name":"[UiF] BafTac r/f*ckcars","steam_id":76561198060547050,"connected_time":227000000000,"state":"active","ping":60},{"user_id":220,"name":"*DEAD* dusty","steam_id":76561199011977567,"connected_time":199000000000,"state":"active","ping":62},{"user_id":223,"name":"PistolShrimp","steam_id":76561199171648755,"connected_time":138000000000,"state":"active","ping":60},{"user_id":224,"name":"LordTrap.exe","steam_id":76561198318089716,"connected_time":115000000000,"state":"active","ping":51},{"user_id":229,"name":"Inventor of Sex","steam_id":76561198242286248,"connected_time":42000000000,"state":"active","ping":93},{"user_id":228,"name":"Type2Diabetes","steam_id":76561199240273967,"connected_time":62000000000,"state":"active","ping":152}]},{"server_id":21,"name":"Uncletopia | London | 5 | All Maps","name_short":"lon-5","host":"lon-1.uk.uncletopia.com","port":27055,"enabled":true,"region":"eu","cc":"gb","latitude":51.509865,"longitude":-0.118092,"reserved":0,"last_update":"0001-01-01T00:00:00Z","name_a2s":"Uncletopia | London | 5 | All Maps","protocol":17,"map":"pl_swiftwater_final1","folder":"tf","game":"Team Fortress","app_id":440,"player_count":24,"max_players":24,"Bots":0,"server_type":"Dedicated","server_os":"Linux","password":true,"vac":true,"version":"7701286","steam_id":85568392924742829,"keywords":["nocrits","nodmgspread","payload","uncletopia"],"game_id":440,"stv_port":27056,"stv_name":"Uncletopia | London | 5 | All Maps | STV","players":[{"user_id":137,"name":"=flashpoint=","steam_id":76561197976774456,"connected_time":625000000000,"state":"active","ping":49},{"user_id":142,"name":"Splarvis","steam_id":76561198007792525,"connected_time":352000000000,"state":"active","ping":40},{"user_id":143,"name":"Greencoffee","steam_id":76561198842090589,"connected_time":136000000000,"state":"active","ping":58},{"user_id":141,"name":"NotFionn","steam_id":76561198890525176,"connected_time":448000000000,"state":"active","ping":70},{"user_id":127,"name":"MrWhite","steam_id":76561198929056707,"connected_time":1198000000000,"state":"active","ping":106},{"user_id":107,"name":"beefy \u003c3","steam_id":76561198045347066,"connected_time":2152000000000,"state":"active","ping":61},{"user_id":105,"name":"azzy","steam_id":76561198061293740,"connected_time":2499000000000,"state":"active","ping":78},{"user_id":73,"name":"Syphilised penis","steam_id":76561198042593027,"connected_time":3647000000000,"state":"active","ping":95},{"user_id":144,"name":"weaselmeister","steam_id":76561199059841173,"connected_time":130000000000,"state":"active","ping":46},{"user_id":119,"name":"BoPoe","steam_id":76561198093333882,"connected_time":1387000000000,"state":"active","ping":104},{"user_id":131,"name":"M4R1O","steam_id":76561198050528464,"connected_time":762000000000,"state":"active","ping":67},{"user_id":49,"name":"Simping for Pizza-san","steam_id":76561198067204908,"connected_time":4728000000000,"state":"active","ping":57},{"user_id":113,"name":"obi","steam_id":76561198040154461,"connected_time":1623000000000,"state":"active","ping":71},{"user_id":47,"name":"twitch.tv/biofun_","steam_id":76561198170609049,"connected_time":4754000000000,"state":"active","ping":65},{"user_id":120,"name":"Purplenoogie","steam_id":76561198081872160,"connected_time":1336000000000,"state":"active","ping":45},{"user_id":138,"name":"jeff","steam_id":76561198357104319,"connected_time":624000000000,"state":"active","ping":64},{"user_id":83,"name":"Dr. Funkenstein","steam_id":76561197977816210,"connected_time":3197000000000,"state":"active","ping":53},{"user_id":122,"name":"swueuws","steam_id":76561198020716743,"connected_time":1331000000000,"state":"active","ping":60},{"user_id":130,"name":"ᴘɪᴏΛ ƎꞍ⊥","steam_id":76561198276912938,"connected_time":870000000000,"state":"active","ping":114},{"user_id":112,"name":"Dewotter","steam_id":76561198007653168,"connected_time":1673000000000,"state":"active","ping":57},{"user_id":139,"name":"Uncle Lame","steam_id":76561198089003514,"connected_time":483000000000,"state":"active","ping":59},{"user_id":94,"name":"pizzaboob","steam_id":76561198097507847,"connected_time":2946000000000,"state":"active","ping":86},{"user_id":129,"name":"guiseppe","steam_id":76561198046129681,"connected_time":981000000000,"state":"active","ping":96},{"user_id":136,"name":"Tramuntana","steam_id":76561198241843480,"connected_time":639000000000,"state":"active","ping":77}]},{"server_id":22,"name":"Uncletopia | London | 6 | All Maps","name_short":"lon-6","host":"lon-1.uk.uncletopia.com","port":27065,"enabled":true,"region":"eu","cc":"gb","latitude":51.509865,"longitude":-0.118092,"reserved":0,"last_update":"0001-01-01T00:00:00Z","name_a2s":"Uncletopia | London | 6 | All Maps","protocol":17,"map":"koth_highpass","folder":"tf","game":"Team Fortress","app_id":440,"player_count":7,"max_players":24,"Bots":0,"server_type":"Dedicated","server_os":"Linux","password":true,"vac":true,"version":"7701286","steam_id":85568392924742830,"keywords":["cp","nocrits","nodmgspread","uncletopia"],"game_id":440,"stv_port":27066,"stv_name":"Uncletopia | London | 6 | All Maps | STV","players":[{"user_id":32,"name":"cyceusz","steam_id":76561198131789269,"connected_time":1357000000000,"state":"active","ping":104},{"user_id":35,"name":"amelon","steam_id":76561199040283085,"connected_time":996000000000,"state":"active","ping":127},{"user_id":36,"name":"Graceful Jabberwocky","steam_id":76561199013504849,"connected_time":443000000000,"state":"active","ping":53},{"user_id":37,"name":"SaSSolino","steam_id":76561198011308018,"connected_time":278000000000,"state":"active","ping":62},{"user_id":38,"name":"SImokukika","steam_id":76561198310937259,"connected_time":51000000000,"state":"active","ping":70},{"user_id":39,"name":"Dolcelatte","steam_id":76561198038501770,"connected_time":23000000000,"state":"active","ping":61},{"user_id":40,"name":"Saken","steam_id":76561198049075295,"connected_time":4000000000,"state":"spawning","ping":58}]},{"server_id":40,"name":"Uncletopia | London | 7 | No Payload","name_short":"lon-7","host":"lon-1.uk.uncletopia.com","port":27075,"enabled":true,"region":"eu","cc":"gb","latitude":51.509865,"longitude":-0.118092,"reserved":0,"last_update":"0001-01-01T00:00:00Z","name_a2s":"Uncletopia | London | 7 | No Payload","protocol":17,"map":"cp_gravelpit","folder":"tf","game":"Team Fortress","app_id":440,"player_count":22,"max_players":24,"Bots":0,"server_type":"Dedicated","server_os":"Linux","password":true,"vac":true,"version":"7701286","steam_id":85568392924964314,"keywords":["cp","nocrits","nodmgspread","uncletopia"],"game_id":440,"stv_port":27076,"stv_name":"Uncletopia | London | 7 | No Payload | STV","players":[{"user_id":460,"name":"GenericMaleGamer","steam_id":76561198257271858,"connected_time":21000000000,"state":"spawning","ping":181},{"user_id":443,"name":"NO","steam_id":76561198795767535,"connected_time":1305000000000,"state":"active","ping":78},{"user_id":424,"name":"Meme Necromancer","steam_id":76561198085001718,"connected_time":1968000000000,"state":"active","ping":69},{"user_id":341,"name":"cowboy carl","steam_id":76561198057829900,"connected_time":6456000000000,"state":"active","ping":69},{"user_id":342,"name":"AllCreed","steam_id":76561198086536511,"connected_time":6410000000000,"state":"active","ping":70},{"user_id":456,"name":"Peter","steam_id":76561198120327435,"connected_time":311000000000,"state":"active","ping":60},{"user_id":408,"name":"jacob?","steam_id":76561199025525354,"connected_time":2625000000000,"state":"active","ping":64},{"user_id":447,"name":"Mass","steam_id":76561198432195204,"connected_time":955000000000,"state":"active","ping":58},{"user_id":445,"name":"compusMentus","steam_id":76561199134152606,"connected_time":1028000000000,"state":"active","ping":80},{"user_id":425,"name":"Arnold Jidáš Rimmer","steam_id":76561198130282863,"connected_time":1949000000000,"state":"active","ping":63},{"user_id":393,"name":"Revettah","steam_id":76561198040442214,"connected_time":3109000000000,"state":"active","ping":45},{"user_id":436,"name":"tavish finnegan degroot","steam_id":76561199012662623,"connected_time":1736000000000,"state":"active","ping":70},{"user_id":449,"name":"SchwanzusLongus","steam_id":76561198112599986,"connected_time":942000000000,"state":"active","ping":49},{"user_id":442,"name":"tob:ias","steam_id":76561198832146626,"connected_time":1351000000000,"state":"active","ping":45},{"user_id":440,"name":"dingledong","steam_id":76561198287096215,"connected_time":1630000000000,"state":"active","ping":69},{"user_id":437,"name":"Bottomest","steam_id":76561198091734693,"connected_time":1698000000000,"state":"active","ping":60},{"user_id":432,"name":"Warpzel65","steam_id":76561198799303596,"connected_time":1850000000000,"state":"active","ping":109},{"user_id":381,"name":"Spexiver","steam_id":76561198107223055,"connected_time":4023000000000,"state":"active","ping":80},{"user_id":430,"name":"apple","steam_id":76561198350676879,"connected_time":1887000000000,"state":"active","ping":101},{"user_id":457,"name":"ball sniffa","steam_id":76561199022705805,"connected_time":109000000000,"state":"active","ping":46},{"user_id":453,"name":"Turkey Jam","steam_id":76561198072691659,"connected_time":653000000000,"state":"active","ping":66},{"user_id":434,"name":"Kim Jong Un","steam_id":76561198107184059,"connected_time":1802000000000,"state":"active","ping":49}]},{"server_id":41,"name":"Uncletopia | London | 8 | Community","name_short":"lon-8","host":"lon-1.uk.uncletopia.com","port":27085,"enabled":true,"region":"eu","cc":"gb","latitude":51.509865,"longitude":-0.118092,"reserved":0,"last_update":"0001-01-01T00:00:00Z","name_a2s":"Uncletopia | London | 8 | Community","protocol":17,"map":"workshop/koth_ramjam_v2_b2.ugc2865676487","folder":"tf","game":"Team Fortress","app_id":440,"player_count":0,"max_players":24,"Bots":0,"server_type":"Dedicated","server_os":"Linux","password":true,"vac":true,"version":"7701286","steam_id":85568392924964315,"keywords":["cp","nocrits","nodmgspread","uncletopia"],"game_id":440,"stv_port":27086,"stv_name":"Uncletopia | London | 8 | Community | STV","players":null},{"server_id":300,"name":"Uncletopia | Montréal | 1 | All Maps","name_short":"mtl-1","host":"mtl-1.ca.uncletopia.com","port":27015,"enabled":true,"region":"us-east","cc":"ca","latitude":45.50889,"longitude":-73.56167,"reserved":0,"last_update":"0001-01-01T00:00:00Z","name_a2s":"Uncletopia | Montréal | 1 | All Maps","protocol":17,"map":"koth_lakeside_final","folder":"tf","game":"Team Fortress","app_id":440,"player_count":0,"max_players":24,"Bots":0,"server_type":"Dedicated","server_os":"Linux","password":true,"vac":true,"version":"7701286","steam_id":85568392924500087,"keywords":["cp","nocrits","nodmgspread","uncletopia"],"game_id":440,"stv_port":0,"stv_name":"","players":null},{"server_id":301,"name":"Uncletopia | Montréal | 2 | All Maps","name_short":"mtl-2","host":"mtl-1.ca.uncletopia.com","port":27025,"enabled":true,"region":"us-east","cc":"ca","latitude":45.50889,"longitude":-73.56167,"reserved":0,"last_update":"0001-01-01T00:00:00Z","name_a2s":"Uncletopia | Montréal | 2 | All Maps","protocol":17,"map":"pl_upward","folder":"tf","game":"Team Fortress","app_id":440,"player_count":0,"max_players":24,"Bots":0,"server_type":"Dedicated","server_os":"Linux","password":true,"vac":true,"version":"7701286","steam_id":85568392924500088,"keywords":["nocrits","nodmgspread","payload","uncletopia"],"game_id":440,"stv_port":27026,"stv_name":"Uncletopia | Montréal | 2 | All Maps | STV","players":null},{"server_id":302,"name":"Uncletopia | Montréal | 3 | All Maps","name_short":"mtl-3","host":"mtl-1.ca.uncletopia.com","port":27035,"enabled":true,"region":"us-east","cc":"ca","latitude":45.50889,"longitude":-73.56167,"reserved":0,"last_update":"0001-01-01T00:00:00Z","name_a2s":"Uncletopia | Montréal | 3 | All Maps","protocol":17,"map":"pl_pier","folder":"tf","game":"Team Fortress","app_id":440,"player_count":0,"max_players":24,"Bots":0,"server_type":"Dedicated","server_os":"Linux","password":true,"vac":true,"version":"7701286","steam_id":85568392924500089,"keywords":["nocrits","nodmgspread","payload","uncletopia"],"game_id":440,"stv_port":0,"stv_name":"","players":null},{"server_id":303,"name":"Uncletopia | Montréal | 4 | No Payload","name_short":"mtl-4","host":"mtl-1.ca.uncletopia.com","port":27045,"enabled":true,"region":"us-east","cc":"ca","latitude":45.50889,"longitude":-73.56167,"reserved":0,"last_update":"0001-01-01T00:00:00Z","name_a2s":"Uncletopia | Montréal | 4 | No Payload","protocol":17,"map":"pl_upward","folder":"tf","game":"Team Fortress","app_id":440,"player_count":0,"max_players":24,"Bots":0,"server_type":"Dedicated","server_os":"Linux","password":true,"vac":true,"version":"7701286","steam_id":85568392924500090,"keywords":["nocrits","nodmgspread","payload","uncletopia"],"game_id":440,"stv_port":0,"stv_name":"","players":null},{"server_id":13,"name":"Uncletopia | New York City | 1 | All Maps","name_short":"nyc-1","host":"nyc-1.us.uncletopia.com","port":27015,"enabled":true,"region":"us-east","cc":"us","latitude":40.73061,"longitude":-73.93524,"reserved":0,"last_update":"0001-01-01T00:00:00Z","name_a2s":"Uncletopia | New York City | 1 | All Maps","protocol":17,"map":"cp_process_final","folder":"tf","game":"Team Fortress","app_id":440,"player_count":0,"max_players":24,"Bots":0,"server_type":"Dedicated","server_os":"Linux","password":true,"vac":true,"version":"7701286","steam_id":85568392924469993,"keywords":["cp","nocrits","nodmgspread","uncletopia"],"game_id":440,"stv_port":27016,"stv_name":"Uncletopia | New York City | 1 | All Maps | STV","players":null},{"server_id":14,"name":"Uncletopia | New York City | 2 | All Maps","name_short":"nyc-2","host":"nyc-1.us.uncletopia.com","port":27025,"enabled":true,"region":"us-east","cc":"us","latitude":40.73061,"longitude":-73.93524,"reserved":0,"last_update":"0001-01-01T00:00:00Z","name_a2s":"Uncletopia | New York City | 2 | All Maps","protocol":17,"map":"pl_badwater","folder":"tf","game":"Team Fortress","app_id":440,"player_count":24,"max_players":24,"Bots":0,"server_type":"Dedicated","server_os":"Linux","password":true,"vac":true,"version":"7701286","steam_id":85568392924469994,"keywords":["nocrits","nodmgspread","payload","uncletopia"],"game_id":440,"stv_port":27026,"stv_name":"Uncletopia | New York City | 2 | All Maps | STV","players":[{"user_id":72,"name":"Pika","steam_id":76561198068063436,"connected_time":1494000000000,"state":"active","ping":69},{"user_id":63,"name":"wack","steam_id":76561198095697330,"connected_time":2256000000000,"state":"active","ping":73},{"user_id":56,"name":"Quansen","steam_id":76561198151594550,"connected_time":3196000000000,"state":"active","ping":67},{"user_id":73,"name":"LanFour","steam_id":76561198092092723,"connected_time":1480000000000,"state":"active","ping":160},{"user_id":64,"name":"LORD JIMJACK YE-YE","steam_id":76561199151780779,"connected_time":2175000000000,"state":"active","ping":57},{"user_id":60,"name":"Rayden Belmont","steam_id":76561198062254329,"connected_time":2582000000000,"state":"active","ping":56},{"user_id":81,"name":"Phroliax","steam_id":76561198207075529,"connected_time":902000000000,"state":"active","ping":74},{"user_id":70,"name":"Major Woody","steam_id":76561198835541533,"connected_time":1601000000000,"state":"active","ping":57},{"user_id":30,"name":"Mom","steam_id":76561198207936000,"connected_time":4688000000000,"state":"active","ping":121},{"user_id":71,"name":"jumboxcoco","steam_id":76561199086049988,"connected_time":1600000000000,"state":"active","ping":71},{"user_id":32,"name":"Sarah Tonin","steam_id":76561198263707757,"connected_time":4511000000000,"state":"active","ping":47},{"user_id":52,"name":"big guapo","steam_id":76561198103228695,"connected_time":3661000000000,"state":"active","ping":53},{"user_id":62,"name":"A_Malebolgia","steam_id":76561198097722818,"connected_time":2545000000000,"state":"active","ping":77},{"user_id":53,"name":"themankeys","steam_id":76561198149339536,"connected_time":3584000000000,"state":"active","ping":80},{"user_id":74,"name":"Dragus","steam_id":76561198032967285,"connected_time":1433000000000,"state":"active","ping":67},{"user_id":82,"name":"THE GIGGLER","steam_id":76561199275294643,"connected_time":855000000000,"state":"active","ping":83},{"user_id":76,"name":"pogb4nny149","steam_id":76561198020534493,"connected_time":1350000000000,"state":"active","ping":84},{"user_id":65,"name":"Goose Pyro","steam_id":76561198994984332,"connected_time":2029000000000,"state":"active","ping":121},{"user_id":78,"name":"harry","steam_id":76561198263271697,"connected_time":1233000000000,"state":"active","ping":55},{"user_id":77,"name":"SHURIKEN","steam_id":76561197982319164,"connected_time":1323000000000,"state":"active","ping":155},{"user_id":44,"name":"soulsmu","steam_id":76561198022663285,"connected_time":4103000000000,"state":"active","ping":65},{"user_id":45,"name":"google docs extraordinaire","steam_id":76561198124174061,"connected_time":4092000000000,"state":"active","ping":52},{"user_id":47,"name":"A Puppy","steam_id":76561198828184456,"connected_time":4059000000000,"state":"active","ping":46},{"user_id":83,"name":"srv","steam_id":76561198026589960,"connected_time":482000000000,"state":"active","ping":74}]},{"server_id":15,"name":"Uncletopia | New York City | 3 | All Maps","name_short":"nyc-3","host":"nyc-1.us.uncletopia.com","port":27035,"enabled":true,"region":"us-east","cc":"us","latitude":40.73061,"longitude":-73.93524,"reserved":0,"last_update":"0001-01-01T00:00:00Z","name_a2s":"Uncletopia | New York City | 3 | All Maps","protocol":17,"map":"pl_badwater","folder":"tf","game":"Team Fortress","app_id":440,"player_count":0,"max_players":24,"Bots":0,"server_type":"Dedicated","server_os":"Linux","password":true,"vac":true,"version":"7701286","steam_id":85568392924742820,"keywords":["nocrits","nodmgspread","payload","uncletopia"],"game_id":440,"stv_port":0,"stv_name":"","players":null},{"server_id":16,"name":"Uncletopia | New York City | 4 | Community","name_short":"nyc-4","host":"nyc-1.us.uncletopia.com","port":27045,"enabled":true,"region":"us-east","cc":"us","latitude":40.73061,"longitude":-73.93524,"reserved":0,"last_update":"0001-01-01T00:00:00Z","name_a2s":"Uncletopia | New York City | 4 | Community","protocol":17,"map":"workshop/cp_caldera_rc2.ugc2834196889","folder":"tf","game":"Team Fortress","app_id":440,"player_count":0,"max_players":24,"Bots":0,"server_type":"Dedicated","server_os":"Linux","password":true,"vac":true,"version":"7701286","steam_id":85568392924742821,"keywords":["cp","nocrits","nodmgspread","uncletopia"],"game_id":440,"stv_port":27046,"stv_name":"Uncletopia | New York City | 4 | Community | STV","players":null},{"server_id":142,"name":"Uncletopia | São Paulo | 1 | All Maps","name_short":"sao-1","host":"sao-1.br.uncletopia.com","port":27015,"enabled":true,"region":"sa","cc":"br","latitude":-23.533773,"longitude":-46.62529,"reserved":0,"last_update":"0001-01-01T00:00:00Z","name_a2s":"Uncletopia | São Paulo | 1 | All Maps","protocol":17,"map":"cp_sunshine","folder":"tf","game":"Team Fortress","app_id":440,"player_count":3,"max_players":24,"Bots":0,"server_type":"Dedicated","server_os":"Linux","password":true,"vac":true,"version":"7701286","steam_id":85568392924469996,"keywords":["cp","nocrits","nodmgspread","uncletopia"],"game_id":440,"stv_port":27016,"stv_name":"Uncletopia | São Paulo | 1 | All Maps | STV","players":[{"user_id":14,"name":"Homero chino","steam_id":76561199066605566,"connected_time":2398000000000,"state":"active","ping":90},{"user_id":15,"name":"TuVieja_777_","steam_id":76561199289101211,"connected_time":2327000000000,"state":"active","ping":91},{"user_id":21,"name":"probrinecrack","steam_id":76561199081029120,"connected_time":618000000000,"state":"active","ping":189}]},{"server_id":143,"name":"Uncletopia | São Paulo | 2 | All Maps","name_short":"sao-2","host":"sao-2.br.uncletopia.com","port":27015,"enabled":true,"region":"sa","cc":"br","latitude":-23.533773,"longitude":-46.62529,"reserved":0,"last_update":"0001-01-01T00:00:00Z","name_a2s":"Uncletopia | São Paulo | 2 | All Maps","protocol":17,"map":"pl_borneo","folder":"tf","game":"Team Fortress","app_id":440,"player_count":11,"max_players":24,"Bots":0,"server_type":"Dedicated","server_os":"Linux","password":true,"vac":true,"version":"7701286","steam_id":85568392924485349,"keywords":["nocrits","nodmgspread","payload","uncletopia"],"game_id":440,"stv_port":27016,"stv_name":"Uncletopia | São Paulo | 2 | All Maps | STV","players":[{"user_id":61,"name":"samuelpro2009","steam_id":76561199248502539,"connected_time":469000000000,"state":"active","ping":227},{"user_id":64,"name":"worldstep","steam_id":76561198004606025,"connected_time":135000000000,"state":"active","ping":56},{"user_id":63,"name":"exeter","steam_id":76561198337465527,"connected_time":251000000000,"state":"active","ping":31},{"user_id":33,"name":"Ice Whallow Come","steam_id":76561198063668057,"connected_time":2979000000000,"state":"active","ping":51},{"user_id":59,"name":"Vaegir Guard","steam_id":76561198028786416,"connected_time":605000000000,"state":"active","ping":66},{"user_id":65,"name":"Kuchio","steam_id":76561198161218914,"connected_time":67000000000,"state":"active","ping":226},{"user_id":48,"name":"chico(greg)zera","steam_id":76561198113465470,"connected_time":1029000000000,"state":"active","ping":41},{"user_id":45,"name":"matheus_lanches","steam_id":76561199359501901,"connected_time":1360000000000,"state":"active","ping":44},{"user_id":46,"name":"rsk1","steam_id":76561198199413370,"connected_time":1217000000000,"state":"active","ping":54},{"user_id":52,"name":"Fã do Matheus Alves(Youtuber)","steam_id":76561198330474206,"connected_time":974000000000,"state":"active","ping":70},{"user_id":54,"name":"Zoom!","steam_id":76561198289562649,"connected_time":933000000000,"state":"active","ping":37}]},{"server_id":7,"name":"Uncletopia | Seattle | 1 | All Maps","name_short":"sea-1","host":"sea-1.us.uncletopia.com","port":27015,"enabled":true,"region":"us-west","cc":"us","latitude":47.608013,"longitude":-122.33517,"reserved":0,"last_update":"0001-01-01T00:00:00Z","name_a2s":"Uncletopia | Seattle | 1 | All Maps","protocol":17,"map":"cp_process_final","folder":"tf","game":"Team Fortress","app_id":440,"player_count":0,"max_players":24,"Bots":0,"server_type":"Dedicated","server_os":"Linux","password":true,"vac":true,"version":"7701286","steam_id":85568392924469997,"keywords":["cp","nocrits","nodmgspread","uncletopia"],"game_id":440,"stv_port":0,"stv_name":"","players":null},{"server_id":119,"name":"Uncletopia | Seattle | 2 | All Maps","name_short":"sea-2","host":"sea-1.us.uncletopia.com","port":27025,"enabled":true,"region":"us-west","cc":"us","latitude":47.608013,"longitude":-122.33517,"reserved":0,"last_update":"0001-01-01T00:00:00Z","name_a2s":"Uncletopia | Seattle | 2 | All Maps","protocol":17,"map":"koth_cascade","folder":"tf","game":"Team Fortress","app_id":440,"player_count":0,"max_players":24,"Bots":0,"server_type":"Dedicated","server_os":"Linux","password":true,"vac":true,"version":"7701286","steam_id":85568392924469998,"keywords":["cp","nocrits","nodmgspread","uncletopia"],"game_id":440,"stv_port":27026,"stv_name":"Uncletopia | Seattle | 2 | All Maps | STV","players":null},{"server_id":17,"name":"Uncletopia | San Francisco | 1 | All Maps","name_short":"sfo-1","host":"sfo-1.us.uncletopia.com","port":27015,"enabled":true,"region":"us-west","cc":"us","latitude":37.77397,"longitude":-122.4313,"reserved":0,"last_update":"0001-01-01T00:00:00Z","name_a2s":"Uncletopia | San Francisco | 1 | All Maps","protocol":17,"map":"pl_borneo","folder":"tf","game":"Team Fortress","app_id":440,"player_count":23,"max_players":24,"Bots":0,"server_type":"Dedicated","server_os":"Linux","password":true,"vac":true,"version":"7701286","steam_id":85568392924469999,"keywords":["nocrits","nodmgspread","payload","uncletopia"],"game_id":440,"stv_port":27016,"stv_name":"Uncletopia | San Francisco | 1 | All Maps | STV","players":[{"user_id":120,"name":"Satori Komeiji","steam_id":76561198158211423,"connected_time":3205000000000,"state":"active","ping":44},{"user_id":138,"name":"Frank","steam_id":76561198126681511,"connected_time":2301000000000,"state":"active","ping":58},{"user_id":159,"name":"nightcore","steam_id":76561198072420585,"connected_time":407000000000,"state":"active","ping":50},{"user_id":137,"name":"XzachTLY","steam_id":76561198145534604,"connected_time":2385000000000,"state":"active","ping":86},{"user_id":151,"name":"uzr","steam_id":76561198799343084,"connected_time":1541000000000,"state":"active","ping":58},{"user_id":123,"name":"VerociousVee","steam_id":76561198289106015,"connected_time":3110000000000,"state":"active","ping":68},{"user_id":134,"name":"Koishi Komeiji","steam_id":76561198063315650,"connected_time":2629000000000,"state":"active","ping":64},{"user_id":161,"name":"Bill Johnson","steam_id":76561198066355382,"connected_time":235000000000,"state":"active","ping":54},{"user_id":160,"name":"Raydn","steam_id":76561198418414338,"connected_time":362000000000,"state":"active","ping":88},{"user_id":144,"name":"DiscoTraveler","steam_id":76561199240168088,"connected_time":1857000000000,"state":"active","ping":105},{"user_id":146,"name":"Klee","steam_id":76561198419619684,"connected_time":1727000000000,"state":"active","ping":116},{"user_id":95,"name":"Agent Q","steam_id":76561198830829003,"connected_time":6191000000000,"state":"active","ping":81},{"user_id":147,"name":"Dedlock","steam_id":76561198046290002,"connected_time":1637000000000,"state":"active","ping":71},{"user_id":156,"name":"noelle","steam_id":76561198386344068,"connected_time":1151000000000,"state":"active","ping":115},{"user_id":129,"name":"holymoly1645 TWITCH","steam_id":76561198079009899,"connected_time":2835000000000,"state":"active","ping":73},{"user_id":158,"name":"Boop Master","steam_id":76561198091582046,"connected_time":420000000000,"state":"active","ping":90},{"user_id":150,"name":"OrangeShoes","steam_id":76561197971249940,"connected_time":1595000000000,"state":"active","ping":101},{"user_id":101,"name":"amagicowl","steam_id":76561199060487814,"connected_time":5075000000000,"state":"active","ping":80},{"user_id":99,"name":"jennco","steam_id":76561198212421513,"connected_time":5246000000000,"state":"active","ping":59},{"user_id":157,"name":"airbudenjoyer2012","steam_id":76561198150428763,"connected_time":930000000000,"state":"active","ping":60},{"user_id":127,"name":"Aviyarn","steam_id":76561199074194652,"connected_time":2925000000000,"state":"active","ping":109},{"user_id":142,"name":"squid game","steam_id":76561199248960166,"connected_time":2091000000000,"state":"active","ping":57},{"user_id":153,"name":"Cactus™ ♥","steam_id":76561198036441270,"connected_time":1470000000000,"state":"active","ping":165}]},{"server_id":18,"name":"Uncletopia | San Francisco | 2 | All Maps","name_short":"sfo-2","host":"sfo-1.us.uncletopia.com","port":27025,"enabled":true,"region":"us-west","cc":"us","latitude":37.77397,"longitude":-122.4313,"reserved":0,"last_update":"0001-01-01T00:00:00Z","name_a2s":"Uncletopia | San Francisco | 2 | All Maps","protocol":17,"map":"plr_hightower","folder":"tf","game":"Team Fortress","app_id":440,"player_count":20,"max_players":24,"Bots":0,"server_type":"Dedicated","server_os":"Linux","password":true,"vac":true,"version":"7701286","steam_id":85568392924470000,"keywords":["nocrits","nodmgspread","payload","uncletopia"],"game_id":440,"stv_port":27026,"stv_name":"Uncletopia | San Francisco | 2 | All Maps | STV","players":[{"user_id":55,"name":"Corn cult","steam_id":76561198273543100,"connected_time":77000000000,"state":"active","ping":67},{"user_id":20,"name":"Deborp","steam_id":76561198118868430,"connected_time":3618000000000,"state":"active","ping":114},{"user_id":21,"name":"ImFr0sty","steam_id":76561199441249487,"connected_time":3487000000000,"state":"active","ping":105},{"user_id":5,"name":"PP pump (water)","steam_id":76561198079462109,"connected_time":5076000000000,"state":"active","ping":91},{"user_id":37,"name":"THE NUT","steam_id":76561198067813626,"connected_time":1092000000000,"state":"active","ping":63},{"user_id":8,"name":"RemiSc","steam_id":76561198180669301,"connected_time":4404000000000,"state":"active","ping":74},{"user_id":41,"name":"Savaqa","steam_id":76561198158016688,"connected_time":807000000000,"state":"active","ping":47},{"user_id":39,"name":"Sugary","steam_id":76561198088267265,"connected_time":962000000000,"state":"active","ping":64},{"user_id":26,"name":"Stupid frogs!","steam_id":76561198069415057,"connected_time":3056000000000,"state":"active","ping":45},{"user_id":44,"name":"the old","steam_id":76561198353322890,"connected_time":547000000000,"state":"active","ping":66},{"user_id":56,"name":"Amogous Supreme","steam_id":76561198025476774,"connected_time":15000000000,"state":"spawning","ping":61},{"user_id":15,"name":"仲裁人","steam_id":76561198047166185,"connected_time":3879000000000,"state":"active","ping":76},{"user_id":43,"name":"Anxious Nerd Bird","steam_id":76561198112178602,"connected_time":715000000000,"state":"active","ping":53},{"user_id":29,"name":"BoX_hEaD101","steam_id":76561198200875467,"connected_time":2682000000000,"state":"active","ping":66},{"user_id":57,"name":"Greg","steam_id":76561198803498467,"connected_time":11000000000,"state":"spawning","ping":59},{"user_id":28,"name":"Jax O'Gaytor","steam_id":76561198288922168,"connected_time":2924000000000,"state":"active","ping":64},{"user_id":48,"name":"❤ Alice","steam_id":76561198869945051,"connected_time":453000000000,"state":"active","ping":107},{"user_id":35,"name":"JobyDudePerson","steam_id":76561199157937846,"connected_time":1547000000000,"state":"active","ping":94},{"user_id":54,"name":"brentonimo","steam_id":76561198035282062,"connected_time":195000000000,"state":"active","ping":46},{"user_id":53,"name":"Pugzilla","steam_id":76561198108088960,"connected_time":265000000000,"state":"active","ping":119}]},{"server_id":19,"name":"Uncletopia | San Francisco | 3 | No Payload","name_short":"sfo-3","host":"sfo-1.us.uncletopia.com","port":27035,"enabled":true,"region":"us-west","cc":"us","latitude":37.77397,"longitude":-122.4313,"reserved":0,"last_update":"0001-01-01T00:00:00Z","name_a2s":"Uncletopia | San Francisco | 3 | No Payload","protocol":17,"map":"cp_mountainlab","folder":"tf","game":"Team Fortress","app_id":440,"player_count":0,"max_players":24,"Bots":0,"server_type":"Dedicated","server_os":"Linux","password":true,"vac":true,"version":"7701286","steam_id":85568392924742824,"keywords":["cp","nocrits","nodmgspread","uncletopia"],"game_id":440,"stv_port":0,"stv_name":"","players":null},{"server_id":20,"name":"Uncletopia | San Francisco | 4 | Community","name_short":"sfo-4","host":"sfo-1.us.uncletopia.com","port":27045,"enabled":true,"region":"us-west","cc":"us","latitude":37.77397,"longitude":-122.4313,"reserved":0,"last_update":"0001-01-01T00:00:00Z","name_a2s":"Uncletopia | San Francisco | 4 | Community","protocol":17,"map":"cp_altitude","folder":"tf","game":"Team Fortress","app_id":440,"player_count":0,"max_players":24,"Bots":0,"server_type":"Dedicated","server_os":"Linux","password":true,"vac":true,"version":"7701286","steam_id":85568392924742826,"keywords":["cp","nocrits","nodmgspread","uncletopia"],"game_id":440,"stv_port":0,"stv_name":"","players":null},{"server_id":141,"name":"Uncletopia | Sydney | 1 | All Maps","name_short":"syd-1","host":"syd-1.au.uncletopia.com","port":27015,"enabled":true,"region":"au","cc":"au","latitude":-33.865143,"longitude":151.2099,"reserved":0,"last_update":"0001-01-01T00:00:00Z","name_a2s":"Uncletopia | Sydney | 1 | All Maps","protocol":17,"map":"pl_upward","folder":"tf","game":"Team Fortress","app_id":440,"player_count":0,"max_players":24,"Bots":0,"server_type":"Dedicated","server_os":"Linux","password":true,"vac":true,"version":"7701286","steam_id":85568392924470001,"keywords":["nocrits","nodmgspread","payload","uncletopia"],"game_id":440,"stv_port":27016,"stv_name":"Uncletopia | Sydney | 1 | All Maps | STV","players":null},{"server_id":123,"name":"Uncletopia | Sydney | 2 | All Maps","name_short":"syd-2","host":"syd-1.au.uncletopia.com","port":27025,"enabled":true,"region":"au","cc":"au","latitude":-33.865143,"longitude":151.2099,"reserved":0,"last_update":"0001-01-01T00:00:00Z","name_a2s":"Uncletopia | Sydney | 2 | All Maps","protocol":17,"map":"pl_upward","folder":"tf","game":"Team Fortress","app_id":440,"player_count":0,"max_players":24,"Bots":0,"server_type":"Dedicated","server_os":"Linux","password":true,"vac":true,"version":"7701286","steam_id":85568392924470002,"keywords":["nocrits","nodmgspread","payload","uncletopia"],"game_id":440,"stv_port":0,"stv_name":"","players":null},{"server_id":395,"name":"Uncletopia | Sydney | 3 | All Maps","name_short":"syd-3","host":"syd-1.au.uncletopia.com","port":27035,"enabled":true,"region":"au","cc":"au","latitude":-33.865143,"longitude":151.2099,"reserved":0,"last_update":"0001-01-01T00:00:00Z","name_a2s":"Uncletopia | Sydney | 3 | All Maps","protocol":17,"map":"cp_process_final","folder":"tf","game":"Team Fortress","app_id":440,"player_count":0,"max_players":24,"Bots":0,"server_type":"Dedicated","server_os":"Linux","password":true,"vac":true,"version":"7701286","steam_id":85568392925194467,"keywords":["cp","nocrits","nodmgspread","uncletopia"],"game_id":440,"stv_port":0,"stv_name":"","players":null},{"server_id":396,"name":"Uncletopia | Sydney | 4 | All Maps","name_short":"syd-4","host":"syd-1.au.uncletopia.com","port":27045,"enabled":true,"region":"au","cc":"au","latitude":-33.865143,"longitude":151.2099,"reserved":0,"last_update":"0001-01-01T00:00:00Z","name_a2s":"Uncletopia | Sydney | 4 | All Maps","protocol":17,"map":"koth_highpass","folder":"tf","game":"Team Fortress","app_id":440,"player_count":0,"max_players":24,"Bots":0,"server_type":"Dedicated","server_os":"Linux","password":true,"vac":true,"version":"7701286","steam_id":85568392925397958,"keywords":["cp","nocrits","nodmgspread","uncletopia"],"game_id":440,"stv_port":0,"stv_name":"","players":null},{"server_id":58,"name":"Uncletopia | Sydney | 5 | No Payload","name_short":"syd-5","host":"syd-1.au.uncletopia.com","port":27055,"enabled":true,"region":"au","cc":"au","latitude":-33.865143,"longitude":151.2099,"reserved":0,"last_update":"0001-01-01T00:00:00Z","name_a2s":"Uncletopia | Sydney | 5 | No Payload","protocol":17,"map":"pl_swiftwater_final1","folder":"tf","game":"Team Fortress","app_id":440,"player_count":0,"max_players":24,"Bots":0,"server_type":"Dedicated","server_os":"Linux","password":true,"vac":true,"version":"7701286","steam_id":85568392925397959,"keywords":["nocrits","nodmgspread","payload","uncletopia"],"game_id":440,"stv_port":0,"stv_name":"","players":null},{"server_id":59,"name":"Uncletopia | Sydney | 6 | Community","name_short":"syd-6","host":"syd-1.au.uncletopia.com","port":27065,"enabled":true,"region":"au","cc":"au","latitude":-33.865143,"longitude":151.2099,"reserved":0,"last_update":"0001-01-01T00:00:00Z","name_a2s":"Uncletopia | Sydney | 6 | Community","protocol":17,"map":"pl_swiftwater_final1","folder":"tf","game":"Team Fortress","app_id":440,"player_count":0,"max_players":24,"Bots":0,"server_type":"Dedicated","server_os":"Linux","password":true,"vac":true,"version":"7701286","steam_id":85568392925397960,"keywords":["nocrits","nodmgspread","payload","uncletopia"],"game_id":440,"stv_port":0,"stv_name":"","players":null},{"server_id":49,"name":"Uncletopia | Warsaw | 1 | All Maps","name_short":"waw-1","host":"waw-1.pl.uncletopia.com","port":27015,"enabled":true,"region":"eu","cc":"pl","latitude":52.2297,"longitude":21.017532,"reserved":0,"last_update":"0001-01-01T00:00:00Z","name_a2s":"Uncletopia | Warsaw | 1 | All Maps","protocol":17,"map":"koth_lakeside_final","folder":"tf","game":"Team Fortress","app_id":440,"player_count":0,"max_players":24,"Bots":0,"server_type":"Dedicated","server_os":"Linux","password":true,"vac":true,"version":"7701286","steam_id":85568392925397850,"keywords":["cp","nocrits","nodmgspread","uncletopia"],"game_id":440,"stv_port":27016,"stv_name":"Uncletopia | Warsaw | 1 | All Maps | STV","players":null},{"server_id":50,"name":"Uncletopia | Warsaw | 2 | All Maps","name_short":"waw-2","host":"waw-1.pl.uncletopia.com","port":27025,"enabled":true,"region":"eu","cc":"pl","latitude":52.2297,"longitude":21.017532,"reserved":0,"last_update":"0001-01-01T00:00:00Z","name_a2s":"Uncletopia | Warsaw | 2 | All Maps","protocol":17,"map":"koth_harvest_final","folder":"tf","game":"Team Fortress","app_id":440,"player_count":0,"max_players":24,"Bots":0,"server_type":"Dedicated","server_os":"Linux","password":true,"vac":true,"version":"7701286","steam_id":85568392925397851,"keywords":["cp","nocrits","nodmgspread","uncletopia"],"game_id":440,"stv_port":27026,"stv_name":"Uncletopia | Warsaw | 2 | All Maps | STV","players":null},{"server_id":51,"name":"Uncletopia | Warsaw | 3 | All Maps","name_short":"waw-3","host":"waw-1.pl.uncletopia.com","port":27035,"enabled":true,"region":"eu","cc":"pl","latitude":52.2297,"longitude":21.017532,"reserved":0,"last_update":"0001-01-01T00:00:00Z","name_a2s":"Uncletopia | Warsaw | 3 | All Maps","protocol":17,"map":"koth_highpass","folder":"tf","game":"Team Fortress","app_id":440,"player_count":0,"max_players":24,"Bots":0,"server_type":"Dedicated","server_os":"Linux","password":true,"vac":true,"version":"7701286","steam_id":85568392925397852,"keywords":["cp","nocrits","nodmgspread","uncletopia"],"game_id":440,"stv_port":27036,"stv_name":"Uncletopia | Warsaw | 3 | All Maps | STV","players":null},{"server_id":52,"name":"Uncletopia | Warsaw | 4 | All Maps","name_short":"waw-4","host":"waw-1.pl.uncletopia.com","port":27045,"enabled":true,"region":"eu","cc":"pl","latitude":52.2297,"longitude":21.017532,"reserved":0,"last_update":"0001-01-01T00:00:00Z","name_a2s":"Uncletopia | Warsaw | 4 | All Maps","protocol":17,"map":"cp_dustbowl","folder":"tf","game":"Team Fortress","app_id":440,"player_count":0,"max_players":24,"Bots":0,"server_type":"Dedicated","server_os":"Linux","password":true,"vac":true,"version":"7701286","steam_id":85568392925397853,"keywords":["cp","nocrits","nodmgspread","uncletopia"],"game_id":440,"stv_port":27046,"stv_name":"Uncletopia | Warsaw | 4 | All Maps | STV","players":null},{"server_id":53,"name":"Uncletopia | Warsaw | 5 | No Payload","name_short":"waw-5","host":"waw-1.pl.uncletopia.com","port":27055,"enabled":true,"region":"eu","cc":"pl","latitude":52.2297,"longitude":21.017532,"reserved":0,"last_update":"0001-01-01T00:00:00Z","name_a2s":"Uncletopia | Warsaw | 5 | No Payload","protocol":17,"map":"cp_yukon_final","folder":"tf","game":"Team Fortress","app_id":440,"player_count":0,"max_players":24,"Bots":0,"server_type":"Dedicated","server_os":"Linux","password":true,"vac":true,"version":"7701286","steam_id":85568392925397854,"keywords":["cp","nocrits","nodmgspread","uncletopia"],"game_id":440,"stv_port":27056,"stv_name":"Uncletopia | Warsaw | 5 | No Payload | STV","players":null},{"server_id":54,"name":"Uncletopia | Warsaw | 6 | Community","name_short":"waw-6","host":"waw-1.pl.uncletopia.com","port":27065,"enabled":true,"region":"eu","cc":"pl","latitude":52.2297,"longitude":21.017532,"reserved":0,"last_update":"0001-01-01T00:00:00Z","name_a2s":"Uncletopia | Warsaw | 6 | Community","protocol":17,"map":"workshop/koth_synthetic_rc6a.ugc1549817316","folder":"tf","game":"Team Fortress","app_id":440,"player_count":0,"max_players":24,"Bots":0,"server_type":"Dedicated","server_os":"Linux","password":true,"vac":true,"version":"7701286","steam_id":85568392925397856,"keywords":["cp","nocrits","nodmgspread","uncletopia"],"game_id":440,"stv_port":27066,"stv_name":"Uncletopia | Warsaw | 6 | Community | STV","players":null}]}