{"status":true,"message":"","result":[{"server_id":9,"name":"Uncletopia | Atlanta | 1 | All Maps","name_short":"atl-1","host":"atl-1.us.uncletopia.com","port":27015,"enabled":true,"region":"us-east","cc":"us","latitude":33.753746,"longitude":-84.38633,"reserved":0,"last_update":"0001-01-01T00:00:00Z","name_a2s":"Uncletopia | Atlanta | 1 | All Maps","protocol":17,"map":"pl_upward","folder":"tf","game":"Team Fortress","app_id":440,"player_count":24,"max_players":24,"Bots":0,"server_type":"Dedicated","server_os":"Linux","password":true,"vac":true,"version":"7723704","steam_id":85568392924469982,"keywords":["nocrits","nodmgspread","payload","uncletopia"],"game_id":440,"stv_port":27016,"stv_name":"Uncletopia | Atlanta | 1 | All Maps | STV","players":[{"user_id":443,"name":"That One Guy","steam_id":76561198945646560,"connected_time":2073000000000,"state":"active","ping":93},{"user_id":410,"name":"Warlock","steam_id":76561198801747883,"connected_time":4638000000000,"state":"active","ping":88},{"user_id":446,"name":"Reversed","steam_id":76561198136433466,"connected_time":1932000000000,"state":"active","ping":73},{"user_id":462,"name":"Phestive Pango","steam_id":76561198069811545,"connected_time":411000000000,"state":"active","ping":45},{"user_id":444,"name":"DragonStealer","steam_id":76561198418752380,"connected_time":1983000000000,"state":"active","ping":48},{"user_id":459,"name":"Ver","steam_id":76561198212493080,"connected_time":781000000000,"state":"active","ping":54},{"user_id":463,"name":"Pydro","steam_id":76561197995995820,"connected_time":389000000000,"state":"active","ping":60},{"user_id":458,"name":"Manrage","steam_id":76561198043798397,"connected_time":818000000000,"state":"active","ping":59},{"user_id":461,"name":"massive wang","steam_id":76561199091221238,"connected_time":595000000000,"state":"active","ping":49},{"user_id":442,"name":"Nnyllazxz","steam_id":76561198247797436,"connected_time":2302000000000,"state":"active","ping":67},{"user_id":460,"name":"whimmu","steam_id":76561198370839794,"connected_time":771000000000,"state":"active","ping":134},{"user_id":403,"name":"Young-OG","steam_id":76561198058800479,"connected_time":5841000000000,"state":"active","ping":65},{"user_id":451,"name":"Whizzo the Clown","steam_id":76561197995910627,"connected_time":1353000000000,"state":"active","ping":77},{"user_id":457,"name":"Granny Krissy","steam_id":76561197960848174,"connected_time":823000000000,"state":"active","ping":69},{"user_id":456,"name":"amagicowl","steam_id":76561199060487814,"connected_time":834000000000,"state":"active","ping":96},{"user_id":435,"name":"Mantra","steam_id":76561198058505094,"connected_time":3104000000000,"state":"active","ping":167},{"user_id":411,"name":"Apetometrist","steam_id":76561198045391635,"connected_time":4616000000000,"state":"active","ping":82},{"user_id":421,"name":"nalezinik","steam_id":76561198030026119,"connected_time":3712000000000,"state":"active","ping":82},{"user_id":454,"name":"YoshaBoss","steam_id":76561198449656454,"connected_time":1000000000000,"state":"active","ping":81},{"user_id":350,"name":"vid_","steam_id":76561198065159053,"connected_time":9666000000000,"state":"active","ping":50},{"user_id":445,"name":"jazztree14","steam_id":76561199239395356,"connected_time":1965000000000,"state":"active","ping":74},{"user_id":455,"name":"Nyle","steam_id":76561198045652639,"connected_time":839000000000,"state":"active","ping":120},{"user_id":437,"name":"name him golfball","steam_id":76561198068958789,"connected_time":3025000000000,"state":"active","ping":44},{"user_id":453,"name":"Quiggles lft","steam_id":76561199177247655,"connected_time":1054000000000,"state":"active","ping":54}]},{"server_id":400,"name":"Uncletopia | Atlanta | 3 | Stopwatch Beta","name_short":"atl-3","host":"atl-1.us.uncletopia.com","port":27035,"enabled":true,"region":"us-east","cc":"us","latitude":33.753746,"longitude":-84.38633,"reserved":0,"last_update":"0001-01-01T00:00:00Z","name_a2s":"Uncletopia | Atlanta | 3 | Stopwatch Beta","protocol":17,"map":"koth_cascade","folder":"tf","game":"Team Fortress","app_id":440,"player_count":0,"max_players":24,"Bots":0,"server_type":"Dedicated","server_os":"Linux","password":true,"vac":true,"version":"7723704","steam_id":85568392924515187,"keywords":["cp","nocrits","nodmgspread","uncletopia"],"game_id":440,"stv_port":27036,"stv_name":"Uncletopia | Atlanta | 3 | Stopwatch Beta | STV","players":null},{"server_id":401,"name":"Uncletopia | Atlanta | 4 | No Payload","name_short":"atl-4","host":"atl-1.us.uncletopia.com","port":27045,"enabled":true,"region":"us-east","cc":"us","latitude":33.753746,"longitude":-84.38633,"reserved":0,"last_update":"0001-01-01T00:00:00Z","name_a2s":"Uncletopia | Atlanta | 4 | No Payload","protocol":17,"map":"pl_pier","folder":"tf","game":"Team Fortress","app_id":440,"player_count":0,"max_players":24,"Bots":0,"server_type":"Dedicated","server_os":"Linux","password":true,"vac":true,"version":"7723704","steam_id":85568392924515188,"keywords":["nocrits","nodmgspread","payload","uncletopia"],"game_id":440,"stv_port":27046,"stv_name":"Uncletopia | Atlanta | 4 | No Payload | STV","players":null},{"server_id":2,"name":"Uncletopia | Chicago | 1 | All Maps","name_short":"chi-1","host":"chi-1.us.uncletopia.com","port":27015,"enabled":true,"region":"us-central","cc":"us","latitude":41.881832,"longitude":-87.62318,"reserved":0,"last_update":"0001-01-01T00:00:00Z","name_a2s":"Uncletopia | Chicago | 1 | All Maps","protocol":17,"map":"cp_mountainlab","folder":"tf","game":"Team Fortress","app_id":440,"player_count":24,"max_players":24,"Bots":0,"server_type":"Dedicated","server_os":"Linux","password":true,"vac":true,"version":"7723704","steam_id":85568392924469984,"keywords":["cp","nocrits","nodmgspread","uncletopia"],"game_id":440,"stv_port":27016,"stv_name":"Uncletopia | Chicago | 1 | All Maps | STV","players":[{"user_id":186,"name":"14 INCH TGIRL SCHLONG","steam_id":76561198122059018,"connected_time":2135000000000,"state":"active","ping":58},{"user_id":198,"name":"Rein","steam_id":76561198300340427,"connected_time":1623000000000,"state":"active","ping":59},{"user_id":189,"name":"Flyingcat9000","steam_id":76561198179561797,"connected_time":2114000000000,"state":"active","ping":90},{"user_id":228,"name":"BuckShotBarva","steam_id":76561198170425169,"connected_time":338000000000,"state":"active","ping":45},{"user_id":216,"name":"[T]aKer","steam_id":76561198001778013,"connected_time":748000000000,"state":"active","ping":134},{"user_id":204,"name":"ipadkid","steam_id":76561199239446808,"connected_time":1441000000000,"state":"active","ping":55},{"user_id":209,"name":"Money Collector","steam_id":76561198046249467,"connected_time":864000000000,"state":"active","ping":47},{"user_id":230,"name":"Dukelol323","steam_id":76561198009815330,"connected_time":267000000000,"state":"active","ping":65},{"user_id":224,"name":"buzz","steam_id":76561198107899101,"connected_time":642000000000,"state":"active","ping":74},{"user_id":163,"name":"des","steam_id":76561198079226634,"connected_time":3652000000000,"state":"active","ping":63},{"user_id":150,"name":"TheToastingToaster","steam_id":76561198439391966,"connected_time":4200000000000,"state":"active","ping":60},{"user_id":217,"name":"48","steam_id":76561198156422760,"connected_time":736000000000,"state":"active","ping":62},{"user_id":164,"name":"Dilbert","steam_id":76561198195613682,"connected_time":3628000000000,"state":"active","ping":81},{"user_id":231,"name":"Now I'm a Little Motivated","steam_id":76561198069580305,"connected_time":202000000000,"state":"active","ping":45},{"user_id":218,"name":"BeeMoe","steam_id":76561198002100697,"connected_time":711000000000,"state":"active","ping":50},{"user_id":203,"name":"Daksuki","steam_id":76561198084127751,"connected_time":1445000000000,"state":"active","ping":75},{"user_id":227,"name":"fence","steam_id":76561198126344218,"connected_time":398000000000,"state":"active","ping":60},{"user_id":229,"name":"BenteBent","steam_id":76561198297920637,"connected_time":327000000000,"state":"active","ping":148},{"user_id":159,"name":"Froyo DING DONG","steam_id":76561198379421700,"connected_time":3813000000000,"state":"active","ping":74},{"user_id":187,"name":"InstantSnowcone","steam_id":76561198067556825,"connected_time":2128000000000,"state":"active","ping":62},{"user_id":232,"name":"Chezburgures","steam_id":76561198173043730,"connected_time":5000000000,"state":"spawning","ping":97},{"user_id":154,"name":"konrad","steam_id":76561198065356081,"connected_time":3947000000000,"state":"active","ping":104},{"user_id":222,"name":"beefwellington1995@aol.com","steam_id":76561199085931379,"connected_time":693000000000,"state":"active","ping":60},{"user_id":226,"name":"poopass","steam_id":76561197988226228,"connected_time":616000000000,"state":"active","ping":52}]},{"server_id":106,"name":"Uncletopia | Chicago | 2 | All Maps","name_short":"chi-2","host":"chi-1.us.uncletopia.com","port":27025,"enabled":true,"region":"us-central","cc":"us","latitude":41.881832,"longitude":-87.62318,"reserved":0,"last_update":"0001-01-01T00:00:00Z","name_a2s":"Uncletopia | Chicago | 2 | All Maps","protocol":17,"map":"koth_highpass","folder":"tf","game":"Team Fortress","app_id":440,"player_count":0,"max_players":24,"Bots":0,"server_type":"Dedicated","server_os":"Linux","password":true,"vac":true,"version":"7723704","steam_id":85568392924469985,"keywords":["cp","nocrits","nodmgspread","uncletopia"],"game_id":440,"stv_port":27026,"stv_name":"Uncletopia | Chicago | 2 | All Maps | STV","players":null},{"server_id":402,"name":"Uncletopia | Chicago | 3 | All Maps","name_short":"chi-3","host":"chi-1.us.uncletopia.com","port":27035,"enabled":true,"region":"us-central","cc":"us","latitude":41.881832,"longitude":-87.62318,"reserved":0,"last_update":"0001-01-01T00:00:00Z","name_a2s":"Uncletopia | Chicago | 3 | All Maps","protocol":17,"map":"pl_borneo","folder":"tf","game":"Team Fortress","app_id":440,"player_count":0,"max_players":24,"Bots":0,"server_type":"Dedicated","server_os":"Linux","password":true,"vac":true,"version":"7723704","steam_id":85568392924515191,"keywords":["nocrits","nodmgspread","payload","uncletopia"],"game_id":440,"stv_port":27036,"stv_name":"Uncletopia | Chicago | 3 | All Maps | STV","players":null},{"server_id":403,"name":"Uncletopia | Chicago | 4 | All Maps","name_short":"chi-4","host":"chi-1.us.uncletopia.com","port":27045,"enabled":true,"region":"us-central","cc":"us","latitude":41.881832,"longitude":-87.62318,"reserved":0,"last_update":"0001-01-01T00:00:00Z","name_a2s":"Uncletopia | Chicago | 4 | All Maps","protocol":17,"map":"pl_borneo","folder":"tf","game":"Team Fortress","app_id":440,"player_count":0,"max_players":24,"Bots":0,"server_type":"Dedicated","server_os":"Linux","password":true,"vac":true,"version":"7723704","steam_id":85568392924515193,"keywords":["nocrits","nodmgspread","payload","uncletopia"],"game_id":440,"stv_port":27046,"stv_name":"Uncletopia | Chicago | 4 | All Maps | STV","players":null},{"server_id":36,"name":"Uncletopia | Chicago | 5 | All Maps","name_short":"chi-5","host":"chi-2.us.uncletopia.com","port":27015,"enabled":true,"region":"us-central","cc":"us","latitude":41.881832,"longitude":-87.62318,"reserved":0,"last_update":"0001-01-01T00:00:00Z","name_a2s":"Uncletopia | Chicago | 5 | All Maps","protocol":17,"map":"koth_cascade","folder":"tf","game":"Team Fortress","app_id":440,"player_count":0,"max_players":24,"Bots":0,"server_type":"Dedicated","server_os":"Linux","password":true,"vac":true,"version":"7723704","steam_id":85568392924866362,"keywords":["cp","nocrits","nodmgspread","uncletopia"],"game_id":440,"stv_port":27016,"stv_name":"Uncletopia | Chicago | 5 | All Maps | STV","players":null},{"server_id":37,"name":"Uncletopia | Chicago | 6 | All Maps","name_short":"chi-6","host":"chi-2.us.uncletopia.com","port":27025,"enabled":true,"region":"us-central","cc":"us","latitude":41.881832,"longitude":-87.62318,"reserved":0,"last_update":"0001-01-01T00:00:00Z","name_a2s":"Uncletopia | Chicago | 6 | All Maps","protocol":17,"map":"pl_swiftwater_final1","folder":"tf","game":"Team Fortress","app_id":440,"player_count":0,"max_players":24,"Bots":0,"server_type":"Dedicated","server_os":"Linux","password":true,"vac":true,"version":"7723704","steam_id":85568392924866363,"keywords":["nocrits","nodmgspread","payload","uncletopia"],"game_id":440,"stv_port":27026,"stv_name":"Uncletopia | Chicago | 6 | All Maps | STV","players":null},{"server_id":38,"name":"Uncletopia | Chicago | 7 | Stopwatch Beta","name_short":"chi-7","host":"chi-2.us.uncletopia.com","port":27035,"enabled":true,"region":"us-central","cc":"us","latitude":41.881832,"longitude":-87.62318,"reserved":0,"last_update":"0001-01-01T00:00:00Z","name_a2s":"Uncletopia | Chicago | 7 | Stopwatch Beta","protocol":17,"map":"workshop/koth_bagel_rc5.ugc2514036946","folder":"tf","game":"Team Fortress","app_id":440,"player_count":23,"max_players":24,"Bots":0,"server_type":"Dedicated","server_os":"Linux","password":true,"vac":true,"version":"7723704","steam_id":85568392924866364,"keywords":["cp","nocrits","nodmgspread","uncletopia"],"game_id":440,"stv_port":27036,"stv_name":"Uncletopia | Chicago | 7 | Stopwatch Beta | STV","players":[{"user_id":169,"name":"That Sounds Serious","steam_id":76561198247719128,"connected_time":157000000000,"state":"active","ping":121},{"user_id":146,"name":"n8thegr83008","steam_id":76561198214814260,"connected_time":1069000000000,"state":"active","ping":75},{"user_id":147,"name":"Dr. Birb","steam_id":76561198141939154,"connected_time":1044000000000,"state":"active","ping":74},{"user_id":172,"name":"IncogNeeto","steam_id":76561199091278006,"connected_time":7000000000,"state":"spawning","ping":125},{"user_id":161,"name":"cologne","steam_id":76561198069600113,"connected_time":630000000000,"state":"active","ping":60},{"user_id":164,"name":"kiwiichie ‚Çç·ê¢·ê¢‚Çé","steam_id":76561198315449521,"connected_time":421000000000,"state":"active","ping":83},{"user_id":138,"name":"Errrmmett","steam_id":76561198041314051,"connected_time":2688000000000,"state":"active","ping":59},{"user_id":171,"name":"Burning Monk","steam_id":76561198040700875,"connected_time":18000000000,"state":"active","ping":78},{"user_id":159,"name":"Woke Bush","steam_id":76561198047994501,"connected_time":927000000000,"state":"active","ping":57},{"user_id":109,"name":"Sputnix","steam_id":76561198236857310,"connected_time":3659000000000,"state":"active","ping":56},{"user_id":153,"name":"festivestuntman","steam_id":76561198056911537,"connected_time":1001000000000,"state":"active","ping":61},{"user_id":59,"name":"Evolution","steam_id":76561198144767370,"connected_time":7245000000000,"state":"active","ping":55},{"user_id":116,"name":"[BBC] Justario","steam_id":76561198016095410,"connected_time":3280000000000,"state":"active","ping":83},{"user_id":101,"name":"ChaoticAngel","steam_id":76561198293528217,"connected_time":3939000000000,"state":"active","ping":64},{"user_id":154,"name":"braindead","steam_id":76561198012462879,"connected_time":987000000000,"state":"active","ping":64},{"user_id":165,"name":"Carson","steam_id":76561198076771071,"connected_time":329000000000,"state":"active","ping":49},{"user_id":156,"name":"Aunty Frazzle","steam_id":76561198145596626,"connected_time":978000000000,"state":"active","ping":112},{"user_id":157,"name":"Militant Pacifist","steam_id":76561198290691432,"connected_time":973000000000,"state":"active","ping":112},{"user_id":167,"name":"Lumberjane37 (She/Her)","steam_id":76561198014841793,"connected_time":208000000000,"state":"active","ping":103},{"user_id":162,"name":"Lolbyte","steam_id":76561199239627724,"connected_time":610000000000,"state":"active","ping":181},{"user_id":136,"name":"Hindmost","steam_id":76561199081837220,"connected_time":2904000000000,"state":"active","ping":123},{"user_id":168,"name":"jerma enthusiast","steam_id":76561198359466264,"connected_time":197000000000,"state":"active","ping":75},{"user_id":87,"name":"¬°ayudame!","steam_id":76561198071421094,"connected_time":5209000000000,"state":"active","ping":100}]},{"server_id":39,"name":"Uncletopia | Chicago | 8 | Community","name_short":"chi-8","host":"chi-2.us.uncletopia.com","port":27045,"enabled":true,"region":"us-central","cc":"us","latitude":41.881832,"longitude":-87.62318,"reserved":0,"last_update":"0001-01-01T00:00:00Z","name_a2s":"Uncletopia | Chicago | 8 | Community","protocol":17,"map":"pl_frontier_final","folder":"tf","game":"Team Fortress","app_id":440,"player_count":0,"max_players":24,"Bots":0,"server_type":"Dedicated","server_os":"Linux","password":true,"vac":true,"version":"7723704","steam_id":85568392924866365,"keywords":["nocrits","nodmgspread","payload","uncletopia"],"game_id":440,"stv_port":27046,"stv_name":"Uncletopia | Chicago | 8 | Community | STV","players":null},{"server_id":8,"name":"Uncletopia | Dallas | 1 | All Maps","name_short":"dal-1","host":"dal-1.us.uncletopia.com","port":27015,"enabled":true,"region":"us-central","cc":"us","latitude":32.779167,"longitude":-96.80889,"reserved":0,"last_update":"0001-01-01T00:00:00Z","name_a2s":"Uncletopia | Dallas | 1 | All Maps","protocol":17,"map":"pl_badwater","folder":"tf","game":"Team Fortress","app_id":440,"player_count":22,"max_players":24,"Bots":0,"server_type":"Dedicated","server_os":"Linux","password":true,"vac":true,"version":"7723704","steam_id":85568392924469986,"keywords":["nocrits","nodmgspread","payload","uncletopia"],"game_id":440,"stv_port":27016,"stv_name":"Uncletopia | Dallas | 1 | All Maps | STV","players":[{"user_id":128,"name":"FireQuiz","steam_id":76561198107357249,"connected_time":62000000000,"state":"spawning","ping":115},{"user_id":114,"name":"B.Luga‚Ñ¢","steam_id":76561198046473460,"connected_time":1583000000000,"state":"active","ping":52},{"user_id":129,"name":"Rick Assley","steam_id":76561198365019199,"connected_time":54000000000,"state":"active","ping":76},{"user_id":130,"name":"Cwafflezz","steam_id":76561199116635411,"connected_time":29000000000,"state":"spawning","ping":325},{"user_id":119,"name":"pim","steam_id":76561198095163441,"connected_time":1132000000000,"state":"active","ping":47},{"user_id":127,"name":"Breadskate","steam_id":76561198087730803,"connected_time":81000000000,"state":"active","ping":75},{"user_id":131,"name":"KaiaDoggy","steam_id":76561197997096301,"connected_time":28000000000,"state":"active","ping":48},{"user_id":37,"name":"pinglefingle","steam_id":76561198216580197,"connected_time":5529000000000,"state":"active","ping":47},{"user_id":132,"name":"Daaniil","steam_id":76561198815494004,"connected_time":16000000000,"state":"active","ping":93},{"user_id":121,"name":"CyMeryy","steam_id":76561197984986540,"connected_time":1088000000000,"state":"active","ping":50},{"user_id":115,"name":"yo pierre wanna cum out here","steam_id":76561198800324957,"connected_time":1570000000000,"state":"active","ping":59},{"user_id":87,"name":"Eightyy  Fourr","steam_id":76561197960374225,"connected_time":3599000000000,"state":"active","ping":45},{"user_id":133,"name":"Sanic_Bum","steam_id":76561198094179822,"connected_time":3000000000,"state":"spawning","ping":78},{"user_id":112,"name":"Fishstall","steam_id":76561198038126034,"connected_time":1777000000000,"state":"active","ping":56},{"user_id":106,"name":"Prestoneon003","steam_id":76561198348279581,"connected_time":2229000000000,"state":"active","ping":51},{"user_id":108,"name":"Dinger","steam_id":76561198030119710,"connected_time":2051000000000,"state":"active","ping":78},{"user_id":123,"name":"Dang Nematodes","steam_id":76561198847811727,"connected_time":596000000000,"state":"active","ping":60},{"user_id":110,"name":"Female Gamer","steam_id":76561199366482682,"connected_time":1858000000000,"state":"active","ping":104},{"user_id":122,"name":"SumrandomS","steam_id":76561199208168857,"connected_time":883000000000,"state":"active","ping":77},{"user_id":50,"name":"OCDkitty","steam_id":76561198266296221,"connected_time":5129000000000,"state":"active","ping":45},{"user_id":113,"name":"Sulfolobus solfataricus","steam_id":76561197990989868,"connected_time":1699000000000,"state":"active","ping":74},{"user_id":116,"name":"The Squid Gamer‚Ñ¢","steam_id":76561198340621517,"connected_time":1529000000000,"state":"active","ping":91}]},{"server_id":108,"name":"Uncletopia | Dallas | 2 | All Maps","name_short":"dal-2","host":"dal-1.us.uncletopia.com","port":27025,"enabled":true,"region":"us-central","cc":"us","latitude":32.779167,"longitude":-96.80889,"reserved":0,"last_update":"0001-01-01T00:00:00Z","name_a2s":"Uncletopia | Dallas | 2 | All Maps","protocol":17,"map":"pl_badwater","folder":"tf","game":"Team Fortress","app_id":440,"player_count":24,"max_players":24,"Bots":0,"server_type":"Dedicated","server_os":"Linux","password":true,"vac":true,"version":"7723704","steam_id":85568392924469988,"keywords":["nocrits","nodmgspread","payload","uncletopia"],"game_id":440,"stv_port":27026,"stv_name":"Uncletopia | Dallas | 2 | All Maps | STV","players":[{"user_id":39,"name":"TH-1","steam_id":76561197993467034,"connected_time":677000000000,"state":"active","ping":60},{"user_id":6,"name":"dealer","steam_id":76561197961095970,"connected_time":1789000000000,"state":"active","ping":89},{"user_id":36,"name":"E_picheski","steam_id":76561199038492597,"connected_time":812000000000,"state":"active","ping":40},{"user_id":26,"name":"Derply","steam_id":76561198871211642,"connected_time":1135000000000,"state":"active","ping":69},{"user_id":9,"name":"Youmu","steam_id":76561198290751647,"connected_time":1661000000000,"state":"active","ping":69},{"user_id":40,"name":"That Dude","steam_id":76561198980486227,"connected_time":399000000000,"state":"active","ping":78},{"user_id":27,"name":"Whoa","steam_id":76561197970353496,"connected_time":1127000000000,"state":"active","ping":82},{"user_id":17,"name":"Deno! Í∞ÑÎ∂Ä","steam_id":76561198041113335,"connected_time":1416000000000,"state":"active","ping":96},{"user_id":19,"name":"Cilisarite","steam_id":76561198322111174,"connected_time":1248000000000,"state":"active","ping":68},{"user_id":42,"name":"the smiling zombie","steam_id":76561199246231090,"connected_time":205000000000,"state":"active","ping":72},{"user_id":41,"name":"superx","steam_id":76561198044976613,"connected_time":339000000000,"state":"active","ping":83},{"user_id":20,"name":"Overlord","steam_id":76561198079135523,"connected_time":1231000000000,"state":"active","ping":161},{"user_id":43,"name":"sagekiss","steam_id":76561198038831240,"connected_time":190000000000,"state":"active","ping":100},{"user_id":44,"name":"KFC‚ò≠","steam_id":76561199206815320,"connected_time":176000000000,"state":"active","ping":78},{"user_id":45,"name":"nikko10","steam_id":76561199443218050,"connected_time":150000000000,"state":"active","ping":81},{"user_id":24,"name":"Yeagle","steam_id":76561199086620299,"connected_time":1158000000000,"state":"active","ping":54},{"user_id":25,"name":"Serene Salamander","steam_id":76561198001094770,"connected_time":1145000000000,"state":"active","ping":80},{"user_id":28,"name":"Alpharius","steam_id":76561198044479864,"connected_time":1121000000000,"state":"active","ping":64},{"user_id":29,"name":"Lord Scrubling","steam_id":76561198263744445,"connected_time":1097000000000,"state":"active","ping":45},{"user_id":46,"name":"Bowl of Cereal Gaming","steam_id":76561199042252292,"connected_time":149000000000,"state":"active","ping":80},{"user_id":47,"name":"uzr","steam_id":76561198799343084,"connected_time":94000000000,"state":"active","ping":85},{"user_id":32,"name":"i will unheal your scars","steam_id":76561198067994868,"connected_time":1034000000000,"state":"active","ping":96},{"user_id":38,"name":"spunch bub","steam_id":76561198326658210,"connected_time":755000000000,"state":"active","ping":66},{"user_id":34,"name":"Drilly22","steam_id":76561198068838338,"connected_time":1013000000000,"state":"active","ping":67}]},{"server_id":5,"name":"Uncletopia | Frankfurt | 1 | All Maps","name_short":"frk-1","host":"frk-1.de.uncletopia.com","port":27015,"enabled":true,"region":"eu","cc":"de","latitude":50.110924,"longitude":8.682127,"reserved":0,"last_update":"0001-01-01T00:00:00Z","name_a2s":"Uncletopia | Frankfurt | 1 | All Maps","protocol":17,"map":"pl_badwater","folder":"tf","game":"Team Fortress","app_id":440,"player_count":24,"max_players":24,"Bots":0,"server_type":"Dedicated","server_os":"Linux","password":true,"vac":true,"version":"7723704","steam_id":85568392924469989,"keywords":["nocrits","nodmgspread","payload","uncletopia"],"game_id":440,"stv_port":27016,"stv_name":"Uncletopia | Frankfurt | 1 | All Maps | STV","players":[{"user_id":267,"name":"auto","steam_id":76561198062247888,"connected_time":795000000000,"state":"active","ping":74},{"user_id":262,"name":"sasibak123@gmail.ru","steam_id":76561198981533174,"connected_time":1110000000000,"state":"active","ping":78},{"user_id":268,"name":"TheNothinkness","steam_id":76561199063416016,"connected_time":778000000000,"state":"active","ping":104},{"user_id":206,"name":"Piox","steam_id":76561198125689157,"connected_time":4630000000000,"state":"active","ping":77},{"user_id":274,"name":"r06u3","steam_id":76561198254099253,"connected_time":700000000000,"state":"active","ping":176},{"user_id":243,"name":"solo perkutia","steam_id":76561198187377499,"connected_time":2312000000000,"state":"active","ping":90},{"user_id":280,"name":"DrExplosive","steam_id":76561198063678579,"connected_time":226000000000,"state":"active","ping":50},{"user_id":269,"name":"„ÉÜ„Ç§„É´„Çπ","steam_id":76561198022403271,"connected_time":766000000000,"state":"active","ping":45},{"user_id":237,"name":"jge","steam_id":76561198123186387,"connected_time":2522000000000,"state":"active","ping":55},{"user_id":155,"name":"dairy","steam_id":76561198117033273,"connected_time":8559000000000,"state":"active","ping":74},{"user_id":270,"name":"wargasm","steam_id":76561198093084386,"connected_time":753000000000,"state":"active","ping":61},{"user_id":264,"name":"pezza","steam_id":76561197995173247,"connected_time":852000000000,"state":"active","ping":59},{"user_id":104,"name":"citronous","steam_id":76561198093290934,"connected_time":11540000000000,"state":"active","ping":55},{"user_id":265,"name":"Valoxi","steam_id":76561197995042938,"connected_time":852000000000,"state":"active","ping":61},{"user_id":244,"name":"gunna","steam_id":76561198873192184,"connected_time":2109000000000,"state":"active","ping":96},{"user_id":278,"name":"calywtrawie","steam_id":76561197986723054,"connected_time":603000000000,"state":"active","ping":69},{"user_id":271,"name":"Janek8914","steam_id":76561198379984813,"connected_time":736000000000,"state":"active","ping":75},{"user_id":272,"name":"Gintarthes","steam_id":76561199219875566,"connected_time":733000000000,"state":"active","ping":78},{"user_id":273,"name":"Wardruna96","steam_id":76561199057083828,"connected_time":716000000000,"state":"active","ping":83},{"user_id":275,"name":"default","steam_id":76561198186182298,"connected_time":692000000000,"state":"active","ping":55},{"user_id":279,"name":"Kah-Loom","steam_id":76561198015759140,"connected_time":269000000000,"state":"active","ping":68},{"user_id":247,"name":"Urfangonultasadana","steam_id":76561199389286151,"connected_time":2040000000000,"state":"active","ping":89},{"user_id":229,"name":"Eyencia","steam_id":76561198834995822,"connected_time":2959000000000,"state":"active","ping":85},{"user_id":277,"name":"Pruff","steam_id":76561198377084417,"connected_time":639000000000,"state":"active","ping":64}]},{"server_id":110,"name":"Uncletopia | Frankfurt | 2 | All Maps","name_short":"frk-2","host":"frk-1.de.uncletopia.com","port":27025,"enabled":true,"region":"eu","cc":"de","latitude":50.110924,"longitude":8.682127,"reserved":0,"last_update":"0001-01-01T00:00:00Z","name_a2s":"Uncletopia | Frankfurt | 2 | All Maps","protocol":17,"map":"pl_borneo","folder":"tf","game":"Team Fortress","app_id":440,"player_count":24,"max_players":24,"Bots":0,"server_type":"Dedicated","server_os":"Linux","password":true,"vac":true,"version":"7723704","steam_id":85568392924469990,"keywords":["nocrits","nodmgspread","payload","uncletopia"],"game_id":440,"stv_port":27026,"stv_name":"Uncletopia | Frankfurt | 2 | All Maps | STV","players":[{"user_id":249,"name":"Scary Gary","steam_id":76561198128659449,"connected_time":420000000000,"state":"active","ping":77},{"user_id":232,"name":"Windows Vista Cruiser","steam_id":76561198064102233,"connected_time":1731000000000,"state":"active","ping":65},{"user_id":250,"name":"jogez","steam_id":76561198267612598,"connected_time":415000000000,"state":"active","ping":90},{"user_id":254,"name":"coyo","steam_id":76561198079583195,"connected_time":360000000000,"state":"active","ping":61},{"user_id":233,"name":"ma10ass","steam_id":76561198050693480,"connected_time":1721000000000,"state":"active","ping":57},{"user_id":228,"name":"TucTuc","steam_id":76561198140656686,"connected_time":1975000000000,"state":"active","ping":77},{"user_id":241,"name":"mm$$$$$$$$$$$$$$$$$","steam_id":76561198048741472,"connected_time":1081000000000,"state":"active","ping":55},{"user_id":252,"name":"Blue is ez","steam_id":76561198081239400,"connected_time":395000000000,"state":"active","ping":56},{"user_id":238,"name":"unbelievable polish behavior","steam_id":76561198126524735,"connected_time":1125000000000,"state":"active","ping":75},{"user_id":168,"name":"Rappin' Sebastian","steam_id":76561198453928256,"connected_time":6916000000000,"state":"active","ping":81},{"user_id":183,"name":"Sanctified","steam_id":76561198057092208,"connected_time":6164000000000,"state":"active","ping":59},{"user_id":231,"name":"(Hu$tl3r) E1s","steam_id":76561198894958917,"connected_time":1748000000000,"state":"active","ping":47},{"user_id":133,"name":"VioBeeyo","steam_id":76561198066258544,"connected_time":9344000000000,"state":"active","ping":56},{"user_id":184,"name":"Artemis","steam_id":76561198199091801,"connected_time":6149000000000,"state":"active","ping":48},{"user_id":199,"name":"Coac","steam_id":76561198085265740,"connected_time":5173000000000,"state":"active","ping":75},{"user_id":137,"name":"VBNM","steam_id":76561198316509516,"connected_time":9207000000000,"state":"active","ping":70},{"user_id":237,"name":"Mantis Toboggan, M.D","steam_id":76561197963562704,"connected_time":1275000000000,"state":"active","ping":73},{"user_id":192,"name":"Sloppy polish handyman","steam_id":76561198126398022,"connected_time":5588000000000,"state":"active","ping":72},{"user_id":213,"name":"chubby little looser","steam_id":76561198062107879,"connected_time":3716000000000,"state":"active","ping":87},{"user_id":217,"name":"semi-homeless polish alcoholic","steam_id":76561199433578516,"connected_time":2891000000000,"state":"active","ping":85},{"user_id":256,"name":"Mr. Hunts","steam_id":76561197981910397,"connected_time":2000000000,"state":"spawning","ping":67},{"user_id":242,"name":"Spageti","steam_id":76561198074122906,"connected_time":1071000000000,"state":"active","ping":85},{"user_id":255,"name":"≈Ωgr√¶√êek113","steam_id":76561198306883632,"connected_time":160000000000,"state":"spawning","ping":161},{"user_id":247,"name":"Tomato Jesus (official)","steam_id":76561198374199420,"connected_time":500000000000,"state":"active","ping":90}]},{"server_id":308,"name":"Uncletopia | Frankfurt | 3 | All Maps","name_short":"frk-3","host":"frk-1.de.uncletopia.com","port":27035,"enabled":true,"region":"eu","cc":"de","latitude":50.110924,"longitude":8.682127,"reserved":0,"last_update":"0001-01-01T00:00:00Z","name_a2s":"Uncletopia | Frankfurt | 3 | All Maps","protocol":17,"map":"pl_borneo","folder":"tf","game":"Team Fortress","app_id":440,"player_count":25,"max_players":24,"Bots":0,"server_type":"Dedicated","server_os":"Linux","password":true,"vac":true,"version":"7723704","steam_id":85568392924504274,"keywords":["nocrits","nodmgspread","payload","uncletopia"],"game_id":440,"stv_port":27036,"stv_name":"Uncletopia | Frankfurt | 3 | All Maps | STV","players":[{"user_id":460,"name":"Andreus","steam_id":76561199403926001,"connected_time":1458000000000,"state":"active","ping":68},{"user_id":438,"name":"wasto-/-‚Ñ¢","steam_id":76561198102888038,"connected_time":3191000000000,"state":"active","ping":54},{"user_id":386,"name":"night.s","steam_id":76561198326287823,"connected_time":5800000000000,"state":"active","ping":77},{"user_id":409,"name":"Caliban","steam_id":76561197999696839,"connected_time":4579000000000,"state":"active","ping":90},{"user_id":467,"name":"Evisnodim","steam_id":76561198210616983,"connected_time":609000000000,"state":"active","ping":135},{"user_id":468,"name":"Mr. Mundy","steam_id":76561198132008918,"connected_time":512000000000,"state":"active","ping":73},{"user_id":451,"name":"Yony","steam_id":76561199070569941,"connected_time":2438000000000,"state":"active","ping":61},{"user_id":416,"name":"WomenBeardLike","steam_id":76561198390184314,"connected_time":4231000000000,"state":"active","ping":57},{"user_id":360,"name":"*cough*","steam_id":76561198179908677,"connected_time":7378000000000,"state":"active","ping":173},{"user_id":440,"name":"Krof enjoyer","steam_id":76561199101777637,"connected_time":3115000000000,"state":"active","ping":68},{"user_id":462,"name":"vetzakski","steam_id":76561198988041775,"connected_time":1210000000000,"state":"active","ping":71},{"user_id":441,"name":"Nassu","steam_id":76561198147367577,"connected_time":3113000000000,"state":"active","ping":167},{"user_id":448,"name":"ion","steam_id":76561198390406243,"connected_time":2949000000000,"state":"active","ping":74},{"user_id":430,"name":"PrimeTarget","steam_id":76561198046409289,"connected_time":3769000000000,"state":"active","ping":78},{"user_id":428,"name":"red‚ãÜmits","steam_id":76561198015590113,"connected_time":3964000000000,"state":"active","ping":60},{"user_id":457,"name":"Alin","steam_id":76561198059679991,"connected_time":1793000000000,"state":"active","ping":98},{"user_id":461,"name":"Max","steam_id":76561198138959361,"connected_time":1258000000000,"state":"active","ping":53},{"user_id":471,"name":"GOT Ya :)","steam_id":76561198877246517,"connected_time":29000000000,"state":"active","ping":99},{"user_id":453,"name":"√Ñ√§rik ‚ô£","steam_id":76561198131871737,"connected_time":2325000000000,"state":"active","ping":53},{"user_id":425,"name":"Fales","steam_id":76561198126124929,"connected_time":4071000000000,"state":"active","ping":63},{"user_id":445,"name":"WolfmanCZ","steam_id":76561199157141414,"connected_time":3022000000000,"state":"active","ping":72},{"user_id":431,"name":"Weed Obama","steam_id":76561198082407601,"connected_time":3697000000000,"state":"active","ping":72},{"user_id":469,"name":"Kodutah","steam_id":76561198203405574,"connected_time":455000000000,"state":"active","ping":62},{"user_id":472,"name":"(f2p) Patient Zero#savetf2","steam_id":76561199352819594,"connected_time":12000000000,"state":"spawning","ping":112},{"user_id":466,"name":"Gabys","steam_id":76561198282892553,"connected_time":898000000000,"state":"active","ping":74}]},{"server_id":309,"name":"Uncletopia | Frankfurt | 4 | All Maps","name_short":"frk-4","host":"frk-1.de.uncletopia.com","port":27045,"enabled":true,"region":"eu","cc":"de","latitude":50.110924,"longitude":8.682127,"reserved":0,"last_update":"0001-01-01T00:00:00Z","name_a2s":"Uncletopia | Frankfurt | 4 | All Maps","protocol":17,"map":"pl_upward","folder":"tf","game":"Team Fortress","app_id":440,"player_count":24,"max_players":24,"Bots":0,"server_type":"Dedicated","server_os":"Linux","password":true,"vac":true,"version":"7723704","steam_id":85568392924504275,"keywords":["nocrits","nodmgspread","payload","uncletopia"],"game_id":440,"stv_port":27046,"stv_name":"Uncletopia | Frankfurt | 4 | All Maps | STV","players":[{"user_id":225,"name":"simon","steam_id":76561198880361394,"connected_time":207000000000,"state":"active","ping":50},{"user_id":166,"name":"Qwaden","steam_id":76561198881784698,"connected_time":3290000000000,"state":"active","ping":71},{"user_id":211,"name":"Scrample","steam_id":76561198040422830,"connected_time":628000000000,"state":"active","ping":55},{"user_id":200,"name":"dddd","steam_id":76561198120894372,"connected_time":1198000000000,"state":"active","ping":104},{"user_id":187,"name":"saskom","steam_id":76561198365648737,"connected_time":1560000000000,"state":"active","ping":80},{"user_id":202,"name":"Mondy","steam_id":76561198081196528,"connected_time":1120000000000,"state":"active","ping":46},{"user_id":212,"name":"VolcanicArts","steam_id":76561198063453246,"connected_time":620000000000,"state":"active","ping":67},{"user_id":217,"name":"LopaNosets","steam_id":76561199262985244,"connected_time":482000000000,"state":"active","ping":101},{"user_id":203,"name":"kryhu","steam_id":76561198293327713,"connected_time":967000000000,"state":"active","ping":65},{"user_id":180,"name":"Menty","steam_id":76561198036748212,"connected_time":2371000000000,"state":"active","ping":45},{"user_id":196,"name":"Ketman","steam_id":76561198107068955,"connected_time":1385000000000,"state":"active","ping":56},{"user_id":218,"name":"jingleboob","steam_id":76561198097507847,"connected_time":480000000000,"state":"active","ping":74},{"user_id":204,"name":"Sauerkraut","steam_id":76561197996241017,"connected_time":923000000000,"state":"active","ping":57},{"user_id":209,"name":"Kritz","steam_id":76561198056112531,"connected_time":683000000000,"state":"active","ping":61},{"user_id":198,"name":"Yelowchy","steam_id":76561198199416121,"connected_time":1301000000000,"state":"active","ping":111},{"user_id":176,"name":"where is my egg?","steam_id":76561198172542535,"connected_time":2588000000000,"state":"active","ping":75},{"user_id":210,"name":"Gver3113","steam_id":76561198118659012,"connected_time":662000000000,"state":"active","ping":69},{"user_id":219,"name":"bio\"boner killer\"fun","steam_id":76561198170609049,"connected_time":470000000000,"state":"active","ping":65},{"user_id":214,"name":"Grunf","steam_id":76561199006140585,"connected_time":596000000000,"state":"active","ping":83},{"user_id":185,"name":"ozhmium","steam_id":76561198060762216,"connected_time":2035000000000,"state":"active","ping":80},{"user_id":226,"name":"generic alias","steam_id":76561198271607226,"connected_time":31000000000,"state":"active","ping":86},{"user_id":215,"name":"SPONGE","steam_id":76561198040933472,"connected_time":582000000000,"state":"active","ping":90},{"user_id":222,"name":"Jingleboob's 1# Elf","steam_id":76561198067204908,"connected_time":428000000000,"state":"active","ping":68},{"user_id":223,"name":"xanderomeister","steam_id":76561198882550389,"connected_time":306000000000,"state":"active","ping":61}]},{"server_id":310,"name":"Uncletopia | Frankfurt | 5 | All Maps","name_short":"frk-5","host":"frk-1.de.uncletopia.com","port":27055,"enabled":true,"region":"eu","cc":"de","latitude":50.110924,"longitude":8.682127,"reserved":0,"last_update":"0001-01-01T00:00:00Z","name_a2s":"Uncletopia | Frankfurt | 5 | All Maps","protocol":17,"map":"pl_frontier_final","folder":"tf","game":"Team Fortress","app_id":440,"player_count":24,"max_players":24,"Bots":0,"server_type":"Dedicated","server_os":"Linux","password":true,"vac":true,"version":"7723704","steam_id":85568392924504277,"keywords":["nocrits","nodmgspread","payload","uncletopia"],"game_id":440,"stv_port":27056,"stv_name":"Uncletopia | Frankfurt | 5 | All Maps | STV","players":[{"user_id":272,"name":"TheViper","steam_id":76561199220156752,"connected_time":918000000000,"state":"active","ping":63},{"user_id":279,"name":"SaltyCupcakes","steam_id":76561198256386417,"connected_time":463000000000,"state":"active","ping":58},{"user_id":263,"name":"M76030","steam_id":76561198046651252,"connected_time":1308000000000,"state":"active","ping":53},{"user_id":214,"name":"sgt Bytheway","steam_id":76561198094169965,"connected_time":4960000000000,"state":"active","ping":74},{"user_id":261,"name":"WhenSheSuccinUrNuts AndUaGangst","steam_id":76561199063168110,"connected_time":1342000000000,"state":"active","ping":100},{"user_id":262,"name":"The chumbler","steam_id":76561198999161827,"connected_time":1338000000000,"state":"active","ping":61},{"user_id":270,"name":"TheGreenWolf","steam_id":76561198170607033,"connected_time":957000000000,"state":"active","ping":76},{"user_id":258,"name":"-triple","steam_id":76561198119449463,"connected_time":1840000000000,"state":"active","ping":74},{"user_id":265,"name":"Recurracy","steam_id":76561197993421597,"connected_time":1220000000000,"state":"active","ping":53},{"user_id":271,"name":"Ta–øgen","steam_id":76561198120329367,"connected_time":945000000000,"state":"active","ping":94},{"user_id":249,"name":"Formaly_Dressed","steam_id":76561198364309719,"connected_time":2819000000000,"state":"active","ping":75},{"user_id":250,"name":"–ù–µ—á—É–π-–õ–µ–≤–∏—Ü—å–∫–∏–π","steam_id":76561198870926865,"connected_time":2656000000000,"state":"active","ping":50},{"user_id":280,"name":"burritoeater","steam_id":76561199124197813,"connected_time":274000000000,"state":"active","ping":76},{"user_id":268,"name":"Light601","steam_id":76561198134998492,"connected_time":1080000000000,"state":"active","ping":88},{"user_id":213,"name":"Warped","steam_id":76561197989916494,"connected_time":4979000000000,"state":"active","ping":58},{"user_id":220,"name":"norespectforthedevil","steam_id":76561197998922218,"connected_time":4663000000000,"state":"active","ping":95},{"user_id":281,"name":"Alfred2.2","steam_id":76561198339314744,"connected_time":260000000000,"state":"active","ping":67},{"user_id":278,"name":"Blazmobins","steam_id":76561198082899401,"connected_time":600000000000,"state":"active","ping":68},{"user_id":267,"name":"snsmac","steam_id":76561198082821185,"connected_time":1097000000000,"state":"active","ping":48},{"user_id":264,"name":"Appelflap64","steam_id":76561198012819017,"connected_time":1304000000000,"state":"active","ping":67},{"user_id":277,"name":"Uncle Lame","steam_id":76561198089003514,"connected_time":654000000000,"state":"active","ping":45},{"user_id":179,"name":"Pastoss","steam_id":76561198379098260,"connected_time":8057000000000,"state":"active","ping":48},{"user_id":276,"name":"gion","steam_id":76561199065121816,"connected_time":867000000000,"state":"active","ping":98},{"user_id":257,"name":"Void_Walker","steam_id":76561199401516997,"connected_time":1910000000000,"state":"active","ping":65}]},{"server_id":311,"name":"Uncletopia | Frankfurt | 6 | All Maps","name_short":"frk-6","host":"frk-1.de.uncletopia.com","port":27065,"enabled":true,"region":"eu","cc":"de","latitude":50.110924,"longitude":8.682127,"reserved":0,"last_update":"0001-01-01T00:00:00Z","name_a2s":"Uncletopia | Frankfurt | 6 | All Maps","protocol":17,"map":"pl_pier","folder":"tf","game":"Team Fortress","app_id":440,"player_count":24,"max_players":24,"Bots":0,"server_type":"Dedicated","server_os":"Linux","password":true,"vac":true,"version":"7723704","steam_id":85568392924504278,"keywords":["nocrits","nodmgspread","payload","uncletopia"],"game_id":440,"stv_port":27066,"stv_name":"Uncletopia | Frankfurt | 6 | All Maps | STV","players":[{"user_id":511,"name":"Carpe diem.","steam_id":76561199065917088,"connected_time":1172000000000,"state":"active","ping":75},{"user_id":517,"name":"Superiumentarius","steam_id":76561198081642249,"connected_time":578000000000,"state":"active","ping":48},{"user_id":456,"name":"Random Cap","steam_id":76561198129271321,"connected_time":3676000000000,"state":"active","ping":74},{"user_id":526,"name":":(","steam_id":76561198044465070,"connected_time":280000000000,"state":"active","ping":86},{"user_id":503,"name":"C0RVU5","steam_id":76561198295594147,"connected_time":1801000000000,"state":"active","ping":76},{"user_id":519,"name":"LuGiO","steam_id":76561198404105206,"connected_time":559000000000,"state":"active","ping":54},{"user_id":477,"name":"busy busy bee :D","steam_id":76561198128222331,"connected_time":3138000000000,"state":"active","ping":149},{"user_id":470,"name":"Ramefy","steam_id":76561198809895419,"connected_time":3317000000000,"state":"active","ping":81},{"user_id":480,"name":"nobody","steam_id":76561198180637374,"connected_time":3066000000000,"state":"active","ping":80},{"user_id":524,"name":"SealDealer","steam_id":76561198310852145,"connected_time":383000000000,"state":"active","ping":76},{"user_id":501,"name":"Pingus","steam_id":76561198164880756,"connected_time":1845000000000,"state":"active","ping":80},{"user_id":513,"name":"bur","steam_id":76561198824712597,"connected_time":1035000000000,"state":"active","ping":58},{"user_id":505,"name":"ivanmixo","steam_id":76561198160213989,"connected_time":1746000000000,"state":"active","ping":65},{"user_id":521,"name":"Shabab","steam_id":76561198095932210,"connected_time":509000000000,"state":"active","ping":60},{"user_id":497,"name":"rabid","steam_id":76561199368678839,"connected_time":2059000000000,"state":"active","ping":89},{"user_id":428,"name":"girth gremlin","steam_id":76561198436424012,"connected_time":5127000000000,"state":"active","ping":57},{"user_id":518,"name":"Credaseder","steam_id":76561198019712729,"connected_time":574000000000,"state":"active","ping":66},{"user_id":520,"name":"Efic360","steam_id":76561198863389620,"connected_time":553000000000,"state":"active","ping":59},{"user_id":494,"name":"Irbynx","steam_id":76561197980421195,"connected_time":2321000000000,"state":"active","ping":85},{"user_id":523,"name":"Stepoface","steam_id":76561198091569863,"connected_time":397000000000,"state":"active","ping":61},{"user_id":527,"name":"SOUL SURVIVOR","steam_id":76561199042470246,"connected_time":241000000000,"state":"active","ping":57},{"user_id":464,"name":"Ducky[WADZ]üê§","steam_id":76561198060341245,"connected_time":3504000000000,"state":"active","ping":80},{"user_id":507,"name":"troylcarter","steam_id":76561197984065094,"connected_time":1740000000000,"state":"active","ping":179},{"user_id":525,"name":"Kitsune | uWu","steam_id":76561199051966564,"connected_time":381000000000,"state":"active","ping":70}]},{"server_id":23,"name":"Uncletopia | Frankfurt | 7 | Stopwatch Beta","name_short":"frk-7","host":"frk-1.de.uncletopia.com","port":27075,"enabled":true,"region":"eu","cc":"de","latitude":50.110924,"longitude":8.682127,"reserved":0,"last_update":"0001-01-01T00:00:00Z","name_a2s":"Uncletopia | Frankfurt | 7 | Stopwatch Beta","protocol":17,"map":"workshop/pl_barnblitz_pro7.ugc582280235","folder":"tf","game":"Team Fortress","app_id":440,"player_count":1,"max_players":24,"Bots":0,"server_type":"Dedicated","server_os":"Linux","password":true,"vac":true,"version":"7723704","steam_id":85568392924742827,"keywords":["nocrits","nodmgspread","payload","uncletopia"],"game_id":440,"stv_port":27076,"stv_name":"Uncletopia | Frankfurt | 7 | Stopwatch Beta | STV","players":[{"user_id":27,"name":"Denialman (Muted)","steam_id":76561198309182092,"connected_time":313000000000,"state":"active","ping":57}]},{"server_id":24,"name":"Uncletopia | Frankfurt | 8 | Community","name_short":"frk-8","host":"frk-1.de.uncletopia.com","port":27085,"enabled":true,"region":"eu","cc":"de","latitude":50.110924,"longitude":8.682127,"reserved":0,"last_update":"0001-01-01T00:00:00Z","name_a2s":"Uncletopia | Frankfurt | 8 | Community","protocol":17,"map":"workshop/koth_product_final.ugc454272353","folder":"tf","game":"Team Fortress","app_id":440,"player_count":24,"max_players":24,"Bots":0,"server_type":"Dedicated","server_os":"Linux","password":true,"vac":true,"version":"7723704","steam_id":85568392924742828,"keywords":["cp","nocrits","nodmgspread","uncletopia"],"game_id":440,"stv_port":27086,"stv_name":"Uncletopia | Frankfurt | 8 | Community | STV","players":[{"user_id":87,"name":"frosty","steam_id":76561198094560834,"connected_time":998000000000,"state":"active","ping":66},{"user_id":101,"name":"RandomName","steam_id":76561198055552108,"connected_time":319000000000,"state":"active","ping":51},{"user_id":86,"name":"kapsel","steam_id":76561198126564423,"connected_time":1029000000000,"state":"active","ping":63},{"user_id":64,"name":"GodOfGobboz","steam_id":76561198154677956,"connected_time":2247000000000,"state":"active","ping":65},{"user_id":48,"name":"Alice can't hit pipes","steam_id":76561198052410860,"connected_time":2800000000000,"state":"active","ping":139},{"user_id":65,"name":"Cillian","steam_id":76561199046965320,"connected_time":2179000000000,"state":"active","ping":81},{"user_id":83,"name":"Valle (Valdemar)","steam_id":76561198184554894,"connected_time":1366000000000,"state":"active","ping":60},{"user_id":93,"name":"Jonathan","steam_id":76561198087988880,"connected_time":424000000000,"state":"active","ping":58},{"user_id":49,"name":"(can't chat)mafutbolero","steam_id":76561199233664005,"connected_time":2794000000000,"state":"active","ping":70},{"user_id":80,"name":"VK2124 :D","steam_id":76561198111130688,"connected_time":1506000000000,"state":"active","ping":51},{"user_id":52,"name":"Mark","steam_id":76561198808819694,"connected_time":2665000000000,"state":"active","ping":46},{"user_id":102,"name":"DannyM","steam_id":76561198351165570,"connected_time":302000000000,"state":"active","ping":162},{"user_id":97,"name":"Prostate stealer","steam_id":76561198866972538,"connected_time":364000000000,"state":"active","ping":80},{"user_id":98,"name":"ZOGG FearLand","steam_id":76561198352683491,"connected_time":360000000000,"state":"active","ping":58},{"user_id":82,"name":"Miros10","steam_id":76561198196667978,"connected_time":1379000000000,"state":"active","ping":67},{"user_id":58,"name":"Meladoom2","steam_id":76561198086845387,"connected_time":2412000000000,"state":"active","ping":89},{"user_id":59,"name":"Sedoy","steam_id":76561198390666516,"connected_time":2373000000000,"state":"active","ping":92},{"user_id":68,"name":"Feelin' Supersonic","steam_id":76561198005738407,"connected_time":1903000000000,"state":"active","ping":75},{"user_id":66,"name":"ceo","steam_id":76561198108833597,"connected_time":2174000000000,"state":"active","ping":51},{"user_id":95,"name":"Ancient Mariner","steam_id":76561198209101861,"connected_time":402000000000,"state":"active","ping":70},{"user_id":103,"name":"Frog Dude","steam_id":76561198859366097,"connected_time":240000000000,"state":"active","ping":70},{"user_id":78,"name":"Osmo","steam_id":76561199286764992,"connected_time":1522000000000,"state":"active","ping":81},{"user_id":100,"name":"cez","steam_id":76561198361380956,"connected_time":322000000000,"state":"active","ping":70},{"user_id":105,"name":"i heal gay people","steam_id":76561198032167311,"connected_time":109000000000,"state":"active","ping":81}]},{"server_id":202,"name":"Uncletopia | Hong Kong | 1 | All Maps","name_short":"hgk-1","host":"hgk-1.hk.uncletopia.com","port":27015,"enabled":true,"region":"asia","cc":"hk","latitude":22.302711,"longitude":114.177216,"reserved":0,"last_update":"0001-01-01T00:00:00Z","name_a2s":"Uncletopia | Hong Kong | 1 | All Maps","protocol":17,"map":"ctf_2fort","folder":"tf","game":"Team Fortress","app_id":440,"player_count":0,"max_players":24,"Bots":0,"server_type":"Dedicated","server_os":"Linux","password":true,"vac":true,"version":"7723704","steam_id":85568392924494504,"keywords":["ctf","nocrits","nodmgspread","uncletopia"],"game_id":440,"stv_port":27016,"stv_name":"Uncletopia | Hong Kong | 1 | All Maps | STV","players":null},{"server_id":1,"name":"Uncletopia | Los Angeles | 1 | All Maps","name_short":"lax-1","host":"lax-1.us.uncletopia.com","port":27015,"enabled":true,"region":"us-west","cc":"us","latitude":33.94279,"longitude":-118.41004,"reserved":0,"last_update":"0001-01-01T00:00:00Z","name_a2s":"Uncletopia | Los Angeles | 1 | All Maps","protocol":17,"map":"pl_pier","folder":"tf","game":"Team Fortress","app_id":440,"player_count":0,"max_players":24,"Bots":0,"server_type":"Dedicated","server_os":"Linux","password":true,"vac":true,"version":"7723704","steam_id":85568392924469991,"keywords":["nocrits","nodmgspread","payload","uncletopia"],"game_id":440,"stv_port":27016,"stv_name":"Uncletopia | Los Angeles | 1 | All Maps | STV","players":null},{"server_id":112,"name":"Uncletopia | Los Angeles | 2 | All Maps","name_short":"lax-2","host":"lax-1.us.uncletopia.com","port":27025,"enabled":true,"region":"us-west","cc":"us","latitude":33.94279,"longitude":-118.41004,"reserved":0,"last_update":"0001-01-01T00:00:00Z","name_a2s":"Uncletopia | Los Angeles | 2 | All Maps","protocol":17,"map":"koth_viaduct","folder":"tf","game":"Team Fortress","app_id":440,"player_count":0,"max_players":24,"Bots":0,"server_type":"Dedicated","server_os":"Linux","password":true,"vac":true,"version":"7723704","steam_id":85568392924469992,"keywords":["cp","nocrits","nodmgspread","uncletopia"],"game_id":440,"stv_port":27026,"stv_name":"Uncletopia | Los Angeles | 2 | All Maps | STV","players":null},{"server_id":324,"name":"Uncletopia | Los Angeles | 3 | All Maps","name_short":"lax-3","host":"lax-1.us.uncletopia.com","port":27035,"enabled":true,"region":"us-west","cc":"us","latitude":33.94279,"longitude":-118.41004,"reserved":0,"last_update":"0001-01-01T00:00:00Z","name_a2s":"Uncletopia | Los Angeles | 3 | All Maps","protocol":17,"map":"koth_viaduct","folder":"tf","game":"Team Fortress","app_id":440,"player_count":0,"max_players":24,"Bots":0,"server_type":"Dedicated","server_os":"Linux","password":true,"vac":true,"version":"7723704","steam_id":85568392924510198,"keywords":["cp","nocrits","nodmgspread","uncletopia"],"game_id":440,"stv_port":27036,"stv_name":"Uncletopia | Los Angeles | 3 | All Maps | STV","players":null},{"server_id":25,"name":"Uncletopia | Los Angeles | 4 | Stopwatch Beta","name_short":"lax-4","host":"lax-1.us.uncletopia.com","port":27045,"enabled":true,"region":"us-west","cc":"us","latitude":33.94279,"longitude":-118.41004,"reserved":0,"last_update":"0001-01-01T00:00:00Z","name_a2s":"Uncletopia | Los Angeles | 4 | Stopwatch Beta","protocol":17,"map":"cp_sunshine","folder":"tf","game":"Team Fortress","app_id":440,"player_count":0,"max_players":24,"Bots":0,"server_type":"Dedicated","server_os":"Linux","password":true,"vac":true,"version":"7723704","steam_id":85568392924510199,"keywords":["cp","nocrits","nodmgspread","uncletopia"],"game_id":440,"stv_port":27046,"stv_name":"Uncletopia | Los Angeles | 4 | Stopwatch Beta | STV","players":null},{"server_id":11,"name":"Uncletopia | London | 1 | All Maps","name_short":"lon-1","host":"lon-1.uk.uncletopia.com","port":27015,"enabled":true,"region":"eu","cc":"gb","latitude":51.509865,"longitude":-0.118092,"reserved":0,"last_update":"0001-01-01T00:00:00Z","name_a2s":"Uncletopia | London | 1 | All Maps","protocol":17,"map":"pl_frontier_final","folder":"tf","game":"Team Fortress","app_id":440,"player_count":24,"max_players":24,"Bots":0,"server_type":"Dedicated","server_os":"Linux","password":true,"vac":true,"version":"7723704","steam_id":85568392924367362,"keywords":["nocrits","nodmgspread","payload","uncletopia"],"game_id":440,"stv_port":27016,"stv_name":"Uncletopia | London | 1 | All Maps | STV","players":[{"user_id":565,"name":"alti.prod","steam_id":76561199141929806,"connected_time":1148000000000,"state":"active","ping":103},{"user_id":568,"name":"Litsuw","steam_id":76561198081785898,"connected_time":993000000000,"state":"active","ping":74},{"user_id":500,"name":"festive jones","steam_id":76561198073975078,"connected_time":6241000000000,"state":"active","ping":47},{"user_id":534,"name":"Lukas","steam_id":76561198009118452,"connected_time":3754000000000,"state":"active","ping":58},{"user_id":554,"name":"lulu","steam_id":76561199147764133,"connected_time":2633000000000,"state":"active","ping":83},{"user_id":575,"name":"whimsy.","steam_id":76561198878171763,"connected_time":304000000000,"state":"active","ping":47},{"user_id":574,"name":"One armed fiddle enthusiast","steam_id":76561198045847051,"connected_time":645000000000,"state":"active","ping":60},{"user_id":567,"name":"androbzik","steam_id":76561199438255231,"connected_time":1003000000000,"state":"active","ping":107},{"user_id":558,"name":"Largo","steam_id":76561198844368927,"connected_time":1994000000000,"state":"active","ping":79},{"user_id":570,"name":"cuchara","steam_id":76561198446685237,"connected_time":975000000000,"state":"active","ping":141},{"user_id":532,"name":"G6 sherlock","steam_id":76561198802967796,"connected_time":3987000000000,"state":"active","ping":113},{"user_id":559,"name":"Tanza -","steam_id":76561197961335217,"connected_time":1587000000000,"state":"active","ping":43},{"user_id":571,"name":"(1)mango","steam_id":76561198140655282,"connected_time":973000000000,"state":"active","ping":62},{"user_id":548,"name":"MEDiUM","steam_id":76561198112328561,"connected_time":2869000000000,"state":"active","ping":83},{"user_id":550,"name":"WinRAR‚Ñ¢","steam_id":76561198056522270,"connected_time":2866000000000,"state":"active","ping":61},{"user_id":572,"name":"JOHN GAMING (based)","steam_id":76561199085822219,"connected_time":954000000000,"state":"active","ping":81},{"user_id":562,"name":"Mango","steam_id":76561198139555709,"connected_time":1278000000000,"state":"active","ping":55},{"user_id":573,"name":"kostaslgr7","steam_id":76561198261981295,"connected_time":920000000000,"state":"active","ping":87},{"user_id":561,"name":"zero","steam_id":76561198055365234,"connected_time":1403000000000,"state":"active","ping":81},{"user_id":504,"name":"‚ú™ J","steam_id":76561198094911581,"connected_time":6185000000000,"state":"active","ping":48},{"user_id":545,"name":"quentu-","steam_id":76561198087457220,"connected_time":2941000000000,"state":"active","ping":75},{"user_id":560,"name":"soil.dirt.earth","steam_id":76561198014377623,"connected_time":1576000000000,"state":"active","ping":57},{"user_id":564,"name":"NonProphet","steam_id":76561198280149820,"connected_time":1181000000000,"state":"active","ping":45},{"user_id":516,"name":"Gnarville","steam_id":76561198006373329,"connected_time":4721000000000,"state":"active","ping":50}]},{"server_id":114,"name":"Uncletopia | London | 2 | All Maps","name_short":"lon-2","host":"lon-1.uk.uncletopia.com","port":27025,"enabled":true,"region":"eu","cc":"gb","latitude":51.509865,"longitude":-0.118092,"reserved":0,"last_update":"0001-01-01T00:00:00Z","name_a2s":"Uncletopia | London | 2 | All Maps","protocol":17,"map":"pl_badwater","folder":"tf","game":"Team Fortress","app_id":440,"player_count":24,"max_players":24,"Bots":0,"server_type":"Dedicated","server_os":"Linux","password":true,"vac":true,"version":"7723704","steam_id":85568392924470941,"keywords":["nocrits","nodmgspread","payload","uncletopia"],"game_id":440,"stv_port":27026,"stv_name":"Uncletopia | London | 2 | All Maps | STV","players":[{"user_id":500,"name":"Hubba","steam_id":76561199447136263,"connected_time":312000000000,"state":"active","ping":72},{"user_id":495,"name":"Pabs :D","steam_id":76561198000016962,"connected_time":951000000000,"state":"active","ping":73},{"user_id":496,"name":"Kahvi","steam_id":76561198723244199,"connected_time":893000000000,"state":"active","ping":76},{"user_id":490,"name":"—Ç—É–∫–∫—É –∏—Ä–º–∞","steam_id":76561197998715016,"connected_time":1145000000000,"state":"active","ping":72},{"user_id":477,"name":"Hodge","steam_id":76561198054518843,"connected_time":2155000000000,"state":"active","ping":38},{"user_id":396,"name":"NeonNewt","steam_id":76561198066699212,"connected_time":6579000000000,"state":"active","ping":54},{"user_id":447,"name":"Smuggs","steam_id":76561197999456003,"connected_time":3660000000000,"state":"active","ping":42},{"user_id":454,"name":"Chucky.","steam_id":76561197969361063,"connected_time":3329000000000,"state":"active","ping":89},{"user_id":497,"name":"ksg","steam_id":76561198042894236,"connected_time":793000000000,"state":"active","ping":99},{"user_id":499,"name":"Milk","steam_id":76561198125876588,"connected_time":382000000000,"state":"active","ping":50},{"user_id":503,"name":"Miedzan","steam_id":76561198405250516,"connected_time":0,"state":"spawning","ping":22},{"user_id":488,"name":"MESSI","steam_id":76561198179339326,"connected_time":1186000000000,"state":"active","ping":79},{"user_id":489,"name":"GEP Gun","steam_id":76561197981821003,"connected_time":1184000000000,"state":"active","ping":59},{"user_id":435,"name":"Zwphyr | TourBot.TF","steam_id":76561198160772793,"connected_time":4162000000000,"state":"active","ping":61},{"user_id":502,"name":"pathetic retard scunt","steam_id":76561198444324659,"connected_time":24000000000,"state":"active","ping":42},{"user_id":446,"name":"Mr.Cupcake","steam_id":76561198152711174,"connected_time":3748000000000,"state":"active","ping":74},{"user_id":484,"name":"Saucy Jack","steam_id":76561198894525288,"connected_time":1297000000000,"state":"active","ping":39},{"user_id":457,"name":"Loberless","steam_id":76561198277844777,"connected_time":3038000000000,"state":"active","ping":45},{"user_id":485,"name":"Miss Bari","steam_id":76561198365286092,"connected_time":1268000000000,"state":"active","ping":38},{"user_id":471,"name":"Sonnakai","steam_id":76561198051688749,"connected_time":2494000000000,"state":"active","ping":40},{"user_id":476,"name":"wannanow","steam_id":76561198138559424,"connected_time":2232000000000,"state":"active","ping":53},{"user_id":498,"name":"Sza","steam_id":76561198022132105,"connected_time":790000000000,"state":"active","ping":67},{"user_id":475,"name":"Airaga","steam_id":76561198040705777,"connected_time":2333000000000,"state":"active","ping":81},{"user_id":493,"name":"InsectKing","steam_id":76561199013519071,"connected_time":1105000000000,"state":"active","ping":42}]},{"server_id":320,"name":"Uncletopia | London | 3 | All Maps","name_short":"lon-3","host":"lon-1.uk.uncletopia.com","port":27035,"enabled":true,"region":"eu","cc":"gb","latitude":51.509865,"longitude":-0.118092,"reserved":0,"last_update":"0001-01-01T00:00:00Z","name_a2s":"Uncletopia | London | 3 | All Maps","protocol":17,"map":"pl_frontier_final","folder":"tf","game":"Team Fortress","app_id":440,"player_count":24,"max_players":24,"Bots":0,"server_type":"Dedicated","server_os":"Linux","password":true,"vac":true,"version":"7723704","steam_id":85568392924510192,"keywords":["nocrits","nodmgspread","payload","uncletopia"],"game_id":440,"stv_port":27036,"stv_name":"Uncletopia | London | 3 | All Maps | STV","players":[{"user_id":373,"name":"biggo","steam_id":76561198892305234,"connected_time":635000000000,"state":"active","ping":50},{"user_id":360,"name":"dunga","steam_id":76561198318772187,"connected_time":1771000000000,"state":"active","ping":55},{"user_id":380,"name":"STOP EATING SEED OILS","steam_id":76561198079708714,"connected_time":93000000000,"state":"active","ping":49},{"user_id":374,"name":"AngryBabbu","steam_id":76561198272571401,"connected_time":296000000000,"state":"active","ping":47},{"user_id":316,"name":"Grolemaster","steam_id":76561199226454635,"connected_time":4997000000000,"state":"active","ping":66},{"user_id":281,"name":"OVERLORDMALARKEY","steam_id":76561198098267117,"connected_time":7866000000000,"state":"active","ping":60},{"user_id":366,"name":"fallingpencil","steam_id":76561199230233148,"connected_time":1383000000000,"state":"active","ping":56},{"user_id":362,"name":"beefmilk","steam_id":76561197996149548,"connected_time":1634000000000,"state":"active","ping":52},{"user_id":367,"name":"the joy of recycling","steam_id":76561198415564349,"connected_time":1332000000000,"state":"active","ping":60},{"user_id":354,"name":"SLEEPY AGENT","steam_id":76561198088624259,"connected_time":2210000000000,"state":"active","ping":62},{"user_id":368,"name":"The Real Lobster Socks","steam_id":76561198870015437,"connected_time":1284000000000,"state":"active","ping":54},{"user_id":376,"name":"Officer KD6-3.7","steam_id":76561198034343111,"connected_time":265000000000,"state":"active","ping":61},{"user_id":379,"name":"Dr.Sees [F2P]","steam_id":76561199219233587,"connected_time":173000000000,"state":"active","ping":76},{"user_id":381,"name":"Puro ‚ô•","steam_id":76561198039016765,"connected_time":80000000000,"state":"spawning","ping":118},{"user_id":347,"name":"gus","steam_id":76561198876303958,"connected_time":2511000000000,"state":"active","ping":104},{"user_id":356,"name":"pepper","steam_id":76561198059782462,"connected_time":2082000000000,"state":"active","ping":60},{"user_id":306,"name":"Skittne Greker","steam_id":76561198079416400,"connected_time":5629000000000,"state":"active","ping":86},{"user_id":382,"name":"British Disapproval","steam_id":76561198001375260,"connected_time":76000000000,"state":"active","ping":337},{"user_id":369,"name":"JKD9 Z0C9","steam_id":76561198964857782,"connected_time":1246000000000,"state":"active","ping":49},{"user_id":372,"name":"‚òÖHaukka‚òÖ","steam_id":76561198262146730,"connected_time":704000000000,"state":"active","ping":108},{"user_id":335,"name":"catface :3","steam_id":76561198963378933,"connected_time":2942000000000,"state":"active","ping":41},{"user_id":291,"name":":)","steam_id":76561198039964082,"connected_time":7193000000000,"state":"active","ping":66},{"user_id":384,"name":"Peaced.old","steam_id":76561197993682469,"connected_time":41000000000,"state":"active","ping":48},{"user_id":312,"name":"0xDEADBEEF","steam_id":76561199075416111,"connected_time":5035000000000,"state":"active","ping":73}]},{"server_id":321,"name":"Uncletopia | London | 4 | All Maps","name_short":"lon-4","host":"lon-1.uk.uncletopia.com","port":27045,"enabled":true,"region":"eu","cc":"gb","latitude":51.509865,"longitude":-0.118092,"reserved":0,"last_update":"0001-01-01T00:00:00Z","name_a2s":"Uncletopia | London | 4 | All Maps","protocol":17,"map":"cp_process_final","folder":"tf","game":"Team Fortress","app_id":440,"player_count":21,"max_players":24,"Bots":0,"server_type":"Dedicated","server_os":"Linux","password":true,"vac":true,"version":"7723704","steam_id":85568392924510193,"keywords":["cp","nocrits","nodmgspread","uncletopia"],"game_id":440,"stv_port":27046,"stv_name":"Uncletopia | London | 4 | All Maps | STV","players":[{"user_id":36,"name":"NiceBird","steam_id":76561198072118644,"connected_time":1095000000000,"state":"active","ping":39},{"user_id":34,"name":"shoplifter","steam_id":76561198311044984,"connected_time":1179000000000,"state":"active","ping":71},{"user_id":35,"name":"ROBERTAIM","steam_id":76561198271798194,"connected_time":1164000000000,"state":"active","ping":63},{"user_id":55,"name":"mt","steam_id":76561197961319303,"connected_time":50000000000,"state":"active","ping":47},{"user_id":38,"name":"Mulenmul","steam_id":76561199039796992,"connected_time":1058000000000,"state":"active","ping":59},{"user_id":41,"name":"Toothpaste Milkshake","steam_id":76561198982674420,"connected_time":858000000000,"state":"active","ping":54},{"user_id":40,"name":"gamer man","steam_id":76561198436817109,"connected_time":995000000000,"state":"active","ping":45},{"user_id":42,"name":"d4cz","steam_id":76561199067358414,"connected_time":497000000000,"state":"active","ping":56},{"user_id":43,"name":"Jruhh","steam_id":76561198842477772,"connected_time":463000000000,"state":"active","ping":75},{"user_id":44,"name":"GigaChad Caber Enjoyer","steam_id":76561198970762992,"connected_time":428000000000,"state":"active","ping":74},{"user_id":45,"name":"Pauler le one","steam_id":76561198398152855,"connected_time":358000000000,"state":"active","ping":91},{"user_id":56,"name":"Mr.O #deletesniper","steam_id":76561198039567498,"connected_time":36000000000,"state":"active","ping":66},{"user_id":48,"name":"Yousnas","steam_id":76561198405234816,"connected_time":236000000000,"state":"active","ping":75},{"user_id":49,"name":"Huzd","steam_id":76561198329617950,"connected_time":158000000000,"state":"active","ping":74},{"user_id":50,"name":"Hexagon","steam_id":76561198151205758,"connected_time":132000000000,"state":"active","ping":51},{"user_id":51,"name":"YourDoom","steam_id":76561198080790857,"connected_time":123000000000,"state":"active","ping":30},{"user_id":52,"name":"AwterSix","steam_id":76561198042561678,"connected_time":108000000000,"state":"active","ping":93},{"user_id":53,"name":"trolley","steam_id":76561199089765404,"connected_time":91000000000,"state":"active","ping":50},{"user_id":57,"name":"F","steam_id":76561199149462792,"connected_time":28000000000,"state":"active","ping":49},{"user_id":58,"name":"Arscin","steam_id":76561198262193529,"connected_time":23000000000,"state":"active","ping":40},{"user_id":59,"name":"Limeler","steam_id":76561198217891271,"connected_time":17000000000,"state":"spawning","ping":90}]},{"server_id":21,"name":"Uncletopia | London | 5 | All Maps","name_short":"lon-5","host":"lon-1.uk.uncletopia.com","port":27055,"enabled":true,"region":"eu","cc":"gb","latitude":51.509865,"longitude":-0.118092,"reserved":0,"last_update":"0001-01-01T00:00:00Z","name_a2s":"Uncletopia | London | 5 | All Maps","protocol":17,"map":"cp_altitude","folder":"tf","game":"Team Fortress","app_id":440,"player_count":0,"max_players":24,"Bots":0,"server_type":"Dedicated","server_os":"Linux","password":true,"vac":true,"version":"7723704","steam_id":85568392924742829,"keywords":["cp","nocrits","nodmgspread","uncletopia"],"game_id":440,"stv_port":27056,"stv_name":"Uncletopia | London | 5 | All Maps | STV","players":null},{"server_id":22,"name":"Uncletopia | London | 6 | All Maps","name_short":"lon-6","host":"lon-1.uk.uncletopia.com","port":27065,"enabled":true,"region":"eu","cc":"gb","latitude":51.509865,"longitude":-0.118092,"reserved":0,"last_update":"0001-01-01T00:00:00Z","name_a2s":"Uncletopia | London | 6 | All Maps","protocol":17,"map":"koth_lakeside_final","folder":"tf","game":"Team Fortress","app_id":440,"player_count":0,"max_players":24,"Bots":0,"server_type":"Dedicated","server_os":"Linux","password":true,"vac":true,"version":"7723704","steam_id":85568392924742830,"keywords":["cp","nocrits","nodmgspread","uncletopia"],"game_id":440,"stv_port":27066,"stv_name":"Uncletopia | London | 6 | All Maps | STV","players":null},{"server_id":40,"name":"Uncletopia | London | 7 | No Payload","name_short":"lon-7","host":"lon-1.uk.uncletopia.com","port":27075,"enabled":true,"region":"eu","cc":"gb","latitude":51.509865,"longitude":-0.118092,"reserved":0,"last_update":"0001-01-01T00:00:00Z","name_a2s":"Uncletopia | London | 7 | No Payload","protocol":17,"map":"cp_process_final","folder":"tf","game":"Team Fortress","app_id":440,"player_count":0,"max_players":24,"Bots":0,"server_type":"Dedicated","server_os":"Linux","password":true,"vac":true,"version":"7723704","steam_id":85568392924964314,"keywords":["cp","nocrits","nodmgspread","uncletopia"],"game_id":440,"stv_port":27076,"stv_name":"Uncletopia | London | 7 | No Payload | STV","players":null},{"server_id":41,"name":"Uncletopia | London | 8 | Community","name_short":"lon-8","host":"lon-1.uk.uncletopia.com","port":27085,"enabled":true,"region":"eu","cc":"gb","latitude":51.509865,"longitude":-0.118092,"reserved":0,"last_update":"0001-01-01T00:00:00Z","name_a2s":"Uncletopia | London | 8 | Community","protocol":17,"map":"workshop/koth_bagel_rc5.ugc2514036946","folder":"tf","game":"Team Fortress","app_id":440,"player_count":0,"max_players":24,"Bots":0,"server_type":"Dedicated","server_os":"Linux","password":true,"vac":true,"version":"7723704","steam_id":85568392924964315,"keywords":["cp","nocrits","nodmgspread","uncletopia"],"game_id":440,"stv_port":27086,"stv_name":"Uncletopia | London | 8 | Community | STV","players":null},{"server_id":300,"name":"Uncletopia | Montr√©al | 1 | All Maps","name_short":"mtl-1","host":"mtl-1.ca.uncletopia.com","port":27015,"enabled":true,"region":"us-east","cc":"ca","latitude":45.50889,"longitude":-73.56167,"reserved":0,"last_update":"0001-01-01T00:00:00Z","name_a2s":"Uncletopia | Montr√©al | 1 | All Maps","protocol":17,"map":"pl_snowycoast","folder":"tf","game":"Team Fortress","app_id":440,"player_count":0,"max_players":24,"Bots":0,"server_type":"Dedicated","server_os":"Linux","password":true,"vac":true,"version":"7723704","steam_id":85568392924500087,"keywords":["nocrits","nodmgspread","payload","uncletopia"],"game_id":440,"stv_port":27016,"stv_name":"Uncletopia | Montr√©al | 1 | All Maps | STV","players":null},{"server_id":301,"name":"Uncletopia | Montr√©al | 2 | All Maps","name_short":"mtl-2","host":"mtl-1.ca.uncletopia.com","port":27025,"enabled":true,"region":"us-east","cc":"ca","latitude":45.50889,"longitude":-73.56167,"reserved":0,"last_update":"0001-01-01T00:00:00Z","name_a2s":"Uncletopia | Montr√©al | 2 | All Maps","protocol":17,"map":"cp_process_final","folder":"tf","game":"Team Fortress","app_id":440,"player_count":0,"max_players":24,"Bots":0,"server_type":"Dedicated","server_os":"Linux","password":true,"vac":true,"version":"7723704","steam_id":85568392924500088,"keywords":["cp","nocrits","nodmgspread","uncletopia"],"game_id":440,"stv_port":27026,"stv_name":"Uncletopia | Montr√©al | 2 | All Maps | STV","players":null},{"server_id":302,"name":"Uncletopia | Montr√©al | 3 | All Maps","name_short":"mtl-3","host":"mtl-1.ca.uncletopia.com","port":27035,"enabled":true,"region":"us-east","cc":"ca","latitude":45.50889,"longitude":-73.56167,"reserved":0,"last_update":"0001-01-01T00:00:00Z","name_a2s":"Uncletopia | Montr√©al | 3 | All Maps","protocol":17,"map":"pl_barnblitz","folder":"tf","game":"Team Fortress","app_id":440,"player_count":0,"max_players":24,"Bots":0,"server_type":"Dedicated","server_os":"Linux","password":true,"vac":true,"version":"7723704","steam_id":85568392924500089,"keywords":["nocrits","nodmgspread","payload","uncletopia"],"game_id":440,"stv_port":27036,"stv_name":"Uncletopia | Montr√©al | 3 | All Maps | STV","players":null},{"server_id":303,"name":"Uncletopia | Montr√©al | 4 | No Payload","name_short":"mtl-4","host":"mtl-1.ca.uncletopia.com","port":27045,"enabled":true,"region":"us-east","cc":"ca","latitude":45.50889,"longitude":-73.56167,"reserved":0,"last_update":"0001-01-01T00:00:00Z","name_a2s":"Uncletopia | Montr√©al | 4 | No Payload","protocol":17,"map":"koth_cascade","folder":"tf","game":"Team Fortress","app_id":440,"player_count":0,"max_players":24,"Bots":0,"server_type":"Dedicated","server_os":"Linux","password":true,"vac":true,"version":"7723704","steam_id":85568392924500090,"keywords":["cp","nocrits","nodmgspread","uncletopia"],"game_id":440,"stv_port":27046,"stv_name":"Uncletopia | Montr√©al | 4 | No Payload | STV","players":null},{"server_id":13,"name":"Uncletopia | New York City | 1 | All Maps","name_short":"nyc-1","host":"nyc-1.us.uncletopia.com","port":27015,"enabled":true,"region":"us-east","cc":"us","latitude":40.73061,"longitude":-73.93524,"reserved":0,"last_update":"0001-01-01T00:00:00Z","name_a2s":"Uncletopia | New York City | 1 | All Maps","protocol":17,"map":"cp_mountainlab","folder":"tf","game":"Team Fortress","app_id":440,"player_count":0,"max_players":24,"Bots":0,"server_type":"Dedicated","server_os":"Linux","password":true,"vac":true,"version":"7723704","steam_id":85568392924469993,"keywords":["cp","nocrits","nodmgspread","uncletopia"],"game_id":440,"stv_port":27016,"stv_name":"Uncletopia | New York City | 1 | All Maps | STV","players":null},{"server_id":14,"name":"Uncletopia | New York City | 2 | All Maps","name_short":"nyc-2","host":"nyc-1.us.uncletopia.com","port":27025,"enabled":true,"region":"us-east","cc":"us","latitude":40.73061,"longitude":-73.93524,"reserved":0,"last_update":"0001-01-01T00:00:00Z","name_a2s":"Uncletopia | New York City | 2 | All Maps","protocol":17,"map":"pl_pier","folder":"tf","game":"Team Fortress","app_id":440,"player_count":0,"max_players":24,"Bots":0,"server_type":"Dedicated","server_os":"Linux","password":true,"vac":true,"version":"7723704","steam_id":85568392924469994,"keywords":["nocrits","nodmgspread","payload","uncletopia"],"game_id":440,"stv_port":27026,"stv_name":"Uncletopia | New York City | 2 | All Maps | STV","players":null},{"server_id":15,"name":"Uncletopia | New York City | 3 | Stopwatch Beta","name_short":"nyc-3","host":"nyc-1.us.uncletopia.com","port":27035,"enabled":true,"region":"us-east","cc":"us","latitude":40.73061,"longitude":-73.93524,"reserved":0,"last_update":"0001-01-01T00:00:00Z","name_a2s":"Uncletopia | New York City | 3 | Stopwatch Beta","protocol":17,"map":"cp_sunshine","folder":"tf","game":"Team Fortress","app_id":440,"player_count":0,"max_players":24,"Bots":0,"server_type":"Dedicated","server_os":"Linux","password":true,"vac":true,"version":"7723704","steam_id":85568392924742820,"keywords":["cp","nocrits","nodmgspread","uncletopia"],"game_id":440,"stv_port":27036,"stv_name":"Uncletopia | New York City | 3 | Stopwatch Beta | STV","players":null},{"server_id":16,"name":"Uncletopia | New York City | 4 | Community","name_short":"nyc-4","host":"nyc-1.us.uncletopia.com","port":27045,"enabled":true,"region":"us-east","cc":"us","latitude":40.73061,"longitude":-73.93524,"reserved":0,"last_update":"0001-01-01T00:00:00Z","name_a2s":"Uncletopia | New York City | 4 | Community","protocol":17,"map":"pl_frontier_final","folder":"tf","game":"Team Fortress","app_id":440,"player_count":9,"max_players":24,"Bots":0,"server_type":"Dedicated","server_os":"Linux","password":true,"vac":true,"version":"7723704","steam_id":85568392924742821,"keywords":["nocrits","nodmgspread","payload","uncletopia"],"game_id":440,"stv_port":27046,"stv_name":"Uncletopia | New York City | 4 | Community | STV","players":[{"user_id":5,"name":"qualitykk | tfsource2.com","steam_id":76561198835895479,"connected_time":206000000000,"state":"active","ping":144},{"user_id":6,"name":"McNamJam","steam_id":76561198028128686,"connected_time":202000000000,"state":"active","ping":111},{"user_id":7,"name":"Dictatorial Karelian","steam_id":76561198196736457,"connected_time":201000000000,"state":"active","ping":150},{"user_id":13,"name":"2019","steam_id":76561198129785792,"connected_time":78000000000,"state":"active","ping":121},{"user_id":9,"name":"Captain Red","steam_id":76561198191587983,"connected_time":183000000000,"state":"active","ping":90},{"user_id":10,"name":"Tarkus","steam_id":76561198115938777,"connected_time":178000000000,"state":"active","ping":158},{"user_id":11,"name":"robbob","steam_id":76561198137375391,"connected_time":174000000000,"state":"active","ping":152},{"user_id":12,"name":"Ekstra","steam_id":76561199031147010,"connected_time":166000000000,"state":"active","ping":152},{"user_id":14,"name":"Mei","steam_id":76561198971753591,"connected_time":49000000000,"state":"active","ping":58}]},{"server_id":142,"name":"Uncletopia | S√£o Paulo | 1 | All Maps","name_short":"sao-1","host":"sao-1.br.uncletopia.com","port":27015,"enabled":true,"region":"sa","cc":"br","latitude":-23.533773,"longitude":-46.62529,"reserved":0,"last_update":"0001-01-01T00:00:00Z","name_a2s":"Uncletopia | S√£o Paulo | 1 | All Maps","protocol":17,"map":"plr_nightfall_final","folder":"tf","game":"Team Fortress","app_id":440,"player_count":0,"max_players":24,"Bots":0,"server_type":"Dedicated","server_os":"Linux","password":true,"vac":true,"version":"7723704","steam_id":85568392924469996,"keywords":["nocrits","nodmgspread","payload","uncletopia"],"game_id":440,"stv_port":27016,"stv_name":"Uncletopia | S√£o Paulo | 1 | All Maps | STV","players":null},{"server_id":143,"name":"Uncletopia | S√£o Paulo | 2 | All Maps","name_short":"sao-2","host":"sao-2.br.uncletopia.com","port":27015,"enabled":true,"region":"sa","cc":"br","latitude":-23.533773,"longitude":-46.62529,"reserved":0,"last_update":"0001-01-01T00:00:00Z","name_a2s":"Uncletopia | S√£o Paulo | 2 | All Maps","protocol":17,"map":"koth_viaduct","folder":"tf","game":"Team Fortress","app_id":440,"player_count":0,"max_players":24,"Bots":0,"server_type":"Dedicated","server_os":"Linux","password":true,"vac":true,"version":"7723704","steam_id":85568392924485349,"keywords":["cp","nocrits","nodmgspread","uncletopia"],"game_id":440,"stv_port":27016,"stv_name":"Uncletopia | S√£o Paulo | 2 | All Maps | STV","players":null},{"server_id":7,"name":"Uncletopia | Seattle | 1 | All Maps","name_short":"sea-1","host":"sea-1.us.uncletopia.com","port":27015,"enabled":true,"region":"us-west","cc":"us","latitude":47.608013,"longitude":-122.33517,"reserved":0,"last_update":"0001-01-01T00:00:00Z","name_a2s":"Uncletopia | Seattle | 1 | All Maps","protocol":17,"map":"pl_upward","folder":"tf","game":"Team Fortress","app_id":440,"player_count":24,"max_players":24,"Bots":0,"server_type":"Dedicated","server_os":"Linux","password":true,"vac":true,"version":"7723704","steam_id":85568392924469997,"keywords":["nocrits","nodmgspread","payload","uncletopia"],"game_id":440,"stv_port":27016,"stv_name":"Uncletopia | Seattle | 1 | All Maps | STV","players":[{"user_id":240,"name":"oo","steam_id":76561198119626492,"connected_time":1417000000000,"state":"active","ping":89},{"user_id":219,"name":"Platinum","steam_id":76561198052463484,"connected_time":2359000000000,"state":"active","ping":84},{"user_id":242,"name":"The Potato Romancer","steam_id":76561198204197648,"connected_time":1382000000000,"state":"active","ping":78},{"user_id":220,"name":"mafu","steam_id":76561198028028045,"connected_time":2347000000000,"state":"active","ping":60},{"user_id":239,"name":"Jadus","steam_id":76561199091462938,"connected_time":1468000000000,"state":"active","ping":90},{"user_id":251,"name":"icecxld","steam_id":76561198079018805,"connected_time":459000000000,"state":"active","ping":105},{"user_id":211,"name":"StarWither","steam_id":76561198383264295,"connected_time":2772000000000,"state":"active","ping":59},{"user_id":253,"name":"Empress Olympia","steam_id":76561198065740998,"connected_time":425000000000,"state":"active","ping":75},{"user_id":231,"name":"GalacticQuasaur","steam_id":76561199066172937,"connected_time":1908000000000,"state":"active","ping":89},{"user_id":174,"name":"Sylain","steam_id":76561198043958855,"connected_time":5433000000000,"state":"active","ping":54},{"user_id":254,"name":"Screwwie","steam_id":76561198006892781,"connected_time":401000000000,"state":"active","ping":47},{"user_id":236,"name":"st4rwave","steam_id":76561198092050894,"connected_time":1625000000000,"state":"active","ping":115},{"user_id":232,"name":"Goofy Goober","steam_id":76561198128299594,"connected_time":1905000000000,"state":"active","ping":72},{"user_id":244,"name":"jade harley","steam_id":76561198044363630,"connected_time":1278000000000,"state":"active","ping":122},{"user_id":217,"name":"Shark Sandwich","steam_id":76561198025007938,"connected_time":2529000000000,"state":"active","ping":89},{"user_id":245,"name":"citrus","steam_id":76561198294606679,"connected_time":1198000000000,"state":"active","ping":120},{"user_id":224,"name":"Amadeus","steam_id":76561198160047173,"connected_time":2171000000000,"state":"active","ping":37},{"user_id":246,"name":"Gary Budussy","steam_id":76561197969793969,"connected_time":953000000000,"state":"active","ping":91},{"user_id":250,"name":"golia","steam_id":76561198000264266,"connected_time":533000000000,"state":"active","ping":75},{"user_id":226,"name":"Firescaw","steam_id":76561198014321964,"connected_time":2154000000000,"state":"active","ping":162},{"user_id":200,"name":"Agent 11","steam_id":76561198007627899,"connected_time":3568000000000,"state":"active","ping":78},{"user_id":227,"name":"Outcast_","steam_id":76561199122744740,"connected_time":2142000000000,"state":"active","ping":125},{"user_id":235,"name":"spacetoven","steam_id":76561198115821131,"connected_time":1678000000000,"state":"active","ping":65},{"user_id":180,"name":"I Bodyshot","steam_id":76561198031757460,"connected_time":4967000000000,"state":"active","ping":111}]},{"server_id":119,"name":"Uncletopia | Seattle | 2 | All Maps","name_short":"sea-2","host":"sea-1.us.uncletopia.com","port":27025,"enabled":true,"region":"us-west","cc":"us","latitude":47.608013,"longitude":-122.33517,"reserved":0,"last_update":"0001-01-01T00:00:00Z","name_a2s":"Uncletopia | Seattle | 2 | All Maps","protocol":17,"map":"cp_mountainlab","folder":"tf","game":"Team Fortress","app_id":440,"player_count":0,"max_players":24,"Bots":0,"server_type":"Dedicated","server_os":"Linux","password":true,"vac":true,"version":"7723704","steam_id":85568392924469998,"keywords":["cp","nocrits","nodmgspread","uncletopia"],"game_id":440,"stv_port":27026,"stv_name":"Uncletopia | Seattle | 2 | All Maps | STV","players":null},{"server_id":406,"name":"Uncletopia | Seattle | 3 | Stopwatch Beta","name_short":"sea-3","host":"sea-1.us.uncletopia.com","port":27035,"enabled":true,"region":"us-west","cc":"us","latitude":47.608013,"longitude":-122.33517,"reserved":0,"last_update":"0001-01-01T00:00:00Z","name_a2s":"Uncletopia | Seattle | 3 | Stopwatch Beta","protocol":17,"map":"cp_altitude","folder":"tf","game":"Team Fortress","app_id":440,"player_count":0,"max_players":24,"Bots":0,"server_type":"Dedicated","server_os":"Linux","password":true,"vac":false,"version":"7723704","steam_id":0,"keywords":["cp","nocrits","nodmgspread","uncletopia"],"game_id":440,"stv_port":27036,"stv_name":"Uncletopia | Seattle | 3 | Stopwatch Beta | STV","players":null},{"server_id":17,"name":"Uncletopia | San Francisco | 1 | All Maps","name_short":"sfo-1","host":"sfo-1.us.uncletopia.com","port":27015,"enabled":true,"region":"us-west","cc":"us","latitude":37.77397,"longitude":-122.4313,"reserved":0,"last_update":"0001-01-01T00:00:00Z","name_a2s":"Uncletopia | San Francisco | 1 | All Maps","protocol":17,"map":"pl_swiftwater_final1","folder":"tf","game":"Team Fortress","app_id":440,"player_count":0,"max_players":24,"Bots":0,"server_type":"Dedicated","server_os":"Linux","password":true,"vac":true,"version":"7723704","steam_id":85568392924469999,"keywords":["nocrits","nodmgspread","payload","uncletopia"],"game_id":440,"stv_port":27016,"stv_name":"Uncletopia | San Francisco | 1 | All Maps | STV","players":null},{"server_id":18,"name":"Uncletopia | San Francisco | 2 | All Maps","name_short":"sfo-2","host":"sfo-1.us.uncletopia.com","port":27025,"enabled":true,"region":"us-west","cc":"us","latitude":37.77397,"longitude":-122.4313,"reserved":0,"last_update":"0001-01-01T00:00:00Z","name_a2s":"Uncletopia | San Francisco | 2 | All Maps","protocol":17,"map":"koth_viaduct","folder":"tf","game":"Team Fortress","app_id":440,"player_count":0,"max_players":24,"Bots":0,"server_type":"Dedicated","server_os":"Linux","password":true,"vac":true,"version":"7723704","steam_id":85568392924470000,"keywords":["cp","nocrits","nodmgspread","uncletopia"],"game_id":440,"stv_port":27026,"stv_name":"Uncletopia | San Francisco | 2 | All Maps | STV","players":null},{"server_id":19,"name":"Uncletopia | San Francisco | 3 | Stopwatch Beta","name_short":"sfo-3","host":"sfo-1.us.uncletopia.com","port":27035,"enabled":true,"region":"us-west","cc":"us","latitude":37.77397,"longitude":-122.4313,"reserved":0,"last_update":"0001-01-01T00:00:00Z","name_a2s":"Uncletopia | San Francisco | 3 | Stopwatch Beta","protocol":17,"map":"pl_pier","folder":"tf","game":"Team Fortress","app_id":440,"player_count":0,"max_players":24,"Bots":0,"server_type":"Dedicated","server_os":"Linux","password":true,"vac":true,"version":"7723704","steam_id":85568392924742824,"keywords":["nocrits","nodmgspread","payload","uncletopia"],"game_id":440,"stv_port":27036,"stv_name":"Uncletopia | San Francisco | 3 | Stopwatch Beta | STV","players":null},{"server_id":20,"name":"Uncletopia | San Francisco | 4 | Community","name_short":"sfo-4","host":"sfo-1.us.uncletopia.com","port":27045,"enabled":true,"region":"us-west","cc":"us","latitude":37.77397,"longitude":-122.4313,"reserved":0,"last_update":"0001-01-01T00:00:00Z","name_a2s":"Uncletopia | San Francisco | 4 | Community","protocol":17,"map":"koth_cascade","folder":"tf","game":"Team Fortress","app_id":440,"player_count":0,"max_players":24,"Bots":0,"server_type":"Dedicated","server_os":"Linux","password":true,"vac":true,"version":"7723704","steam_id":85568392924742826,"keywords":["cp","nocrits","nodmgspread","uncletopia"],"game_id":440,"stv_port":27046,"stv_name":"Uncletopia | San Francisco | 4 | Community | STV","players":null},{"server_id":141,"name":"Uncletopia | Sydney | 1 | All Maps","name_short":"syd-1","host":"syd-1.au.uncletopia.com","port":27015,"enabled":true,"region":"au","cc":"au","latitude":-33.865143,"longitude":151.2099,"reserved":0,"last_update":"0001-01-01T00:00:00Z","name_a2s":"Uncletopia | Sydney | 1 | All Maps","protocol":17,"map":"cp_altitude","folder":"tf","game":"Team Fortress","app_id":440,"player_count":0,"max_players":24,"Bots":0,"server_type":"Dedicated","server_os":"Linux","password":true,"vac":true,"version":"7723704","steam_id":85568392924470001,"keywords":["cp","nocrits","nodmgspread","uncletopia"],"game_id":440,"stv_port":27016,"stv_name":"Uncletopia | Sydney | 1 | All Maps | STV","players":null},{"server_id":123,"name":"Uncletopia | Sydney | 2 | All Maps","name_short":"syd-2","host":"syd-1.au.uncletopia.com","port":27025,"enabled":true,"region":"au","cc":"au","latitude":-33.865143,"longitude":151.2099,"reserved":0,"last_update":"0001-01-01T00:00:00Z","name_a2s":"Uncletopia | Sydney | 2 | All Maps","protocol":17,"map":"koth_king","folder":"tf","game":"Team Fortress","app_id":440,"player_count":0,"max_players":24,"Bots":0,"server_type":"Dedicated","server_os":"Linux","password":true,"vac":true,"version":"7723704","steam_id":85568392924470002,"keywords":["cp","nocrits","nodmgspread","uncletopia"],"game_id":440,"stv_port":27026,"stv_name":"Uncletopia | Sydney | 2 | All Maps | STV","players":null},{"server_id":395,"name":"Uncletopia | Sydney | 3 | All Maps","name_short":"syd-3","host":"syd-1.au.uncletopia.com","port":27035,"enabled":true,"region":"au","cc":"au","latitude":-33.865143,"longitude":151.2099,"reserved":0,"last_update":"0001-01-01T00:00:00Z","name_a2s":"Uncletopia | Sydney | 3 | All Maps","protocol":17,"map":"pl_borneo","folder":"tf","game":"Team Fortress","app_id":440,"player_count":0,"max_players":24,"Bots":0,"server_type":"Dedicated","server_os":"Linux","password":true,"vac":true,"version":"7723704","steam_id":85568392925194467,"keywords":["nocrits","nodmgspread","payload","uncletopia"],"game_id":440,"stv_port":27036,"stv_name":"Uncletopia | Sydney | 3 | All Maps | STV","players":null},{"server_id":396,"name":"Uncletopia | Sydney | 4 | All Maps","name_short":"syd-4","host":"syd-1.au.uncletopia.com","port":27045,"enabled":true,"region":"au","cc":"au","latitude":-33.865143,"longitude":151.2099,"reserved":0,"last_update":"0001-01-01T00:00:00Z","name_a2s":"Uncletopia | Sydney | 4 | All Maps","protocol":17,"map":"koth_viaduct","folder":"tf","game":"Team Fortress","app_id":440,"player_count":0,"max_players":24,"Bots":0,"server_type":"Dedicated","server_os":"Linux","password":true,"vac":true,"version":"7723704","steam_id":85568392925397958,"keywords":["cp","nocrits","nodmgspread","uncletopia"],"game_id":440,"stv_port":27046,"stv_name":"Uncletopia | Sydney | 4 | All Maps | STV","players":null},{"server_id":58,"name":"Uncletopia | Sydney | 5 | Stopwatch Beta","name_short":"syd-5","host":"syd-1.au.uncletopia.com","port":27055,"enabled":true,"region":"au","cc":"au","latitude":-33.865143,"longitude":151.2099,"reserved":0,"last_update":"0001-01-01T00:00:00Z","name_a2s":"Uncletopia | Sydney | 5 | Stopwatch Beta","protocol":17,"map":"cp_altitude","folder":"tf","game":"Team Fortress","app_id":440,"player_count":0,"max_players":24,"Bots":0,"server_type":"Dedicated","server_os":"Linux","password":true,"vac":true,"version":"7723704","steam_id":85568392925397959,"keywords":["cp","nocrits","nodmgspread","uncletopia"],"game_id":440,"stv_port":27056,"stv_name":"Uncletopia | Sydney | 5 | Stopwatch Beta | STV","players":null},{"server_id":59,"name":"Uncletopia | Sydney | 6 | Community","name_short":"syd-6","host":"syd-1.au.uncletopia.com","port":27065,"enabled":true,"region":"au","cc":"au","latitude":-33.865143,"longitude":151.2099,"reserved":0,"last_update":"0001-01-01T00:00:00Z","name_a2s":"Uncletopia | Sydney | 6 | Community","protocol":17,"map":"workshop/koth_ramjam_v2_b2.ugc2865676487","folder":"tf","game":"Team Fortress","app_id":440,"player_count":0,"max_players":24,"Bots":0,"server_type":"Dedicated","server_os":"Linux","password":true,"vac":true,"version":"7723704","steam_id":85568392925397960,"keywords":["cp","nocrits","nodmgspread","uncletopia"],"game_id":440,"stv_port":27066,"stv_name":"Uncletopia | Sydney | 6 | Community | STV","players":null},{"server_id":49,"name":"Uncletopia | Warsaw | 1 | All Maps","name_short":"waw-1","host":"waw-1.pl.uncletopia.com","port":27015,"enabled":true,"region":"eu","cc":"pl","latitude":52.2297,"longitude":21.017532,"reserved":0,"last_update":"0001-01-01T00:00:00Z","name_a2s":"Uncletopia | Warsaw | 1 | All Maps","protocol":17,"map":"koth_cascade","folder":"tf","game":"Team Fortress","app_id":440,"player_count":0,"max_players":24,"Bots":0,"server_type":"Dedicated","server_os":"Linux","password":true,"vac":true,"version":"7723704","steam_id":85568392925397850,"keywords":["cp","nocrits","nodmgspread","uncletopia"],"game_id":440,"stv_port":27016,"stv_name":"Uncletopia | Warsaw | 1 | All Maps | STV","players":null},{"server_id":50,"name":"Uncletopia | Warsaw | 2 | All Maps","name_short":"waw-2","host":"waw-1.pl.uncletopia.com","port":27025,"enabled":true,"region":"eu","cc":"pl","latitude":52.2297,"longitude":21.017532,"reserved":0,"last_update":"0001-01-01T00:00:00Z","name_a2s":"Uncletopia | Warsaw | 2 | All Maps","protocol":17,"map":"cp_mountainlab","folder":"tf","game":"Team Fortress","app_id":440,"player_count":3,"max_players":24,"Bots":0,"server_type":"Dedicated","server_os":"Linux","password":true,"vac":true,"version":"7723704","steam_id":85568392925397851,"keywords":["cp","nocrits","nodmgspread","uncletopia"],"game_id":440,"stv_port":27026,"stv_name":"Uncletopia | Warsaw | 2 | All Maps | STV","players":[{"user_id":5,"name":"Noname","steam_id":76561199099815054,"connected_time":190000000000,"state":"active","ping":54},{"user_id":6,"name":"zuraw","steam_id":76561199118495669,"connected_time":106000000000,"state":"active","ping":53},{"user_id":7,"name":"virgin (every radiohead fan)","steam_id":76561198067159902,"connected_time":85000000000,"state":"active","ping":97}]},{"server_id":51,"name":"Uncletopia | Warsaw | 3 | All Maps","name_short":"waw-3","host":"waw-1.pl.uncletopia.com","port":27035,"enabled":true,"region":"eu","cc":"pl","latitude":52.2297,"longitude":21.017532,"reserved":0,"last_update":"0001-01-01T00:00:00Z","name_a2s":"Uncletopia | Warsaw | 3 | All Maps","protocol":17,"map":"pl_frontier_final","folder":"tf","game":"Team Fortress","app_id":440,"player_count":3,"max_players":24,"Bots":0,"server_type":"Dedicated","server_os":"Linux","password":true,"vac":true,"version":"7723704","steam_id":85568392925397852,"keywords":["nocrits","nodmgspread","payload","uncletopia"],"game_id":440,"stv_port":27036,"stv_name":"Uncletopia | Warsaw | 3 | All Maps | STV","players":[{"user_id":5,"name":"Shazeeb ‚Äús1mple‚Äù Ahmed","steam_id":76561198076175460,"connected_time":791000000000,"state":"active","ping":47},{"user_id":8,"name":"Agera","steam_id":76561199007185955,"connected_time":641000000000,"state":"active","ping":55},{"user_id":9,"name":"FilipekTeam987","steam_id":76561199383001846,"connected_time":246000000000,"state":"active","ping":78}]},{"server_id":52,"name":"Uncletopia | Warsaw | 4 | All Maps","name_short":"waw-4","host":"waw-1.pl.uncletopia.com","port":27045,"enabled":true,"region":"eu","cc":"pl","latitude":52.2297,"longitude":21.017532,"reserved":0,"last_update":"0001-01-01T00:00:00Z","name_a2s":"Uncletopia | Warsaw | 4 | All Maps","protocol":17,"map":"pl_pier","folder":"tf","game":"Team Fortress","app_id":440,"player_count":0,"max_players":24,"Bots":0,"server_type":"Dedicated","server_os":"Linux","password":true,"vac":true,"version":"7723704","steam_id":85568392925397853,"keywords":["nocrits","nodmgspread","payload","uncletopia"],"game_id":440,"stv_port":27046,"stv_name":"Uncletopia | Warsaw | 4 | All Maps | STV","players":null},{"server_id":53,"name":"Uncletopia | Warsaw | 5 | Stopwatch Beta","name_short":"waw-5","host":"waw-1.pl.uncletopia.com","port":27055,"enabled":true,"region":"eu","cc":"pl","latitude":52.2297,"longitude":21.017532,"reserved":0,"last_update":"0001-01-01T00:00:00Z","name_a2s":"Uncletopia | Warsaw | 5 | Stopwatch Beta","protocol":17,"map":"cp_sunshine","folder":"tf","game":"Team Fortress","app_id":440,"player_count":0,"max_players":24,"Bots":0,"server_type":"Dedicated","server_os":"Linux","password":true,"vac":true,"version":"7723704","steam_id":85568392925397854,"keywords":["cp","nocrits","nodmgspread","uncletopia"],"game_id":440,"stv_port":27056,"stv_name":"Uncletopia | Warsaw | 5 | Stopwatch Beta | STV","players":null},{"server_id":54,"name":"Uncletopia | Warsaw | 6 | Community","name_short":"waw-6","host":"waw-1.pl.uncletopia.com","port":27065,"enabled":true,"region":"eu","cc":"pl","latitude":52.2297,"longitude":21.017532,"reserved":0,"last_update":"0001-01-01T00:00:00Z","name_a2s":"Uncletopia | Warsaw | 6 | Community","protocol":17,"map":"workshop/koth_slaughter_rc1.ugc1712845210","folder":"tf","game":"Team Fortress","app_id":440,"player_count":0,"max_players":24,"Bots":0,"server_type":"Dedicated","server_os":"Linux","password":true,"vac":true,"version":"7723704","steam_id":85568392925397856,"keywords":["cp","nocrits","nodmgspread","uncletopia"],"game_id":440,"stv_port":27066,"stv_name":"Uncletopia | Warsaw | 6 | Community | STV","players":null}]}