{"status":true,"message":"","result":[{"server_id":9,"name":"Uncletopia | Atlanta | 1 | All Maps","name_short":"atl-1","host":"atl-1.us.uncletopia.com","port":27015,"enabled":true,"region":"us-east","cc":"us","latitude":33.753746,"longitude":-84.38633,"reserved":0,"last_update":"0001-01-01T00:00:00Z","name_a2s":"Uncletopia | Atlanta | 1 | All Maps","protocol":17,"map":"pl_thundermountain","folder":"tf","game":"Team Fortress","app_id":440,"player_count":24,"max_players":24,"Bots":0,"server_type":"Dedicated","server_os":"Linux","password":true,"vac":true,"version":"7708610","steam_id":85568392924469982,"keywords":["nocrits","nodmgspread","payload","uncletopia"],"game_id":440,"stv_port":27016,"stv_name":"Uncletopia | Atlanta | 1 | All Maps | STV","players":[{"user_id":491,"name":"Capt.Swag","steam_id":76561198088340994,"connected_time":3269000000000,"state":"active","ping":95},{"user_id":471,"name":"i have a gun","steam_id":76561198016121536,"connected_time":4908000000000,"state":"active","ping":96},{"user_id":508,"name":"كندوز","steam_id":76561198326987939,"connected_time":2093000000000,"state":"active","ping":69},{"user_id":424,"name":"mommy grinch","steam_id":76561199230929836,"connected_time":9610000000000,"state":"active","ping":89},{"user_id":532,"name":"_Adriancho","steam_id":76561199064216180,"connected_time":325000000000,"state":"active","ping":121},{"user_id":484,"name":"Festive Fire Starting Rock","steam_id":76561198066547582,"connected_time":4724000000000,"state":"active","ping":120},{"user_id":510,"name":"--_Cook_--","steam_id":76561198080855748,"connected_time":2083000000000,"state":"active","ping":47},{"user_id":530,"name":"bogginwater","steam_id":76561198155547142,"connected_time":617000000000,"state":"active","ping":57},{"user_id":520,"name":"Memed2Much","steam_id":76561199032248010,"connected_time":1884000000000,"state":"active","ping":68},{"user_id":526,"name":"AALINI","steam_id":76561199135108952,"connected_time":1171000000000,"state":"active","ping":110},{"user_id":524,"name":"C papi","steam_id":76561198027779564,"connected_time":1511000000000,"state":"active","ping":57},{"user_id":527,"name":"Inky (Coolest)","steam_id":76561198968337022,"connected_time":1170000000000,"state":"active","ping":62},{"user_id":533,"name":"NEM","steam_id":76561199241131104,"connected_time":247000000000,"state":"active","ping":72},{"user_id":489,"name":"TRHD_Pharaxer™","steam_id":76561198051236069,"connected_time":3855000000000,"state":"active","ping":152},{"user_id":531,"name":"nak","steam_id":76561198219028529,"connected_time":560000000000,"state":"active","ping":120},{"user_id":509,"name":"Cobrayen","steam_id":76561198066505280,"connected_time":2092000000000,"state":"active","ping":119},{"user_id":519,"name":"heywaitasecond","steam_id":76561199064548292,"connected_time":1908000000000,"state":"active","ping":68},{"user_id":522,"name":"ATL1 | eish","steam_id":76561198089463603,"connected_time":1828000000000,"state":"active","ping":123},{"user_id":525,"name":"Burilo","steam_id":76561198014445055,"connected_time":1345000000000,"state":"active","ping":169},{"user_id":483,"name":"sansa musa","steam_id":76561198163723555,"connected_time":4794000000000,"state":"active","ping":80},{"user_id":523,"name":"RatedM4Matt","steam_id":76561198086141042,"connected_time":1778000000000,"state":"active","ping":99},{"user_id":528,"name":"snoops","steam_id":76561197986760351,"connected_time":1156000000000,"state":"active","ping":77},{"user_id":518,"name":"Tommy Pickles (Very Cool)","steam_id":76561198391261463,"connected_time":2000000000000,"state":"active","ping":90},{"user_id":529,"name":"christmas.jimmy.2014","steam_id":76561199177672325,"connected_time":979000000000,"state":"active","ping":45}]},{"server_id":400,"name":"Uncletopia | Atlanta | 3 | All Maps","name_short":"atl-3","host":"atl-1.us.uncletopia.com","port":27035,"enabled":true,"region":"us-east","cc":"us","latitude":33.753746,"longitude":-84.38633,"reserved":0,"last_update":"0001-01-01T00:00:00Z","name_a2s":"Uncletopia | Atlanta | 3 | All Maps","protocol":17,"map":"koth_viaduct","folder":"tf","game":"Team Fortress","app_id":440,"player_count":0,"max_players":24,"Bots":0,"server_type":"Dedicated","server_os":"Linux","password":true,"vac":true,"version":"7708610","steam_id":85568392924515187,"keywords":["cp","nocrits","nodmgspread","uncletopia"],"game_id":440,"stv_port":27036,"stv_name":"Uncletopia | Atlanta | 3 | All Maps | STV","players":null},{"server_id":401,"name":"Uncletopia | Atlanta | 4 | No Payload","name_short":"atl-4","host":"atl-1.us.uncletopia.com","port":27045,"enabled":true,"region":"us-east","cc":"us","latitude":33.753746,"longitude":-84.38633,"reserved":0,"last_update":"0001-01-01T00:00:00Z","name_a2s":"Uncletopia | Atlanta | 4 | No Payload","protocol":17,"map":"koth_sawmill","folder":"tf","game":"Team Fortress","app_id":440,"player_count":0,"max_players":24,"Bots":0,"server_type":"Dedicated","server_os":"Linux","password":true,"vac":true,"version":"7708610","steam_id":85568392924515188,"keywords":["cp","nocrits","nodmgspread","uncletopia"],"game_id":440,"stv_port":27046,"stv_name":"Uncletopia | Atlanta | 4 | No Payload | STV","players":null},{"server_id":2,"name":"Uncletopia | Chicago | 1 | All Maps","name_short":"chi-1","host":"chi-1.us.uncletopia.com","port":27015,"enabled":true,"region":"us-central","cc":"us","latitude":41.881832,"longitude":-87.62318,"reserved":0,"last_update":"0001-01-01T00:00:00Z","name_a2s":"Uncletopia | Chicago | 1 | All Maps","protocol":17,"map":"pl_borneo","folder":"tf","game":"Team Fortress","app_id":440,"player_count":24,"max_players":24,"Bots":0,"server_type":"Dedicated","server_os":"Linux","password":true,"vac":true,"version":"7708610","steam_id":85568392924469984,"keywords":["nocrits","nodmgspread","payload","uncletopia"],"game_id":440,"stv_port":27016,"stv_name":"Uncletopia | Chicago | 1 | All Maps | STV","players":[{"user_id":613,"name":"Yarn","steam_id":76561199227148369,"connected_time":282000000000,"state":"active","ping":94},{"user_id":611,"name":"Grundle Thunder","steam_id":76561197960790338,"connected_time":642000000000,"state":"active","ping":76},{"user_id":593,"name":"Alt","steam_id":76561197992591984,"connected_time":2078000000000,"state":"active","ping":59},{"user_id":607,"name":"Loogey03","steam_id":76561198155483586,"connected_time":891000000000,"state":"active","ping":59},{"user_id":569,"name":"Ether","steam_id":76561198054806528,"connected_time":4064000000000,"state":"active","ping":67},{"user_id":605,"name":"☼ champloo","steam_id":76561198074180953,"connected_time":1284000000000,"state":"active","ping":72},{"user_id":606,"name":"wesker can hit it tbh","steam_id":76561197968351430,"connected_time":904000000000,"state":"active","ping":97},{"user_id":583,"name":"❤ Ashley ❤","steam_id":76561198056428303,"connected_time":3572000000000,"state":"active","ping":100},{"user_id":554,"name":"stop","steam_id":76561198268686419,"connected_time":6005000000000,"state":"active","ping":61},{"user_id":603,"name":"Square Kid (pussy)","steam_id":76561198349858321,"connected_time":1365000000000,"state":"active","ping":80},{"user_id":609,"name":"Cables","steam_id":76561198119612027,"connected_time":858000000000,"state":"active","ping":89},{"user_id":612,"name":"Abysl","steam_id":76561198991216341,"connected_time":613000000000,"state":"active","ping":81},{"user_id":584,"name":"Fuit gummy","steam_id":76561199409402525,"connected_time":3295000000000,"state":"active","ping":101},{"user_id":610,"name":"Seller of Waffles","steam_id":76561198296018138,"connected_time":858000000000,"state":"active","ping":58},{"user_id":596,"name":"$169 Ikea Dresser","steam_id":76561198132193834,"connected_time":1980000000000,"state":"active","ping":70},{"user_id":581,"name":"Ronnie James Dio","steam_id":76561197978515373,"connected_time":3656000000000,"state":"active","ping":82},{"user_id":574,"name":"Salad Days","steam_id":76561198110323694,"connected_time":4017000000000,"state":"active","ping":86},{"user_id":582,"name":"Raniel Dicciardo","steam_id":76561198053859538,"connected_time":3605000000000,"state":"active","ping":70},{"user_id":600,"name":"forktails","steam_id":76561198046185082,"connected_time":1700000000000,"state":"active","ping":59},{"user_id":601,"name":"Typical Gentleman","steam_id":76561199229771413,"connected_time":1540000000000,"state":"active","ping":80},{"user_id":599,"name":"Lia_Rein(deer)","steam_id":76561198151569597,"connected_time":1841000000000,"state":"active","ping":153},{"user_id":590,"name":"whajjma","steam_id":76561198203395648,"connected_time":2332000000000,"state":"active","ping":88},{"user_id":597,"name":"Tannenbaum Trotsky","steam_id":76561199101638460,"connected_time":1949000000000,"state":"active","ping":75},{"user_id":604,"name":"Vladikr1","steam_id":76561198401495362,"connected_time":1334000000000,"state":"active","ping":53}]},{"server_id":106,"name":"Uncletopia | Chicago | 2 | All Maps","name_short":"chi-2","host":"chi-1.us.uncletopia.com","port":27025,"enabled":true,"region":"us-central","cc":"us","latitude":41.881832,"longitude":-87.62318,"reserved":0,"last_update":"0001-01-01T00:00:00Z","name_a2s":"Uncletopia | Chicago | 2 | All Maps","protocol":17,"map":"pl_upward","folder":"tf","game":"Team Fortress","app_id":440,"player_count":24,"max_players":24,"Bots":0,"server_type":"Dedicated","server_os":"Linux","password":true,"vac":true,"version":"7708610","steam_id":85568392924469985,"keywords":["nocrits","nodmgspread","payload","uncletopia"],"game_id":440,"stv_port":27026,"stv_name":"Uncletopia | Chicago | 2 | All Maps | STV","players":[{"user_id":358,"name":"Barracuda","steam_id":76561198013022083,"connected_time":480000000000,"state":"active","ping":55},{"user_id":359,"name":"nhbiker","steam_id":76561198081277675,"connected_time":447000000000,"state":"active","ping":57},{"user_id":341,"name":"alexwasherefirst","steam_id":76561198846755124,"connected_time":1970000000000,"state":"active","ping":114},{"user_id":342,"name":"BD[PL]","steam_id":76561198115995871,"connected_time":1968000000000,"state":"active","ping":178},{"user_id":360,"name":"Boomerang","steam_id":76561198384838357,"connected_time":446000000000,"state":"active","ping":88},{"user_id":337,"name":"randomperson88","steam_id":76561199228822173,"connected_time":2916000000000,"state":"active","ping":49},{"user_id":361,"name":"BNTF","steam_id":76561198062740087,"connected_time":399000000000,"state":"active","ping":75},{"user_id":362,"name":"Moothe","steam_id":76561199171150495,"connected_time":395000000000,"state":"active","ping":74},{"user_id":343,"name":"Toxix","steam_id":76561198201796245,"connected_time":1879000000000,"state":"active","ping":69},{"user_id":338,"name":"no","steam_id":76561198248853140,"connected_time":2565000000000,"state":"active","ping":57},{"user_id":334,"name":"Ice","steam_id":76561199024880478,"connected_time":3339000000000,"state":"active","ping":45},{"user_id":355,"name":"albert_gamer","steam_id":76561198980666751,"connected_time":872000000000,"state":"active","ping":72},{"user_id":300,"name":"Zeta","steam_id":76561198178693059,"connected_time":5628000000000,"state":"active","ping":42},{"user_id":354,"name":"Gian","steam_id":76561198041434512,"connected_time":947000000000,"state":"active","ping":133},{"user_id":328,"name":"swan","steam_id":76561198012569200,"connected_time":3487000000000,"state":"active","ping":73},{"user_id":346,"name":"ClayXros (Plain Cereal)","steam_id":76561198097025072,"connected_time":1841000000000,"state":"active","ping":42},{"user_id":347,"name":"rkp!","steam_id":76561199053070819,"connected_time":1814000000000,"state":"active","ping":53},{"user_id":351,"name":"TH-1","steam_id":76561197993467034,"connected_time":1166000000000,"state":"active","ping":61},{"user_id":353,"name":"Aspxts","steam_id":76561199125254746,"connected_time":1071000000000,"state":"active","ping":57},{"user_id":356,"name":"coffee bagel","steam_id":76561198141198352,"connected_time":804000000000,"state":"active","ping":45},{"user_id":363,"name":"jeckatk","steam_id":76561198848930696,"connected_time":78000000000,"state":"active","ping":53},{"user_id":339,"name":"TallBit","steam_id":76561199059748976,"connected_time":2221000000000,"state":"active","ping":54},{"user_id":340,"name":"Vince Offer","steam_id":76561198991008825,"connected_time":2138000000000,"state":"active","ping":87},{"user_id":357,"name":"monkeysniper29","steam_id":76561199436525704,"connected_time":488000000000,"state":"active","ping":136}]},{"server_id":402,"name":"Uncletopia | Chicago | 3 | All Maps","name_short":"chi-3","host":"chi-1.us.uncletopia.com","port":27035,"enabled":true,"region":"us-central","cc":"us","latitude":41.881832,"longitude":-87.62318,"reserved":0,"last_update":"0001-01-01T00:00:00Z","name_a2s":"Uncletopia | Chicago | 3 | All Maps","protocol":17,"map":"pl_swiftwater_final1","folder":"tf","game":"Team Fortress","app_id":440,"player_count":24,"max_players":24,"Bots":0,"server_type":"Dedicated","server_os":"Linux","password":true,"vac":true,"version":"7708610","steam_id":85568392924515191,"keywords":["nocrits","nodmgspread","payload","uncletopia"],"game_id":440,"stv_port":27036,"stv_name":"Uncletopia | Chicago | 3 | All Maps | STV","players":[{"user_id":257,"name":"Transbian mommy GF","steam_id":76561198153233822,"connected_time":1633000000000,"state":"active","ping":51},{"user_id":259,"name":"O'brien","steam_id":76561198289339403,"connected_time":1598000000000,"state":"active","ping":85},{"user_id":289,"name":"sasharudzik","steam_id":76561199126617781,"connected_time":512000000000,"state":"active","ping":94},{"user_id":288,"name":"MR.Badatgames","steam_id":76561198820423721,"connected_time":637000000000,"state":"active","ping":54},{"user_id":263,"name":"Kuyumiester","steam_id":76561198126835302,"connected_time":1153000000000,"state":"active","ping":62},{"user_id":269,"name":"Pink","steam_id":76561198042140694,"connected_time":986000000000,"state":"active","ping":77},{"user_id":258,"name":"autumnal.messenger","steam_id":76561199345816635,"connected_time":1630000000000,"state":"active","ping":107},{"user_id":266,"name":"Harley [Ramiel]","steam_id":76561198079510840,"connected_time":1060000000000,"state":"active","ping":92},{"user_id":267,"name":"My controller broke","steam_id":76561198157280577,"connected_time":1044000000000,"state":"active","ping":66},{"user_id":291,"name":"YunKoツ","steam_id":76561199107366261,"connected_time":315000000000,"state":"active","ping":88},{"user_id":287,"name":"Righteou5Dude","steam_id":76561198136291931,"connected_time":645000000000,"state":"active","ping":77},{"user_id":271,"name":"Epha","steam_id":76561198079379951,"connected_time":960000000000,"state":"active","ping":71},{"user_id":292,"name":"Frongus","steam_id":76561197979056451,"connected_time":275000000000,"state":"active","ping":95},{"user_id":273,"name":"Kirby","steam_id":76561199161858008,"connected_time":949000000000,"state":"active","ping":75},{"user_id":276,"name":"-*+Angel+*-","steam_id":76561199229447760,"connected_time":927000000000,"state":"active","ping":141},{"user_id":278,"name":"Antifa Alligator","steam_id":76561197988170816,"connected_time":898000000000,"state":"active","ping":56},{"user_id":279,"name":"Giant","steam_id":76561198851536991,"connected_time":876000000000,"state":"active","ping":125},{"user_id":280,"name":"Dagsdaf","steam_id":76561198055317112,"connected_time":847000000000,"state":"active","ping":67},{"user_id":284,"name":"ATL0 Dedi Le4n!!!","steam_id":76561198045522596,"connected_time":733000000000,"state":"active","ping":88},{"user_id":230,"name":"Dreamin'","steam_id":76561198353910533,"connected_time":4142000000000,"state":"active","ping":58},{"user_id":282,"name":"boo_thefeared","steam_id":76561198127967685,"connected_time":821000000000,"state":"active","ping":139},{"user_id":283,"name":"The Foolish Samurai","steam_id":76561198094494945,"connected_time":760000000000,"state":"active","ping":110},{"user_id":285,"name":"thecal","steam_id":76561198307893384,"connected_time":722000000000,"state":"active","ping":57},{"user_id":286,"name":"seanieee","steam_id":76561198354473513,"connected_time":715000000000,"state":"active","ping":52}]},{"server_id":403,"name":"Uncletopia | Chicago | 4 | All Maps","name_short":"chi-4","host":"chi-1.us.uncletopia.com","port":27045,"enabled":true,"region":"us-central","cc":"us","latitude":41.881832,"longitude":-87.62318,"reserved":0,"last_update":"0001-01-01T00:00:00Z","name_a2s":"Uncletopia | Chicago | 4 | All Maps","protocol":17,"map":"pl_badwater","folder":"tf","game":"Team Fortress","app_id":440,"player_count":24,"max_players":24,"Bots":0,"server_type":"Dedicated","server_os":"Linux","password":true,"vac":true,"version":"7708610","steam_id":85568392924515193,"keywords":["nocrits","nodmgspread","payload","uncletopia"],"game_id":440,"stv_port":27046,"stv_name":"Uncletopia | Chicago | 4 | All Maps | STV","players":[{"user_id":18,"name":"OlympicChamp_12 | Trade.tf","steam_id":76561198830574526,"connected_time":3313000000000,"state":"active","ping":101},{"user_id":65,"name":"Divine Mountain of Heaven","steam_id":76561198196793754,"connected_time":1689000000000,"state":"active","ping":72},{"user_id":42,"name":"MidSobbes08","steam_id":76561199013101925,"connected_time":2365000000000,"state":"active","ping":143},{"user_id":20,"name":"KevCraft","steam_id":76561199000622939,"connected_time":3100000000000,"state":"active","ping":73},{"user_id":75,"name":"a crazy hobo","steam_id":76561198289650060,"connected_time":989000000000,"state":"active","ping":82},{"user_id":78,"name":"Chezburgures","steam_id":76561198173043730,"connected_time":959000000000,"state":"active","ping":105},{"user_id":86,"name":"kg","steam_id":76561198147746558,"connected_time":105000000000,"state":"active","ping":54},{"user_id":66,"name":"money squared","steam_id":76561198046775352,"connected_time":1350000000000,"state":"active","ping":94},{"user_id":79,"name":"piss baby","steam_id":76561198057374871,"connected_time":937000000000,"state":"active","ping":63},{"user_id":72,"name":"Moo Guy","steam_id":76561198114598079,"connected_time":1161000000000,"state":"active","ping":71},{"user_id":84,"name":"REAL MF THUG! FUCK 12","steam_id":76561198825658971,"connected_time":306000000000,"state":"active","ping":93},{"user_id":77,"name":"Riboflavin","steam_id":76561198077328593,"connected_time":964000000000,"state":"active","ping":94},{"user_id":80,"name":"DeviZilla","steam_id":76561198075212603,"connected_time":835000000000,"state":"active","ping":74},{"user_id":67,"name":"hawmond","steam_id":76561198068840960,"connected_time":1341000000000,"state":"active","ping":59},{"user_id":70,"name":"kaleb.","steam_id":76561198064509964,"connected_time":1245000000000,"state":"active","ping":60},{"user_id":55,"name":"Toastyy","steam_id":76561199012262560,"connected_time":2078000000000,"state":"active","ping":58},{"user_id":83,"name":"ChinezKitty","steam_id":76561198187497617,"connected_time":331000000000,"state":"active","ping":56},{"user_id":73,"name":"Now I'm a Little Motivated","steam_id":76561198069580305,"connected_time":1104000000000,"state":"active","ping":47},{"user_id":58,"name":"Bomb Squirtle™","steam_id":76561197998931145,"connected_time":2009000000000,"state":"active","ping":86},{"user_id":59,"name":"A used self heating flesh-light","steam_id":76561198069918221,"connected_time":1968000000000,"state":"active","ping":75},{"user_id":60,"name":"PeopleOrderOurPatties","steam_id":76561198323144922,"connected_time":1876000000000,"state":"active","ping":66},{"user_id":62,"name":"i wish the milk man would deliv","steam_id":76561198848075481,"connected_time":1844000000000,"state":"active","ping":53},{"user_id":64,"name":"Fribas","steam_id":76561198138502813,"connected_time":1760000000000,"state":"active","ping":77},{"user_id":76,"name":"lag","steam_id":76561197963872739,"connected_time":988000000000,"state":"active","ping":96}]},{"server_id":36,"name":"Uncletopia | Chicago | 5 | All Maps","name_short":"chi-5","host":"chi-2.us.uncletopia.com","port":27015,"enabled":true,"region":"us-central","cc":"us","latitude":41.881832,"longitude":-87.62318,"reserved":0,"last_update":"0001-01-01T00:00:00Z","name_a2s":"Uncletopia | Chicago | 5 | All Maps","protocol":17,"map":"ctf_doublecross_snowy","folder":"tf","game":"Team Fortress","app_id":440,"player_count":24,"max_players":24,"Bots":0,"server_type":"Dedicated","server_os":"Linux","password":true,"vac":true,"version":"7708610","steam_id":85568392924866362,"keywords":["ctf","nocrits","nodmgspread","uncletopia"],"game_id":440,"stv_port":27016,"stv_name":"Uncletopia | Chicago | 5 | All Maps | STV","players":[{"user_id":177,"name":"JOJ Official","steam_id":76561199224310476,"connected_time":421000000000,"state":"active","ping":76},{"user_id":112,"name":"Steve","steam_id":76561198359378515,"connected_time":4501000000000,"state":"active","ping":75},{"user_id":169,"name":"Cibervader","steam_id":76561198011330613,"connected_time":1357000000000,"state":"active","ping":76},{"user_id":126,"name":"baseba8311","steam_id":76561198327711144,"connected_time":3532000000000,"state":"active","ping":83},{"user_id":59,"name":"6t26j","steam_id":76561198278282836,"connected_time":7653000000000,"state":"active","ping":58},{"user_id":18,"name":"Mediquette","steam_id":76561199122439945,"connected_time":9521000000000,"state":"active","ping":80},{"user_id":178,"name":"Pipo","steam_id":76561198171466414,"connected_time":84000000000,"state":"active","ping":52},{"user_id":85,"name":"schnedwob","steam_id":76561197999146588,"connected_time":5844000000000,"state":"active","ping":68},{"user_id":174,"name":"MEEPking","steam_id":76561198277668880,"connected_time":660000000000,"state":"active","ping":96},{"user_id":152,"name":"Joseph Madre","steam_id":76561199084714284,"connected_time":1874000000000,"state":"active","ping":59},{"user_id":175,"name":"Normalux","steam_id":76561198293891426,"connected_time":635000000000,"state":"active","ping":72},{"user_id":160,"name":"Pinapley","steam_id":76561198063130298,"connected_time":1593000000000,"state":"active","ping":71},{"user_id":164,"name":"tf2 n chill?","steam_id":76561198149063013,"connected_time":1429000000000,"state":"active","ping":63},{"user_id":161,"name":"Team Fortress 2","steam_id":76561198330697854,"connected_time":1580000000000,"state":"active","ping":165},{"user_id":176,"name":"Guy From Canada","steam_id":76561199190195411,"connected_time":630000000000,"state":"active","ping":73},{"user_id":179,"name":"DREW PEACOCK","steam_id":76561198065057392,"connected_time":74000000000,"state":"spawning","ping":77},{"user_id":128,"name":"abolish the federal reserve","steam_id":76561198047796437,"connected_time":3375000000000,"state":"active","ping":110},{"user_id":180,"name":"Online","steam_id":76561198087472640,"connected_time":67000000000,"state":"active","ping":105},{"user_id":158,"name":".BL14","steam_id":76561198374604922,"connected_time":1637000000000,"state":"active","ping":65},{"user_id":166,"name":"Kaluka","steam_id":76561198036861445,"connected_time":1395000000000,"state":"active","ping":83},{"user_id":172,"name":"Big kahuna","steam_id":76561198142024812,"connected_time":1290000000000,"state":"active","ping":71},{"user_id":140,"name":"wstrnsmile","steam_id":76561199384654820,"connected_time":2659000000000,"state":"active","ping":77},{"user_id":131,"name":"Dr. Kleiner","steam_id":76561198018252191,"connected_time":3119000000000,"state":"active","ping":65},{"user_id":137,"name":"SoupKnight","steam_id":76561199122067199,"connected_time":2779000000000,"state":"active","ping":116}]},{"server_id":37,"name":"Uncletopia | Chicago | 6 | All Maps","name_short":"chi-6","host":"chi-2.us.uncletopia.com","port":27025,"enabled":true,"region":"us-central","cc":"us","latitude":41.881832,"longitude":-87.62318,"reserved":0,"last_update":"0001-01-01T00:00:00Z","name_a2s":"Uncletopia | Chicago | 6 | All Maps","protocol":17,"map":"pl_swiftwater_final1","folder":"tf","game":"Team Fortress","app_id":440,"player_count":22,"max_players":24,"Bots":0,"server_type":"Dedicated","server_os":"Linux","password":true,"vac":true,"version":"7708610","steam_id":85568392924866363,"keywords":["nocrits","nodmgspread","payload","uncletopia"],"game_id":440,"stv_port":27026,"stv_name":"Uncletopia | Chicago | 6 | All Maps | STV","players":[{"user_id":223,"name":"ham bone","steam_id":76561198351143785,"connected_time":225000000000,"state":"active","ping":59},{"user_id":207,"name":"d!eing pigs Wh3n?","steam_id":76561198963410515,"connected_time":761000000000,"state":"active","ping":60},{"user_id":225,"name":"Gaming123","steam_id":76561198801780168,"connected_time":198000000000,"state":"active","ping":69},{"user_id":227,"name":"Roz257","steam_id":76561198842844532,"connected_time":54000000000,"state":"active","ping":68},{"user_id":228,"name":"User Interface","steam_id":76561198049238840,"connected_time":31000000000,"state":"active","ping":77},{"user_id":224,"name":"akirajimbo","steam_id":76561197979960008,"connected_time":222000000000,"state":"active","ping":50},{"user_id":229,"name":"silly billy","steam_id":76561199038072811,"connected_time":28000000000,"state":"active","ping":90},{"user_id":192,"name":"Purple Crush mmm","steam_id":76561198256909502,"connected_time":1728000000000,"state":"active","ping":88},{"user_id":214,"name":"peter slideinher","steam_id":76561198000564263,"connected_time":665000000000,"state":"active","ping":69},{"user_id":209,"name":"stump","steam_id":76561198143450904,"connected_time":729000000000,"state":"active","ping":74},{"user_id":231,"name":"jennydude","steam_id":76561198119132813,"connected_time":24000000000,"state":"active","ping":88},{"user_id":232,"name":"Massive Conquistador","steam_id":76561197961138002,"connected_time":4000000000,"state":"spawning","ping":74},{"user_id":210,"name":"(657) 262-9570","steam_id":76561199063130278,"connected_time":720000000000,"state":"active","ping":108},{"user_id":221,"name":"Jones","steam_id":76561198046037216,"connected_time":347000000000,"state":"active","ping":74},{"user_id":222,"name":"lanoc","steam_id":76561198055415367,"connected_time":346000000000,"state":"active","ping":60},{"user_id":219,"name":"java","steam_id":76561198030276792,"connected_time":547000000000,"state":"active","ping":62},{"user_id":215,"name":"King","steam_id":76561198010019214,"connected_time":652000000000,"state":"active","ping":50},{"user_id":206,"name":"tobo","steam_id":76561199366968526,"connected_time":855000000000,"state":"active","ping":93},{"user_id":216,"name":"AlecTheNefarious","steam_id":76561198035291230,"connected_time":651000000000,"state":"active","ping":61},{"user_id":217,"name":"North Central Positronics Rep","steam_id":76561198133718360,"connected_time":648000000000,"state":"active","ping":62},{"user_id":166,"name":"CFDv20","steam_id":76561198450073779,"connected_time":4120000000000,"state":"active","ping":92},{"user_id":138,"name":"xenolith","steam_id":76561198041496496,"connected_time":5773000000000,"state":"active","ping":71}]},{"server_id":38,"name":"Uncletopia | Chicago | 7 | No Payload","name_short":"chi-7","host":"chi-2.us.uncletopia.com","port":27035,"enabled":true,"region":"us-central","cc":"us","latitude":41.881832,"longitude":-87.62318,"reserved":0,"last_update":"0001-01-01T00:00:00Z","name_a2s":"Uncletopia | Chicago | 7 | No Payload","protocol":17,"map":"koth_badlands","folder":"tf","game":"Team Fortress","app_id":440,"player_count":0,"max_players":24,"Bots":0,"server_type":"Dedicated","server_os":"Linux","password":true,"vac":true,"version":"7708610","steam_id":85568392924866364,"keywords":["cp","nocrits","nodmgspread","uncletopia"],"game_id":440,"stv_port":27036,"stv_name":"Uncletopia | Chicago | 7 | No Payload | STV","players":null},{"server_id":39,"name":"Uncletopia | Chicago | 8 | Community","name_short":"chi-8","host":"chi-2.us.uncletopia.com","port":27045,"enabled":true,"region":"us-central","cc":"us","latitude":41.881832,"longitude":-87.62318,"reserved":0,"last_update":"0001-01-01T00:00:00Z","name_a2s":"Uncletopia | Chicago | 8 | Community","protocol":17,"map":"workshop/koth_ashville_final.ugc2130459942","folder":"tf","game":"Team Fortress","app_id":440,"player_count":0,"max_players":24,"Bots":0,"server_type":"Dedicated","server_os":"Linux","password":true,"vac":true,"version":"7708610","steam_id":85568392924866365,"keywords":["cp","nocrits","nodmgspread","uncletopia"],"game_id":440,"stv_port":27046,"stv_name":"Uncletopia | Chicago | 8 | Community | STV","players":null},{"server_id":8,"name":"Uncletopia | Dallas | 1 | All Maps","name_short":"dal-1","host":"dal-1.us.uncletopia.com","port":27015,"enabled":true,"region":"us-central","cc":"us","latitude":32.779167,"longitude":-96.80889,"reserved":0,"last_update":"0001-01-01T00:00:00Z","name_a2s":"Uncletopia | Dallas | 1 | All Maps","protocol":17,"map":"pl_snowycoast","folder":"tf","game":"Team Fortress","app_id":440,"player_count":24,"max_players":24,"Bots":0,"server_type":"Dedicated","server_os":"Linux","password":true,"vac":true,"version":"7708610","steam_id":85568392924469986,"keywords":["nocrits","nodmgspread","payload","uncletopia"],"game_id":440,"stv_port":27016,"stv_name":"Uncletopia | Dallas | 1 | All Maps | STV","players":[{"user_id":401,"name":"Legend27","steam_id":76561198067011064,"connected_time":2268000000000,"state":"active","ping":82},{"user_id":427,"name":"turnip","steam_id":76561197999375941,"connected_time":90000000000,"state":"active","ping":54},{"user_id":396,"name":"caber jumpscare","steam_id":76561198168924361,"connected_time":2906000000000,"state":"active","ping":59},{"user_id":406,"name":"Mengle","steam_id":76561198001953684,"connected_time":2204000000000,"state":"active","ping":81},{"user_id":423,"name":"Jacck916","steam_id":76561198176874157,"connected_time":198000000000,"state":"active","ping":105},{"user_id":428,"name":"citrus","steam_id":76561198294606679,"connected_time":5000000000,"state":"spawning","ping":89},{"user_id":405,"name":"far1ne","steam_id":76561198418853168,"connected_time":2216000000000,"state":"active","ping":78},{"user_id":425,"name":"xX_matias.gamer_Xx","steam_id":76561199187226776,"connected_time":166000000000,"state":"active","ping":58},{"user_id":392,"name":"Greg Boberton 2012","steam_id":76561198983566026,"connected_time":3424000000000,"state":"active","ping":90},{"user_id":414,"name":"Genius Meme","steam_id":76561198162911254,"connected_time":1331000000000,"state":"active","ping":80},{"user_id":421,"name":"bep","steam_id":76561198414336279,"connected_time":540000000000,"state":"active","ping":66},{"user_id":376,"name":"AugustSkies","steam_id":76561198119544213,"connected_time":4256000000000,"state":"active","ping":118},{"user_id":420,"name":"45 Cent","steam_id":76561198048690188,"connected_time":614000000000,"state":"active","ping":90},{"user_id":369,"name":"tim E","steam_id":76561198401800919,"connected_time":4423000000000,"state":"active","ping":124},{"user_id":390,"name":"Mr.Indian Jokar","steam_id":76561198381343086,"connected_time":3469000000000,"state":"active","ping":67},{"user_id":400,"name":"The Pill","steam_id":76561198164782423,"connected_time":2279000000000,"state":"active","ping":78},{"user_id":422,"name":"Ret","steam_id":76561198272398545,"connected_time":212000000000,"state":"active","ping":118},{"user_id":340,"name":"Zigadox","steam_id":76561198079813479,"connected_time":6067000000000,"state":"active","ping":87},{"user_id":397,"name":"C-Chunky?!","steam_id":76561198132231011,"connected_time":2612000000000,"state":"active","ping":69},{"user_id":424,"name":"Sceleratis","steam_id":76561198167671318,"connected_time":187000000000,"state":"active","ping":53},{"user_id":408,"name":"dan","steam_id":76561198061589465,"connected_time":2183000000000,"state":"active","ping":89},{"user_id":416,"name":"SquirrelAway™","steam_id":76561197998828619,"connected_time":1167000000000,"state":"active","ping":68},{"user_id":426,"name":"danielaugello15","steam_id":76561199235977512,"connected_time":155000000000,"state":"active","ping":138},{"user_id":394,"name":"The Creatine Goblin","steam_id":76561199123089648,"connected_time":3220000000000,"state":"active","ping":94}]},{"server_id":108,"name":"Uncletopia | Dallas | 2 | All Maps","name_short":"dal-2","host":"dal-1.us.uncletopia.com","port":27025,"enabled":true,"region":"us-central","cc":"us","latitude":32.779167,"longitude":-96.80889,"reserved":0,"last_update":"0001-01-01T00:00:00Z","name_a2s":"Uncletopia | Dallas | 2 | All Maps","protocol":17,"map":"pl_swiftwater_final1","folder":"tf","game":"Team Fortress","app_id":440,"player_count":24,"max_players":24,"Bots":0,"server_type":"Dedicated","server_os":"Linux","password":true,"vac":true,"version":"7708610","steam_id":85568392924469988,"keywords":["nocrits","nodmgspread","payload","uncletopia"],"game_id":440,"stv_port":27026,"stv_name":"Uncletopia | Dallas | 2 | All Maps | STV","players":[{"user_id":182,"name":"My Pet Polar Bear","steam_id":76561198052902058,"connected_time":4491000000000,"state":"active","ping":75},{"user_id":206,"name":"Moonflower ✦","steam_id":76561198191782483,"connected_time":2903000000000,"state":"active","ping":48},{"user_id":227,"name":"oct9ber f9rever","steam_id":76561198036283992,"connected_time":2110000000000,"state":"active","ping":79},{"user_id":218,"name":"valtiel","steam_id":76561198165212575,"connected_time":2408000000000,"state":"active","ping":88},{"user_id":271,"name":"kougar dragon","steam_id":76561199443478548,"connected_time":599000000000,"state":"active","ping":80},{"user_id":272,"name":"gulch","steam_id":76561199227946025,"connected_time":585000000000,"state":"active","ping":60},{"user_id":236,"name":"Choccy Milk","steam_id":76561198085333480,"connected_time":1551000000000,"state":"active","ping":116},{"user_id":273,"name":"Krazey | Trade.tf","steam_id":76561198257856412,"connected_time":513000000000,"state":"active","ping":88},{"user_id":238,"name":"Swagboi429","steam_id":76561199220307602,"connected_time":1476000000000,"state":"active","ping":108},{"user_id":274,"name":"Pyrite","steam_id":76561198158817820,"connected_time":495000000000,"state":"active","ping":70},{"user_id":208,"name":"trash beast","steam_id":76561198015792736,"connected_time":2890000000000,"state":"active","ping":84},{"user_id":278,"name":"Serenue","steam_id":76561199040361250,"connected_time":341000000000,"state":"active","ping":112},{"user_id":279,"name":"MagicGnome","steam_id":76561198060886742,"connected_time":296000000000,"state":"active","ping":105},{"user_id":204,"name":"I like cheese (real)","steam_id":76561198882837408,"connected_time":3278000000000,"state":"active","ping":95},{"user_id":276,"name":"UNIT 220","steam_id":76561198042243497,"connected_time":440000000000,"state":"active","ping":80},{"user_id":237,"name":"Staggerleon","steam_id":76561198135398516,"connected_time":1493000000000,"state":"active","ping":80},{"user_id":174,"name":"Chris Pratt's pocket spaghetti","steam_id":76561198138347045,"connected_time":4676000000000,"state":"active","ping":77},{"user_id":178,"name":"Pixeled","steam_id":76561198088917077,"connected_time":4596000000000,"state":"active","ping":87},{"user_id":277,"name":"daffodil (frosty)","steam_id":76561198049480053,"connected_time":424000000000,"state":"active","ping":60},{"user_id":230,"name":"Sup m8","steam_id":76561198081659121,"connected_time":1935000000000,"state":"active","ping":46},{"user_id":235,"name":"Drakon","steam_id":76561198078210822,"connected_time":1658000000000,"state":"active","ping":81},{"user_id":234,"name":"BOT [Craf227]","steam_id":76561198196211121,"connected_time":1702000000000,"state":"active","ping":51},{"user_id":240,"name":"vmoney160","steam_id":76561198053516110,"connected_time":1439000000000,"state":"active","ping":89},{"user_id":242,"name":"I_amgeneric","steam_id":76561198058605649,"connected_time":1397000000000,"state":"active","ping":50}]},{"server_id":5,"name":"Uncletopia | Frankfurt | 1 | All Maps","name_short":"frk-1","host":"frk-1.de.uncletopia.com","port":27015,"enabled":true,"region":"eu","cc":"de","latitude":50.110924,"longitude":8.682127,"reserved":0,"last_update":"0001-01-01T00:00:00Z","name_a2s":"Uncletopia | Frankfurt | 1 | All Maps","protocol":17,"map":"pl_badwater","folder":"tf","game":"Team Fortress","app_id":440,"player_count":24,"max_players":24,"Bots":0,"server_type":"Dedicated","server_os":"Linux","password":true,"vac":true,"version":"7708610","steam_id":85568392924469989,"keywords":["nocrits","nodmgspread","payload","uncletopia"],"game_id":440,"stv_port":27016,"stv_name":"Uncletopia | Frankfurt | 1 | All Maps | STV","players":[{"user_id":1123,"name":"Tomamo","steam_id":76561198258031112,"connected_time":1274000000000,"state":"active","ping":77},{"user_id":1133,"name":"brokenphilip","steam_id":76561198080960604,"connected_time":879000000000,"state":"active","ping":79},{"user_id":1069,"name":"snowi","steam_id":76561198006502679,"connected_time":7304000000000,"state":"active","ping":75},{"user_id":1125,"name":"hedren","steam_id":76561198146075691,"connected_time":1137000000000,"state":"active","ping":71},{"user_id":1134,"name":"JohnnyDPissbags","steam_id":76561198332060606,"connected_time":860000000000,"state":"active","ping":82},{"user_id":1127,"name":"Philmortin","steam_id":76561199195776931,"connected_time":1059000000000,"state":"active","ping":151},{"user_id":1110,"name":"SuperBob103","steam_id":76561199175360012,"connected_time":2776000000000,"state":"active","ping":62},{"user_id":1138,"name":"Jouppi","steam_id":76561198063725468,"connected_time":266000000000,"state":"active","ping":92},{"user_id":1102,"name":"gwałt wątroby 0,7 i 5 piw","steam_id":76561199038973360,"connected_time":3999000000000,"state":"active","ping":78},{"user_id":1114,"name":"Sire No0b","steam_id":76561198036466335,"connected_time":2681000000000,"state":"active","ping":129},{"user_id":1063,"name":"vi","steam_id":76561198303147966,"connected_time":7618000000000,"state":"active","ping":56},{"user_id":1093,"name":"invis","steam_id":76561198120668070,"connected_time":5619000000000,"state":"active","ping":62},{"user_id":1142,"name":"Hannü","steam_id":76561197969886128,"connected_time":136000000000,"state":"active","ping":63},{"user_id":1136,"name":"that one mudkip","steam_id":76561198396492130,"connected_time":583000000000,"state":"active","ping":174},{"user_id":1122,"name":"Toaster1337","steam_id":76561198103706881,"connected_time":1305000000000,"state":"active","ping":62},{"user_id":1129,"name":"frosty","steam_id":76561198094560834,"connected_time":962000000000,"state":"active","ping":69},{"user_id":1130,"name":"Enigmus","steam_id":76561197994063627,"connected_time":915000000000,"state":"active","ping":90},{"user_id":1135,"name":"TaiDni","steam_id":76561198087750392,"connected_time":731000000000,"state":"active","ping":71},{"user_id":1124,"name":"[SpA]Scatterbrain","steam_id":76561197998639769,"connected_time":1227000000000,"state":"active","ping":74},{"user_id":1089,"name":"barni","steam_id":76561198170420173,"connected_time":5900000000000,"state":"active","ping":78},{"user_id":1107,"name":"Spooka","steam_id":76561199178360540,"connected_time":3339000000000,"state":"active","ping":156},{"user_id":1137,"name":"Mr. Huntsman","steam_id":76561197981910397,"connected_time":276000000000,"state":"active","ping":74},{"user_id":1104,"name":"AuroraAce","steam_id":76561198278162691,"connected_time":3862000000000,"state":"active","ping":66},{"user_id":1139,"name":"Bob","steam_id":76561198218200489,"connected_time":254000000000,"state":"active","ping":72}]},{"server_id":110,"name":"Uncletopia | Frankfurt | 2 | All Maps","name_short":"frk-2","host":"frk-1.de.uncletopia.com","port":27025,"enabled":true,"region":"eu","cc":"de","latitude":50.110924,"longitude":8.682127,"reserved":0,"last_update":"0001-01-01T00:00:00Z","name_a2s":"Uncletopia | Frankfurt | 2 | All Maps","protocol":17,"map":"koth_lakeside_final","folder":"tf","game":"Team Fortress","app_id":440,"player_count":0,"max_players":24,"Bots":0,"server_type":"Dedicated","server_os":"Linux","password":true,"vac":true,"version":"7708610","steam_id":85568392924469990,"keywords":["cp","nocrits","nodmgspread","uncletopia"],"game_id":440,"stv_port":27026,"stv_name":"Uncletopia | Frankfurt | 2 | All Maps | STV","players":null},{"server_id":308,"name":"Uncletopia | Frankfurt | 3 | All Maps","name_short":"frk-3","host":"frk-1.de.uncletopia.com","port":27035,"enabled":true,"region":"eu","cc":"de","latitude":50.110924,"longitude":8.682127,"reserved":0,"last_update":"0001-01-01T00:00:00Z","name_a2s":"Uncletopia | Frankfurt | 3 | All Maps","protocol":17,"map":"koth_viaduct","folder":"tf","game":"Team Fortress","app_id":440,"player_count":0,"max_players":24,"Bots":0,"server_type":"Dedicated","server_os":"Linux","password":true,"vac":true,"version":"7708610","steam_id":85568392924504274,"keywords":["cp","nocrits","nodmgspread","uncletopia"],"game_id":440,"stv_port":27036,"stv_name":"Uncletopia | Frankfurt | 3 | All Maps | STV","players":null},{"server_id":309,"name":"Uncletopia | Frankfurt | 4 | All Maps","name_short":"frk-4","host":"frk-1.de.uncletopia.com","port":27045,"enabled":true,"region":"eu","cc":"de","latitude":50.110924,"longitude":8.682127,"reserved":0,"last_update":"0001-01-01T00:00:00Z","name_a2s":"Uncletopia | Frankfurt | 4 | All Maps","protocol":17,"map":"pl_pier","folder":"tf","game":"Team Fortress","app_id":440,"player_count":0,"max_players":24,"Bots":0,"server_type":"Dedicated","server_os":"Linux","password":true,"vac":true,"version":"7708610","steam_id":85568392924504275,"keywords":["nocrits","nodmgspread","payload","uncletopia"],"game_id":440,"stv_port":27046,"stv_name":"Uncletopia | Frankfurt | 4 | All Maps | STV","players":null},{"server_id":310,"name":"Uncletopia | Frankfurt | 5 | All Maps","name_short":"frk-5","host":"frk-1.de.uncletopia.com","port":27055,"enabled":true,"region":"eu","cc":"de","latitude":50.110924,"longitude":8.682127,"reserved":0,"last_update":"0001-01-01T00:00:00Z","name_a2s":"Uncletopia | Frankfurt | 5 | All Maps","protocol":17,"map":"pl_frontier_final","folder":"tf","game":"Team Fortress","app_id":440,"player_count":0,"max_players":24,"Bots":0,"server_type":"Dedicated","server_os":"Linux","password":true,"vac":true,"version":"7708610","steam_id":85568392924504277,"keywords":["nocrits","nodmgspread","payload","uncletopia"],"game_id":440,"stv_port":27056,"stv_name":"Uncletopia | Frankfurt | 5 | All Maps | STV","players":null},{"server_id":311,"name":"Uncletopia | Frankfurt | 6 | All Maps","name_short":"frk-6","host":"frk-1.de.uncletopia.com","port":27065,"enabled":true,"region":"eu","cc":"de","latitude":50.110924,"longitude":8.682127,"reserved":0,"last_update":"0001-01-01T00:00:00Z","name_a2s":"Uncletopia | Frankfurt | 6 | All Maps","protocol":17,"map":"koth_viaduct","folder":"tf","game":"Team Fortress","app_id":440,"player_count":0,"max_players":24,"Bots":0,"server_type":"Dedicated","server_os":"Linux","password":true,"vac":true,"version":"7708610","steam_id":85568392924504278,"keywords":["cp","nocrits","nodmgspread","uncletopia"],"game_id":440,"stv_port":27066,"stv_name":"Uncletopia | Frankfurt | 6 | All Maps | STV","players":null},{"server_id":23,"name":"Uncletopia | Frankfurt | 7 | No Payload","name_short":"frk-7","host":"frk-1.de.uncletopia.com","port":27075,"enabled":true,"region":"eu","cc":"de","latitude":50.110924,"longitude":8.682127,"reserved":0,"last_update":"0001-01-01T00:00:00Z","name_a2s":"Uncletopia | Frankfurt | 7 | No Payload","protocol":17,"map":"ctf_turbine","folder":"tf","game":"Team Fortress","app_id":440,"player_count":0,"max_players":24,"Bots":0,"server_type":"Dedicated","server_os":"Linux","password":true,"vac":true,"version":"7708610","steam_id":85568392924742827,"keywords":["ctf","nocrits","nodmgspread","uncletopia"],"game_id":440,"stv_port":27076,"stv_name":"Uncletopia | Frankfurt | 7 | No Payload | STV","players":null},{"server_id":24,"name":"Uncletopia | Frankfurt | 8 | Community","name_short":"frk-8","host":"frk-1.de.uncletopia.com","port":27085,"enabled":true,"region":"eu","cc":"de","latitude":50.110924,"longitude":8.682127,"reserved":0,"last_update":"0001-01-01T00:00:00Z","name_a2s":"Uncletopia | Frankfurt | 8 | Community","protocol":17,"map":"workshop/koth_ramjam_v2_b2.ugc2865676487","folder":"tf","game":"Team Fortress","app_id":440,"player_count":0,"max_players":24,"Bots":0,"server_type":"Dedicated","server_os":"Linux","password":true,"vac":true,"version":"7708610","steam_id":85568392924742828,"keywords":["cp","nocrits","nodmgspread","uncletopia"],"game_id":440,"stv_port":27086,"stv_name":"Uncletopia | Frankfurt | 8 | Community | STV","players":null},{"server_id":202,"name":"Uncletopia | Hong Kong | 1 | All Maps","name_short":"hgk-1","host":"hgk-1.hk.uncletopia.com","port":27015,"enabled":true,"region":"asia","cc":"hk","latitude":22.302711,"longitude":114.177216,"reserved":0,"last_update":"0001-01-01T00:00:00Z","name_a2s":"Uncletopia | Hong Kong | 1 | All Maps","protocol":17,"map":"koth_viaduct","folder":"tf","game":"Team Fortress","app_id":440,"player_count":0,"max_players":24,"Bots":0,"server_type":"Dedicated","server_os":"Linux","password":true,"vac":true,"version":"7708610","steam_id":85568392924494504,"keywords":["cp","nocrits","nodmgspread","uncletopia"],"game_id":440,"stv_port":27016,"stv_name":"Uncletopia | Hong Kong | 1 | All Maps | STV","players":null},{"server_id":1,"name":"Uncletopia | Los Angeles | 1 | All Maps","name_short":"lax-1","host":"lax-1.us.uncletopia.com","port":27015,"enabled":true,"region":"us-west","cc":"us","latitude":33.94279,"longitude":-118.41004,"reserved":0,"last_update":"0001-01-01T00:00:00Z","name_a2s":"Uncletopia | Los Angeles | 1 | All Maps","protocol":17,"map":"pl_upward","folder":"tf","game":"Team Fortress","app_id":440,"player_count":24,"max_players":24,"Bots":0,"server_type":"Dedicated","server_os":"Linux","password":true,"vac":true,"version":"7708610","steam_id":85568392924469991,"keywords":["nocrits","nodmgspread","payload","uncletopia"],"game_id":440,"stv_port":27016,"stv_name":"Uncletopia | Los Angeles | 1 | All Maps | STV","players":[{"user_id":321,"name":"pakispot","steam_id":76561198860676239,"connected_time":259000000000,"state":"active","ping":52},{"user_id":302,"name":"Adlai130s","steam_id":76561198571410221,"connected_time":3258000000000,"state":"active","ping":51},{"user_id":319,"name":"King Cotton","steam_id":76561198292444376,"connected_time":359000000000,"state":"active","ping":88},{"user_id":325,"name":"san andreas police deparetment","steam_id":76561198411414903,"connected_time":225000000000,"state":"active","ping":98},{"user_id":328,"name":"Skaboopy","steam_id":76561198121079438,"connected_time":191000000000,"state":"active","ping":115},{"user_id":320,"name":"Delta","steam_id":76561198021957971,"connected_time":292000000000,"state":"active","ping":46},{"user_id":324,"name":"Isopentyl Ethanoate","steam_id":76561198116389072,"connected_time":229000000000,"state":"active","ping":86},{"user_id":326,"name":"Super Mighty G","steam_id":76561198020932806,"connected_time":217000000000,"state":"active","ping":46},{"user_id":295,"name":"Icy_Rhyse","steam_id":76561198155661147,"connected_time":3360000000000,"state":"active","ping":82},{"user_id":296,"name":"Icy","steam_id":76561198316375861,"connected_time":3351000000000,"state":"active","ping":90},{"user_id":327,"name":"name420","steam_id":76561198129374525,"connected_time":215000000000,"state":"active","ping":114},{"user_id":316,"name":"Nen","steam_id":76561198893347370,"connected_time":858000000000,"state":"active","ping":63},{"user_id":329,"name":"WoahBro","steam_id":76561198250973622,"connected_time":161000000000,"state":"active","ping":131},{"user_id":297,"name":"Dread Pierat Squeaks","steam_id":76561198413602368,"connected_time":3345000000000,"state":"active","ping":113},{"user_id":330,"name":"zakk","steam_id":76561198252897010,"connected_time":159000000000,"state":"active","ping":97},{"user_id":222,"name":"M.L.JEW","steam_id":76561198997375055,"connected_time":10221000000000,"state":"active","ping":123},{"user_id":331,"name":"spaced seed","steam_id":76561198025229526,"connected_time":133000000000,"state":"active","ping":114},{"user_id":303,"name":"sun sugar","steam_id":76561198385085005,"connected_time":3187000000000,"state":"active","ping":55},{"user_id":307,"name":"GW4D","steam_id":76561198268791283,"connected_time":2451000000000,"state":"active","ping":57},{"user_id":281,"name":"Susan","steam_id":76561198045705049,"connected_time":5239000000000,"state":"active","ping":50},{"user_id":332,"name":"Inadequate","steam_id":76561198108263810,"connected_time":132000000000,"state":"active","ping":72},{"user_id":333,"name":"StroopDoop","steam_id":76561198045654000,"connected_time":117000000000,"state":"active","ping":98},{"user_id":334,"name":"Zippy","steam_id":76561198279229422,"connected_time":77000000000,"state":"active","ping":104},{"user_id":288,"name":"⚠ HazardBastard ⚠","steam_id":76561198056581580,"connected_time":4164000000000,"state":"active","ping":50}]},{"server_id":112,"name":"Uncletopia | Los Angeles | 2 | All Maps","name_short":"lax-2","host":"lax-1.us.uncletopia.com","port":27025,"enabled":true,"region":"us-west","cc":"us","latitude":33.94279,"longitude":-118.41004,"reserved":0,"last_update":"0001-01-01T00:00:00Z","name_a2s":"Uncletopia | Los Angeles | 2 | All Maps","protocol":17,"map":"pl_snowycoast","folder":"tf","game":"Team Fortress","app_id":440,"player_count":2,"max_players":24,"Bots":0,"server_type":"Dedicated","server_os":"Linux","password":true,"vac":true,"version":"7708610","steam_id":85568392924469992,"keywords":["nocrits","nodmgspread","payload","uncletopia"],"game_id":440,"stv_port":27026,"stv_name":"Uncletopia | Los Angeles | 2 | All Maps | STV","players":[{"user_id":22,"name":"G. Howard Dee","steam_id":76561198058382812,"connected_time":310000000000,"state":"active","ping":46},{"user_id":23,"name":"Bored Person","steam_id":76561199145831752,"connected_time":292000000000,"state":"active","ping":80}]},{"server_id":324,"name":"Uncletopia | Los Angeles | 3 | All Maps","name_short":"lax-3","host":"lax-1.us.uncletopia.com","port":27035,"enabled":true,"region":"us-west","cc":"us","latitude":33.94279,"longitude":-118.41004,"reserved":0,"last_update":"0001-01-01T00:00:00Z","name_a2s":"Uncletopia | Los Angeles | 3 | All Maps","protocol":17,"map":"pl_swiftwater_final1","folder":"tf","game":"Team Fortress","app_id":440,"player_count":23,"max_players":24,"Bots":0,"server_type":"Dedicated","server_os":"Linux","password":true,"vac":true,"version":"7708610","steam_id":85568392924510198,"keywords":["nocrits","nodmgspread","payload","uncletopia"],"game_id":440,"stv_port":27036,"stv_name":"Uncletopia | Los Angeles | 3 | All Maps | STV","players":[{"user_id":79,"name":"BoonBun","steam_id":76561198171451655,"connected_time":1240000000000,"state":"active","ping":39},{"user_id":88,"name":"Soap Man","steam_id":76561198000490235,"connected_time":598000000000,"state":"active","ping":92},{"user_id":33,"name":"the12xu","steam_id":76561198197086561,"connected_time":4321000000000,"state":"active","ping":116},{"user_id":81,"name":"huiei","steam_id":76561198073763735,"connected_time":1155000000000,"state":"active","ping":54},{"user_id":34,"name":"CurtisRemnant","steam_id":76561198188655358,"connected_time":4309000000000,"state":"active","ping":110},{"user_id":54,"name":"Just1c3","steam_id":76561199241858659,"connected_time":2724000000000,"state":"active","ping":62},{"user_id":47,"name":"Capitan Marijua","steam_id":76561199064758232,"connected_time":3116000000000,"state":"active","ping":81},{"user_id":71,"name":"Waffle Wannabe","steam_id":76561198064510650,"connected_time":2322000000000,"state":"active","ping":115},{"user_id":50,"name":"just lookin around","steam_id":76561198967441167,"connected_time":3035000000000,"state":"active","ping":111},{"user_id":82,"name":"tie dye die guy","steam_id":76561198049845337,"connected_time":878000000000,"state":"active","ping":59},{"user_id":56,"name":"Aitatxi （アイタチ）","steam_id":76561198367610168,"connected_time":2644000000000,"state":"active","ping":40},{"user_id":84,"name":"PyroDelSyro","steam_id":76561198292906309,"connected_time":681000000000,"state":"active","ping":61},{"user_id":89,"name":"The Potato Romancer","steam_id":76561198204197648,"connected_time":587000000000,"state":"active","ping":54},{"user_id":67,"name":"CrackedSanity","steam_id":76561198279841251,"connected_time":2417000000000,"state":"active","ping":46},{"user_id":86,"name":"Noxus","steam_id":76561199009820852,"connected_time":639000000000,"state":"active","ping":70},{"user_id":87,"name":"Nibotshooter","steam_id":76561199284825579,"connected_time":634000000000,"state":"active","ping":68},{"user_id":94,"name":"JDizzle","steam_id":76561199122696841,"connected_time":393000000000,"state":"active","ping":66},{"user_id":95,"name":"ויהי אור","steam_id":76561198212421513,"connected_time":334000000000,"state":"active","ping":46},{"user_id":76,"name":"krootonitron","steam_id":76561198114113037,"connected_time":2008000000000,"state":"active","ping":59},{"user_id":93,"name":"Shank","steam_id":76561198061274150,"connected_time":485000000000,"state":"active","ping":40},{"user_id":69,"name":"The_Skull_boy","steam_id":76561198227692664,"connected_time":2394000000000,"state":"active","ping":60},{"user_id":77,"name":"0xFUL","steam_id":76561198081684676,"connected_time":1657000000000,"state":"active","ping":104},{"user_id":72,"name":"JellyParrot","steam_id":76561199190990163,"connected_time":2310000000000,"state":"active","ping":100}]},{"server_id":25,"name":"Uncletopia | Los Angeles | 4 | No Payload","name_short":"lax-4","host":"lax-1.us.uncletopia.com","port":27045,"enabled":true,"region":"us-west","cc":"us","latitude":33.94279,"longitude":-118.41004,"reserved":0,"last_update":"0001-01-01T00:00:00Z","name_a2s":"Uncletopia | Los Angeles | 4 | No Payload","protocol":17,"map":"ctf_turbine","folder":"tf","game":"Team Fortress","app_id":440,"player_count":0,"max_players":24,"Bots":0,"server_type":"Dedicated","server_os":"Linux","password":true,"vac":true,"version":"7708610","steam_id":85568392924510199,"keywords":["ctf","nocrits","nodmgspread","uncletopia"],"game_id":440,"stv_port":27046,"stv_name":"Uncletopia | Los Angeles | 4 | No Payload | STV","players":null},{"server_id":11,"name":"Uncletopia | London | 1 | All Maps","name_short":"lon-1","host":"lon-1.uk.uncletopia.com","port":27015,"enabled":true,"region":"eu","cc":"gb","latitude":51.509865,"longitude":-0.118092,"reserved":0,"last_update":"0001-01-01T00:00:00Z","name_a2s":"Uncletopia | London | 1 | All Maps","protocol":17,"map":"pl_hoodoo_final","folder":"tf","game":"Team Fortress","app_id":440,"player_count":24,"max_players":24,"Bots":0,"server_type":"Dedicated","server_os":"Linux","password":true,"vac":true,"version":"7708610","steam_id":85568392924367362,"keywords":["nocrits","nodmgspread","payload","uncletopia"],"game_id":440,"stv_port":27016,"stv_name":"Uncletopia | London | 1 | All Maps | STV","players":[{"user_id":1014,"name":".vibe","steam_id":76561199334880197,"connected_time":3817000000000,"state":"active","ping":59},{"user_id":1051,"name":"Stam","steam_id":76561199233979726,"connected_time":291000000000,"state":"active","ping":87},{"user_id":998,"name":"Bones","steam_id":76561198065081225,"connected_time":5390000000000,"state":"active","ping":36},{"user_id":1050,"name":"zigg","steam_id":76561198149501776,"connected_time":294000000000,"state":"active","ping":52},{"user_id":1052,"name":"worry about it","steam_id":76561199414716848,"connected_time":273000000000,"state":"active","ping":74},{"user_id":1053,"name":"Bochan","steam_id":76561198229071660,"connected_time":141000000000,"state":"active","ping":81},{"user_id":1054,"name":"luka","steam_id":76561198127739769,"connected_time":140000000000,"state":"active","ping":77},{"user_id":1057,"name":"RIP Pop Smoke LLJ #swag #weed","steam_id":76561198119528210,"connected_time":110000000000,"state":"active","ping":50},{"user_id":1027,"name":"Meh","steam_id":76561198148030229,"connected_time":1898000000000,"state":"active","ping":58},{"user_id":1058,"name":"she strogan me off til i beef","steam_id":76561198166555207,"connected_time":102000000000,"state":"active","ping":59},{"user_id":1059,"name":"Kratac","steam_id":76561198026239462,"connected_time":61000000000,"state":"active","ping":63},{"user_id":923,"name":"merry beebo","steam_id":76561199120277007,"connected_time":11490000000000,"state":"active","ping":42},{"user_id":1028,"name":"cinny","steam_id":76561198832112629,"connected_time":1898000000000,"state":"active","ping":82},{"user_id":993,"name":"Mango","steam_id":76561198139555709,"connected_time":6162000000000,"state":"active","ping":58},{"user_id":1008,"name":"Lemmy.","steam_id":76561199038870751,"connected_time":4608000000000,"state":"active","ping":60},{"user_id":1060,"name":"drwhut","steam_id":76561198070218857,"connected_time":58000000000,"state":"active","ping":46},{"user_id":864,"name":"chrissymas","steam_id":76561198096547662,"connected_time":14753000000000,"state":"active","ping":53},{"user_id":995,"name":"Dominus.","steam_id":76561199065917088,"connected_time":5594000000000,"state":"active","ping":55},{"user_id":969,"name":"festive jones","steam_id":76561198073975078,"connected_time":8699000000000,"state":"active","ping":45},{"user_id":1011,"name":"✪ J","steam_id":76561198094911581,"connected_time":4177000000000,"state":"active","ping":51},{"user_id":1018,"name":"Adam Sandler","steam_id":76561198310408309,"connected_time":3650000000000,"state":"active","ping":57},{"user_id":1012,"name":"spur_","steam_id":76561198261268231,"connected_time":3995000000000,"state":"active","ping":50},{"user_id":1023,"name":"NonProphet","steam_id":76561198280149820,"connected_time":2509000000000,"state":"active","ping":59},{"user_id":1043,"name":"bruhemian but festive","steam_id":76561198191854931,"connected_time":716000000000,"state":"active","ping":52}]},{"server_id":114,"name":"Uncletopia | London | 2 | All Maps","name_short":"lon-2","host":"lon-1.uk.uncletopia.com","port":27025,"enabled":true,"region":"eu","cc":"gb","latitude":51.509865,"longitude":-0.118092,"reserved":0,"last_update":"0001-01-01T00:00:00Z","name_a2s":"Uncletopia | London | 2 | All Maps","protocol":17,"map":"koth_viaduct","folder":"tf","game":"Team Fortress","app_id":440,"player_count":0,"max_players":24,"Bots":0,"server_type":"Dedicated","server_os":"Linux","password":true,"vac":true,"version":"7708610","steam_id":85568392924470941,"keywords":["cp","nocrits","nodmgspread","uncletopia"],"game_id":440,"stv_port":27026,"stv_name":"Uncletopia | London | 2 | All Maps | STV","players":null},{"server_id":320,"name":"Uncletopia | London | 3 | All Maps","name_short":"lon-3","host":"lon-1.uk.uncletopia.com","port":27035,"enabled":true,"region":"eu","cc":"gb","latitude":51.509865,"longitude":-0.118092,"reserved":0,"last_update":"0001-01-01T00:00:00Z","name_a2s":"Uncletopia | London | 3 | All Maps","protocol":17,"map":"koth_viaduct","folder":"tf","game":"Team Fortress","app_id":440,"player_count":0,"max_players":24,"Bots":0,"server_type":"Dedicated","server_os":"Linux","password":true,"vac":true,"version":"7708610","steam_id":85568392924510192,"keywords":["cp","nocrits","nodmgspread","uncletopia"],"game_id":440,"stv_port":27036,"stv_name":"Uncletopia | London | 3 | All Maps | STV","players":null},{"server_id":321,"name":"Uncletopia | London | 4 | All Maps","name_short":"lon-4","host":"lon-1.uk.uncletopia.com","port":27045,"enabled":true,"region":"eu","cc":"gb","latitude":51.509865,"longitude":-0.118092,"reserved":0,"last_update":"0001-01-01T00:00:00Z","name_a2s":"Uncletopia | London | 4 | All Maps","protocol":17,"map":"koth_lakeside_final","folder":"tf","game":"Team Fortress","app_id":440,"player_count":0,"max_players":24,"Bots":0,"server_type":"Dedicated","server_os":"Linux","password":true,"vac":true,"version":"7708610","steam_id":85568392924510193,"keywords":["cp","nocrits","nodmgspread","uncletopia"],"game_id":440,"stv_port":27046,"stv_name":"Uncletopia | London | 4 | All Maps | STV","players":null},{"server_id":21,"name":"Uncletopia | London | 5 | All Maps","name_short":"lon-5","host":"lon-1.uk.uncletopia.com","port":27055,"enabled":true,"region":"eu","cc":"gb","latitude":51.509865,"longitude":-0.118092,"reserved":0,"last_update":"0001-01-01T00:00:00Z","name_a2s":"Uncletopia | London | 5 | All Maps","protocol":17,"map":"koth_lakeside_final","folder":"tf","game":"Team Fortress","app_id":440,"player_count":0,"max_players":24,"Bots":0,"server_type":"Dedicated","server_os":"Linux","password":true,"vac":true,"version":"7708610","steam_id":85568392924742829,"keywords":["cp","nocrits","nodmgspread","uncletopia"],"game_id":440,"stv_port":27056,"stv_name":"Uncletopia | London | 5 | All Maps | STV","players":null},{"server_id":22,"name":"Uncletopia | London | 6 | All Maps","name_short":"lon-6","host":"lon-1.uk.uncletopia.com","port":27065,"enabled":true,"region":"eu","cc":"gb","latitude":51.509865,"longitude":-0.118092,"reserved":0,"last_update":"0001-01-01T00:00:00Z","name_a2s":"Uncletopia | London | 6 | All Maps","protocol":17,"map":"pl_barnblitz","folder":"tf","game":"Team Fortress","app_id":440,"player_count":0,"max_players":24,"Bots":0,"server_type":"Dedicated","server_os":"Linux","password":true,"vac":true,"version":"7708610","steam_id":85568392924742830,"keywords":["nocrits","nodmgspread","payload","uncletopia"],"game_id":440,"stv_port":27066,"stv_name":"Uncletopia | London | 6 | All Maps | STV","players":null},{"server_id":40,"name":"Uncletopia | London | 7 | No Payload","name_short":"lon-7","host":"lon-1.uk.uncletopia.com","port":27075,"enabled":true,"region":"eu","cc":"gb","latitude":51.509865,"longitude":-0.118092,"reserved":0,"last_update":"0001-01-01T00:00:00Z","name_a2s":"Uncletopia | London | 7 | No Payload","protocol":17,"map":"cp_metalworks","folder":"tf","game":"Team Fortress","app_id":440,"player_count":0,"max_players":24,"Bots":0,"server_type":"Dedicated","server_os":"Linux","password":true,"vac":true,"version":"7708610","steam_id":85568392924964314,"keywords":["cp","nocrits","nodmgspread","uncletopia"],"game_id":440,"stv_port":27076,"stv_name":"Uncletopia | London | 7 | No Payload | STV","players":null},{"server_id":41,"name":"Uncletopia | London | 8 | Community","name_short":"lon-8","host":"lon-1.uk.uncletopia.com","port":27085,"enabled":true,"region":"eu","cc":"gb","latitude":51.509865,"longitude":-0.118092,"reserved":0,"last_update":"0001-01-01T00:00:00Z","name_a2s":"Uncletopia | London | 8 | Community","protocol":17,"map":"workshop/pl_cactuscanyon_redux_rc4b.ugc2579644293","folder":"tf","game":"Team Fortress","app_id":440,"player_count":0,"max_players":24,"Bots":0,"server_type":"Dedicated","server_os":"Linux","password":true,"vac":true,"version":"7708610","steam_id":85568392924964315,"keywords":["nocrits","nodmgspread","payload","uncletopia"],"game_id":440,"stv_port":27086,"stv_name":"Uncletopia | London | 8 | Community | STV","players":null},{"server_id":300,"name":"Uncletopia | Montréal | 1 | All Maps","name_short":"mtl-1","host":"mtl-1.ca.uncletopia.com","port":27015,"enabled":true,"region":"us-east","cc":"ca","latitude":45.50889,"longitude":-73.56167,"reserved":0,"last_update":"0001-01-01T00:00:00Z","name_a2s":"Uncletopia | Montréal | 1 | All Maps","protocol":17,"map":"koth_viaduct","folder":"tf","game":"Team Fortress","app_id":440,"player_count":0,"max_players":24,"Bots":0,"server_type":"Dedicated","server_os":"Linux","password":true,"vac":true,"version":"7708610","steam_id":85568392924500087,"keywords":["cp","nocrits","nodmgspread","uncletopia"],"game_id":440,"stv_port":27016,"stv_name":"Uncletopia | Montréal | 1 | All Maps | STV","players":null},{"server_id":301,"name":"Uncletopia | Montréal | 2 | All Maps","name_short":"mtl-2","host":"mtl-1.ca.uncletopia.com","port":27025,"enabled":true,"region":"us-east","cc":"ca","latitude":45.50889,"longitude":-73.56167,"reserved":0,"last_update":"0001-01-01T00:00:00Z","name_a2s":"Uncletopia | Montréal | 2 | All Maps","protocol":17,"map":"koth_highpass","folder":"tf","game":"Team Fortress","app_id":440,"player_count":0,"max_players":24,"Bots":0,"server_type":"Dedicated","server_os":"Linux","password":true,"vac":true,"version":"7708610","steam_id":85568392924500088,"keywords":["cp","nocrits","nodmgspread","uncletopia"],"game_id":440,"stv_port":27026,"stv_name":"Uncletopia | Montréal | 2 | All Maps | STV","players":null},{"server_id":302,"name":"Uncletopia | Montréal | 3 | All Maps","name_short":"mtl-3","host":"mtl-1.ca.uncletopia.com","port":27035,"enabled":true,"region":"us-east","cc":"ca","latitude":45.50889,"longitude":-73.56167,"reserved":0,"last_update":"0001-01-01T00:00:00Z","name_a2s":"Uncletopia | Montréal | 3 | All Maps","protocol":17,"map":"cp_process_final","folder":"tf","game":"Team Fortress","app_id":440,"player_count":0,"max_players":24,"Bots":0,"server_type":"Dedicated","server_os":"Linux","password":true,"vac":true,"version":"7708610","steam_id":85568392924500089,"keywords":["cp","nocrits","nodmgspread","uncletopia"],"game_id":440,"stv_port":27036,"stv_name":"Uncletopia | Montréal | 3 | All Maps | STV","players":null},{"server_id":303,"name":"Uncletopia | Montréal | 4 | No Payload","name_short":"mtl-4","host":"mtl-1.ca.uncletopia.com","port":27045,"enabled":true,"region":"us-east","cc":"ca","latitude":45.50889,"longitude":-73.56167,"reserved":0,"last_update":"0001-01-01T00:00:00Z","name_a2s":"Uncletopia | Montréal | 4 | No Payload","protocol":17,"map":"cp_granary","folder":"tf","game":"Team Fortress","app_id":440,"player_count":0,"max_players":24,"Bots":0,"server_type":"Dedicated","server_os":"Linux","password":true,"vac":true,"version":"7708610","steam_id":85568392924500090,"keywords":["cp","nocrits","nodmgspread","uncletopia"],"game_id":440,"stv_port":27046,"stv_name":"Uncletopia | Montréal | 4 | No Payload | STV","players":null},{"server_id":13,"name":"Uncletopia | New York City | 1 | All Maps","name_short":"nyc-1","host":"nyc-1.us.uncletopia.com","port":27015,"enabled":true,"region":"us-east","cc":"us","latitude":40.73061,"longitude":-73.93524,"reserved":0,"last_update":"0001-01-01T00:00:00Z","name_a2s":"Uncletopia | New York City | 1 | All Maps","protocol":17,"map":"koth_viaduct","folder":"tf","game":"Team Fortress","app_id":440,"player_count":24,"max_players":24,"Bots":0,"server_type":"Dedicated","server_os":"Linux","password":true,"vac":true,"version":"7708610","steam_id":85568392924469993,"keywords":["cp","nocrits","nodmgspread","uncletopia"],"game_id":440,"stv_port":27016,"stv_name":"Uncletopia | New York City | 1 | All Maps | STV","players":[{"user_id":315,"name":"ClericsRose","steam_id":76561198011013806,"connected_time":883000000000,"state":"active","ping":67},{"user_id":316,"name":"gromit","steam_id":76561198037746805,"connected_time":866000000000,"state":"active","ping":64},{"user_id":306,"name":"meggy","steam_id":76561199084466907,"connected_time":1554000000000,"state":"active","ping":52},{"user_id":317,"name":"MeKaso TropStar","steam_id":76561199109895840,"connected_time":823000000000,"state":"active","ping":112},{"user_id":262,"name":"Dave's Sushi Addict","steam_id":76561199134895220,"connected_time":5649000000000,"state":"active","ping":46},{"user_id":318,"name":"kangaroo gaming","steam_id":76561198017002866,"connected_time":821000000000,"state":"active","ping":96},{"user_id":235,"name":"fuck it we balld","steam_id":76561198026589960,"connected_time":7779000000000,"state":"active","ping":77},{"user_id":299,"name":"kill kasper","steam_id":76561198263271697,"connected_time":2017000000000,"state":"active","ping":59},{"user_id":319,"name":"mreow","steam_id":76561198350946279,"connected_time":800000000000,"state":"active","ping":44},{"user_id":325,"name":"The IRS","steam_id":76561197998344127,"connected_time":749000000000,"state":"active","ping":69},{"user_id":332,"name":"MinimalZ4n3","steam_id":76561199073374502,"connected_time":584000000000,"state":"active","ping":77},{"user_id":327,"name":"ventus51701","steam_id":76561198207372741,"connected_time":662000000000,"state":"active","ping":45},{"user_id":328,"name":"M249 | Spectre","steam_id":76561198118334485,"connected_time":643000000000,"state":"active","ping":47},{"user_id":329,"name":"LazyKoala99","steam_id":76561199183623672,"connected_time":635000000000,"state":"active","ping":52},{"user_id":333,"name":"GamingCentaur","steam_id":76561198043850905,"connected_time":582000000000,"state":"active","ping":74},{"user_id":326,"name":"ar-ar","steam_id":76561198070549205,"connected_time":728000000000,"state":"active","ping":70},{"user_id":324,"name":"SeaBass","steam_id":76561198278914206,"connected_time":760000000000,"state":"active","ping":79},{"user_id":330,"name":"GreyHounds","steam_id":76561198081984695,"connected_time":633000000000,"state":"active","ping":49},{"user_id":331,"name":"Crabbymic","steam_id":76561197979418745,"connected_time":631000000000,"state":"active","ping":45},{"user_id":224,"name":"atserc","steam_id":76561197997570349,"connected_time":8860000000000,"state":"active","ping":91},{"user_id":335,"name":"Continue?]","steam_id":76561199174579733,"connected_time":428000000000,"state":"active","ping":61},{"user_id":313,"name":"Vem","steam_id":76561198117273112,"connected_time":945000000000,"state":"active","ping":71},{"user_id":305,"name":"Ghost","steam_id":76561198110914180,"connected_time":1706000000000,"state":"active","ping":158},{"user_id":295,"name":"FUSION","steam_id":76561197972659738,"connected_time":2147000000000,"state":"active","ping":41}]},{"server_id":14,"name":"Uncletopia | New York City | 2 | All Maps","name_short":"nyc-2","host":"nyc-1.us.uncletopia.com","port":27025,"enabled":true,"region":"us-east","cc":"us","latitude":40.73061,"longitude":-73.93524,"reserved":0,"last_update":"0001-01-01T00:00:00Z","name_a2s":"Uncletopia | New York City | 2 | All Maps","protocol":17,"map":"cp_sunshine","folder":"tf","game":"Team Fortress","app_id":440,"player_count":25,"max_players":24,"Bots":0,"server_type":"Dedicated","server_os":"Linux","password":true,"vac":true,"version":"7708610","steam_id":85568392924469994,"keywords":["cp","nocrits","nodmgspread","uncletopia"],"game_id":440,"stv_port":27026,"stv_name":"Uncletopia | New York City | 2 | All Maps | STV","players":[{"user_id":240,"name":"obbeymaster19","steam_id":76561199197244143,"connected_time":1231000000000,"state":"active","ping":76},{"user_id":198,"name":"Walrex","steam_id":76561198061701443,"connected_time":2296000000000,"state":"active","ping":70},{"user_id":230,"name":"imcringe","steam_id":76561199434878956,"connected_time":1547000000000,"state":"active","ping":76},{"user_id":232,"name":"tooth","steam_id":76561197986437643,"connected_time":1483000000000,"state":"active","ping":54},{"user_id":291,"name":"Air Fryer - $39.99 (4 Payments)","steam_id":76561198043572048,"connected_time":1000000000,"state":"spawning","ping":67},{"user_id":184,"name":"yougotsauled","steam_id":76561198880754695,"connected_time":3177000000000,"state":"active","ping":50},{"user_id":183,"name":"LORD JIMJACK YE-YE","steam_id":76561199151780779,"connected_time":3323000000000,"state":"active","ping":55},{"user_id":241,"name":"best of worm related discussion","steam_id":76561198128164970,"connected_time":1221000000000,"state":"active","ping":134},{"user_id":223,"name":"RubicoN","steam_id":76561198796118444,"connected_time":1742000000000,"state":"active","ping":120},{"user_id":176,"name":"nomi_YAMBO","steam_id":76561198067068690,"connected_time":4263000000000,"state":"active","ping":48},{"user_id":169,"name":"Inevitable","steam_id":76561198210050169,"connected_time":5238000000000,"state":"active","ping":45},{"user_id":258,"name":"InkQuil","steam_id":76561198135315642,"connected_time":916000000000,"state":"active","ping":77},{"user_id":185,"name":"Birdtakesbread","steam_id":76561199152227269,"connected_time":3176000000000,"state":"active","ping":126},{"user_id":196,"name":"liamishere","steam_id":76561199036719261,"connected_time":2320000000000,"state":"active","ping":54},{"user_id":234,"name":"PrinceGrotle","steam_id":76561198206131603,"connected_time":1431000000000,"state":"active","ping":57},{"user_id":129,"name":"Catboy Potemkin","steam_id":76561198078474420,"connected_time":9187000000000,"state":"active","ping":78},{"user_id":266,"name":"Prof. Abedul","steam_id":76561198146171581,"connected_time":684000000000,"state":"active","ping":93},{"user_id":202,"name":"Squiddo","steam_id":76561198085170284,"connected_time":2170000000000,"state":"active","ping":80},{"user_id":283,"name":"sketchesgallore","steam_id":76561198331254794,"connected_time":226000000000,"state":"active","ping":121},{"user_id":243,"name":"juliusgem","steam_id":76561198206751192,"connected_time":1210000000000,"state":"active","ping":178},{"user_id":190,"name":"OMG","steam_id":76561198085447264,"connected_time":2353000000000,"state":"active","ping":90},{"user_id":226,"name":"A Puppy","steam_id":76561198828184456,"connected_time":1623000000000,"state":"active","ping":49},{"user_id":164,"name":"levi","steam_id":76561199277087621,"connected_time":6496000000000,"state":"active","ping":56},{"user_id":244,"name":"The Don","steam_id":76561198016807790,"connected_time":1205000000000,"state":"active","ping":37},{"user_id":193,"name":"Roach","steam_id":76561198122239330,"connected_time":2345000000000,"state":"active","ping":52}]},{"server_id":15,"name":"Uncletopia | New York City | 3 | All Maps","name_short":"nyc-3","host":"nyc-1.us.uncletopia.com","port":27035,"enabled":true,"region":"us-east","cc":"us","latitude":40.73061,"longitude":-73.93524,"reserved":0,"last_update":"0001-01-01T00:00:00Z","name_a2s":"Uncletopia | New York City | 3 | All Maps","protocol":17,"map":"pl_swiftwater_final1","folder":"tf","game":"Team Fortress","app_id":440,"player_count":23,"max_players":24,"Bots":0,"server_type":"Dedicated","server_os":"Linux","password":true,"vac":true,"version":"7708610","steam_id":85568392924742820,"keywords":["nocrits","nodmgspread","payload","uncletopia"],"game_id":440,"stv_port":27036,"stv_name":"Uncletopia | New York City | 3 | All Maps | STV","players":[{"user_id":200,"name":"Shoot First Aim Later","steam_id":76561198045903159,"connected_time":409000000000,"state":"active","ping":57},{"user_id":194,"name":"Pugzilla","steam_id":76561198108088960,"connected_time":1382000000000,"state":"active","ping":68},{"user_id":165,"name":"410,757,864,530 missed crits","steam_id":76561198035619419,"connected_time":2980000000000,"state":"active","ping":53},{"user_id":204,"name":"xZoroarkgaming","steam_id":76561199199302865,"connected_time":334000000000,"state":"active","ping":87},{"user_id":171,"name":"Tape God","steam_id":76561198448748083,"connected_time":2836000000000,"state":"active","ping":72},{"user_id":163,"name":"Lemur","steam_id":76561198065300466,"connected_time":3071000000000,"state":"active","ping":60},{"user_id":173,"name":"boxagon","steam_id":76561198307845869,"connected_time":2716000000000,"state":"active","ping":63},{"user_id":146,"name":"emctwo","steam_id":76561198095082517,"connected_time":4986000000000,"state":"active","ping":51},{"user_id":162,"name":"CorbanClyffe","steam_id":76561198154114994,"connected_time":3088000000000,"state":"active","ping":49},{"user_id":199,"name":"Cheezyfrie","steam_id":76561199112210824,"connected_time":682000000000,"state":"active","ping":61},{"user_id":203,"name":"Dab First Succeed Later","steam_id":76561198354024192,"connected_time":380000000000,"state":"active","ping":64},{"user_id":201,"name":"frudy1232","steam_id":76561198228835616,"connected_time":407000000000,"state":"active","ping":164},{"user_id":202,"name":"Zeemii","steam_id":76561198809299581,"connected_time":402000000000,"state":"active","ping":45},{"user_id":140,"name":"Heropon","steam_id":76561198105224481,"connected_time":5089000000000,"state":"active","ping":61},{"user_id":39,"name":"Huge","steam_id":76561199030987614,"connected_time":9873000000000,"state":"active","ping":92},{"user_id":205,"name":"Phillip Jeffries","steam_id":76561198064052174,"connected_time":311000000000,"state":"active","ping":59},{"user_id":206,"name":"The Sinister Potion","steam_id":76561198131280715,"connected_time":287000000000,"state":"active","ping":43},{"user_id":193,"name":"Big Smoke","steam_id":76561198805569769,"connected_time":1493000000000,"state":"active","ping":57},{"user_id":177,"name":"Preston","steam_id":76561198059794321,"connected_time":2276000000000,"state":"active","ping":56},{"user_id":196,"name":"juck326","steam_id":76561198180419786,"connected_time":1237000000000,"state":"active","ping":99},{"user_id":170,"name":"FiddyFoMike","steam_id":76561198057072581,"connected_time":2860000000000,"state":"active","ping":113},{"user_id":209,"name":"kefkja","steam_id":76561198283963218,"connected_time":163000000000,"state":"active","ping":53}]},{"server_id":16,"name":"Uncletopia | New York City | 4 | Community","name_short":"nyc-4","host":"nyc-1.us.uncletopia.com","port":27045,"enabled":true,"region":"us-east","cc":"us","latitude":40.73061,"longitude":-73.93524,"reserved":0,"last_update":"0001-01-01T00:00:00Z","name_a2s":"Uncletopia | New York City | 4 | Community","protocol":17,"map":"workshop/koth_synthetic_rc6a.ugc1549817316","folder":"tf","game":"Team Fortress","app_id":440,"player_count":0,"max_players":24,"Bots":0,"server_type":"Dedicated","server_os":"Linux","password":true,"vac":true,"version":"7708610","steam_id":85568392924742821,"keywords":["cp","nocrits","nodmgspread","uncletopia"],"game_id":440,"stv_port":27046,"stv_name":"Uncletopia | New York City | 4 | Community | STV","players":null},{"server_id":142,"name":"Uncletopia | São Paulo | 1 | All Maps","name_short":"sao-1","host":"sao-1.br.uncletopia.com","port":27015,"enabled":true,"region":"sa","cc":"br","latitude":-23.533773,"longitude":-46.62529,"reserved":0,"last_update":"0001-01-01T00:00:00Z","name_a2s":"Uncletopia | São Paulo | 1 | All Maps","protocol":17,"map":"pl_snowycoast","folder":"tf","game":"Team Fortress","app_id":440,"player_count":0,"max_players":24,"Bots":0,"server_type":"Dedicated","server_os":"Linux","password":true,"vac":true,"version":"7708610","steam_id":85568392924469996,"keywords":["nocrits","nodmgspread","payload","uncletopia"],"game_id":440,"stv_port":27016,"stv_name":"Uncletopia | São Paulo | 1 | All Maps | STV","players":null},{"server_id":143,"name":"Uncletopia | São Paulo | 2 | All Maps","name_short":"sao-2","host":"sao-2.br.uncletopia.com","port":27015,"enabled":true,"region":"sa","cc":"br","latitude":-23.533773,"longitude":-46.62529,"reserved":0,"last_update":"0001-01-01T00:00:00Z","name_a2s":"Uncletopia | São Paulo | 2 | All Maps","protocol":17,"map":"cp_altitude","folder":"tf","game":"Team Fortress","app_id":440,"player_count":4,"max_players":24,"Bots":0,"server_type":"Dedicated","server_os":"Linux","password":true,"vac":true,"version":"7708610","steam_id":85568392924485349,"keywords":["cp","nocrits","nodmgspread","uncletopia"],"game_id":440,"stv_port":27016,"stv_name":"Uncletopia | São Paulo | 2 | All Maps | STV","players":[{"user_id":356,"name":"Halohunter408","steam_id":76561198396612932,"connected_time":2127000000000,"state":"active","ping":194},{"user_id":364,"name":"BoyGamer1313","steam_id":76561199260650075,"connected_time":263000000000,"state":"active","ping":222},{"user_id":359,"name":"SnugglyRaptor691","steam_id":76561199005536587,"connected_time":1698000000000,"state":"active","ping":198},{"user_id":352,"name":"family guy pro","steam_id":76561198114456098,"connected_time":2580000000000,"state":"active","ping":60}]},{"server_id":7,"name":"Uncletopia | Seattle | 1 | All Maps","name_short":"sea-1","host":"sea-1.us.uncletopia.com","port":27015,"enabled":true,"region":"us-west","cc":"us","latitude":47.608013,"longitude":-122.33517,"reserved":0,"last_update":"0001-01-01T00:00:00Z","name_a2s":"Uncletopia | Seattle | 1 | All Maps","protocol":17,"map":"pl_upward","folder":"tf","game":"Team Fortress","app_id":440,"player_count":24,"max_players":24,"Bots":0,"server_type":"Dedicated","server_os":"Linux","password":true,"vac":true,"version":"7708610","steam_id":85568392924469997,"keywords":["nocrits","nodmgspread","payload","uncletopia"],"game_id":440,"stv_port":27016,"stv_name":"Uncletopia | Seattle | 1 | All Maps | STV","players":[{"user_id":584,"name":"Chubbles","steam_id":76561198237619472,"connected_time":1530000000000,"state":"active","ping":156},{"user_id":611,"name":"dodecadron","steam_id":76561198027397222,"connected_time":402000000000,"state":"active","ping":63},{"user_id":602,"name":"Flowey","steam_id":76561198442304406,"connected_time":974000000000,"state":"active","ping":58},{"user_id":607,"name":"Thysug","steam_id":76561199227593310,"connected_time":533000000000,"state":"active","ping":131},{"user_id":571,"name":"ZEKKER","steam_id":76561197967968980,"connected_time":2721000000000,"state":"active","ping":48},{"user_id":591,"name":"[DATS➡] Sugar Meowth","steam_id":76561197995251793,"connected_time":1114000000000,"state":"active","ping":44},{"user_id":567,"name":"bobtheninjaman","steam_id":76561198066424544,"connected_time":2849000000000,"state":"active","ping":73},{"user_id":615,"name":"Crake","steam_id":76561198001959071,"connected_time":41000000000,"state":"active","ping":52},{"user_id":605,"name":"Quavo_YRN","steam_id":76561198070630154,"connected_time":591000000000,"state":"active","ping":77},{"user_id":606,"name":"Pancreas Enjoyer","steam_id":76561199438598904,"connected_time":585000000000,"state":"active","ping":122},{"user_id":604,"name":"ASCII | Dr.keinmann","steam_id":76561198360305514,"connected_time":784000000000,"state":"active","ping":50},{"user_id":594,"name":"cool","steam_id":76561198334059206,"connected_time":1082000000000,"state":"active","ping":71},{"user_id":574,"name":"squash","steam_id":76561198150281353,"connected_time":2671000000000,"state":"active","ping":55},{"user_id":557,"name":"Level 99 Mudcrab","steam_id":76561198077452771,"connected_time":4080000000000,"state":"active","ping":59},{"user_id":581,"name":"Dosario","steam_id":76561198298095535,"connected_time":2282000000000,"state":"active","ping":52},{"user_id":587,"name":"Mr. Big Quack","steam_id":76561198062219416,"connected_time":1313000000000,"state":"active","ping":79},{"user_id":599,"name":"tacofever","steam_id":76561198010966507,"connected_time":1035000000000,"state":"active","ping":85},{"user_id":609,"name":"monke12344","steam_id":76561199274757725,"connected_time":502000000000,"state":"active","ping":102},{"user_id":612,"name":"Mom","steam_id":76561198207936000,"connected_time":348000000000,"state":"active","ping":86},{"user_id":600,"name":"zoiboi","steam_id":76561198069598590,"connected_time":1027000000000,"state":"active","ping":87},{"user_id":592,"name":"Common","steam_id":76561198041083863,"connected_time":1104000000000,"state":"active","ping":53},{"user_id":601,"name":"Bobbn","steam_id":76561198876124683,"connected_time":1025000000000,"state":"active","ping":118},{"user_id":616,"name":"NOT FRIENDLY","steam_id":76561198041327231,"connected_time":12000000000,"state":"spawning","ping":60},{"user_id":560,"name":"soup","steam_id":76561198043209046,"connected_time":3826000000000,"state":"active","ping":74}]},{"server_id":119,"name":"Uncletopia | Seattle | 2 | All Maps","name_short":"sea-2","host":"sea-1.us.uncletopia.com","port":27025,"enabled":true,"region":"us-west","cc":"us","latitude":47.608013,"longitude":-122.33517,"reserved":0,"last_update":"0001-01-01T00:00:00Z","name_a2s":"Uncletopia | Seattle | 2 | All Maps","protocol":17,"map":"pl_thundermountain","folder":"tf","game":"Team Fortress","app_id":440,"player_count":24,"max_players":24,"Bots":0,"server_type":"Dedicated","server_os":"Linux","password":true,"vac":true,"version":"7708610","steam_id":85568392924469998,"keywords":["nocrits","nodmgspread","payload","uncletopia"],"game_id":440,"stv_port":27026,"stv_name":"Uncletopia | Seattle | 2 | All Maps | STV","players":[{"user_id":149,"name":"Pubk","steam_id":76561198095939571,"connected_time":1199000000000,"state":"active","ping":34},{"user_id":85,"name":"AsexyCommie","steam_id":76561198096330354,"connected_time":6672000000000,"state":"active","ping":124},{"user_id":148,"name":"Bubbamanme","steam_id":76561198119778504,"connected_time":1407000000000,"state":"active","ping":57},{"user_id":163,"name":"Rude Dog","steam_id":76561197980385816,"connected_time":223000000000,"state":"active","ping":50},{"user_id":164,"name":"ice cream (冰淇淋)","steam_id":76561198976530881,"connected_time":210000000000,"state":"active","ping":74},{"user_id":120,"name":"A Fruit","steam_id":76561198951830050,"connected_time":3404000000000,"state":"active","ping":100},{"user_id":73,"name":"oo","steam_id":76561198119626492,"connected_time":6958000000000,"state":"active","ping":93},{"user_id":144,"name":"Goofy Goober","steam_id":76561198128299594,"connected_time":1662000000000,"state":"active","ping":79},{"user_id":31,"name":"Oomitch","steam_id":76561198071702759,"connected_time":9584000000000,"state":"active","ping":49},{"user_id":160,"name":"KellyKapoor","steam_id":76561198040828123,"connected_time":486000000000,"state":"active","ping":52},{"user_id":161,"name":"Seal","steam_id":76561197970204043,"connected_time":473000000000,"state":"active","ping":32},{"user_id":157,"name":"EXTRA THICC GAMES","steam_id":76561198313577745,"connected_time":708000000000,"state":"active","ping":61},{"user_id":146,"name":"Naffers","steam_id":76561198195957335,"connected_time":1492000000000,"state":"active","ping":46},{"user_id":114,"name":"non_ai","steam_id":76561198270951938,"connected_time":3847000000000,"state":"active","ping":118},{"user_id":153,"name":"Hotswee","steam_id":76561198873419675,"connected_time":1136000000000,"state":"active","ping":138},{"user_id":118,"name":"xal","steam_id":76561198045628824,"connected_time":3443000000000,"state":"active","ping":61},{"user_id":127,"name":"DefenderHero","steam_id":76561198034203644,"connected_time":2513000000000,"state":"active","ping":128},{"user_id":143,"name":"Amogous Supreme","steam_id":76561198025476774,"connected_time":1823000000000,"state":"active","ping":75},{"user_id":158,"name":"Lambchop","steam_id":76561198043900363,"connected_time":588000000000,"state":"active","ping":80},{"user_id":101,"name":"OxOoxen841","steam_id":76561198297981993,"connected_time":4994000000000,"state":"active","ping":94},{"user_id":159,"name":"Cooki","steam_id":76561198051705314,"connected_time":529000000000,"state":"active","ping":120},{"user_id":108,"name":"Raian","steam_id":76561199138048671,"connected_time":4539000000000,"state":"active","ping":68},{"user_id":162,"name":"CheeseCake488","steam_id":76561199407617942,"connected_time":454000000000,"state":"active","ping":127},{"user_id":156,"name":"Cato Sicarius","steam_id":76561198185598330,"connected_time":1108000000000,"state":"active","ping":132}]},{"server_id":17,"name":"Uncletopia | San Francisco | 1 | All Maps","name_short":"sfo-1","host":"sfo-1.us.uncletopia.com","port":27015,"enabled":true,"region":"us-west","cc":"us","latitude":37.77397,"longitude":-122.4313,"reserved":0,"last_update":"0001-01-01T00:00:00Z","name_a2s":"Uncletopia | San Francisco | 1 | All Maps","protocol":17,"map":"koth_highpass","folder":"tf","game":"Team Fortress","app_id":440,"player_count":0,"max_players":24,"Bots":0,"server_type":"Dedicated","server_os":"Linux","password":true,"vac":true,"version":"7708610","steam_id":85568392924469999,"keywords":["cp","nocrits","nodmgspread","uncletopia"],"game_id":440,"stv_port":27016,"stv_name":"Uncletopia | San Francisco | 1 | All Maps | STV","players":null},{"server_id":18,"name":"Uncletopia | San Francisco | 2 | All Maps","name_short":"sfo-2","host":"sfo-1.us.uncletopia.com","port":27025,"enabled":true,"region":"us-west","cc":"us","latitude":37.77397,"longitude":-122.4313,"reserved":0,"last_update":"0001-01-01T00:00:00Z","name_a2s":"Uncletopia | San Francisco | 2 | All Maps","protocol":17,"map":"pl_upward","folder":"tf","game":"Team Fortress","app_id":440,"player_count":0,"max_players":24,"Bots":0,"server_type":"Dedicated","server_os":"Linux","password":true,"vac":true,"version":"7708610","steam_id":85568392924470000,"keywords":["nocrits","nodmgspread","payload","uncletopia"],"game_id":440,"stv_port":27026,"stv_name":"Uncletopia | San Francisco | 2 | All Maps | STV","players":null},{"server_id":19,"name":"Uncletopia | San Francisco | 3 | No Payload","name_short":"sfo-3","host":"sfo-1.us.uncletopia.com","port":27035,"enabled":true,"region":"us-west","cc":"us","latitude":37.77397,"longitude":-122.4313,"reserved":0,"last_update":"0001-01-01T00:00:00Z","name_a2s":"Uncletopia | San Francisco | 3 | No Payload","protocol":17,"map":"koth_lazarus","folder":"tf","game":"Team Fortress","app_id":440,"player_count":0,"max_players":24,"Bots":0,"server_type":"Dedicated","server_os":"Linux","password":true,"vac":true,"version":"7708610","steam_id":85568392924742824,"keywords":["cp","nocrits","nodmgspread","uncletopia"],"game_id":440,"stv_port":27036,"stv_name":"Uncletopia | San Francisco | 3 | No Payload | STV","players":null},{"server_id":20,"name":"Uncletopia | San Francisco | 4 | Community","name_short":"sfo-4","host":"sfo-1.us.uncletopia.com","port":27045,"enabled":true,"region":"us-west","cc":"us","latitude":37.77397,"longitude":-122.4313,"reserved":0,"last_update":"0001-01-01T00:00:00Z","name_a2s":"Uncletopia | San Francisco | 4 | Community","protocol":17,"map":"workshop/koth_slaughter_rc1.ugc1712845210","folder":"tf","game":"Team Fortress","app_id":440,"player_count":0,"max_players":24,"Bots":0,"server_type":"Dedicated","server_os":"Linux","password":true,"vac":true,"version":"7708610","steam_id":85568392924742826,"keywords":["cp","nocrits","nodmgspread","uncletopia"],"game_id":440,"stv_port":27046,"stv_name":"Uncletopia | San Francisco | 4 | Community | STV","players":null},{"server_id":141,"name":"Uncletopia | Sydney | 1 | All Maps","name_short":"syd-1","host":"syd-1.au.uncletopia.com","port":27015,"enabled":true,"region":"au","cc":"au","latitude":-33.865143,"longitude":151.2099,"reserved":0,"last_update":"0001-01-01T00:00:00Z","name_a2s":"Uncletopia | Sydney | 1 | All Maps","protocol":17,"map":"pl_frontier_final","folder":"tf","game":"Team Fortress","app_id":440,"player_count":24,"max_players":24,"Bots":0,"server_type":"Dedicated","server_os":"Linux","password":true,"vac":true,"version":"7708610","steam_id":85568392924470001,"keywords":["nocrits","nodmgspread","payload","uncletopia"],"game_id":440,"stv_port":27016,"stv_name":"Uncletopia | Sydney | 1 | All Maps | STV","players":[{"user_id":169,"name":"ItsSnakey","steam_id":76561199187623513,"connected_time":1556000000000,"state":"active","ping":54},{"user_id":176,"name":"Docfelix","steam_id":76561198078038957,"connected_time":1153000000000,"state":"active","ping":51},{"user_id":178,"name":"iliana","steam_id":76561198304080170,"connected_time":756000000000,"state":"active","ping":47},{"user_id":40,"name":"bird","steam_id":76561198258514103,"connected_time":9081000000000,"state":"active","ping":62},{"user_id":198,"name":"Fuzzy","steam_id":76561198081319798,"connected_time":8000000000,"state":"spawning","ping":98},{"user_id":186,"name":"callistoAshley","steam_id":76561198178116375,"connected_time":456000000000,"state":"active","ping":40},{"user_id":181,"name":"hobo","steam_id":76561199046481213,"connected_time":600000000000,"state":"active","ping":68},{"user_id":179,"name":"Look Polite","steam_id":76561198336255044,"connected_time":685000000000,"state":"active","ping":129},{"user_id":154,"name":"SaltierThanYou","steam_id":76561198444395188,"connected_time":2616000000000,"state":"active","ping":75},{"user_id":150,"name":"Golferjim","steam_id":76561197992365125,"connected_time":2837000000000,"state":"active","ping":74},{"user_id":194,"name":"Jonny","steam_id":76561198053391732,"connected_time":259000000000,"state":"active","ping":71},{"user_id":196,"name":"El Chupacabra","steam_id":76561198070641651,"connected_time":126000000000,"state":"active","ping":52},{"user_id":187,"name":"Mr. Blop","steam_id":76561198072273373,"connected_time":454000000000,"state":"active","ping":59},{"user_id":156,"name":"The_Green_Jelly","steam_id":76561198381061704,"connected_time":2599000000000,"state":"active","ping":87},{"user_id":160,"name":"Biggus Dickus","steam_id":76561199138574655,"connected_time":2223000000000,"state":"active","ping":92},{"user_id":172,"name":"Flak","steam_id":76561198205833232,"connected_time":1384000000000,"state":"active","ping":46},{"user_id":170,"name":"❄❄❄❄❄❄❄❄","steam_id":76561198159933043,"connected_time":1546000000000,"state":"active","ping":69},{"user_id":195,"name":"Wesman303","steam_id":76561198811627442,"connected_time":227000000000,"state":"active","ping":64},{"user_id":174,"name":"A KNIFE!","steam_id":76561198160390701,"connected_time":1294000000000,"state":"active","ping":89},{"user_id":175,"name":"Turkeee","steam_id":76561199101682439,"connected_time":1237000000000,"state":"active","ping":48},{"user_id":188,"name":"krandlez` (Any/All)","steam_id":76561198044839726,"connected_time":421000000000,"state":"active","ping":45},{"user_id":111,"name":"Classy Doctor","steam_id":76561198257123968,"connected_time":5614000000000,"state":"active","ping":54},{"user_id":192,"name":"Man_of_the_beans","steam_id":76561198956518694,"connected_time":315000000000,"state":"active","ping":70},{"user_id":118,"name":"Mr Chook","steam_id":76561198970328852,"connected_time":5287000000000,"state":"active","ping":39}]},{"server_id":123,"name":"Uncletopia | Sydney | 2 | All Maps","name_short":"syd-2","host":"syd-1.au.uncletopia.com","port":27025,"enabled":true,"region":"au","cc":"au","latitude":-33.865143,"longitude":151.2099,"reserved":0,"last_update":"0001-01-01T00:00:00Z","name_a2s":"Uncletopia | Sydney | 2 | All Maps","protocol":17,"map":"pl_frontier_final","folder":"tf","game":"Team Fortress","app_id":440,"player_count":0,"max_players":24,"Bots":0,"server_type":"Dedicated","server_os":"Linux","password":true,"vac":true,"version":"7708610","steam_id":85568392924470002,"keywords":["nocrits","nodmgspread","payload","uncletopia"],"game_id":440,"stv_port":27026,"stv_name":"Uncletopia | Sydney | 2 | All Maps | STV","players":null},{"server_id":395,"name":"Uncletopia | Sydney | 3 | All Maps","name_short":"syd-3","host":"syd-1.au.uncletopia.com","port":27035,"enabled":true,"region":"au","cc":"au","latitude":-33.865143,"longitude":151.2099,"reserved":0,"last_update":"0001-01-01T00:00:00Z","name_a2s":"Uncletopia | Sydney | 3 | All Maps","protocol":17,"map":"koth_viaduct","folder":"tf","game":"Team Fortress","app_id":440,"player_count":0,"max_players":24,"Bots":0,"server_type":"Dedicated","server_os":"Linux","password":true,"vac":true,"version":"7708610","steam_id":85568392925194467,"keywords":["cp","nocrits","nodmgspread","uncletopia"],"game_id":440,"stv_port":27036,"stv_name":"Uncletopia | Sydney | 3 | All Maps | STV","players":null},{"server_id":396,"name":"Uncletopia | Sydney | 4 | All Maps","name_short":"syd-4","host":"syd-1.au.uncletopia.com","port":27045,"enabled":true,"region":"au","cc":"au","latitude":-33.865143,"longitude":151.2099,"reserved":0,"last_update":"0001-01-01T00:00:00Z","name_a2s":"Uncletopia | Sydney | 4 | All Maps","protocol":17,"map":"pl_frontier_final","folder":"tf","game":"Team Fortress","app_id":440,"player_count":0,"max_players":24,"Bots":0,"server_type":"Dedicated","server_os":"Linux","password":true,"vac":true,"version":"7708610","steam_id":85568392925397958,"keywords":["nocrits","nodmgspread","payload","uncletopia"],"game_id":440,"stv_port":27046,"stv_name":"Uncletopia | Sydney | 4 | All Maps | STV","players":null},{"server_id":58,"name":"Uncletopia | Sydney | 5 | No Payload","name_short":"syd-5","host":"syd-1.au.uncletopia.com","port":27055,"enabled":true,"region":"au","cc":"au","latitude":-33.865143,"longitude":151.2099,"reserved":0,"last_update":"0001-01-01T00:00:00Z","name_a2s":"Uncletopia | Sydney | 5 | No Payload","protocol":17,"map":"pl_pier","folder":"tf","game":"Team Fortress","app_id":440,"player_count":0,"max_players":24,"Bots":0,"server_type":"Dedicated","server_os":"Linux","password":true,"vac":true,"version":"7708610","steam_id":85568392925397959,"keywords":["nocrits","nodmgspread","payload","uncletopia"],"game_id":440,"stv_port":27056,"stv_name":"Uncletopia | Sydney | 5 | No Payload | STV","players":null},{"server_id":59,"name":"Uncletopia | Sydney | 6 | Community","name_short":"syd-6","host":"syd-1.au.uncletopia.com","port":27065,"enabled":true,"region":"au","cc":"au","latitude":-33.865143,"longitude":151.2099,"reserved":0,"last_update":"0001-01-01T00:00:00Z","name_a2s":"Uncletopia | Sydney | 6 | Community","protocol":17,"map":"workshop/pl_barnblitz_pro7.ugc582280235","folder":"tf","game":"Team Fortress","app_id":440,"player_count":0,"max_players":24,"Bots":0,"server_type":"Dedicated","server_os":"Linux","password":true,"vac":true,"version":"7708610","steam_id":85568392925397960,"keywords":["nocrits","nodmgspread","payload","uncletopia"],"game_id":440,"stv_port":27066,"stv_name":"Uncletopia | Sydney | 6 | Community | STV","players":null},{"server_id":49,"name":"Uncletopia | Warsaw | 1 | All Maps","name_short":"waw-1","host":"waw-1.pl.uncletopia.com","port":27015,"enabled":true,"region":"eu","cc":"pl","latitude":52.2297,"longitude":21.017532,"reserved":0,"last_update":"0001-01-01T00:00:00Z","name_a2s":"Uncletopia | Warsaw | 1 | All Maps","protocol":17,"map":"cp_dustbowl","folder":"tf","game":"Team Fortress","app_id":440,"player_count":0,"max_players":24,"Bots":0,"server_type":"Dedicated","server_os":"Linux","password":true,"vac":true,"version":"7708610","steam_id":85568392925397850,"keywords":["cp","nocrits","nodmgspread","uncletopia"],"game_id":440,"stv_port":27016,"stv_name":"Uncletopia | Warsaw | 1 | All Maps | STV","players":null},{"server_id":50,"name":"Uncletopia | Warsaw | 2 | All Maps","name_short":"waw-2","host":"waw-1.pl.uncletopia.com","port":27025,"enabled":true,"region":"eu","cc":"pl","latitude":52.2297,"longitude":21.017532,"reserved":0,"last_update":"0001-01-01T00:00:00Z","name_a2s":"Uncletopia | Warsaw | 2 | All Maps","protocol":17,"map":"koth_highpass","folder":"tf","game":"Team Fortress","app_id":440,"player_count":0,"max_players":24,"Bots":0,"server_type":"Dedicated","server_os":"Linux","password":true,"vac":true,"version":"7708610","steam_id":85568392925397851,"keywords":["cp","nocrits","nodmgspread","uncletopia"],"game_id":440,"stv_port":27026,"stv_name":"Uncletopia | Warsaw | 2 | All Maps | STV","players":null},{"server_id":51,"name":"Uncletopia | Warsaw | 3 | All Maps","name_short":"waw-3","host":"waw-1.pl.uncletopia.com","port":27035,"enabled":true,"region":"eu","cc":"pl","latitude":52.2297,"longitude":21.017532,"reserved":0,"last_update":"0001-01-01T00:00:00Z","name_a2s":"Uncletopia | Warsaw | 3 | All Maps","protocol":17,"map":"cp_yukon_final","folder":"tf","game":"Team Fortress","app_id":440,"player_count":0,"max_players":24,"Bots":0,"server_type":"Dedicated","server_os":"Linux","password":true,"vac":true,"version":"7708610","steam_id":85568392925397852,"keywords":["cp","nocrits","nodmgspread","uncletopia"],"game_id":440,"stv_port":27036,"stv_name":"Uncletopia | Warsaw | 3 | All Maps | STV","players":null},{"server_id":52,"name":"Uncletopia | Warsaw | 4 | All Maps","name_short":"waw-4","host":"waw-1.pl.uncletopia.com","port":27045,"enabled":true,"region":"eu","cc":"pl","latitude":52.2297,"longitude":21.017532,"reserved":0,"last_update":"0001-01-01T00:00:00Z","name_a2s":"Uncletopia | Warsaw | 4 | All Maps","protocol":17,"map":"pl_pier","folder":"tf","game":"Team Fortress","app_id":440,"player_count":0,"max_players":24,"Bots":0,"server_type":"Dedicated","server_os":"Linux","password":true,"vac":true,"version":"7708610","steam_id":85568392925397853,"keywords":["nocrits","nodmgspread","payload","uncletopia"],"game_id":440,"stv_port":27046,"stv_name":"Uncletopia | Warsaw | 4 | All Maps | STV","players":null},{"server_id":53,"name":"Uncletopia | Warsaw | 5 | No Payload","name_short":"waw-5","host":"waw-1.pl.uncletopia.com","port":27055,"enabled":true,"region":"eu","cc":"pl","latitude":52.2297,"longitude":21.017532,"reserved":0,"last_update":"0001-01-01T00:00:00Z","name_a2s":"Uncletopia | Warsaw | 5 | No Payload","protocol":17,"map":"pl_borneo","folder":"tf","game":"Team Fortress","app_id":440,"player_count":0,"max_players":24,"Bots":0,"server_type":"Dedicated","server_os":"Linux","password":true,"vac":true,"version":"7708610","steam_id":85568392925397854,"keywords":["nocrits","nodmgspread","payload","uncletopia"],"game_id":440,"stv_port":27056,"stv_name":"Uncletopia | Warsaw | 5 | No Payload | STV","players":null},{"server_id":54,"name":"Uncletopia | Warsaw | 6 | Community","name_short":"waw-6","host":"waw-1.pl.uncletopia.com","port":27065,"enabled":true,"region":"eu","cc":"pl","latitude":52.2297,"longitude":21.017532,"reserved":0,"last_update":"0001-01-01T00:00:00Z","name_a2s":"Uncletopia | Warsaw | 6 | Community","protocol":17,"map":"workshop/pl_barnblitz_pro7.ugc582280235","folder":"tf","game":"Team Fortress","app_id":440,"player_count":0,"max_players":24,"Bots":0,"server_type":"Dedicated","server_os":"Linux","password":true,"vac":true,"version":"7708610","steam_id":85568392925397856,"keywords":["nocrits","nodmgspread","payload","uncletopia"],"game_id":440,"stv_port":27066,"stv_name":"Uncletopia | Warsaw | 6 | Community | STV","players":null}]}