{"status":true,"message":"","result":[{"server_id":9,"name":"Uncletopia | Atlanta | 1 | All Maps","name_short":"atl-1","host":"atl-1.us.uncletopia.com","port":27015,"enabled":true,"region":"us-east","cc":"us","latitude":33.753746,"longitude":-84.38633,"reserved":0,"last_update":"0001-01-01T00:00:00Z","name_a2s":"Uncletopia | Atlanta | 1 | All Maps","protocol":17,"map":"pl_borneo","folder":"tf","game":"Team Fortress","app_id":440,"player_count":24,"max_players":24,"Bots":0,"server_type":"Dedicated","server_os":"Linux","password":true,"vac":true,"version":"7757534","steam_id":85568392924469982,"keywords":["nocrits","nodmgspread","payload","uncletopia"],"game_id":440,"stv_port":27016,"stv_name":"Uncletopia | Atlanta | 1 | All Maps | STV","players":[{"user_id":232,"name":"Onyx","steam_id":76561198275349640,"connected_time":1051000000000,"state":"active","ping":81},{"user_id":191,"name":"Oxyclean","steam_id":76561198042954813,"connected_time":6531000000000,"state":"active","ping":73},{"user_id":236,"name":"avant","steam_id":76561198104921055,"connected_time":367000000000,"state":"active","ping":72},{"user_id":237,"name":"loot","steam_id":76561198069954956,"connected_time":365000000000,"state":"active","ping":46},{"user_id":233,"name":"local dumb dumb","steam_id":76561198064710426,"connected_time":892000000000,"state":"active","ping":87},{"user_id":200,"name":"fart","steam_id":76561198046405072,"connected_time":5532000000000,"state":"active","ping":73},{"user_id":201,"name":"MyamE","steam_id":76561198133278462,"connected_time":5527000000000,"state":"active","ping":79},{"user_id":225,"name":"RED1 | icyy","steam_id":76561198968001329,"connected_time":2080000000000,"state":"active","ping":44},{"user_id":238,"name":"ATL1 | LuckyZero-_-","steam_id":76561198139891051,"connected_time":365000000000,"state":"active","ping":68},{"user_id":234,"name":"Uganda Knuckles lll","steam_id":76561199121276474,"connected_time":378000000000,"state":"active","ping":77},{"user_id":196,"name":"RED1 | Le4n!!!","steam_id":76561198045522596,"connected_time":5947000000000,"state":"active","ping":72},{"user_id":197,"name":"ATL1 | Bandicario","steam_id":76561198432036026,"connected_time":5846000000000,"state":"active","ping":52},{"user_id":221,"name":"melancholy","steam_id":76561198024301465,"connected_time":2101000000000,"state":"active","ping":43},{"user_id":230,"name":"RED1 | p4ka","steam_id":76561198315291317,"connected_time":1685000000000,"state":"active","ping":74},{"user_id":239,"name":"Johnny Lawrence #JohnnyMaxxing","steam_id":76561199367141671,"connected_time":364000000000,"state":"active","ping":74},{"user_id":240,"name":"[AD THE ZEBRA!]","steam_id":76561198084121940,"connected_time":364000000000,"state":"active","ping":94},{"user_id":227,"name":"DuckMann","steam_id":76561198197058638,"connected_time":1927000000000,"state":"active","ping":60},{"user_id":214,"name":"Bottom Trans Cowgirl","steam_id":76561198304239680,"connected_time":3251000000000,"state":"active","ping":70},{"user_id":231,"name":"Caught a Thundah","steam_id":76561198054495572,"connected_time":1331000000000,"state":"active","ping":72},{"user_id":215,"name":"Marshy","steam_id":76561198421784454,"connected_time":3250000000000,"state":"active","ping":117},{"user_id":229,"name":"SamFec","steam_id":76561198414538682,"connected_time":1924000000000,"state":"active","ping":97},{"user_id":217,"name":"CheesySpectre","steam_id":76561198332606276,"connected_time":2919000000000,"state":"active","ping":117},{"user_id":199,"name":"lil hog","steam_id":76561199230929836,"connected_time":5647000000000,"state":"active","ping":79},{"user_id":235,"name":"ATL1 | to4st","steam_id":76561198981009008,"connected_time":378000000000,"state":"active","ping":70}]},{"server_id":400,"name":"Uncletopia | Atlanta | 3 | Community","name_short":"atl-3","host":"atl-1.us.uncletopia.com","port":27035,"enabled":true,"region":"us-east","cc":"us","latitude":33.753746,"longitude":-84.38633,"reserved":0,"last_update":"0001-01-01T00:00:00Z","name_a2s":"Uncletopia | Atlanta | 3 | Community","protocol":17,"map":"workshop/pl_divulgence_b4b.ugc2884808746","folder":"tf","game":"Team Fortress","app_id":440,"player_count":0,"max_players":24,"Bots":0,"server_type":"Dedicated","server_os":"Linux","password":true,"vac":true,"version":"7757534","steam_id":85568392924515187,"keywords":["nocrits","nodmgspread","payload","uncletopia"],"game_id":440,"stv_port":27036,"stv_name":"Uncletopia | Atlanta | 3 | Community | STV","players":null},{"server_id":401,"name":"Uncletopia | Atlanta | 4 | No Payload","name_short":"atl-4","host":"atl-1.us.uncletopia.com","port":27045,"enabled":true,"region":"us-east","cc":"us","latitude":33.753746,"longitude":-84.38633,"reserved":0,"last_update":"0001-01-01T00:00:00Z","name_a2s":"","protocol":0,"map":"","folder":"","game":"","app_id":0,"player_count":0,"max_players":0,"Bots":0,"server_type":"","server_os":"","password":false,"vac":false,"version":"","steam_id":0,"keywords":null,"game_id":0,"stv_port":0,"stv_name":"","players":null},{"server_id":2,"name":"Uncletopia | Chicago | 1 | All Maps","name_short":"chi-1","host":"chi-1.us.uncletopia.com","port":27015,"enabled":true,"region":"us-central","cc":"us","latitude":41.881832,"longitude":-87.62318,"reserved":0,"last_update":"0001-01-01T00:00:00Z","name_a2s":"Uncletopia | Chicago | 1 | All Maps","protocol":17,"map":"pl_barnblitz","folder":"tf","game":"Team Fortress","app_id":440,"player_count":24,"max_players":24,"Bots":0,"server_type":"Dedicated","server_os":"Linux","password":true,"vac":true,"version":"7757534","steam_id":85568392924469984,"keywords":["nocrits","nodmgspread","payload","uncletopia"],"game_id":440,"stv_port":27016,"stv_name":"Uncletopia | Chicago | 1 | All Maps | STV","players":[{"user_id":467,"name":"Commodore_Perry","steam_id":76561197986675784,"connected_time":2233000000000,"state":"active","ping":72},{"user_id":438,"name":"the deadliest pyroshark","steam_id":76561198374227766,"connected_time":4340000000000,"state":"active","ping":73},{"user_id":480,"name":"Sentry Gun (American)","steam_id":76561198313770809,"connected_time":1228000000000,"state":"active","ping":57},{"user_id":463,"name":"hamster.assassination","steam_id":76561199419949968,"connected_time":2351000000000,"state":"active","ping":160},{"user_id":439,"name":"Big Phony","steam_id":76561199092395311,"connected_time":4328000000000,"state":"active","ping":67},{"user_id":428,"name":"PKBEAST_7","steam_id":76561198177136537,"connected_time":5100000000000,"state":"active","ping":91},{"user_id":489,"name":"turtle man (turtle empire)","steam_id":76561199023075444,"connected_time":327000000000,"state":"active","ping":117},{"user_id":443,"name":"caption cool","steam_id":76561197990612056,"connected_time":3929000000000,"state":"active","ping":36},{"user_id":485,"name":"spooky kabuki","steam_id":76561198030361635,"connected_time":573000000000,"state":"active","ping":49},{"user_id":459,"name":"Dr. Hurrible","steam_id":76561198080070400,"connected_time":2996000000000,"state":"active","ping":72},{"user_id":474,"name":"Swordslash50","steam_id":76561198275769907,"connected_time":1479000000000,"state":"active","ping":75},{"user_id":490,"name":"Eeveemaster243","steam_id":76561199163646271,"connected_time":271000000000,"state":"active","ping":114},{"user_id":482,"name":"gasparmx","steam_id":76561197998611994,"connected_time":1005000000000,"state":"active","ping":116},{"user_id":487,"name":"Jado","steam_id":76561198380340779,"connected_time":547000000000,"state":"active","ping":60},{"user_id":475,"name":"PrimePickle","steam_id":76561199470598716,"connected_time":1430000000000,"state":"active","ping":85},{"user_id":484,"name":"Bungalow Bill","steam_id":76561198033536404,"connected_time":584000000000,"state":"active","ping":84},{"user_id":469,"name":"B45Guy","steam_id":76561198117290531,"connected_time":1944000000000,"state":"active","ping":58},{"user_id":464,"name":"Macko","steam_id":76561198452005461,"connected_time":2328000000000,"state":"active","ping":83},{"user_id":488,"name":"Luffy","steam_id":76561198120914343,"connected_time":531000000000,"state":"active","ping":68},{"user_id":471,"name":"FiveStryker","steam_id":76561198366172207,"connected_time":1771000000000,"state":"active","ping":36},{"user_id":449,"name":"{bee gaming}","steam_id":76561198103194393,"connected_time":3352000000000,"state":"active","ping":76},{"user_id":417,"name":"drugger. (cochlear implant)","steam_id":76561198353463585,"connected_time":5986000000000,"state":"active","ping":96},{"user_id":460,"name":"Magik","steam_id":76561198200169706,"connected_time":2944000000000,"state":"active","ping":72},{"user_id":437,"name":"bary","steam_id":76561197988317087,"connected_time":4482000000000,"state":"active","ping":64}]},{"server_id":106,"name":"Uncletopia | Chicago | 2 | All Maps","name_short":"chi-2","host":"chi-1.us.uncletopia.com","port":27025,"enabled":true,"region":"us-central","cc":"us","latitude":41.881832,"longitude":-87.62318,"reserved":0,"last_update":"0001-01-01T00:00:00Z","name_a2s":"Uncletopia | Chicago | 2 | All Maps","protocol":17,"map":"koth_lakeside_final","folder":"tf","game":"Team Fortress","app_id":440,"player_count":24,"max_players":24,"Bots":0,"server_type":"Dedicated","server_os":"Linux","password":true,"vac":true,"version":"7757534","steam_id":85568392924469985,"keywords":["cp","nocrits","nodmgspread","uncletopia"],"game_id":440,"stv_port":27026,"stv_name":"Uncletopia | Chicago | 2 | All Maps | STV","players":[{"user_id":321,"name":"dwnkins","steam_id":76561198856016840,"connected_time":4362000000000,"state":"active","ping":72},{"user_id":380,"name":"Sunvaar","steam_id":76561198852679851,"connected_time":296000000000,"state":"active","ping":62},{"user_id":346,"name":"Nexusthenormie","steam_id":76561198880184146,"connected_time":1920000000000,"state":"active","ping":62},{"user_id":298,"name":"Kase","steam_id":76561198055510230,"connected_time":5958000000000,"state":"active","ping":60},{"user_id":382,"name":"KiltTickled","steam_id":76561198859288002,"connected_time":153000000000,"state":"active","ping":84},{"user_id":373,"name":"Shmebulock","steam_id":76561198046941925,"connected_time":587000000000,"state":"active","ping":51},{"user_id":354,"name":"StunningGaming","steam_id":76561198091855849,"connected_time":1534000000000,"state":"active","ping":89},{"user_id":371,"name":"peanut butter","steam_id":76561198117839474,"connected_time":717000000000,"state":"active","ping":75},{"user_id":356,"name":"spimtmot733","steam_id":76561199029189825,"connected_time":1467000000000,"state":"active","ping":70},{"user_id":369,"name":"Shock Trooper","steam_id":76561199086731683,"connected_time":897000000000,"state":"active","ping":72},{"user_id":315,"name":"Schwagz","steam_id":76561198038330649,"connected_time":4907000000000,"state":"active","ping":82},{"user_id":374,"name":"Midnight-AG","steam_id":76561198115714484,"connected_time":562000000000,"state":"active","ping":106},{"user_id":381,"name":"walterfishing_17","steam_id":76561198976904099,"connected_time":296000000000,"state":"active","ping":74},{"user_id":376,"name":"JennaShinx","steam_id":76561198074773762,"connected_time":479000000000,"state":"active","ping":71},{"user_id":345,"name":"Tofu","steam_id":76561198056736463,"connected_time":2206000000000,"state":"active","ping":73},{"user_id":331,"name":"Buttons :)","steam_id":76561198139478534,"connected_time":4173000000000,"state":"active","ping":108},{"user_id":377,"name":"off","steam_id":76561198053513128,"connected_time":460000000000,"state":"active","ping":77},{"user_id":383,"name":"Sexual Scottish Skullcutting","steam_id":76561197995583747,"connected_time":153000000000,"state":"active","ping":79},{"user_id":300,"name":"Every death is 5 push ups","steam_id":76561198162170585,"connected_time":5948000000000,"state":"active","ping":95},{"user_id":303,"name":"auby","steam_id":76561198088024854,"connected_time":5838000000000,"state":"active","ping":80},{"user_id":360,"name":"the grungler!","steam_id":76561198058485742,"connected_time":1442000000000,"state":"active","ping":56},{"user_id":379,"name":"BuddyMocha","steam_id":76561198054654515,"connected_time":412000000000,"state":"active","ping":61},{"user_id":367,"name":"North","steam_id":76561199173696836,"connected_time":1094000000000,"state":"active","ping":85},{"user_id":340,"name":"Starlie","steam_id":76561198102100102,"connected_time":3172000000000,"state":"active","ping":124}]},{"server_id":402,"name":"Uncletopia | Chicago | 3 | All Maps","name_short":"chi-3","host":"chi-1.us.uncletopia.com","port":27035,"enabled":true,"region":"us-central","cc":"us","latitude":41.881832,"longitude":-87.62318,"reserved":0,"last_update":"0001-01-01T00:00:00Z","name_a2s":"Uncletopia | Chicago | 3 | All Maps","protocol":17,"map":"pl_barnblitz","folder":"tf","game":"Team Fortress","app_id":440,"player_count":24,"max_players":24,"Bots":0,"server_type":"Dedicated","server_os":"Linux","password":true,"vac":true,"version":"7757534","steam_id":85568392924515191,"keywords":["nocrits","nodmgspread","payload","uncletopia"],"game_id":440,"stv_port":27036,"stv_name":"Uncletopia | Chicago | 3 | All Maps | STV","players":[{"user_id":79,"name":"Hugh Mann","steam_id":76561198212049401,"connected_time":1925000000000,"state":"active","ping":88},{"user_id":89,"name":"kablong","steam_id":76561199094392047,"connected_time":1141000000000,"state":"active","ping":92},{"user_id":75,"name":"Fresh0c0","steam_id":76561198271933283,"connected_time":2080000000000,"state":"active","ping":62},{"user_id":27,"name":"the fart","steam_id":76561198073176682,"connected_time":3919000000000,"state":"active","ping":60},{"user_id":93,"name":"Dottie","steam_id":76561198282046179,"connected_time":823000000000,"state":"active","ping":89},{"user_id":82,"name":"Uncle Meat","steam_id":76561198012534850,"connected_time":1683000000000,"state":"active","ping":64},{"user_id":73,"name":"dick bubkis","steam_id":76561198057374871,"connected_time":2478000000000,"state":"active","ping":60},{"user_id":47,"name":"LordOfTheNoobs","steam_id":76561197962697523,"connected_time":3131000000000,"state":"active","ping":69},{"user_id":48,"name":"Aldinach","steam_id":76561198079912615,"connected_time":3066000000000,"state":"active","ping":45},{"user_id":103,"name":"THIS BREAD","steam_id":76561199133313586,"connected_time":12000000000,"state":"active","ping":54},{"user_id":98,"name":"soundwave | sfm comms open!","steam_id":76561198454725718,"connected_time":674000000000,"state":"active","ping":49},{"user_id":99,"name":"Pi Guy","steam_id":76561199071784224,"connected_time":594000000000,"state":"active","ping":72},{"user_id":101,"name":"Esteban Delsin","steam_id":76561199470243169,"connected_time":71000000000,"state":"active","ping":119},{"user_id":86,"name":"Chunky7453","steam_id":76561198937660929,"connected_time":1385000000000,"state":"active","ping":102},{"user_id":92,"name":"omar","steam_id":76561199133937702,"connected_time":896000000000,"state":"active","ping":62},{"user_id":88,"name":"DumplingDestroyer","steam_id":76561199071371893,"connected_time":1311000000000,"state":"active","ping":83},{"user_id":56,"name":"gretchling","steam_id":76561198046111695,"connected_time":2942000000000,"state":"active","ping":60},{"user_id":87,"name":"Grey_Wolf2009","steam_id":76561199037118016,"connected_time":1363000000000,"state":"active","ping":107},{"user_id":60,"name":"Jason Gaming","steam_id":76561198215467601,"connected_time":2831000000000,"state":"active","ping":73},{"user_id":61,"name":"♥ Femboy♥Ventily ♥","steam_id":76561198157260335,"connected_time":2827000000000,"state":"active","ping":58},{"user_id":95,"name":"The Wise Guy","steam_id":76561198031080216,"connected_time":814000000000,"state":"active","ping":75},{"user_id":67,"name":"Gobby Princess","steam_id":76561198051902438,"connected_time":2773000000000,"state":"active","ping":96},{"user_id":68,"name":"Rebel","steam_id":76561197998591246,"connected_time":2764000000000,"state":"active","ping":78},{"user_id":69,"name":"Kaluka","steam_id":76561198036861445,"connected_time":2749000000000,"state":"active","ping":70}]},{"server_id":403,"name":"Uncletopia | Chicago | 4 | All Maps","name_short":"chi-4","host":"chi-1.us.uncletopia.com","port":27045,"enabled":true,"region":"us-central","cc":"us","latitude":41.881832,"longitude":-87.62318,"reserved":0,"last_update":"0001-01-01T00:00:00Z","name_a2s":"Uncletopia | Chicago | 4 | All Maps","protocol":17,"map":"koth_highpass","folder":"tf","game":"Team Fortress","app_id":440,"player_count":24,"max_players":24,"Bots":0,"server_type":"Dedicated","server_os":"Linux","password":true,"vac":true,"version":"7757534","steam_id":85568392924515193,"keywords":["cp","nocrits","nodmgspread","uncletopia"],"game_id":440,"stv_port":27046,"stv_name":"Uncletopia | Chicago | 4 | All Maps | STV","players":[{"user_id":140,"name":"cozy times","steam_id":76561198147391779,"connected_time":3533000000000,"state":"active","ping":77},{"user_id":64,"name":"shokie","steam_id":76561197997961542,"connected_time":8243000000000,"state":"active","ping":74},{"user_id":187,"name":"All Tomorrow's Parties","steam_id":76561197995936212,"connected_time":576000000000,"state":"active","ping":45},{"user_id":166,"name":"None of that $9.99 bullshit","steam_id":76561198116169903,"connected_time":1878000000000,"state":"active","ping":375},{"user_id":186,"name":"vivi","steam_id":76561199027530775,"connected_time":585000000000,"state":"active","ping":100},{"user_id":65,"name":"washy","steam_id":76561198046622670,"connected_time":8189000000000,"state":"active","ping":85},{"user_id":183,"name":"Andraw","steam_id":76561198057499385,"connected_time":649000000000,"state":"active","ping":57},{"user_id":195,"name":"S A N Y ™","steam_id":76561198271065274,"connected_time":178000000000,"state":"active","ping":183},{"user_id":188,"name":"no wtf not that","steam_id":76561198461518382,"connected_time":531000000000,"state":"active","ping":56},{"user_id":179,"name":"Ping","steam_id":76561199206514106,"connected_time":910000000000,"state":"active","ping":52},{"user_id":191,"name":"Stupid frogs!","steam_id":76561198069415057,"connected_time":470000000000,"state":"active","ping":64},{"user_id":189,"name":"I HATE THE ANTICHRIST","steam_id":76561198815994917,"connected_time":517000000000,"state":"active","ping":55},{"user_id":148,"name":"The Big Iron","steam_id":76561198117276391,"connected_time":3209000000000,"state":"active","ping":72},{"user_id":138,"name":"HaphazardHazel","steam_id":76561198316812693,"connected_time":3574000000000,"state":"active","ping":112},{"user_id":178,"name":"helloyes_123","steam_id":76561198184669555,"connected_time":987000000000,"state":"active","ping":93},{"user_id":125,"name":"IPlayGamez","steam_id":76561198041387508,"connected_time":4450000000000,"state":"active","ping":68},{"user_id":194,"name":"Dewgong (real)","steam_id":76561198045999391,"connected_time":244000000000,"state":"active","ping":72},{"user_id":190,"name":"FOX927011","steam_id":76561198117831095,"connected_time":513000000000,"state":"active","ping":81},{"user_id":161,"name":"the zoo","steam_id":76561198013732450,"connected_time":2279000000000,"state":"active","ping":56},{"user_id":174,"name":"Tusk","steam_id":76561198085765096,"connected_time":1630000000000,"state":"active","ping":75},{"user_id":139,"name":"must","steam_id":76561198005637112,"connected_time":3568000000000,"state":"active","ping":144},{"user_id":192,"name":"moonage72","steam_id":76561199187008629,"connected_time":460000000000,"state":"active","ping":52},{"user_id":193,"name":"Lemur2016","steam_id":76561198194372906,"connected_time":438000000000,"state":"active","ping":74},{"user_id":163,"name":"Lennu","steam_id":76561198060730154,"connected_time":2277000000000,"state":"active","ping":76}]},{"server_id":36,"name":"Uncletopia | Chicago | 5 | All Maps","name_short":"chi-5","host":"chi-2.us.uncletopia.com","port":27015,"enabled":true,"region":"us-central","cc":"us","latitude":41.881832,"longitude":-87.62318,"reserved":0,"last_update":"0001-01-01T00:00:00Z","name_a2s":"Uncletopia | Chicago | 5 | All Maps","protocol":17,"map":"pl_upward","folder":"tf","game":"Team Fortress","app_id":440,"player_count":24,"max_players":24,"Bots":0,"server_type":"Dedicated","server_os":"Linux","password":true,"vac":true,"version":"7757534","steam_id":85568392924866362,"keywords":["nocrits","nodmgspread","payload","uncletopia"],"game_id":440,"stv_port":27016,"stv_name":"Uncletopia | Chicago | 5 | All Maps | STV","players":[{"user_id":234,"name":"ShitsandGiggles™","steam_id":76561198058708019,"connected_time":1777000000000,"state":"active","ping":53},{"user_id":148,"name":"teaf","steam_id":76561198406252824,"connected_time":6618000000000,"state":"active","ping":104},{"user_id":205,"name":"Foomfa","steam_id":76561198007033616,"connected_time":3379000000000,"state":"active","ping":70},{"user_id":230,"name":"wobba wobba","steam_id":76561198249206656,"connected_time":1789000000000,"state":"active","ping":76},{"user_id":229,"name":"plushie","steam_id":76561198088103572,"connected_time":1801000000000,"state":"active","ping":92},{"user_id":236,"name":"coochie smoochies","steam_id":76561198103496593,"connected_time":1545000000000,"state":"active","ping":66},{"user_id":242,"name":"Saber king of f2p's","steam_id":76561199146302602,"connected_time":589000000000,"state":"active","ping":82},{"user_id":143,"name":"sean","steam_id":76561198354473513,"connected_time":7012000000000,"state":"active","ping":51},{"user_id":231,"name":"the great equalizer","steam_id":76561198796394610,"connected_time":1782000000000,"state":"active","ping":79},{"user_id":196,"name":"Snimca","steam_id":76561198453519709,"connected_time":3702000000000,"state":"active","ping":68},{"user_id":243,"name":"moe","steam_id":76561198929586245,"connected_time":586000000000,"state":"active","ping":111},{"user_id":233,"name":"frozenwasanokmovie","steam_id":76561198157407952,"connected_time":1780000000000,"state":"active","ping":113},{"user_id":238,"name":"Glory","steam_id":76561198013975080,"connected_time":1255000000000,"state":"active","ping":74},{"user_id":241,"name":"Huge","steam_id":76561199030987614,"connected_time":624000000000,"state":"active","ping":88},{"user_id":237,"name":"HOLY SHIT! ITS SLENDERMAN","steam_id":76561198085815757,"connected_time":1496000000000,"state":"active","ping":72},{"user_id":226,"name":"tf2s worst player","steam_id":76561199108820058,"connected_time":2062000000000,"state":"active","ping":104},{"user_id":216,"name":"backflipping trans woman","steam_id":76561198100189571,"connected_time":2446000000000,"state":"active","ping":62},{"user_id":240,"name":"LunaError","steam_id":76561198040603999,"connected_time":654000000000,"state":"active","ping":68},{"user_id":192,"name":"group frotting session","steam_id":76561198239286750,"connected_time":4193000000000,"state":"active","ping":65},{"user_id":221,"name":"Redd Guy","steam_id":76561198041034155,"connected_time":2359000000000,"state":"active","ping":99},{"user_id":223,"name":"Agent Orange Soda","steam_id":76561198099296029,"connected_time":2267000000000,"state":"active","ping":64},{"user_id":204,"name":"Icaras","steam_id":76561198416724843,"connected_time":3416000000000,"state":"active","ping":130},{"user_id":249,"name":"yesan300","steam_id":76561198988476277,"connected_time":37000000000,"state":"spawning","ping":147},{"user_id":247,"name":"Spy of 83","steam_id":76561199062242958,"connected_time":157000000000,"state":"active","ping":107}]},{"server_id":37,"name":"Uncletopia | Chicago | 6 | All Maps","name_short":"chi-6","host":"chi-2.us.uncletopia.com","port":27025,"enabled":true,"region":"us-central","cc":"us","latitude":41.881832,"longitude":-87.62318,"reserved":0,"last_update":"0001-01-01T00:00:00Z","name_a2s":"Uncletopia | Chicago | 6 | All Maps","protocol":17,"map":"cp_dustbowl","folder":"tf","game":"Team Fortress","app_id":440,"player_count":26,"max_players":24,"Bots":0,"server_type":"Dedicated","server_os":"Linux","password":true,"vac":true,"version":"7757534","steam_id":85568392924866363,"keywords":["cp","nocrits","nodmgspread","uncletopia"],"game_id":440,"stv_port":27026,"stv_name":"Uncletopia | Chicago | 6 | All Maps | STV","players":[{"user_id":341,"name":"gaming elliptical","steam_id":76561198013456569,"connected_time":925000000000,"state":"active","ping":54},{"user_id":294,"name":"John Dungus (the real one)","steam_id":76561198049191027,"connected_time":3390000000000,"state":"active","ping":58},{"user_id":349,"name":"Bwizz245","steam_id":76561198151474774,"connected_time":791000000000,"state":"active","ping":60},{"user_id":350,"name":"starfungus","steam_id":76561198158312789,"connected_time":790000000000,"state":"active","ping":87},{"user_id":347,"name":"Arttur","steam_id":76561199080503175,"connected_time":864000000000,"state":"active","ping":182},{"user_id":336,"name":"Infinity","steam_id":76561199134919099,"connected_time":987000000000,"state":"active","ping":78},{"user_id":342,"name":"Dr Smeggman","steam_id":76561197966614845,"connected_time":908000000000,"state":"active","ping":157},{"user_id":337,"name":"Tannenbaum Trotsky","steam_id":76561199101638460,"connected_time":985000000000,"state":"active","ping":86},{"user_id":367,"name":"DJFunnyBone","steam_id":76561198892528359,"connected_time":112000000000,"state":"active","ping":41},{"user_id":362,"name":"tf2 chad","steam_id":76561199217534511,"connected_time":243000000000,"state":"active","ping":73},{"user_id":373,"name":"Stu_Strib","steam_id":76561197970588300,"connected_time":7000000000,"state":"active","ping":161},{"user_id":310,"name":"rude boi","steam_id":76561198006783260,"connected_time":2772000000000,"state":"active","ping":67},{"user_id":366,"name":"FreonAddict9x19","steam_id":76561198060010824,"connected_time":124000000000,"state":"active","ping":73},{"user_id":343,"name":"Magnus Rex","steam_id":76561197987091236,"connected_time":905000000000,"state":"active","ping":82},{"user_id":312,"name":"wG dogmeat","steam_id":76561198964002142,"connected_time":2722000000000,"state":"active","ping":106},{"user_id":363,"name":"Spiffle","steam_id":76561199089811047,"connected_time":242000000000,"state":"connecting","ping":0},{"user_id":331,"name":"Xuey","steam_id":76561199120960187,"connected_time":1254000000000,"state":"active","ping":66},{"user_id":345,"name":"The Hoagie Hero","steam_id":76561198057569298,"connected_time":897000000000,"state":"active","ping":83},{"user_id":348,"name":"ecumber","steam_id":76561198169958831,"connected_time":841000000000,"state":"active","ping":97},{"user_id":351,"name":"Servitz #savetf2","steam_id":76561198194446835,"connected_time":786000000000,"state":"active","ping":67},{"user_id":352,"name":"Jeck","steam_id":76561198012275276,"connected_time":782000000000,"state":"active","ping":95},{"user_id":359,"name":"Worse","steam_id":76561198043778324,"connected_time":342000000000,"state":"active","ping":69},{"user_id":368,"name":"-","steam_id":76561198057717934,"connected_time":96000000000,"state":"active","ping":46},{"user_id":369,"name":"CastratoRapper","steam_id":76561199194237622,"connected_time":87000000000,"state":"active","ping":59},{"user_id":374,"name":"JUUL IS CUUL","steam_id":76561198053896023,"connected_time":0,"state":"spawning","ping":0},{"user_id":371,"name":"luigiu739","steam_id":76561199097178350,"connected_time":76000000000,"state":"active","ping":75}]},{"server_id":38,"name":"Uncletopia | Chicago | 7 | Stopwatch Beta","name_short":"chi-7","host":"chi-2.us.uncletopia.com","port":27035,"enabled":true,"region":"us-central","cc":"us","latitude":41.881832,"longitude":-87.62318,"reserved":0,"last_update":"0001-01-01T00:00:00Z","name_a2s":"Uncletopia | Chicago | 7 | Stopwatch Beta","protocol":17,"map":"pl_upward","folder":"tf","game":"Team Fortress","app_id":440,"player_count":0,"max_players":24,"Bots":0,"server_type":"Dedicated","server_os":"Linux","password":true,"vac":true,"version":"7757534","steam_id":85568392924866364,"keywords":["nocrits","nodmgspread","payload","uncletopia"],"game_id":440,"stv_port":27036,"stv_name":"Uncletopia | Chicago | 7 | Stopwatch Beta | STV","players":null},{"server_id":39,"name":"Uncletopia | Chicago | 8 | Community","name_short":"chi-8","host":"chi-2.us.uncletopia.com","port":27045,"enabled":true,"region":"us-central","cc":"us","latitude":41.881832,"longitude":-87.62318,"reserved":0,"last_update":"0001-01-01T00:00:00Z","name_a2s":"Uncletopia | Chicago | 8 | Community","protocol":17,"map":"workshop/pl_cashworks_final1.ugc2904065412","folder":"tf","game":"Team Fortress","app_id":440,"player_count":14,"max_players":24,"Bots":0,"server_type":"Dedicated","server_os":"Linux","password":true,"vac":true,"version":"7757534","steam_id":85568392924866365,"keywords":["nocrits","nodmgspread","payload","uncletopia"],"game_id":440,"stv_port":27046,"stv_name":"Uncletopia | Chicago | 8 | Community | STV","players":[{"user_id":65,"name":"Cloudman","steam_id":76561198041389138,"connected_time":840000000000,"state":"active","ping":75},{"user_id":33,"name":"Yayifications","steam_id":76561198066227208,"connected_time":4141000000000,"state":"active","ping":64},{"user_id":66,"name":"Chafn","steam_id":76561197969386702,"connected_time":707000000000,"state":"active","ping":100},{"user_id":73,"name":"Meet The Kill","steam_id":76561197967650566,"connected_time":261000000000,"state":"active","ping":51},{"user_id":40,"name":"annoying scout","steam_id":76561199051955859,"connected_time":3073000000000,"state":"active","ping":164},{"user_id":62,"name":"asm_ghost","steam_id":76561199205363547,"connected_time":1137000000000,"state":"active","ping":128},{"user_id":72,"name":"robert","steam_id":76561198001196512,"connected_time":286000000000,"state":"active","ping":51},{"user_id":77,"name":"Johni3FireFly","steam_id":76561198089760607,"connected_time":46000000000,"state":"spawning","ping":252},{"user_id":75,"name":"Lord Scrubling","steam_id":76561198263744445,"connected_time":225000000000,"state":"active","ping":69},{"user_id":78,"name":"Aerox","steam_id":76561198871081935,"connected_time":9000000000,"state":"spawning","ping":75},{"user_id":70,"name":"Communist Party of Wutville","steam_id":76561198844003641,"connected_time":304000000000,"state":"active","ping":109},{"user_id":71,"name":"RokkitFrog","steam_id":76561198046465850,"connected_time":299000000000,"state":"active","ping":70},{"user_id":74,"name":"META.exe","steam_id":76561199067098696,"connected_time":245000000000,"state":"active","ping":79},{"user_id":76,"name":"Rex","steam_id":76561198138365053,"connected_time":174000000000,"state":"active","ping":126}]},{"server_id":8,"name":"Uncletopia | Dallas | 1 | All Maps","name_short":"dal-1","host":"dal-1.us.uncletopia.com","port":27015,"enabled":true,"region":"us-central","cc":"us","latitude":32.779167,"longitude":-96.80889,"reserved":0,"last_update":"0001-01-01T00:00:00Z","name_a2s":"Uncletopia | Dallas | 1 | All Maps","protocol":17,"map":"koth_lakeside_final","folder":"tf","game":"Team Fortress","app_id":440,"player_count":24,"max_players":24,"Bots":0,"server_type":"Dedicated","server_os":"Linux","password":true,"vac":true,"version":"7757534","steam_id":85568392924469986,"keywords":["cp","nocrits","nodmgspread","uncletopia"],"game_id":440,"stv_port":27016,"stv_name":"Uncletopia | Dallas | 1 | All Maps | STV","players":[{"user_id":204,"name":"dr4gon","steam_id":76561198847749278,"connected_time":6757000000000,"state":"active","ping":45},{"user_id":274,"name":"JIBA","steam_id":76561198141315991,"connected_time":333000000000,"state":"active","ping":84},{"user_id":245,"name":"KyePerson","steam_id":76561198145597212,"connected_time":3816000000000,"state":"active","ping":81},{"user_id":276,"name":"terrapieseven","steam_id":76561198072062415,"connected_time":203000000000,"state":"active","ping":103},{"user_id":267,"name":"The New Jersey Devils","steam_id":76561198970380577,"connected_time":1240000000000,"state":"active","ping":71},{"user_id":277,"name":"elyk37","steam_id":76561198124135253,"connected_time":125000000000,"state":"active","ping":98},{"user_id":247,"name":"Yonkerbonk","steam_id":76561198097628353,"connected_time":3313000000000,"state":"active","ping":45},{"user_id":270,"name":"jodie.blend","steam_id":76561198140701807,"connected_time":1138000000000,"state":"active","ping":57},{"user_id":197,"name":"Brass beast heavy","steam_id":76561198274197623,"connected_time":7635000000000,"state":"active","ping":162},{"user_id":264,"name":"Baked_Bread","steam_id":76561198842106628,"connected_time":1412000000000,"state":"active","ping":57},{"user_id":278,"name":"Back with the milk","steam_id":76561199020105501,"connected_time":19000000000,"state":"active","ping":92},{"user_id":273,"name":"Pink","steam_id":76561198042140694,"connected_time":357000000000,"state":"active","ping":59},{"user_id":271,"name":"Hobity","steam_id":76561198135386781,"connected_time":1132000000000,"state":"active","ping":78},{"user_id":258,"name":"Fishstall","steam_id":76561198038126034,"connected_time":2288000000000,"state":"active","ping":69},{"user_id":154,"name":"LegendaryMister151","steam_id":76561198064890524,"connected_time":10937000000000,"state":"active","ping":98},{"user_id":272,"name":"inzang","steam_id":76561198088318074,"connected_time":897000000000,"state":"active","ping":68},{"user_id":243,"name":"Wallem","steam_id":76561198052361822,"connected_time":3859000000000,"state":"active","ping":100},{"user_id":250,"name":"wiiblob","steam_id":76561198109106242,"connected_time":3133000000000,"state":"active","ping":153},{"user_id":236,"name":"Brian","steam_id":76561198089908485,"connected_time":5013000000000,"state":"active","ping":102},{"user_id":255,"name":"axis","steam_id":76561198065535856,"connected_time":2703000000000,"state":"active","ping":90},{"user_id":256,"name":"LordOfLemons","steam_id":76561198904408482,"connected_time":2553000000000,"state":"active","ping":103},{"user_id":220,"name":"gps","steam_id":76561198067492304,"connected_time":6397000000000,"state":"active","ping":63},{"user_id":262,"name":"Hephaesta13","steam_id":76561199026788557,"connected_time":2216000000000,"state":"active","ping":91},{"user_id":259,"name":"Derply","steam_id":76561198871211642,"connected_time":2284000000000,"state":"active","ping":74}]},{"server_id":108,"name":"Uncletopia | Dallas | 2 | All Maps","name_short":"dal-2","host":"dal-1.us.uncletopia.com","port":27025,"enabled":true,"region":"us-central","cc":"us","latitude":32.779167,"longitude":-96.80889,"reserved":0,"last_update":"0001-01-01T00:00:00Z","name_a2s":"Uncletopia | Dallas | 2 | All Maps","protocol":17,"map":"cp_mountainlab","folder":"tf","game":"Team Fortress","app_id":440,"player_count":24,"max_players":24,"Bots":0,"server_type":"Dedicated","server_os":"Linux","password":true,"vac":true,"version":"7757534","steam_id":85568392924469988,"keywords":["cp","nocrits","nodmgspread","uncletopia"],"game_id":440,"stv_port":27026,"stv_name":"Uncletopia | Dallas | 2 | All Maps | STV","players":[{"user_id":406,"name":"Raydn","steam_id":76561198418414338,"connected_time":690000000000,"state":"active","ping":55},{"user_id":409,"name":"Try Gardening","steam_id":76561198120311340,"connected_time":603000000000,"state":"active","ping":66},{"user_id":401,"name":"Robomandude","steam_id":76561198043909566,"connected_time":1342000000000,"state":"active","ping":57},{"user_id":411,"name":"Eeshton","steam_id":76561198018309077,"connected_time":91000000000,"state":"active","ping":59},{"user_id":391,"name":"TheRiGuy21","steam_id":76561199466243640,"connected_time":1761000000000,"state":"active","ping":73},{"user_id":408,"name":"Funtimeshadow","steam_id":76561199254055123,"connected_time":645000000000,"state":"active","ping":61},{"user_id":394,"name":"Hsepirn","steam_id":76561198152395431,"connected_time":1602000000000,"state":"active","ping":84},{"user_id":328,"name":"Justis","steam_id":76561197963835016,"connected_time":5791000000000,"state":"active","ping":100},{"user_id":400,"name":"Lightfeather57","steam_id":76561198353851502,"connected_time":1472000000000,"state":"active","ping":72},{"user_id":388,"name":"pathways","steam_id":76561198054832333,"connected_time":2269000000000,"state":"active","ping":92},{"user_id":393,"name":"Iroquois Pliskin","steam_id":76561198056704533,"connected_time":1701000000000,"state":"active","ping":77},{"user_id":396,"name":"lettucelover2014","steam_id":76561198041017977,"connected_time":1579000000000,"state":"active","ping":97},{"user_id":384,"name":"bottom pride burger","steam_id":76561198322247602,"connected_time":2536000000000,"state":"active","ping":87},{"user_id":370,"name":"Gyr0sphere","steam_id":76561198183900735,"connected_time":3576000000000,"state":"active","ping":95},{"user_id":371,"name":"Spectre","steam_id":76561198810506409,"connected_time":3546000000000,"state":"active","ping":65},{"user_id":354,"name":"i eat sawdust","steam_id":76561199153238395,"connected_time":4626000000000,"state":"active","ping":101},{"user_id":356,"name":"Rin \"Hindwing\" Redtail","steam_id":76561199074865638,"connected_time":4499000000000,"state":"active","ping":46},{"user_id":402,"name":"SGT Disoriented","steam_id":76561198058177958,"connected_time":1291000000000,"state":"active","ping":59},{"user_id":385,"name":"rumes","steam_id":76561198349219467,"connected_time":2530000000000,"state":"active","ping":70},{"user_id":357,"name":"Socialism Enjoyer","steam_id":76561197991817974,"connected_time":4498000000000,"state":"active","ping":91},{"user_id":386,"name":"ItsDonut","steam_id":76561198862163064,"connected_time":2492000000000,"state":"active","ping":76},{"user_id":397,"name":"e","steam_id":76561198131245396,"connected_time":1571000000000,"state":"active","ping":69},{"user_id":399,"name":"BluyBubble","steam_id":76561199071705710,"connected_time":1557000000000,"state":"active","ping":100},{"user_id":405,"name":"FunGi","steam_id":76561198881418662,"connected_time":787000000000,"state":"active","ping":82}]},{"server_id":5,"name":"Uncletopia | Frankfurt | 1 | All Maps","name_short":"frk-1","host":"frk-1.de.uncletopia.com","port":27015,"enabled":true,"region":"eu","cc":"de","latitude":50.110924,"longitude":8.682127,"reserved":0,"last_update":"0001-01-01T00:00:00Z","name_a2s":"Uncletopia | Frankfurt | 1 | All Maps","protocol":17,"map":"pl_pier","folder":"tf","game":"Team Fortress","app_id":440,"player_count":24,"max_players":24,"Bots":0,"server_type":"Dedicated","server_os":"Linux","password":true,"vac":true,"version":"7757534","steam_id":85568392924469989,"keywords":["nocrits","nodmgspread","payload","uncletopia"],"game_id":440,"stv_port":27016,"stv_name":"Uncletopia | Frankfurt | 1 | All Maps | STV","players":[{"user_id":420,"name":"restloud","steam_id":76561198265722644,"connected_time":2862000000000,"state":"active","ping":88},{"user_id":364,"name":"LarsInABox","steam_id":76561198028329262,"connected_time":5445000000000,"state":"active","ping":72},{"user_id":365,"name":"Mach |=|20BB|)","steam_id":76561198952487564,"connected_time":5379000000000,"state":"active","ping":83},{"user_id":442,"name":"Ocelot9610","steam_id":76561199227216384,"connected_time":1421000000000,"state":"active","ping":64},{"user_id":408,"name":"Serton♝","steam_id":76561198011061126,"connected_time":3645000000000,"state":"active","ping":87},{"user_id":436,"name":"jovi_","steam_id":76561198449280552,"connected_time":1799000000000,"state":"active","ping":59},{"user_id":441,"name":"Videogamer","steam_id":76561198106012909,"connected_time":1513000000000,"state":"active","ping":64},{"user_id":447,"name":"xristosblin","steam_id":76561199043074852,"connected_time":724000000000,"state":"active","ping":86},{"user_id":444,"name":"Carl","steam_id":76561198045638738,"connected_time":1152000000000,"state":"active","ping":76},{"user_id":417,"name":"Cosmetic brain","steam_id":76561198055936410,"connected_time":3201000000000,"state":"active","ping":84},{"user_id":453,"name":"Koleisus","steam_id":76561198045374646,"connected_time":563000000000,"state":"active","ping":64},{"user_id":454,"name":"julie (girlboss)","steam_id":76561198105576123,"connected_time":534000000000,"state":"active","ping":78},{"user_id":421,"name":"Professor_Why_","steam_id":76561198184054187,"connected_time":2821000000000,"state":"active","ping":77},{"user_id":449,"name":"Hyperek","steam_id":76561198130797464,"connected_time":713000000000,"state":"active","ping":67},{"user_id":398,"name":"minn","steam_id":76561198099101232,"connected_time":4259000000000,"state":"active","ping":77},{"user_id":424,"name":"Xx_えななんxX69","steam_id":76561199427679148,"connected_time":2714000000000,"state":"active","ping":60},{"user_id":411,"name":"theo von","steam_id":76561198125381319,"connected_time":3363000000000,"state":"active","ping":82},{"user_id":437,"name":"DrRavioli","steam_id":76561198170822595,"connected_time":1790000000000,"state":"active","ping":77},{"user_id":433,"name":"I jazzed myself","steam_id":76561198203016603,"connected_time":1910000000000,"state":"active","ping":69},{"user_id":439,"name":"Fatty_McFatFat [NL]","steam_id":76561198073362707,"connected_time":1786000000000,"state":"active","ping":48},{"user_id":425,"name":"Dr. Le Quack","steam_id":76561197995711176,"connected_time":2382000000000,"state":"active","ping":88},{"user_id":445,"name":"shall we?","steam_id":76561198110706893,"connected_time":817000000000,"state":"active","ping":59},{"user_id":452,"name":"Záporák","steam_id":76561198207175503,"connected_time":620000000000,"state":"active","ping":55},{"user_id":406,"name":"Bruschetta","steam_id":76561198251927162,"connected_time":4035000000000,"state":"active","ping":54}]},{"server_id":110,"name":"Uncletopia | Frankfurt | 2 | All Maps","name_short":"frk-2","host":"frk-1.de.uncletopia.com","port":27025,"enabled":true,"region":"eu","cc":"de","latitude":50.110924,"longitude":8.682127,"reserved":0,"last_update":"0001-01-01T00:00:00Z","name_a2s":"Uncletopia | Frankfurt | 2 | All Maps","protocol":17,"map":"cp_steel","folder":"tf","game":"Team Fortress","app_id":440,"player_count":21,"max_players":24,"Bots":0,"server_type":"Dedicated","server_os":"Linux","password":true,"vac":true,"version":"7757534","steam_id":85568392924469990,"keywords":["cp","nocrits","nodmgspread","uncletopia"],"game_id":440,"stv_port":27026,"stv_name":"Uncletopia | Frankfurt | 2 | All Maps | STV","players":[{"user_id":569,"name":"man door hand hook car door","steam_id":76561198334042273,"connected_time":1779000000000,"state":"active","ping":101},{"user_id":591,"name":"Edla","steam_id":76561198062815315,"connected_time":1095000000000,"state":"active","ping":104},{"user_id":607,"name":"yurkur","steam_id":76561198407108497,"connected_time":502000000000,"state":"active","ping":50},{"user_id":564,"name":"Garden Freeman","steam_id":76561199073314677,"connected_time":2425000000000,"state":"active","ping":66},{"user_id":588,"name":"Professional PP Rater","steam_id":76561198393134915,"connected_time":1271000000000,"state":"active","ping":122},{"user_id":605,"name":"jones","steam_id":76561198044434971,"connected_time":627000000000,"state":"active","ping":55},{"user_id":610,"name":"Zenos","steam_id":76561198058829310,"connected_time":436000000000,"state":"active","ping":47},{"user_id":612,"name":"Juiceydough","steam_id":76561197997323419,"connected_time":290000000000,"state":"active","ping":90},{"user_id":617,"name":"❥Shinru","steam_id":76561198285951918,"connected_time":69000000000,"state":"active","ping":75},{"user_id":572,"name":"John Fortress","steam_id":76561198043743881,"connected_time":1749000000000,"state":"active","ping":45},{"user_id":611,"name":"cockwater","steam_id":76561198209101861,"connected_time":317000000000,"state":"active","ping":73},{"user_id":614,"name":"Chargles","steam_id":76561198205386247,"connected_time":222000000000,"state":"active","ping":79},{"user_id":615,"name":"Emails","steam_id":76561198836919458,"connected_time":155000000000,"state":"active","ping":186},{"user_id":616,"name":"The Power","steam_id":76561198060566884,"connected_time":101000000000,"state":"active","ping":54},{"user_id":578,"name":"sesw","steam_id":76561198057332404,"connected_time":1615000000000,"state":"active","ping":44},{"user_id":618,"name":"No, Why?","steam_id":76561198888755969,"connected_time":53000000000,"state":"active","ping":83},{"user_id":619,"name":"63756d","steam_id":76561198808699024,"connected_time":31000000000,"state":"active","ping":67},{"user_id":597,"name":"brique","steam_id":76561199103944229,"connected_time":923000000000,"state":"active","ping":65},{"user_id":604,"name":"shugo","steam_id":76561198153031262,"connected_time":647000000000,"state":"active","ping":75},{"user_id":606,"name":"yyny","steam_id":76561198066287297,"connected_time":623000000000,"state":"active","ping":45},{"user_id":609,"name":"fogings","steam_id":76561198044165284,"connected_time":469000000000,"state":"active","ping":47}]},{"server_id":308,"name":"Uncletopia | Frankfurt | 3 | All Maps","name_short":"frk-3","host":"frk-1.de.uncletopia.com","port":27035,"enabled":true,"region":"eu","cc":"de","latitude":50.110924,"longitude":8.682127,"reserved":0,"last_update":"0001-01-01T00:00:00Z","name_a2s":"Uncletopia | Frankfurt | 3 | All Maps","protocol":17,"map":"cp_sunshine","folder":"tf","game":"Team Fortress","app_id":440,"player_count":24,"max_players":24,"Bots":0,"server_type":"Dedicated","server_os":"Linux","password":true,"vac":true,"version":"7757534","steam_id":85568392924504274,"keywords":["cp","nocrits","nodmgspread","uncletopia"],"game_id":440,"stv_port":27036,"stv_name":"Uncletopia | Frankfurt | 3 | All Maps | STV","players":[{"user_id":214,"name":"!!!!!!!!!!!!!!!!!!!!!!!!!!!!!!!","steam_id":76561198069649097,"connected_time":8499000000000,"state":"active","ping":61},{"user_id":301,"name":"Yangus","steam_id":76561198147796010,"connected_time":3194000000000,"state":"active","ping":68},{"user_id":257,"name":"Bajas","steam_id":76561198179339326,"connected_time":5856000000000,"state":"active","ping":75},{"user_id":321,"name":"gpupdate","steam_id":76561198154677956,"connected_time":1052000000000,"state":"active","ping":73},{"user_id":287,"name":"akakez","steam_id":76561198095432821,"connected_time":4370000000000,"state":"active","ping":117},{"user_id":258,"name":"Mi Manchi","steam_id":76561198171573129,"connected_time":5830000000000,"state":"active","ping":60},{"user_id":295,"name":"Pilaarius","steam_id":76561198120273212,"connected_time":4114000000000,"state":"active","ping":107},{"user_id":284,"name":"Vershal Smershal","steam_id":76561198116223995,"connected_time":4405000000000,"state":"active","ping":57},{"user_id":277,"name":"Jonathan","steam_id":76561198087988880,"connected_time":5344000000000,"state":"active","ping":57},{"user_id":324,"name":"Ffamran","steam_id":76561198143529110,"connected_time":436000000000,"state":"active","ping":90},{"user_id":314,"name":"blizz gamming","steam_id":76561198253692868,"connected_time":1580000000000,"state":"active","ping":69},{"user_id":302,"name":"player","steam_id":76561198054474684,"connected_time":3133000000000,"state":"active","ping":76},{"user_id":317,"name":"Arthur","steam_id":76561198114107421,"connected_time":1297000000000,"state":"active","ping":82},{"user_id":308,"name":"Sixten the Pale","steam_id":76561197981806008,"connected_time":2894000000000,"state":"active","ping":79},{"user_id":316,"name":"bing bar","steam_id":76561198040950083,"connected_time":1307000000000,"state":"active","ping":62},{"user_id":309,"name":"Fat Pigeon","steam_id":76561198817940142,"connected_time":2885000000000,"state":"active","ping":51},{"user_id":300,"name":"PizzaPete123","steam_id":76561198089478290,"connected_time":3467000000000,"state":"active","ping":56},{"user_id":296,"name":"@_@","steam_id":76561198076494034,"connected_time":3905000000000,"state":"active","ping":57},{"user_id":290,"name":"rabbitface26","steam_id":76561198327540113,"connected_time":4247000000000,"state":"active","ping":55},{"user_id":319,"name":"mcdonaldburger54@yahoo.com","steam_id":76561198846982793,"connected_time":1268000000000,"state":"active","ping":60},{"user_id":320,"name":"Merca #savetf2","steam_id":76561198088782472,"connected_time":1253000000000,"state":"active","ping":57},{"user_id":271,"name":"Udinese Dion","steam_id":76561198067931573,"connected_time":5659000000000,"state":"active","ping":43},{"user_id":322,"name":"dochris.2","steam_id":76561198026478625,"connected_time":964000000000,"state":"active","ping":47},{"user_id":323,"name":"sareena","steam_id":76561198810194062,"connected_time":944000000000,"state":"active","ping":75}]},{"server_id":309,"name":"Uncletopia | Frankfurt | 4 | All Maps","name_short":"frk-4","host":"frk-1.de.uncletopia.com","port":27045,"enabled":true,"region":"eu","cc":"de","latitude":50.110924,"longitude":8.682127,"reserved":0,"last_update":"0001-01-01T00:00:00Z","name_a2s":"Uncletopia | Frankfurt | 4 | All Maps","protocol":17,"map":"pl_upward","folder":"tf","game":"Team Fortress","app_id":440,"player_count":24,"max_players":24,"Bots":0,"server_type":"Dedicated","server_os":"Linux","password":true,"vac":true,"version":"7757534","steam_id":85568392924504275,"keywords":["nocrits","nodmgspread","payload","uncletopia"],"game_id":440,"stv_port":27046,"stv_name":"Uncletopia | Frankfurt | 4 | All Maps | STV","players":[{"user_id":219,"name":"XXDANTEFANXX","steam_id":76561198197910725,"connected_time":2772000000000,"state":"active","ping":75},{"user_id":247,"name":"Room","steam_id":76561199174579733,"connected_time":800000000000,"state":"active","ping":143},{"user_id":239,"name":"FunynMan","steam_id":76561198070387328,"connected_time":1441000000000,"state":"active","ping":56},{"user_id":128,"name":"tm","steam_id":76561198256619964,"connected_time":9153000000000,"state":"active","ping":75},{"user_id":229,"name":"KingTeddy","steam_id":76561198131757499,"connected_time":2038000000000,"state":"active","ping":69},{"user_id":251,"name":"marlbruh","steam_id":76561198023211417,"connected_time":502000000000,"state":"active","ping":61},{"user_id":186,"name":"Sylbar","steam_id":76561198065379590,"connected_time":5629000000000,"state":"active","ping":72},{"user_id":248,"name":"yush","steam_id":76561198121688934,"connected_time":752000000000,"state":"active","ping":83},{"user_id":249,"name":"Lama Del Rey","steam_id":76561198098862242,"connected_time":689000000000,"state":"active","ping":63},{"user_id":257,"name":"Elon Ma","steam_id":76561199018053264,"connected_time":192000000000,"state":"active","ping":68},{"user_id":227,"name":"Baspla","steam_id":76561198066260876,"connected_time":2196000000000,"state":"active","ping":53},{"user_id":215,"name":"Spoody #JustPassing","steam_id":76561198031523769,"connected_time":3041000000000,"state":"active","ping":88},{"user_id":238,"name":"Savlon","steam_id":76561198011597274,"connected_time":1629000000000,"state":"active","ping":45},{"user_id":253,"name":"Skooks","steam_id":76561198125022077,"connected_time":392000000000,"state":"active","ping":75},{"user_id":216,"name":"Volterion #SaveTf2","steam_id":76561198293088484,"connected_time":2965000000000,"state":"active","ping":55},{"user_id":250,"name":"Shovelhalfrusty","steam_id":76561198346447513,"connected_time":578000000000,"state":"active","ping":77},{"user_id":226,"name":"Ged","steam_id":76561198079288943,"connected_time":2371000000000,"state":"active","ping":120},{"user_id":254,"name":"cloud","steam_id":76561198179768931,"connected_time":391000000000,"state":"active","ping":61},{"user_id":210,"name":"Der_Milchmann","steam_id":76561198001417748,"connected_time":3556000000000,"state":"active","ping":57},{"user_id":232,"name":"SuntanPikachu","steam_id":76561198121242476,"connected_time":1792000000000,"state":"active","ping":69},{"user_id":221,"name":"E","steam_id":76561198166340115,"connected_time":2737000000000,"state":"active","ping":75},{"user_id":255,"name":"[BROBOT] Nergal","steam_id":76561198098172161,"connected_time":209000000000,"state":"active","ping":72},{"user_id":256,"name":"slnc","steam_id":76561198041151496,"connected_time":202000000000,"state":"active","ping":60},{"user_id":241,"name":"blue","steam_id":76561198216200092,"connected_time":1386000000000,"state":"active","ping":63}]},{"server_id":310,"name":"Uncletopia | Frankfurt | 5 | All Maps","name_short":"frk-5","host":"frk-1.de.uncletopia.com","port":27055,"enabled":true,"region":"eu","cc":"de","latitude":50.110924,"longitude":8.682127,"reserved":0,"last_update":"0001-01-01T00:00:00Z","name_a2s":"Uncletopia | Frankfurt | 5 | All Maps","protocol":17,"map":"pl_pier","folder":"tf","game":"Team Fortress","app_id":440,"player_count":0,"max_players":24,"Bots":0,"server_type":"Dedicated","server_os":"Linux","password":true,"vac":true,"version":"7757534","steam_id":85568392924504277,"keywords":["nocrits","nodmgspread","payload","uncletopia"],"game_id":440,"stv_port":27056,"stv_name":"Uncletopia | Frankfurt | 5 | All Maps | STV","players":null},{"server_id":311,"name":"Uncletopia | Frankfurt | 6 | All Maps","name_short":"frk-6","host":"frk-1.de.uncletopia.com","port":27065,"enabled":true,"region":"eu","cc":"de","latitude":50.110924,"longitude":8.682127,"reserved":0,"last_update":"0001-01-01T00:00:00Z","name_a2s":"Uncletopia | Frankfurt | 6 | All Maps","protocol":17,"map":"cp_dustbowl","folder":"tf","game":"Team Fortress","app_id":440,"player_count":0,"max_players":24,"Bots":0,"server_type":"Dedicated","server_os":"Linux","password":true,"vac":true,"version":"7757534","steam_id":85568392924504278,"keywords":["cp","nocrits","nodmgspread","uncletopia"],"game_id":440,"stv_port":27066,"stv_name":"Uncletopia | Frankfurt | 6 | All Maps | STV","players":null},{"server_id":23,"name":"Uncletopia | Frankfurt | 7 | Stopwatch Beta","name_short":"frk-7","host":"frk-1.de.uncletopia.com","port":27075,"enabled":true,"region":"eu","cc":"de","latitude":50.110924,"longitude":8.682127,"reserved":0,"last_update":"0001-01-01T00:00:00Z","name_a2s":"Uncletopia | Frankfurt | 7 | Stopwatch Beta","protocol":17,"map":"pl_frontier_final","folder":"tf","game":"Team Fortress","app_id":440,"player_count":0,"max_players":24,"Bots":0,"server_type":"Dedicated","server_os":"Linux","password":true,"vac":true,"version":"7757534","steam_id":85568392924742827,"keywords":["nocrits","nodmgspread","payload","uncletopia"],"game_id":440,"stv_port":27076,"stv_name":"Uncletopia | Frankfurt | 7 | Stopwatch Beta | STV","players":null},{"server_id":24,"name":"Uncletopia | Frankfurt | 8 | Community","name_short":"frk-8","host":"frk-1.de.uncletopia.com","port":27085,"enabled":true,"region":"eu","cc":"de","latitude":50.110924,"longitude":8.682127,"reserved":0,"last_update":"0001-01-01T00:00:00Z","name_a2s":"Uncletopia | Frankfurt | 8 | Community","protocol":17,"map":"workshop/koth_product_final.ugc454272353","folder":"tf","game":"Team Fortress","app_id":440,"player_count":0,"max_players":24,"Bots":0,"server_type":"Dedicated","server_os":"Linux","password":true,"vac":true,"version":"7757534","steam_id":85568392924742828,"keywords":["cp","nocrits","nodmgspread","uncletopia"],"game_id":440,"stv_port":27086,"stv_name":"Uncletopia | Frankfurt | 8 | Community | STV","players":null},{"server_id":202,"name":"Uncletopia | Hong Kong | 1 | All Maps","name_short":"hgk-1","host":"hgk-1.hk.uncletopia.com","port":27015,"enabled":true,"region":"asia","cc":"hk","latitude":22.302711,"longitude":114.177216,"reserved":0,"last_update":"0001-01-01T00:00:00Z","name_a2s":"Uncletopia | Hong Kong | 1 | All Maps","protocol":17,"map":"cp_dustbowl","folder":"tf","game":"Team Fortress","app_id":440,"player_count":0,"max_players":24,"Bots":0,"server_type":"Dedicated","server_os":"Linux","password":true,"vac":true,"version":"7757534","steam_id":85568392924494504,"keywords":["cp","nocrits","nodmgspread","uncletopia"],"game_id":440,"stv_port":27016,"stv_name":"Uncletopia | Hong Kong | 1 | All Maps | STV","players":null},{"server_id":1,"name":"Uncletopia | Los Angeles | 1 | All Maps","name_short":"lax-1","host":"lax-1.us.uncletopia.com","port":27015,"enabled":true,"region":"us-west","cc":"us","latitude":33.94279,"longitude":-118.41004,"reserved":0,"last_update":"0001-01-01T00:00:00Z","name_a2s":"Uncletopia | Los Angeles | 1 | All Maps","protocol":17,"map":"koth_cascade","folder":"tf","game":"Team Fortress","app_id":440,"player_count":0,"max_players":24,"Bots":0,"server_type":"Dedicated","server_os":"Linux","password":true,"vac":true,"version":"7757534","steam_id":85568392924469991,"keywords":["cp","nocrits","nodmgspread","uncletopia"],"game_id":440,"stv_port":27016,"stv_name":"Uncletopia | Los Angeles | 1 | All Maps | STV","players":null},{"server_id":112,"name":"Uncletopia | Los Angeles | 2 | All Maps","name_short":"lax-2","host":"lax-1.us.uncletopia.com","port":27025,"enabled":true,"region":"us-west","cc":"us","latitude":33.94279,"longitude":-118.41004,"reserved":0,"last_update":"0001-01-01T00:00:00Z","name_a2s":"Uncletopia | Los Angeles | 2 | All Maps","protocol":17,"map":"koth_cascade","folder":"tf","game":"Team Fortress","app_id":440,"player_count":0,"max_players":24,"Bots":0,"server_type":"Dedicated","server_os":"Linux","password":true,"vac":true,"version":"7757534","steam_id":85568392924469992,"keywords":["cp","nocrits","nodmgspread","uncletopia"],"game_id":440,"stv_port":27026,"stv_name":"Uncletopia | Los Angeles | 2 | All Maps | STV","players":null},{"server_id":324,"name":"Uncletopia | Los Angeles | 3 | All Maps","name_short":"lax-3","host":"lax-1.us.uncletopia.com","port":27035,"enabled":true,"region":"us-west","cc":"us","latitude":33.94279,"longitude":-118.41004,"reserved":0,"last_update":"0001-01-01T00:00:00Z","name_a2s":"Uncletopia | Los Angeles | 3 | All Maps","protocol":17,"map":"pl_swiftwater_final1","folder":"tf","game":"Team Fortress","app_id":440,"player_count":24,"max_players":24,"Bots":0,"server_type":"Dedicated","server_os":"Linux","password":true,"vac":true,"version":"7757534","steam_id":85568392924510198,"keywords":["nocrits","nodmgspread","payload","uncletopia"],"game_id":440,"stv_port":27036,"stv_name":"Uncletopia | Los Angeles | 3 | All Maps | STV","players":[{"user_id":120,"name":"yeyoi","steam_id":76561198069821885,"connected_time":1943000000000,"state":"active","ping":71},{"user_id":136,"name":"hakken","steam_id":76561199102391736,"connected_time":942000000000,"state":"active","ping":48},{"user_id":142,"name":"Coffee","steam_id":76561198154646418,"connected_time":267000000000,"state":"active","ping":76},{"user_id":146,"name":"Xylemon","steam_id":76561197965297420,"connected_time":14000000000,"state":"spawning","ping":82},{"user_id":137,"name":"Thaberii","steam_id":76561198275818707,"connected_time":897000000000,"state":"active","ping":64},{"user_id":117,"name":"hoOmIN","steam_id":76561198334947079,"connected_time":2024000000000,"state":"active","ping":45},{"user_id":131,"name":"TeCon","steam_id":76561198049127236,"connected_time":1265000000000,"state":"active","ping":40},{"user_id":121,"name":"Bigfootjinx","steam_id":76561199128050459,"connected_time":1925000000000,"state":"active","ping":117},{"user_id":64,"name":"Superman123389","steam_id":76561198267472539,"connected_time":4650000000000,"state":"active","ping":104},{"user_id":143,"name":"HRT","steam_id":76561198013781132,"connected_time":237000000000,"state":"active","ping":118},{"user_id":84,"name":"potty trained","steam_id":76561198141557766,"connected_time":3942000000000,"state":"active","ping":118},{"user_id":144,"name":"Lord_Durango","steam_id":76561199097564514,"connected_time":204000000000,"state":"active","ping":71},{"user_id":145,"name":"Tomplaysgames","steam_id":76561198936527316,"connected_time":25000000000,"state":"active","ping":58},{"user_id":94,"name":"WaterWorks","steam_id":76561198801899310,"connected_time":3397000000000,"state":"active","ping":40},{"user_id":115,"name":"Cute Gatito","steam_id":76561198351147780,"connected_time":2331000000000,"state":"active","ping":55},{"user_id":132,"name":"shadow wizard money gang","steam_id":76561198150406851,"connected_time":1254000000000,"state":"active","ping":58},{"user_id":107,"name":"icarly enjoyer","steam_id":76561198161199653,"connected_time":2723000000000,"state":"active","ping":109},{"user_id":112,"name":"❄ Alice ♥","steam_id":76561198869945051,"connected_time":2621000000000,"state":"active","ping":122},{"user_id":101,"name":"probably","steam_id":76561197975080641,"connected_time":3057000000000,"state":"active","ping":52},{"user_id":141,"name":"Watt Dafuq","steam_id":76561198194402925,"connected_time":327000000000,"state":"active","ping":109},{"user_id":113,"name":"🌹Vince🐝","steam_id":76561198983122997,"connected_time":2614000000000,"state":"active","ping":105},{"user_id":116,"name":"jean","steam_id":76561198986534519,"connected_time":2312000000000,"state":"active","ping":60},{"user_id":138,"name":"Zetaleu","steam_id":76561198149673080,"connected_time":722000000000,"state":"active","ping":54},{"user_id":133,"name":"superx","steam_id":76561198044976613,"connected_time":1245000000000,"state":"active","ping":116}]},{"server_id":25,"name":"Uncletopia | Los Angeles | 4 | Stopwatch Beta","name_short":"lax-4","host":"lax-1.us.uncletopia.com","port":27045,"enabled":true,"region":"us-west","cc":"us","latitude":33.94279,"longitude":-118.41004,"reserved":0,"last_update":"0001-01-01T00:00:00Z","name_a2s":"Uncletopia | Los Angeles | 4 | Stopwatch Beta","protocol":17,"map":"pl_frontier_final","folder":"tf","game":"Team Fortress","app_id":440,"player_count":0,"max_players":24,"Bots":0,"server_type":"Dedicated","server_os":"Linux","password":true,"vac":true,"version":"7757534","steam_id":85568392924510199,"keywords":["nocrits","nodmgspread","payload","uncletopia"],"game_id":440,"stv_port":27046,"stv_name":"Uncletopia | Los Angeles | 4 | Stopwatch Beta | STV","players":null},{"server_id":11,"name":"Uncletopia | London | 1 | All Maps","name_short":"lon-1","host":"lon-1.uk.uncletopia.com","port":27015,"enabled":true,"region":"eu","cc":"gb","latitude":51.509865,"longitude":-0.118092,"reserved":0,"last_update":"0001-01-01T00:00:00Z","name_a2s":"Uncletopia | London | 1 | All Maps","protocol":17,"map":"pl_swiftwater_final1","folder":"tf","game":"Team Fortress","app_id":440,"player_count":24,"max_players":24,"Bots":0,"server_type":"Dedicated","server_os":"Linux","password":true,"vac":true,"version":"7757534","steam_id":85568392924367362,"keywords":["nocrits","nodmgspread","payload","uncletopia"],"game_id":440,"stv_port":27016,"stv_name":"Uncletopia | London | 1 | All Maps | STV","players":[{"user_id":727,"name":"Pintarolas","steam_id":76561198124839451,"connected_time":2236000000000,"state":"active","ping":110},{"user_id":731,"name":"His Spy","steam_id":76561198071224721,"connected_time":1660000000000,"state":"active","ping":59},{"user_id":739,"name":"Kolar","steam_id":76561198108583895,"connected_time":607000000000,"state":"active","ping":62},{"user_id":726,"name":"tiktok vasectomy","steam_id":76561198260363522,"connected_time":2365000000000,"state":"active","ping":89},{"user_id":711,"name":"Posho","steam_id":76561198062396436,"connected_time":3079000000000,"state":"active","ping":38},{"user_id":737,"name":"Wedgeridoo","steam_id":76561198082813907,"connected_time":623000000000,"state":"active","ping":142},{"user_id":741,"name":"hud_saytext_time 0","steam_id":76561198010327228,"connected_time":592000000000,"state":"active","ping":66},{"user_id":733,"name":"teddy_!","steam_id":76561198396274438,"connected_time":1415000000000,"state":"active","ping":45},{"user_id":732,"name":"Åberg","steam_id":76561198160537076,"connected_time":1651000000000,"state":"active","ping":83},{"user_id":734,"name":"Silent Person","steam_id":76561198107763537,"connected_time":1405000000000,"state":"active","ping":74},{"user_id":718,"name":"Founder","steam_id":76561198193763778,"connected_time":2806000000000,"state":"active","ping":66},{"user_id":634,"name":"ciliorkun18","steam_id":76561198228942500,"connected_time":7807000000000,"state":"active","ping":90},{"user_id":719,"name":"schizophrenia","steam_id":76561198308439257,"connected_time":2453000000000,"state":"active","ping":45},{"user_id":740,"name":"Aaron","steam_id":76561197990046953,"connected_time":606000000000,"state":"active","ping":68},{"user_id":742,"name":"aspect","steam_id":76561198315032412,"connected_time":592000000000,"state":"active","ping":69},{"user_id":717,"name":"Raulca25","steam_id":76561199068256964,"connected_time":2825000000000,"state":"active","ping":81},{"user_id":713,"name":"Frazzle","steam_id":76561198262577951,"connected_time":3047000000000,"state":"active","ping":68},{"user_id":672,"name":"Farao Ramses II","steam_id":76561198078722712,"connected_time":5489000000000,"state":"active","ping":45},{"user_id":715,"name":"vi","steam_id":76561198303147966,"connected_time":2921000000000,"state":"active","ping":44},{"user_id":743,"name":"Koi-Koi","steam_id":76561198045527771,"connected_time":589000000000,"state":"active","ping":56},{"user_id":683,"name":"Katie","steam_id":76561198056193753,"connected_time":5032000000000,"state":"active","ping":52},{"user_id":744,"name":"Miss Bari","steam_id":76561198365286092,"connected_time":574000000000,"state":"active","ping":38},{"user_id":725,"name":"Indigolake","steam_id":76561198202215807,"connected_time":2377000000000,"state":"active","ping":129},{"user_id":736,"name":"gerg","steam_id":76561198041663219,"connected_time":1139000000000,"state":"active","ping":53}]},{"server_id":114,"name":"Uncletopia | London | 2 | All Maps","name_short":"lon-2","host":"lon-1.uk.uncletopia.com","port":27025,"enabled":true,"region":"eu","cc":"gb","latitude":51.509865,"longitude":-0.118092,"reserved":0,"last_update":"0001-01-01T00:00:00Z","name_a2s":"Uncletopia | London | 2 | All Maps","protocol":17,"map":"pl_upward","folder":"tf","game":"Team Fortress","app_id":440,"player_count":24,"max_players":24,"Bots":0,"server_type":"Dedicated","server_os":"Linux","password":true,"vac":true,"version":"7757534","steam_id":85568392924470941,"keywords":["nocrits","nodmgspread","payload","uncletopia"],"game_id":440,"stv_port":27026,"stv_name":"Uncletopia | London | 2 | All Maps | STV","players":[{"user_id":562,"name":"Joy","steam_id":76561198155314925,"connected_time":263000000000,"state":"active","ping":55},{"user_id":524,"name":"Thalgorock","steam_id":76561198195315022,"connected_time":5001000000000,"state":"active","ping":66},{"user_id":563,"name":"Mankor","steam_id":76561198020439322,"connected_time":257000000000,"state":"active","ping":60},{"user_id":483,"name":"KittyKate ❤","steam_id":76561198116340817,"connected_time":7545000000000,"state":"active","ping":68},{"user_id":542,"name":"Rezkey","steam_id":76561198206079048,"connected_time":3843000000000,"state":"active","ping":59},{"user_id":536,"name":"Daud","steam_id":76561199177668753,"connected_time":4305000000000,"state":"active","ping":35},{"user_id":555,"name":"Cheshie cdna","steam_id":76561198067204908,"connected_time":2803000000000,"state":"active","ping":60},{"user_id":499,"name":"ellie","steam_id":76561198134650962,"connected_time":6519000000000,"state":"active","ping":45},{"user_id":474,"name":"BuzzBees ❤","steam_id":76561198101502273,"connected_time":7813000000000,"state":"active","ping":47},{"user_id":564,"name":"raf  jacket","steam_id":76561198325405090,"connected_time":237000000000,"state":"active","ping":52},{"user_id":565,"name":"Sonder","steam_id":76561198115893794,"connected_time":156000000000,"state":"active","ping":78},{"user_id":566,"name":"\u003c3\u003c3\u003c3","steam_id":76561198854358215,"connected_time":130000000000,"state":"active","ping":51},{"user_id":546,"name":"pizza time","steam_id":76561199015899793,"connected_time":3826000000000,"state":"active","ping":54},{"user_id":553,"name":"DeadpoolDealsDamage","steam_id":76561198399472908,"connected_time":3066000000000,"state":"active","ping":57},{"user_id":567,"name":"macironi and chesse","steam_id":76561199098060805,"connected_time":61000000000,"state":"active","ping":148},{"user_id":568,"name":"MrrPickle","steam_id":76561198122046514,"connected_time":14000000000,"state":"active","ping":127},{"user_id":501,"name":"gwen","steam_id":76561198006680814,"connected_time":6499000000000,"state":"active","ping":43},{"user_id":558,"name":"Caro-Kann","steam_id":76561198065506317,"connected_time":2311000000000,"state":"active","ping":73},{"user_id":510,"name":"MAKENTAKEN","steam_id":76561199127359587,"connected_time":5849000000000,"state":"active","ping":103},{"user_id":532,"name":"Laurie","steam_id":76561198082951750,"connected_time":4542000000000,"state":"active","ping":49},{"user_id":526,"name":"rez777ka","steam_id":76561198107605938,"connected_time":4990000000000,"state":"active","ping":98},{"user_id":559,"name":"Rabbit","steam_id":76561198254566214,"connected_time":2182000000000,"state":"active","ping":127},{"user_id":561,"name":"eddiehobbs","steam_id":76561198384635410,"connected_time":1146000000000,"state":"active","ping":83},{"user_id":541,"name":"Xie Xil Ling","steam_id":76561198053394831,"connected_time":3985000000000,"state":"active","ping":62}]},{"server_id":320,"name":"Uncletopia | London | 3 | All Maps","name_short":"lon-3","host":"lon-1.uk.uncletopia.com","port":27035,"enabled":true,"region":"eu","cc":"gb","latitude":51.509865,"longitude":-0.118092,"reserved":0,"last_update":"0001-01-01T00:00:00Z","name_a2s":"Uncletopia | London | 3 | All Maps","protocol":17,"map":"pl_borneo","folder":"tf","game":"Team Fortress","app_id":440,"player_count":24,"max_players":24,"Bots":0,"server_type":"Dedicated","server_os":"Linux","password":true,"vac":true,"version":"7757534","steam_id":85568392924510192,"keywords":["nocrits","nodmgspread","payload","uncletopia"],"game_id":440,"stv_port":27036,"stv_name":"Uncletopia | London | 3 | All Maps | STV","players":[{"user_id":495,"name":"OutOfDucks","steam_id":76561198166376227,"connected_time":3188000000000,"state":"active","ping":69},{"user_id":546,"name":"102ping","steam_id":76561199000963772,"connected_time":485000000000,"state":"active","ping":69},{"user_id":547,"name":"facing difficulties","steam_id":76561198037237664,"connected_time":481000000000,"state":"active","ping":70},{"user_id":535,"name":"It's a me Malario","steam_id":76561198176546013,"connected_time":974000000000,"state":"active","ping":46},{"user_id":550,"name":"jo","steam_id":76561198109074418,"connected_time":239000000000,"state":"active","ping":60},{"user_id":537,"name":"Why","steam_id":76561198350857075,"connected_time":872000000000,"state":"active","ping":59},{"user_id":528,"name":"Premysl","steam_id":76561198075584825,"connected_time":1101000000000,"state":"active","ping":61},{"user_id":551,"name":"•stepbro•","steam_id":76561198119607160,"connected_time":229000000000,"state":"active","ping":79},{"user_id":552,"name":"Bl_ue2th","steam_id":76561198804551869,"connected_time":220000000000,"state":"active","ping":108},{"user_id":515,"name":"NeonNewt","steam_id":76561198066699212,"connected_time":2072000000000,"state":"active","ping":56},{"user_id":527,"name":"Kroto","steam_id":76561198056233760,"connected_time":1137000000000,"state":"active","ping":61},{"user_id":529,"name":"boo!","steam_id":76561198444424053,"connected_time":1100000000000,"state":"active","ping":79},{"user_id":530,"name":"Mefuu","steam_id":76561198287729818,"connected_time":1084000000000,"state":"active","ping":123},{"user_id":508,"name":"ketoky frychiken","steam_id":76561198190583242,"connected_time":2837000000000,"state":"active","ping":77},{"user_id":538,"name":"Peepster","steam_id":76561198297854733,"connected_time":847000000000,"state":"active","ping":164},{"user_id":532,"name":"not drunk","steam_id":76561199184873889,"connected_time":1071000000000,"state":"active","ping":69},{"user_id":548,"name":"Johnny Cockroach","steam_id":76561198049648277,"connected_time":469000000000,"state":"active","ping":98},{"user_id":549,"name":"X45Y","steam_id":76561198112534025,"connected_time":372000000000,"state":"active","ping":47},{"user_id":545,"name":"snowii","steam_id":76561198836246326,"connected_time":638000000000,"state":"active","ping":46},{"user_id":540,"name":"Demo-Ktosiu","steam_id":76561198890628396,"connected_time":802000000000,"state":"active","ping":94},{"user_id":541,"name":"Volcyy","steam_id":76561198063979124,"connected_time":793000000000,"state":"active","ping":52},{"user_id":542,"name":"Boltingstorm","steam_id":76561199068433052,"connected_time":757000000000,"state":"active","ping":71},{"user_id":543,"name":"Djingis Khan","steam_id":76561197967864460,"connected_time":711000000000,"state":"active","ping":49},{"user_id":481,"name":"Lyra","steam_id":76561198043601838,"connected_time":4555000000000,"state":"active","ping":60}]},{"server_id":321,"name":"Uncletopia | London | 4 | All Maps","name_short":"lon-4","host":"lon-1.uk.uncletopia.com","port":27045,"enabled":true,"region":"eu","cc":"gb","latitude":51.509865,"longitude":-0.118092,"reserved":0,"last_update":"0001-01-01T00:00:00Z","name_a2s":"Uncletopia | London | 4 | All Maps","protocol":17,"map":"pl_pier","folder":"tf","game":"Team Fortress","app_id":440,"player_count":22,"max_players":24,"Bots":0,"server_type":"Dedicated","server_os":"Linux","password":true,"vac":true,"version":"7757534","steam_id":85568392924510193,"keywords":["nocrits","nodmgspread","payload","uncletopia"],"game_id":440,"stv_port":27046,"stv_name":"Uncletopia | London | 4 | All Maps | STV","players":[{"user_id":343,"name":"penis gnome","steam_id":76561198097612561,"connected_time":716000000000,"state":"active","ping":66},{"user_id":294,"name":"Bisago!","steam_id":76561198181794353,"connected_time":3302000000000,"state":"active","ping":32},{"user_id":338,"name":"triangle","steam_id":76561198046838168,"connected_time":831000000000,"state":"active","ping":60},{"user_id":248,"name":"Space Rimmer","steam_id":76561198069243201,"connected_time":4528000000000,"state":"active","ping":55},{"user_id":324,"name":"edgar","steam_id":76561198212862423,"connected_time":2025000000000,"state":"active","ping":35},{"user_id":316,"name":"Dreadnawght","steam_id":76561198000973506,"connected_time":2845000000000,"state":"active","ping":66},{"user_id":323,"name":"Captain HandicappedCock","steam_id":76561198109850402,"connected_time":2042000000000,"state":"active","ping":69},{"user_id":334,"name":"risco1bolota","steam_id":76561198323074603,"connected_time":1136000000000,"state":"active","ping":79},{"user_id":309,"name":"Mark 'The Beast' Labbett","steam_id":76561198118892116,"connected_time":3069000000000,"state":"active","ping":54},{"user_id":344,"name":"RazortMan","steam_id":76561198400125220,"connected_time":698000000000,"state":"active","ping":61},{"user_id":229,"name":"Regan","steam_id":76561198100631086,"connected_time":5780000000000,"state":"active","ping":56},{"user_id":330,"name":"majora's boostio","steam_id":76561198392628642,"connected_time":1333000000000,"state":"active","ping":35},{"user_id":253,"name":"=flashpoint=","steam_id":76561197976774456,"connected_time":4497000000000,"state":"active","ping":45},{"user_id":345,"name":"B4R10N","steam_id":76561198047167954,"connected_time":693000000000,"state":"active","ping":38},{"user_id":332,"name":"buying quickfixes","steam_id":76561198410955546,"connected_time":1322000000000,"state":"active","ping":84},{"user_id":348,"name":"Harrison256","steam_id":76561198078975210,"connected_time":80000000000,"state":"active","ping":54},{"user_id":321,"name":"hut hut","steam_id":76561198088426580,"connected_time":2700000000000,"state":"active","ping":74},{"user_id":318,"name":"the joy of recycling","steam_id":76561198415564349,"connected_time":2835000000000,"state":"active","ping":60},{"user_id":342,"name":"Sweetcheesus","steam_id":76561198022299033,"connected_time":806000000000,"state":"active","ping":55},{"user_id":322,"name":"Orochi","steam_id":76561198265192382,"connected_time":2299000000000,"state":"active","ping":72},{"user_id":319,"name":"stankyleg","steam_id":76561199169616120,"connected_time":2818000000000,"state":"active","ping":52},{"user_id":291,"name":"Daga","steam_id":76561198055450219,"connected_time":3419000000000,"state":"active","ping":44}]},{"server_id":21,"name":"Uncletopia | London | 5 | All Maps","name_short":"lon-5","host":"lon-1.uk.uncletopia.com","port":27055,"enabled":true,"region":"eu","cc":"gb","latitude":51.509865,"longitude":-0.118092,"reserved":0,"last_update":"0001-01-01T00:00:00Z","name_a2s":"Uncletopia | London | 5 | All Maps","protocol":17,"map":"cp_mercenarypark","folder":"tf","game":"Team Fortress","app_id":440,"player_count":24,"max_players":24,"Bots":0,"server_type":"Dedicated","server_os":"Linux","password":true,"vac":true,"version":"7757534","steam_id":85568392924742829,"keywords":["cp","nocrits","nodmgspread","uncletopia"],"game_id":440,"stv_port":27056,"stv_name":"Uncletopia | London | 5 | All Maps | STV","players":[{"user_id":350,"name":"Kenny","steam_id":76561198107911141,"connected_time":2599000000000,"state":"active","ping":62},{"user_id":341,"name":"group chat","steam_id":76561198083615367,"connected_time":2788000000000,"state":"active","ping":35},{"user_id":342,"name":"Atom","steam_id":76561198042963204,"connected_time":2739000000000,"state":"active","ping":51},{"user_id":375,"name":"Eny","steam_id":76561198125030281,"connected_time":1313000000000,"state":"active","ping":67},{"user_id":381,"name":"Zhongding Construction Group Lt","steam_id":76561198065915748,"connected_time":664000000000,"state":"active","ping":48},{"user_id":338,"name":"BreadCrab","steam_id":76561198364062723,"connected_time":3046000000000,"state":"active","ping":53},{"user_id":343,"name":"Tom","steam_id":76561198008519979,"connected_time":2731000000000,"state":"active","ping":67},{"user_id":380,"name":"AsuX","steam_id":76561197990333289,"connected_time":747000000000,"state":"active","ping":60},{"user_id":368,"name":"Citrus","steam_id":76561198090650837,"connected_time":1926000000000,"state":"active","ping":57},{"user_id":230,"name":"Laxslow","steam_id":76561198065361846,"connected_time":10434000000000,"state":"active","ping":57},{"user_id":372,"name":"JujuBalu","steam_id":76561198207253071,"connected_time":1440000000000,"state":"active","ping":32},{"user_id":376,"name":"græy","steam_id":76561198024987293,"connected_time":1306000000000,"state":"active","ping":56},{"user_id":370,"name":"Skyfoogle","steam_id":76561198027177883,"connected_time":1608000000000,"state":"active","ping":60},{"user_id":303,"name":"feed","steam_id":76561198311512285,"connected_time":5628000000000,"state":"active","ping":109},{"user_id":348,"name":"Oak","steam_id":76561198067315672,"connected_time":2671000000000,"state":"active","ping":60},{"user_id":385,"name":"MaypulSoyrup","steam_id":76561199213966821,"connected_time":385000000000,"state":"active","ping":70},{"user_id":365,"name":"p;iss lightskin","steam_id":76561198210907543,"connected_time":2155000000000,"state":"active","ping":144},{"user_id":388,"name":"Sqilluy","steam_id":76561198130993466,"connected_time":269000000000,"state":"active","ping":171},{"user_id":377,"name":"zaleek69","steam_id":76561198058877595,"connected_time":1232000000000,"state":"active","ping":77},{"user_id":339,"name":"Flint","steam_id":76561197995920776,"connected_time":2991000000000,"state":"active","ping":51},{"user_id":387,"name":"Mr.O #deletesniper","steam_id":76561198039567498,"connected_time":317000000000,"state":"active","ping":62},{"user_id":389,"name":"JackDegle","steam_id":76561198427027677,"connected_time":242000000000,"state":"active","ping":82},{"user_id":379,"name":"✹Neverendingnightmares#50✹","steam_id":76561198393844584,"connected_time":995000000000,"state":"active","ping":167},{"user_id":378,"name":"jose maria gonzales","steam_id":76561198054244573,"connected_time":1220000000000,"state":"active","ping":104}]},{"server_id":22,"name":"Uncletopia | London | 6 | All Maps","name_short":"lon-6","host":"lon-1.uk.uncletopia.com","port":27065,"enabled":true,"region":"eu","cc":"gb","latitude":51.509865,"longitude":-0.118092,"reserved":0,"last_update":"0001-01-01T00:00:00Z","name_a2s":"Uncletopia | London | 6 | All Maps","protocol":17,"map":"pl_frontier_final","folder":"tf","game":"Team Fortress","app_id":440,"player_count":14,"max_players":24,"Bots":0,"server_type":"Dedicated","server_os":"Linux","password":true,"vac":true,"version":"7757534","steam_id":85568392924742830,"keywords":["nocrits","nodmgspread","payload","uncletopia"],"game_id":440,"stv_port":27066,"stv_name":"Uncletopia | London | 6 | All Maps | STV","players":[{"user_id":425,"name":"Okonell[HUN]","steam_id":76561198032216617,"connected_time":697000000000,"state":"active","ping":80},{"user_id":396,"name":"S0LDaTo","steam_id":76561198269413360,"connected_time":3481000000000,"state":"active","ping":66},{"user_id":426,"name":"Log","steam_id":76561198439616085,"connected_time":656000000000,"state":"active","ping":74},{"user_id":435,"name":"Greg","steam_id":76561198014131702,"connected_time":18000000000,"state":"spawning","ping":140},{"user_id":428,"name":"tactical783","steam_id":76561199051688560,"connected_time":571000000000,"state":"active","ping":68},{"user_id":410,"name":"All Muted, no hard feelings...","steam_id":76561198094862469,"connected_time":2329000000000,"state":"active","ping":101},{"user_id":431,"name":"toe bias","steam_id":76561199084996146,"connected_time":376000000000,"state":"active","ping":66},{"user_id":432,"name":"rummy","steam_id":76561197997573379,"connected_time":344000000000,"state":"active","ping":37},{"user_id":433,"name":"PilloF","steam_id":76561198088635943,"connected_time":334000000000,"state":"active","ping":77},{"user_id":411,"name":"Pineapple Okanつ ◕_◕ ༽\ufffd\ufffd","steam_id":76561198069199449,"connected_time":2328000000000,"state":"active","ping":112},{"user_id":434,"name":"fayaman","steam_id":76561198111807532,"connected_time":108000000000,"state":"active","ping":54},{"user_id":424,"name":"Mj12","steam_id":76561198044346572,"connected_time":762000000000,"state":"active","ping":103},{"user_id":416,"name":"gRocc0","steam_id":76561198283840637,"connected_time":2240000000000,"state":"active","ping":106},{"user_id":354,"name":"Whoopi Goldberg","steam_id":76561199378865926,"connected_time":7037000000000,"state":"active","ping":79}]},{"server_id":40,"name":"Uncletopia | London | 7 | No Payload","name_short":"lon-7","host":"lon-1.uk.uncletopia.com","port":27075,"enabled":true,"region":"eu","cc":"gb","latitude":51.509865,"longitude":-0.118092,"reserved":0,"last_update":"0001-01-01T00:00:00Z","name_a2s":"Uncletopia | London | 7 | No Payload","protocol":17,"map":"koth_badlands","folder":"tf","game":"Team Fortress","app_id":440,"player_count":3,"max_players":24,"Bots":0,"server_type":"Dedicated","server_os":"Linux","password":true,"vac":true,"version":"7757534","steam_id":85568392924964314,"keywords":["cp","nocrits","nodmgspread","uncletopia"],"game_id":440,"stv_port":27076,"stv_name":"Uncletopia | London | 7 | No Payload | STV","players":[{"user_id":38,"name":"spiderfat","steam_id":76561198957917221,"connected_time":517000000000,"state":"active","ping":195},{"user_id":39,"name":"RoboticPyroRobo","steam_id":76561198355732200,"connected_time":476000000000,"state":"active","ping":245},{"user_id":41,"name":"_BackBone_","steam_id":76561198816315720,"connected_time":50000000000,"state":"active","ping":55}]},{"server_id":41,"name":"Uncletopia | London | 8 | Community","name_short":"lon-8","host":"lon-1.uk.uncletopia.com","port":27085,"enabled":true,"region":"eu","cc":"gb","latitude":51.509865,"longitude":-0.118092,"reserved":0,"last_update":"0001-01-01T00:00:00Z","name_a2s":"Uncletopia | London | 8 | Community","protocol":17,"map":"workshop/cp_indulge.ugc528106646","folder":"tf","game":"Team Fortress","app_id":440,"player_count":0,"max_players":24,"Bots":0,"server_type":"Dedicated","server_os":"Linux","password":true,"vac":true,"version":"7757534","steam_id":85568392924964315,"keywords":["cp","nocrits","nodmgspread","uncletopia"],"game_id":440,"stv_port":27086,"stv_name":"Uncletopia | London | 8 | Community | STV","players":null},{"server_id":300,"name":"Uncletopia | Montréal | 1 | All Maps","name_short":"mtl-1","host":"mtl-1.ca.uncletopia.com","port":27015,"enabled":true,"region":"us-east","cc":"ca","latitude":45.50889,"longitude":-73.56167,"reserved":0,"last_update":"0001-01-01T00:00:00Z","name_a2s":"Uncletopia | Montréal | 1 | All Maps","protocol":17,"map":"pl_snowycoast","folder":"tf","game":"Team Fortress","app_id":440,"player_count":0,"max_players":24,"Bots":0,"server_type":"Dedicated","server_os":"Linux","password":true,"vac":true,"version":"7757534","steam_id":85568392924500087,"keywords":["nocrits","nodmgspread","payload","uncletopia"],"game_id":440,"stv_port":27016,"stv_name":"Uncletopia | Montréal | 1 | All Maps | STV","players":null},{"server_id":301,"name":"Uncletopia | Montréal | 2 | All Maps","name_short":"mtl-2","host":"mtl-1.ca.uncletopia.com","port":27025,"enabled":true,"region":"us-east","cc":"ca","latitude":45.50889,"longitude":-73.56167,"reserved":0,"last_update":"0001-01-01T00:00:00Z","name_a2s":"Uncletopia | Montréal | 2 | All Maps","protocol":17,"map":"pl_snowycoast","folder":"tf","game":"Team Fortress","app_id":440,"player_count":0,"max_players":24,"Bots":0,"server_type":"Dedicated","server_os":"Linux","password":true,"vac":true,"version":"7757534","steam_id":85568392924500088,"keywords":["nocrits","nodmgspread","payload","uncletopia"],"game_id":440,"stv_port":27026,"stv_name":"Uncletopia | Montréal | 2 | All Maps | STV","players":null},{"server_id":302,"name":"Uncletopia | Montréal | 3 | All Maps","name_short":"mtl-3","host":"mtl-1.ca.uncletopia.com","port":27035,"enabled":true,"region":"us-east","cc":"ca","latitude":45.50889,"longitude":-73.56167,"reserved":0,"last_update":"0001-01-01T00:00:00Z","name_a2s":"Uncletopia | Montréal | 3 | All Maps","protocol":17,"map":"cp_mountainlab","folder":"tf","game":"Team Fortress","app_id":440,"player_count":0,"max_players":24,"Bots":0,"server_type":"Dedicated","server_os":"Linux","password":true,"vac":true,"version":"7757534","steam_id":85568392924500089,"keywords":["cp","nocrits","nodmgspread","uncletopia"],"game_id":440,"stv_port":27036,"stv_name":"Uncletopia | Montréal | 3 | All Maps | STV","players":null},{"server_id":303,"name":"Uncletopia | Montréal | 4 | No Payload","name_short":"mtl-4","host":"mtl-1.ca.uncletopia.com","port":27045,"enabled":true,"region":"us-east","cc":"ca","latitude":45.50889,"longitude":-73.56167,"reserved":0,"last_update":"0001-01-01T00:00:00Z","name_a2s":"Uncletopia | Montréal | 4 | No Payload","protocol":17,"map":"koth_brazil","folder":"tf","game":"Team Fortress","app_id":440,"player_count":0,"max_players":24,"Bots":0,"server_type":"Dedicated","server_os":"Linux","password":true,"vac":true,"version":"7757534","steam_id":85568392924500090,"keywords":["cp","nocrits","nodmgspread","uncletopia"],"game_id":440,"stv_port":27046,"stv_name":"Uncletopia | Montréal | 4 | No Payload | STV","players":null},{"server_id":13,"name":"Uncletopia | New York City | 1 | All Maps","name_short":"nyc-1","host":"nyc-1.us.uncletopia.com","port":27015,"enabled":true,"region":"us-east","cc":"us","latitude":40.73061,"longitude":-73.93524,"reserved":0,"last_update":"0001-01-01T00:00:00Z","name_a2s":"Uncletopia | New York City | 1 | All Maps","protocol":17,"map":"cp_dustbowl","folder":"tf","game":"Team Fortress","app_id":440,"player_count":24,"max_players":24,"Bots":0,"server_type":"Dedicated","server_os":"Linux","password":true,"vac":true,"version":"7757534","steam_id":85568392924469993,"keywords":["cp","nocrits","nodmgspread","uncletopia"],"game_id":440,"stv_port":27016,"stv_name":"Uncletopia | New York City | 1 | All Maps | STV","players":[{"user_id":423,"name":"CoffeeTail","steam_id":76561197983995302,"connected_time":23000000000,"state":"active","ping":125},{"user_id":415,"name":"Moody","steam_id":76561199013442105,"connected_time":384000000000,"state":"active","ping":44},{"user_id":414,"name":"Ferrin","steam_id":76561198071757444,"connected_time":408000000000,"state":"active","ping":103},{"user_id":392,"name":"Grundle Thunder","steam_id":76561197960790338,"connected_time":2033000000000,"state":"active","ping":70},{"user_id":416,"name":"MrLeftTurn","steam_id":76561198856743969,"connected_time":335000000000,"state":"active","ping":159},{"user_id":417,"name":"izzo","steam_id":76561198206306996,"connected_time":293000000000,"state":"active","ping":45},{"user_id":400,"name":"Nikofreaker","steam_id":76561198320604061,"connected_time":1831000000000,"state":"active","ping":89},{"user_id":418,"name":"mm","steam_id":76561198841559088,"connected_time":289000000000,"state":"active","ping":51},{"user_id":397,"name":"ITSDIVVY","steam_id":76561198879236561,"connected_time":1937000000000,"state":"active","ping":78},{"user_id":410,"name":"Tostada","steam_id":76561198383206211,"connected_time":1077000000000,"state":"active","ping":168},{"user_id":408,"name":"walidov","steam_id":76561198079965605,"connected_time":1259000000000,"state":"active","ping":105},{"user_id":419,"name":"Jookson","steam_id":76561198413604994,"connected_time":282000000000,"state":"active","ping":81},{"user_id":420,"name":"NIneX","steam_id":76561198979351501,"connected_time":281000000000,"state":"active","ping":59},{"user_id":411,"name":"All 24 Pokémon movies at once","steam_id":76561198164738311,"connected_time":592000000000,"state":"active","ping":86},{"user_id":421,"name":"James","steam_id":76561198055687973,"connected_time":278000000000,"state":"active","ping":63},{"user_id":412,"name":"Just Luke","steam_id":76561198072134257,"connected_time":540000000000,"state":"active","ping":57},{"user_id":402,"name":"silentpieceofbacon","steam_id":76561198869323351,"connected_time":1598000000000,"state":"active","ping":84},{"user_id":405,"name":"RazE","steam_id":76561198074181336,"connected_time":1332000000000,"state":"active","ping":60},{"user_id":344,"name":"Prinz Eugen","steam_id":76561198129154766,"connected_time":6642000000000,"state":"active","ping":133},{"user_id":390,"name":"Amelia","steam_id":76561198051011524,"connected_time":2664000000000,"state":"active","ping":70},{"user_id":422,"name":"H₂SeGamez","steam_id":76561198250471340,"connected_time":270000000000,"state":"active","ping":71},{"user_id":398,"name":"sock haver","steam_id":76561198044443985,"connected_time":1932000000000,"state":"active","ping":111},{"user_id":388,"name":"Mr. May","steam_id":76561198132112804,"connected_time":2859000000000,"state":"active","ping":86},{"user_id":403,"name":"Law","steam_id":76561198320282310,"connected_time":1581000000000,"state":"active","ping":101}]},{"server_id":14,"name":"Uncletopia | New York City | 2 | All Maps","name_short":"nyc-2","host":"nyc-1.us.uncletopia.com","port":27025,"enabled":true,"region":"us-east","cc":"us","latitude":40.73061,"longitude":-73.93524,"reserved":0,"last_update":"0001-01-01T00:00:00Z","name_a2s":"Uncletopia | New York City | 2 | All Maps","protocol":17,"map":"pl_swiftwater_final1","folder":"tf","game":"Team Fortress","app_id":440,"player_count":24,"max_players":24,"Bots":0,"server_type":"Dedicated","server_os":"Linux","password":true,"vac":true,"version":"7757534","steam_id":85568392924469994,"keywords":["nocrits","nodmgspread","payload","uncletopia"],"game_id":440,"stv_port":27026,"stv_name":"Uncletopia | New York City | 2 | All Maps | STV","players":[{"user_id":244,"name":"-|FG|- Hamilkar Barca","steam_id":76561198091666474,"connected_time":2492000000000,"state":"active","ping":45},{"user_id":266,"name":"a1ex","steam_id":76561198341411993,"connected_time":371000000000,"state":"active","ping":47},{"user_id":253,"name":"Nigel_S","steam_id":76561198037191990,"connected_time":1214000000000,"state":"active","ping":94},{"user_id":236,"name":"Team Fortress 2","steam_id":76561198045746493,"connected_time":2926000000000,"state":"active","ping":74},{"user_id":205,"name":"Philip Screwdriver","steam_id":76561198073874193,"connected_time":4804000000000,"state":"active","ping":58},{"user_id":251,"name":"beethan","steam_id":76561198148199120,"connected_time":1720000000000,"state":"active","ping":83},{"user_id":246,"name":"Papyrus","steam_id":76561198133990817,"connected_time":2283000000000,"state":"active","ping":55},{"user_id":268,"name":"eciacura","steam_id":76561197970546675,"connected_time":249000000000,"state":"active","ping":45},{"user_id":254,"name":"Zarik","steam_id":76561197967269007,"connected_time":1109000000000,"state":"active","ping":45},{"user_id":255,"name":"^_^","steam_id":76561198971354161,"connected_time":1036000000000,"state":"active","ping":51},{"user_id":243,"name":"FAC","steam_id":76561198009818412,"connected_time":2533000000000,"state":"active","ping":76},{"user_id":256,"name":"ash monte","steam_id":76561198382343820,"connected_time":1020000000000,"state":"active","ping":45},{"user_id":265,"name":"SpinetinglingToast","steam_id":76561198099470670,"connected_time":395000000000,"state":"active","ping":52},{"user_id":258,"name":"Rennox","steam_id":76561198059449689,"connected_time":987000000000,"state":"active","ping":73},{"user_id":259,"name":"Sigiferd","steam_id":76561198148788110,"connected_time":983000000000,"state":"active","ping":123},{"user_id":267,"name":"Asriel","steam_id":76561198243188782,"connected_time":275000000000,"state":"active","ping":70},{"user_id":262,"name":"Bee","steam_id":76561198074681324,"connected_time":907000000000,"state":"active","ping":47},{"user_id":210,"name":"D9","steam_id":76561197999151357,"connected_time":4716000000000,"state":"active","ping":95},{"user_id":232,"name":"Ketasive","steam_id":76561198102350323,"connected_time":3292000000000,"state":"active","ping":67},{"user_id":239,"name":"☼ kevin \"berserker\" hall","steam_id":76561198074180953,"connected_time":2911000000000,"state":"active","ping":51},{"user_id":250,"name":"trobin120","steam_id":76561199122420273,"connected_time":2211000000000,"state":"active","ping":52},{"user_id":263,"name":"dodge1214","steam_id":76561198020431237,"connected_time":715000000000,"state":"active","ping":53},{"user_id":261,"name":"Illegal Gaming","steam_id":76561198030323714,"connected_time":965000000000,"state":"active","ping":65},{"user_id":249,"name":"Bronze Age GRINDSET","steam_id":76561198859118263,"connected_time":2256000000000,"state":"active","ping":84}]},{"server_id":15,"name":"Uncletopia | New York City | 3 | Stopwatch Beta","name_short":"nyc-3","host":"nyc-1.us.uncletopia.com","port":27035,"enabled":true,"region":"us-east","cc":"us","latitude":40.73061,"longitude":-73.93524,"reserved":0,"last_update":"0001-01-01T00:00:00Z","name_a2s":"Uncletopia | New York City | 3 | Stopwatch Beta","protocol":17,"map":"pl_swiftwater_final1","folder":"tf","game":"Team Fortress","app_id":440,"player_count":0,"max_players":24,"Bots":0,"server_type":"Dedicated","server_os":"Linux","password":true,"vac":true,"version":"7757534","steam_id":85568392924742820,"keywords":["nocrits","nodmgspread","payload","uncletopia"],"game_id":440,"stv_port":27036,"stv_name":"Uncletopia | New York City | 3 | Stopwatch Beta | STV","players":null},{"server_id":16,"name":"Uncletopia | New York City | 4 | Community","name_short":"nyc-4","host":"nyc-1.us.uncletopia.com","port":27045,"enabled":true,"region":"us-east","cc":"us","latitude":40.73061,"longitude":-73.93524,"reserved":0,"last_update":"0001-01-01T00:00:00Z","name_a2s":"Uncletopia | New York City | 4 | Community","protocol":17,"map":"workshop/cp_kalinka_rc6a.ugc1272700588","folder":"tf","game":"Team Fortress","app_id":440,"player_count":0,"max_players":24,"Bots":0,"server_type":"Dedicated","server_os":"Linux","password":true,"vac":true,"version":"7757534","steam_id":85568392924742821,"keywords":["cp","nocrits","nodmgspread","uncletopia"],"game_id":440,"stv_port":27046,"stv_name":"Uncletopia | New York City | 4 | Community | STV","players":null},{"server_id":142,"name":"Uncletopia | São Paulo | 1 | All Maps","name_short":"sao-1","host":"sao-1.br.uncletopia.com","port":27015,"enabled":true,"region":"sa","cc":"br","latitude":-23.533773,"longitude":-46.62529,"reserved":0,"last_update":"0001-01-01T00:00:00Z","name_a2s":"Uncletopia | São Paulo | 1 | All Maps","protocol":17,"map":"koth_viaduct","folder":"tf","game":"Team Fortress","app_id":440,"player_count":0,"max_players":24,"Bots":0,"server_type":"Dedicated","server_os":"Linux","password":true,"vac":true,"version":"7757534","steam_id":85568392924469996,"keywords":["cp","nocrits","nodmgspread","uncletopia"],"game_id":440,"stv_port":27016,"stv_name":"Uncletopia | São Paulo | 1 | All Maps | STV","players":null},{"server_id":143,"name":"Uncletopia | São Paulo | 2 | All Maps","name_short":"sao-2","host":"sao-2.br.uncletopia.com","port":27015,"enabled":true,"region":"sa","cc":"br","latitude":-23.533773,"longitude":-46.62529,"reserved":0,"last_update":"0001-01-01T00:00:00Z","name_a2s":"Uncletopia | São Paulo | 2 | All Maps","protocol":17,"map":"pl_borneo","folder":"tf","game":"Team Fortress","app_id":440,"player_count":0,"max_players":24,"Bots":0,"server_type":"Dedicated","server_os":"Linux","password":true,"vac":true,"version":"7757534","steam_id":85568392924485349,"keywords":["nocrits","nodmgspread","payload","uncletopia"],"game_id":440,"stv_port":27016,"stv_name":"Uncletopia | São Paulo | 2 | All Maps | STV","players":null},{"server_id":7,"name":"Uncletopia | Seattle | 1 | All Maps","name_short":"sea-1","host":"sea-1.us.uncletopia.com","port":27015,"enabled":true,"region":"us-west","cc":"us","latitude":47.608013,"longitude":-122.33517,"reserved":0,"last_update":"0001-01-01T00:00:00Z","name_a2s":"Uncletopia | Seattle | 1 | All Maps","protocol":17,"map":"pl_pier","folder":"tf","game":"Team Fortress","app_id":440,"player_count":24,"max_players":24,"Bots":0,"server_type":"Dedicated","server_os":"Linux","password":true,"vac":true,"version":"7757534","steam_id":85568392924469997,"keywords":["nocrits","nodmgspread","payload","uncletopia"],"game_id":440,"stv_port":27016,"stv_name":"Uncletopia | Seattle | 1 | All Maps | STV","players":[{"user_id":422,"name":"Hakuyer","steam_id":76561198098618247,"connected_time":418000000000,"state":"active","ping":51},{"user_id":401,"name":"parrot1002924","steam_id":76561199443882275,"connected_time":2170000000000,"state":"active","ping":59},{"user_id":364,"name":"girl (evil)","steam_id":76561198010361897,"connected_time":4173000000000,"state":"active","ping":63},{"user_id":425,"name":"pneu","steam_id":76561198109052796,"connected_time":197000000000,"state":"active","ping":52},{"user_id":350,"name":"No Sound","steam_id":76561198011675372,"connected_time":5271000000000,"state":"active","ping":64},{"user_id":421,"name":"D(b) Hell","steam_id":76561198067869016,"connected_time":706000000000,"state":"active","ping":75},{"user_id":405,"name":"NEBULA","steam_id":76561198086878595,"connected_time":1808000000000,"state":"active","ping":70},{"user_id":386,"name":"Sloppy John (Extra Sauce)","steam_id":76561198359703432,"connected_time":3033000000000,"state":"active","ping":81},{"user_id":391,"name":"toodles","steam_id":76561198025463883,"connected_time":2759000000000,"state":"active","ping":59},{"user_id":423,"name":"CLAYDUCK","steam_id":76561197995221829,"connected_time":367000000000,"state":"active","ping":51},{"user_id":362,"name":"jacix3 [gay wolfgirl]{she/it}","steam_id":76561198205004165,"connected_time":4459000000000,"state":"active","ping":59},{"user_id":404,"name":"〣dust〣 -she/her-","steam_id":76561198045218909,"connected_time":2120000000000,"state":"active","ping":37},{"user_id":392,"name":"Scoron","steam_id":76561198062099305,"connected_time":2747000000000,"state":"active","ping":82},{"user_id":382,"name":"SHADOW (he/him)","steam_id":76561198207768148,"connected_time":3270000000000,"state":"active","ping":78},{"user_id":387,"name":"bronk","steam_id":76561198181109553,"connected_time":2997000000000,"state":"active","ping":70},{"user_id":407,"name":"Dr. Karl, the AUS Science Guy","steam_id":76561198031278747,"connected_time":1668000000000,"state":"active","ping":49},{"user_id":413,"name":"AmiableNebula","steam_id":76561198094306627,"connected_time":1061000000000,"state":"active","ping":80},{"user_id":424,"name":"lost in the sauce","steam_id":76561199043827112,"connected_time":296000000000,"state":"active","ping":120},{"user_id":373,"name":"THE NUT","steam_id":76561198067813626,"connected_time":3461000000000,"state":"active","ping":49},{"user_id":383,"name":"ohio","steam_id":76561198097637080,"connected_time":3251000000000,"state":"active","ping":122},{"user_id":414,"name":"KingTinkerer","steam_id":76561198226856548,"connected_time":823000000000,"state":"active","ping":80},{"user_id":411,"name":"Matte :)","steam_id":76561198070631073,"connected_time":1419000000000,"state":"active","ping":64},{"user_id":363,"name":"shane","steam_id":76561198060491451,"connected_time":4318000000000,"state":"active","ping":92},{"user_id":420,"name":"the bandit","steam_id":76561199158540950,"connected_time":791000000000,"state":"active","ping":73}]},{"server_id":119,"name":"Uncletopia | Seattle | 2 | All Maps","name_short":"sea-2","host":"sea-1.us.uncletopia.com","port":27025,"enabled":true,"region":"us-west","cc":"us","latitude":47.608013,"longitude":-122.33517,"reserved":0,"last_update":"0001-01-01T00:00:00Z","name_a2s":"Uncletopia | Seattle | 2 | All Maps","protocol":17,"map":"pl_upward","folder":"tf","game":"Team Fortress","app_id":440,"player_count":24,"max_players":24,"Bots":0,"server_type":"Dedicated","server_os":"Linux","password":true,"vac":true,"version":"7757534","steam_id":85568392924469998,"keywords":["nocrits","nodmgspread","payload","uncletopia"],"game_id":440,"stv_port":27026,"stv_name":"Uncletopia | Seattle | 2 | All Maps | STV","players":[{"user_id":139,"name":"mudunit","steam_id":76561198811544015,"connected_time":823000000000,"state":"active","ping":54},{"user_id":133,"name":"dP | I'm in a Wookie Suit","steam_id":76561198083307644,"connected_time":1820000000000,"state":"active","ping":55},{"user_id":127,"name":"McLovin","steam_id":76561198114934503,"connected_time":2078000000000,"state":"active","ping":54},{"user_id":141,"name":"Pile of Spinach","steam_id":76561198043068841,"connected_time":593000000000,"state":"active","ping":61},{"user_id":140,"name":"$5 Biggie Bag from Wendy's","steam_id":76561198107219183,"connected_time":730000000000,"state":"active","ping":81},{"user_id":130,"name":"yup","steam_id":76561199190800520,"connected_time":1915000000000,"state":"active","ping":40},{"user_id":110,"name":"tum","steam_id":76561198084712019,"connected_time":3191000000000,"state":"active","ping":82},{"user_id":145,"name":"TheOnlyItchy","steam_id":76561198964202303,"connected_time":266000000000,"state":"active","ping":53},{"user_id":79,"name":"Goat","steam_id":76561198130683707,"connected_time":6219000000000,"state":"active","ping":72},{"user_id":138,"name":"Неоновые кишки","steam_id":76561198836757413,"connected_time":1271000000000,"state":"active","ping":140},{"user_id":142,"name":"What are you doing?!","steam_id":76561198405248691,"connected_time":416000000000,"state":"active","ping":74},{"user_id":34,"name":"SlitherDoodle","steam_id":76561198000275473,"connected_time":8699000000000,"state":"active","ping":52},{"user_id":98,"name":"jello","steam_id":76561198149683030,"connected_time":4633000000000,"state":"active","ping":65},{"user_id":113,"name":"srmoore 103","steam_id":76561198300291415,"connected_time":2988000000000,"state":"active","ping":89},{"user_id":126,"name":"Huggle","steam_id":76561198141491662,"connected_time":2114000000000,"state":"active","ping":133},{"user_id":132,"name":"STrong Bomber","steam_id":76561198805051139,"connected_time":1844000000000,"state":"active","ping":51},{"user_id":146,"name":"mrs. business","steam_id":76561198025454291,"connected_time":102000000000,"state":"active","ping":37},{"user_id":144,"name":"HE’S IN THE GODDAMN WALLS","steam_id":76561198363267009,"connected_time":316000000000,"state":"active","ping":100},{"user_id":121,"name":"LazerCannon","steam_id":76561198256696159,"connected_time":2435000000000,"state":"active","ping":88},{"user_id":122,"name":"Maid 'n' China","steam_id":76561198423392976,"connected_time":2428000000000,"state":"active","ping":75},{"user_id":120,"name":"Flooder","steam_id":76561198043792818,"connected_time":2495000000000,"state":"active","ping":59},{"user_id":135,"name":"루비","steam_id":76561198027517361,"connected_time":1738000000000,"state":"active","ping":108},{"user_id":123,"name":"I Twitch Lego Star Wars...","steam_id":76561198130280060,"connected_time":2422000000000,"state":"active","ping":128},{"user_id":51,"name":"Quon Grene for Vice Prez","steam_id":76561198127545817,"connected_time":8518000000000,"state":"active","ping":83}]},{"server_id":406,"name":"Uncletopia | Seattle | 3 | Stopwatch Beta","name_short":"sea-3","host":"sea-1.us.uncletopia.com","port":27035,"enabled":true,"region":"us-west","cc":"us","latitude":47.608013,"longitude":-122.33517,"reserved":0,"last_update":"0001-01-01T00:00:00Z","name_a2s":"Uncletopia | Seattle | 3 | Stopwatch Beta","protocol":17,"map":"pl_barnblitz","folder":"tf","game":"Team Fortress","app_id":440,"player_count":0,"max_players":24,"Bots":0,"server_type":"Dedicated","server_os":"Linux","password":true,"vac":true,"version":"7757534","steam_id":85568392924515217,"keywords":["nocrits","nodmgspread","payload","uncletopia"],"game_id":440,"stv_port":27036,"stv_name":"Uncletopia | Seattle | 3 | Stopwatch Beta | STV","players":null},{"server_id":17,"name":"Uncletopia | San Francisco | 1 | All Maps","name_short":"sfo-1","host":"sfo-1.us.uncletopia.com","port":27015,"enabled":true,"region":"us-west","cc":"us","latitude":37.77397,"longitude":-122.4313,"reserved":0,"last_update":"0001-01-01T00:00:00Z","name_a2s":"Uncletopia | San Francisco | 1 | All Maps","protocol":17,"map":"cp_mountainlab","folder":"tf","game":"Team Fortress","app_id":440,"player_count":23,"max_players":24,"Bots":0,"server_type":"Dedicated","server_os":"Linux","password":true,"vac":true,"version":"7757534","steam_id":85568392924469999,"keywords":["cp","nocrits","nodmgspread","uncletopia"],"game_id":440,"stv_port":27016,"stv_name":"Uncletopia | San Francisco | 1 | All Maps | STV","players":[{"user_id":293,"name":"WalkinMan","steam_id":76561198047941142,"connected_time":929000000000,"state":"active","ping":35},{"user_id":292,"name":"Ghoster","steam_id":76561198329367716,"connected_time":1012000000000,"state":"active","ping":64},{"user_id":270,"name":"Sparrow","steam_id":76561199122118959,"connected_time":2084000000000,"state":"active","ping":48},{"user_id":288,"name":"Walter","steam_id":76561198176428878,"connected_time":1145000000000,"state":"active","ping":67},{"user_id":299,"name":"cookiegenius2398.r2","steam_id":76561198970759258,"connected_time":4000000000,"state":"spawning","ping":59},{"user_id":267,"name":"Green_GarBear","steam_id":76561199468912415,"connected_time":2160000000000,"state":"active","ping":53},{"user_id":260,"name":"Course Brains","steam_id":76561198349105723,"connected_time":2383000000000,"state":"active","ping":57},{"user_id":295,"name":"Green Icicle","steam_id":76561198069624529,"connected_time":572000000000,"state":"active","ping":59},{"user_id":294,"name":"Kingofthem","steam_id":76561198866197308,"connected_time":842000000000,"state":"active","ping":43},{"user_id":264,"name":"GreenPepper47","steam_id":76561199016038752,"connected_time":2332000000000,"state":"active","ping":72},{"user_id":265,"name":"rucier197","steam_id":76561199005536159,"connected_time":2235000000000,"state":"active","ping":60},{"user_id":298,"name":"Delimeat","steam_id":76561198043824595,"connected_time":371000000000,"state":"active","ping":49},{"user_id":271,"name":"LynnLantern","steam_id":76561198116326726,"connected_time":2065000000000,"state":"active","ping":105},{"user_id":279,"name":"KAWHI BEEN THUGGIN","steam_id":76561198931663998,"connected_time":1921000000000,"state":"active","ping":92},{"user_id":296,"name":"Frazzer","steam_id":76561198088679707,"connected_time":478000000000,"state":"active","ping":47},{"user_id":297,"name":"Bester","steam_id":76561198167729584,"connected_time":452000000000,"state":"active","ping":57},{"user_id":290,"name":"AiroBirb","steam_id":76561198370692243,"connected_time":1109000000000,"state":"active","ping":58},{"user_id":275,"name":"FULCRUM faded than a ho","steam_id":76561198274959371,"connected_time":1935000000000,"state":"active","ping":117},{"user_id":276,"name":"Frogzilla","steam_id":76561198077657538,"connected_time":1932000000000,"state":"active","ping":86},{"user_id":277,"name":"Rocky","steam_id":76561198048158539,"connected_time":1931000000000,"state":"active","ping":74},{"user_id":278,"name":"BionicApe","steam_id":76561198154637711,"connected_time":1929000000000,"state":"active","ping":61},{"user_id":204,"name":"Alunatic14","steam_id":76561198309321593,"connected_time":5079000000000,"state":"active","ping":128},{"user_id":280,"name":"EatSomeBEES","steam_id":76561198047334307,"connected_time":1888000000000,"state":"active","ping":78}]},{"server_id":18,"name":"Uncletopia | San Francisco | 2 | All Maps","name_short":"sfo-2","host":"sfo-1.us.uncletopia.com","port":27025,"enabled":true,"region":"us-west","cc":"us","latitude":37.77397,"longitude":-122.4313,"reserved":0,"last_update":"0001-01-01T00:00:00Z","name_a2s":"Uncletopia | San Francisco | 2 | All Maps","protocol":17,"map":"cp_mountainlab","folder":"tf","game":"Team Fortress","app_id":440,"player_count":0,"max_players":24,"Bots":0,"server_type":"Dedicated","server_os":"Linux","password":true,"vac":true,"version":"7757534","steam_id":85568392924470000,"keywords":["cp","nocrits","nodmgspread","uncletopia"],"game_id":440,"stv_port":27026,"stv_name":"Uncletopia | San Francisco | 2 | All Maps | STV","players":null},{"server_id":19,"name":"Uncletopia | San Francisco | 3 | Stopwatch Beta","name_short":"sfo-3","host":"sfo-1.us.uncletopia.com","port":27035,"enabled":true,"region":"us-west","cc":"us","latitude":37.77397,"longitude":-122.4313,"reserved":0,"last_update":"0001-01-01T00:00:00Z","name_a2s":"Uncletopia | San Francisco | 3 | Stopwatch Beta","protocol":17,"map":"pl_borneo","folder":"tf","game":"Team Fortress","app_id":440,"player_count":0,"max_players":24,"Bots":0,"server_type":"Dedicated","server_os":"Linux","password":true,"vac":true,"version":"7757534","steam_id":85568392924742824,"keywords":["nocrits","nodmgspread","payload","uncletopia"],"game_id":440,"stv_port":27036,"stv_name":"Uncletopia | San Francisco | 3 | Stopwatch Beta | STV","players":null},{"server_id":20,"name":"Uncletopia | San Francisco | 4 | Community","name_short":"sfo-4","host":"sfo-1.us.uncletopia.com","port":27045,"enabled":true,"region":"us-west","cc":"us","latitude":37.77397,"longitude":-122.4313,"reserved":0,"last_update":"0001-01-01T00:00:00Z","name_a2s":"Uncletopia | San Francisco | 4 | Community","protocol":17,"map":"workshop/koth_ramjam_rc1.ugc459778887","folder":"tf","game":"Team Fortress","app_id":440,"player_count":0,"max_players":24,"Bots":0,"server_type":"Dedicated","server_os":"Linux","password":true,"vac":true,"version":"7757534","steam_id":85568392924742826,"keywords":["cp","nocrits","nodmgspread","uncletopia"],"game_id":440,"stv_port":27046,"stv_name":"Uncletopia | San Francisco | 4 | Community | STV","players":null},{"server_id":141,"name":"Uncletopia | Sydney | 1 | All Maps","name_short":"syd-1","host":"syd-1.au.uncletopia.com","port":27015,"enabled":true,"region":"au","cc":"au","latitude":-33.865143,"longitude":151.2099,"reserved":0,"last_update":"0001-01-01T00:00:00Z","name_a2s":"Uncletopia | Sydney | 1 | All Maps","protocol":17,"map":"pl_barnblitz","folder":"tf","game":"Team Fortress","app_id":440,"player_count":0,"max_players":24,"Bots":0,"server_type":"Dedicated","server_os":"Linux","password":true,"vac":true,"version":"7757534","steam_id":85568392924470001,"keywords":["nocrits","nodmgspread","payload","uncletopia"],"game_id":440,"stv_port":27016,"stv_name":"Uncletopia | Sydney | 1 | All Maps | STV","players":null},{"server_id":123,"name":"Uncletopia | Sydney | 2 | All Maps","name_short":"syd-2","host":"syd-1.au.uncletopia.com","port":27025,"enabled":true,"region":"au","cc":"au","latitude":-33.865143,"longitude":151.2099,"reserved":0,"last_update":"0001-01-01T00:00:00Z","name_a2s":"Uncletopia | Sydney | 2 | All Maps","protocol":17,"map":"koth_viaduct","folder":"tf","game":"Team Fortress","app_id":440,"player_count":0,"max_players":24,"Bots":0,"server_type":"Dedicated","server_os":"Linux","password":true,"vac":true,"version":"7757534","steam_id":85568392924470002,"keywords":["cp","nocrits","nodmgspread","uncletopia"],"game_id":440,"stv_port":27026,"stv_name":"Uncletopia | Sydney | 2 | All Maps | STV","players":null},{"server_id":395,"name":"Uncletopia | Sydney | 3 | All Maps","name_short":"syd-3","host":"syd-1.au.uncletopia.com","port":27035,"enabled":true,"region":"au","cc":"au","latitude":-33.865143,"longitude":151.2099,"reserved":0,"last_update":"0001-01-01T00:00:00Z","name_a2s":"Uncletopia | Sydney | 3 | All Maps","protocol":17,"map":"pl_upward","folder":"tf","game":"Team Fortress","app_id":440,"player_count":0,"max_players":24,"Bots":0,"server_type":"Dedicated","server_os":"Linux","password":true,"vac":true,"version":"7757534","steam_id":85568392925194467,"keywords":["nocrits","nodmgspread","payload","uncletopia"],"game_id":440,"stv_port":27036,"stv_name":"Uncletopia | Sydney | 3 | All Maps | STV","players":null},{"server_id":396,"name":"Uncletopia | Sydney | 4 | All Maps","name_short":"syd-4","host":"syd-1.au.uncletopia.com","port":27045,"enabled":true,"region":"au","cc":"au","latitude":-33.865143,"longitude":151.2099,"reserved":0,"last_update":"0001-01-01T00:00:00Z","name_a2s":"Uncletopia | Sydney | 4 | All Maps","protocol":17,"map":"koth_lakeside_final","folder":"tf","game":"Team Fortress","app_id":440,"player_count":0,"max_players":24,"Bots":0,"server_type":"Dedicated","server_os":"Linux","password":true,"vac":true,"version":"7757534","steam_id":85568392925397958,"keywords":["cp","nocrits","nodmgspread","uncletopia"],"game_id":440,"stv_port":27046,"stv_name":"Uncletopia | Sydney | 4 | All Maps | STV","players":null},{"server_id":58,"name":"Uncletopia | Sydney | 5 | Stopwatch Beta","name_short":"syd-5","host":"syd-1.au.uncletopia.com","port":27055,"enabled":true,"region":"au","cc":"au","latitude":-33.865143,"longitude":151.2099,"reserved":0,"last_update":"0001-01-01T00:00:00Z","name_a2s":"Uncletopia | Sydney | 5 | Stopwatch Beta","protocol":17,"map":"koth_highpass","folder":"tf","game":"Team Fortress","app_id":440,"player_count":0,"max_players":24,"Bots":0,"server_type":"Dedicated","server_os":"Linux","password":true,"vac":true,"version":"7757534","steam_id":85568392925397959,"keywords":["cp","nocrits","nodmgspread","uncletopia"],"game_id":440,"stv_port":27056,"stv_name":"Uncletopia | Sydney | 5 | Stopwatch Beta | STV","players":null},{"server_id":59,"name":"Uncletopia | Sydney | 6 | Community","name_short":"syd-6","host":"syd-1.au.uncletopia.com","port":27065,"enabled":true,"region":"au","cc":"au","latitude":-33.865143,"longitude":151.2099,"reserved":0,"last_update":"0001-01-01T00:00:00Z","name_a2s":"Uncletopia | Sydney | 6 | Community","protocol":17,"map":"workshop/koth_synthetic_rc6a.ugc1549817316","folder":"tf","game":"Team Fortress","app_id":440,"player_count":0,"max_players":24,"Bots":0,"server_type":"Dedicated","server_os":"Linux","password":true,"vac":true,"version":"7757534","steam_id":85568392925397960,"keywords":["cp","nocrits","nodmgspread","uncletopia"],"game_id":440,"stv_port":27066,"stv_name":"Uncletopia | Sydney | 6 | Community | STV","players":null},{"server_id":49,"name":"Uncletopia | Warsaw | 1 | All Maps","name_short":"waw-1","host":"waw-1.pl.uncletopia.com","port":27015,"enabled":true,"region":"eu","cc":"pl","latitude":52.2297,"longitude":21.017532,"reserved":0,"last_update":"0001-01-01T00:00:00Z","name_a2s":"","protocol":0,"map":"","folder":"","game":"","app_id":0,"player_count":0,"max_players":0,"Bots":0,"server_type":"","server_os":"","password":false,"vac":false,"version":"","steam_id":0,"keywords":null,"game_id":0,"stv_port":0,"stv_name":"","players":null},{"server_id":50,"name":"Uncletopia | Warsaw | 2 | All Maps","name_short":"waw-2","host":"waw-1.pl.uncletopia.com","port":27025,"enabled":true,"region":"eu","cc":"pl","latitude":52.2297,"longitude":21.017532,"reserved":0,"last_update":"0001-01-01T00:00:00Z","name_a2s":"Uncletopia | Warsaw | 2 | All Maps","protocol":17,"map":"pl_barnblitz","folder":"tf","game":"Team Fortress","app_id":440,"player_count":0,"max_players":24,"Bots":0,"server_type":"Dedicated","server_os":"Linux","password":true,"vac":true,"version":"7757534","steam_id":85568392925397851,"keywords":["nocrits","nodmgspread","payload","uncletopia"],"game_id":440,"stv_port":27026,"stv_name":"Uncletopia | Warsaw | 2 | All Maps | STV","players":null},{"server_id":51,"name":"Uncletopia | Warsaw | 3 | All Maps","name_short":"waw-3","host":"waw-1.pl.uncletopia.com","port":27035,"enabled":true,"region":"eu","cc":"pl","latitude":52.2297,"longitude":21.017532,"reserved":0,"last_update":"0001-01-01T00:00:00Z","name_a2s":"Uncletopia | Warsaw | 3 | All Maps","protocol":17,"map":"pl_pier","folder":"tf","game":"Team Fortress","app_id":440,"player_count":0,"max_players":24,"Bots":0,"server_type":"Dedicated","server_os":"Linux","password":true,"vac":true,"version":"7757534","steam_id":85568392925397852,"keywords":["nocrits","nodmgspread","payload","uncletopia"],"game_id":440,"stv_port":27036,"stv_name":"Uncletopia | Warsaw | 3 | All Maps | STV","players":null},{"server_id":52,"name":"Uncletopia | Warsaw | 4 | All Maps","name_short":"waw-4","host":"waw-1.pl.uncletopia.com","port":27045,"enabled":true,"region":"eu","cc":"pl","latitude":52.2297,"longitude":21.017532,"reserved":0,"last_update":"0001-01-01T00:00:00Z","name_a2s":"Uncletopia | Warsaw | 4 | All Maps","protocol":17,"map":"koth_cascade","folder":"tf","game":"Team Fortress","app_id":440,"player_count":0,"max_players":24,"Bots":0,"server_type":"Dedicated","server_os":"Linux","password":true,"vac":true,"version":"7757534","steam_id":85568392925397853,"keywords":["cp","nocrits","nodmgspread","uncletopia"],"game_id":440,"stv_port":27046,"stv_name":"Uncletopia | Warsaw | 4 | All Maps | STV","players":null},{"server_id":53,"name":"Uncletopia | Warsaw | 5 | Stopwatch Beta","name_short":"waw-5","host":"waw-1.pl.uncletopia.com","port":27055,"enabled":true,"region":"eu","cc":"pl","latitude":52.2297,"longitude":21.017532,"reserved":0,"last_update":"0001-01-01T00:00:00Z","name_a2s":"Uncletopia | Warsaw | 5 | Stopwatch Beta","protocol":17,"map":"pl_barnblitz","folder":"tf","game":"Team Fortress","app_id":440,"player_count":0,"max_players":24,"Bots":0,"server_type":"Dedicated","server_os":"Linux","password":true,"vac":true,"version":"7757534","steam_id":85568392925397854,"keywords":["nocrits","nodmgspread","payload","uncletopia"],"game_id":440,"stv_port":27056,"stv_name":"Uncletopia | Warsaw | 5 | Stopwatch Beta | STV","players":null},{"server_id":54,"name":"Uncletopia | Warsaw | 6 | Community","name_short":"waw-6","host":"waw-1.pl.uncletopia.com","port":27065,"enabled":true,"region":"eu","cc":"pl","latitude":52.2297,"longitude":21.017532,"reserved":0,"last_update":"0001-01-01T00:00:00Z","name_a2s":"Uncletopia | Warsaw | 6 | Community","protocol":17,"map":"workshop/cp_bruhstbowl_b5.ugc2878604990","folder":"tf","game":"Team Fortress","app_id":440,"player_count":0,"max_players":24,"Bots":0,"server_type":"Dedicated","server_os":"Linux","password":true,"vac":true,"version":"7757534","steam_id":85568392925397856,"keywords":["cp","nocrits","nodmgspread","uncletopia"],"game_id":440,"stv_port":27066,"stv_name":"Uncletopia | Warsaw | 6 | Community | STV","players":null}]}