{"status":true,"message":"","result":[{"server_id":9,"name":"Uncletopia | Atlanta | 1 | All Maps","name_short":"atl-1","host":"atl-1.us.uncletopia.com","port":27015,"enabled":true,"region":"us-east","cc":"us","latitude":33.753746,"longitude":-84.38633,"reserved":0,"last_update":"0001-01-01T00:00:00Z","name_a2s":"Uncletopia | Atlanta | 1 | All Maps","protocol":17,"map":"pl_pier","folder":"tf","game":"Team Fortress","app_id":440,"player_count":15,"max_players":24,"Bots":0,"server_type":"Dedicated","server_os":"Linux","password":true,"vac":true,"version":"7723704","steam_id":85568392924469982,"keywords":["nocrits","nodmgspread","payload","uncletopia"],"game_id":440,"stv_port":27016,"stv_name":"Uncletopia | Atlanta | 1 | All Maps | STV","players":[{"user_id":1342,"name":"VladinXXV","steam_id":76561198252471138,"connected_time":519000000000,"state":"active","ping":65},{"user_id":1297,"name":"RelishedLeaf6","steam_id":76561199077612661,"connected_time":4924000000000,"state":"active","ping":56},{"user_id":1343,"name":"Lanky Kong","steam_id":76561198142455488,"connected_time":493000000000,"state":"active","ping":56},{"user_id":1314,"name":"LeTonzy","steam_id":76561198005806699,"connected_time":3329000000000,"state":"active","ping":118},{"user_id":1341,"name":"CreateADebate","steam_id":76561198115760035,"connected_time":541000000000,"state":"active","ping":70},{"user_id":1305,"name":"vroop","steam_id":76561198211781375,"connected_time":4424000000000,"state":"active","ping":194},{"user_id":1324,"name":"fingerbib","steam_id":76561198148132163,"connected_time":2502000000000,"state":"active","ping":77},{"user_id":1346,"name":"watchfull","steam_id":76561198433266742,"connected_time":64000000000,"state":"active","ping":113},{"user_id":1345,"name":"kametro4","steam_id":76561198835430429,"connected_time":193000000000,"state":"active","ping":104},{"user_id":1340,"name":"Tripp","steam_id":76561198411779080,"connected_time":627000000000,"state":"active","ping":82},{"user_id":1325,"name":"xZackAttack27x","steam_id":76561198035446639,"connected_time":2477000000000,"state":"active","ping":59},{"user_id":1347,"name":"YoyoHurtado","steam_id":76561198042218392,"connected_time":44000000000,"state":"active","ping":68},{"user_id":1227,"name":"PaintMyMeow","steam_id":76561198056860387,"connected_time":9865000000000,"state":"active","ping":82},{"user_id":1339,"name":"nickleodeonfan449","steam_id":76561198073967747,"connected_time":797000000000,"state":"active","ping":102},{"user_id":1247,"name":"crusherty7","steam_id":76561199158729541,"connected_time":8652000000000,"state":"active","ping":56}]},{"server_id":400,"name":"Uncletopia | Atlanta | 3 | Stopwatch Beta","name_short":"atl-3","host":"atl-1.us.uncletopia.com","port":27035,"enabled":true,"region":"us-east","cc":"us","latitude":33.753746,"longitude":-84.38633,"reserved":0,"last_update":"0001-01-01T00:00:00Z","name_a2s":"Uncletopia | Atlanta | 3 | Stopwatch Beta","protocol":17,"map":"pl_borneo","folder":"tf","game":"Team Fortress","app_id":440,"player_count":0,"max_players":24,"Bots":0,"server_type":"Dedicated","server_os":"Linux","password":true,"vac":true,"version":"7723704","steam_id":85568392924515187,"keywords":["nocrits","nodmgspread","payload","uncletopia"],"game_id":440,"stv_port":27036,"stv_name":"Uncletopia | Atlanta | 3 | Stopwatch Beta | STV","players":null},{"server_id":401,"name":"Uncletopia | Atlanta | 4 | No Payload","name_short":"atl-4","host":"atl-1.us.uncletopia.com","port":27045,"enabled":true,"region":"us-east","cc":"us","latitude":33.753746,"longitude":-84.38633,"reserved":0,"last_update":"0001-01-01T00:00:00Z","name_a2s":"Uncletopia | Atlanta | 4 | No Payload","protocol":17,"map":"koth_badlands","folder":"tf","game":"Team Fortress","app_id":440,"player_count":0,"max_players":24,"Bots":0,"server_type":"Dedicated","server_os":"Linux","password":true,"vac":true,"version":"7723704","steam_id":85568392924515188,"keywords":["cp","nocrits","nodmgspread","uncletopia"],"game_id":440,"stv_port":27046,"stv_name":"Uncletopia | Atlanta | 4 | No Payload | STV","players":null},{"server_id":2,"name":"Uncletopia | Chicago | 1 | All Maps","name_short":"chi-1","host":"chi-1.us.uncletopia.com","port":27015,"enabled":true,"region":"us-central","cc":"us","latitude":41.881832,"longitude":-87.62318,"reserved":0,"last_update":"0001-01-01T00:00:00Z","name_a2s":"Uncletopia | Chicago | 1 | All Maps","protocol":17,"map":"pl_swiftwater_final1","folder":"tf","game":"Team Fortress","app_id":440,"player_count":0,"max_players":24,"Bots":0,"server_type":"Dedicated","server_os":"Linux","password":true,"vac":true,"version":"7723704","steam_id":85568392924469984,"keywords":["nocrits","nodmgspread","payload","uncletopia"],"game_id":440,"stv_port":27016,"stv_name":"Uncletopia | Chicago | 1 | All Maps | STV","players":null},{"server_id":106,"name":"Uncletopia | Chicago | 2 | All Maps","name_short":"chi-2","host":"chi-1.us.uncletopia.com","port":27025,"enabled":true,"region":"us-central","cc":"us","latitude":41.881832,"longitude":-87.62318,"reserved":0,"last_update":"0001-01-01T00:00:00Z","name_a2s":"Uncletopia | Chicago | 2 | All Maps","protocol":17,"map":"pl_swiftwater_final1","folder":"tf","game":"Team Fortress","app_id":440,"player_count":24,"max_players":24,"Bots":0,"server_type":"Dedicated","server_os":"Linux","password":true,"vac":true,"version":"7723704","steam_id":85568392924469985,"keywords":["nocrits","nodmgspread","payload","uncletopia"],"game_id":440,"stv_port":27026,"stv_name":"Uncletopia | Chicago | 2 | All Maps | STV","players":[{"user_id":767,"name":"Vladikr1","steam_id":76561198401495362,"connected_time":2093000000000,"state":"active","ping":50},{"user_id":788,"name":"Rockgraham101","steam_id":76561198171740458,"connected_time":331000000000,"state":"active","ping":82},{"user_id":762,"name":"Purple brain","steam_id":76561198103924707,"connected_time":3059000000000,"state":"active","ping":53},{"user_id":791,"name":"BigBeefinDong","steam_id":76561198864096803,"connected_time":223000000000,"state":"active","ping":81},{"user_id":747,"name":"SRV","steam_id":76561198026589960,"connected_time":3926000000000,"state":"active","ping":53},{"user_id":693,"name":"daemon","steam_id":76561198001541433,"connected_time":8220000000000,"state":"active","ping":54},{"user_id":744,"name":"zomg","steam_id":76561199215821942,"connected_time":4511000000000,"state":"active","ping":72},{"user_id":695,"name":"Jeremy","steam_id":76561198286240347,"connected_time":8213000000000,"state":"active","ping":55},{"user_id":784,"name":"Gizzmo","steam_id":76561198082085988,"connected_time":840000000000,"state":"active","ping":68},{"user_id":755,"name":"C papi","steam_id":76561198027779564,"connected_time":3677000000000,"state":"active","ping":54},{"user_id":706,"name":"papersamurai","steam_id":76561198313608698,"connected_time":7614000000000,"state":"active","ping":57},{"user_id":736,"name":"floofy","steam_id":76561198389769098,"connected_time":4702000000000,"state":"active","ping":79},{"user_id":790,"name":"yaoi waoi","steam_id":76561198046073848,"connected_time":309000000000,"state":"active","ping":91},{"user_id":766,"name":"Father Bob","steam_id":76561197961329340,"connected_time":2119000000000,"state":"active","ping":65},{"user_id":792,"name":"Mouth Tea","steam_id":76561198285054047,"connected_time":178000000000,"state":"active","ping":78},{"user_id":779,"name":"Weihnachtsuchen","steam_id":76561198079448618,"connected_time":1483000000000,"state":"active","ping":91},{"user_id":761,"name":"duneblaster0","steam_id":76561198040364680,"connected_time":3186000000000,"state":"active","ping":48},{"user_id":752,"name":"howtobepker","steam_id":76561198115053865,"connected_time":3863000000000,"state":"active","ping":80},{"user_id":756,"name":"sweaterfan","steam_id":76561199389567214,"connected_time":3592000000000,"state":"active","ping":62},{"user_id":770,"name":"MoonWolf","steam_id":76561198095735033,"connected_time":2008000000000,"state":"active","ping":99},{"user_id":778,"name":"WoHBilly","steam_id":76561198125307221,"connected_time":1579000000000,"state":"active","ping":82},{"user_id":775,"name":"Dill","steam_id":76561197985091914,"connected_time":1738000000000,"state":"active","ping":63},{"user_id":781,"name":"viagra addict","steam_id":76561198017705248,"connected_time":1220000000000,"state":"active","ping":45},{"user_id":787,"name":"Big Fig","steam_id":76561198035454162,"connected_time":357000000000,"state":"active","ping":70}]},{"server_id":402,"name":"Uncletopia | Chicago | 3 | All Maps","name_short":"chi-3","host":"chi-1.us.uncletopia.com","port":27035,"enabled":true,"region":"us-central","cc":"us","latitude":41.881832,"longitude":-87.62318,"reserved":0,"last_update":"0001-01-01T00:00:00Z","name_a2s":"Uncletopia | Chicago | 3 | All Maps","protocol":17,"map":"koth_highpass","folder":"tf","game":"Team Fortress","app_id":440,"player_count":0,"max_players":24,"Bots":0,"server_type":"Dedicated","server_os":"Linux","password":true,"vac":true,"version":"7723704","steam_id":85568392924515191,"keywords":["cp","nocrits","nodmgspread","uncletopia"],"game_id":440,"stv_port":27036,"stv_name":"Uncletopia | Chicago | 3 | All Maps | STV","players":null},{"server_id":403,"name":"Uncletopia | Chicago | 4 | All Maps","name_short":"chi-4","host":"chi-1.us.uncletopia.com","port":27045,"enabled":true,"region":"us-central","cc":"us","latitude":41.881832,"longitude":-87.62318,"reserved":0,"last_update":"0001-01-01T00:00:00Z","name_a2s":"Uncletopia | Chicago | 4 | All Maps","protocol":17,"map":"koth_cascade","folder":"tf","game":"Team Fortress","app_id":440,"player_count":0,"max_players":24,"Bots":0,"server_type":"Dedicated","server_os":"Linux","password":true,"vac":true,"version":"7723704","steam_id":85568392924515193,"keywords":["cp","nocrits","nodmgspread","uncletopia"],"game_id":440,"stv_port":27046,"stv_name":"Uncletopia | Chicago | 4 | All Maps | STV","players":null},{"server_id":36,"name":"Uncletopia | Chicago | 5 | All Maps","name_short":"chi-5","host":"chi-2.us.uncletopia.com","port":27015,"enabled":true,"region":"us-central","cc":"us","latitude":41.881832,"longitude":-87.62318,"reserved":0,"last_update":"0001-01-01T00:00:00Z","name_a2s":"Uncletopia | Chicago | 5 | All Maps","protocol":17,"map":"pl_barnblitz","folder":"tf","game":"Team Fortress","app_id":440,"player_count":0,"max_players":24,"Bots":0,"server_type":"Dedicated","server_os":"Linux","password":true,"vac":true,"version":"7723704","steam_id":85568392924866362,"keywords":["nocrits","nodmgspread","payload","uncletopia"],"game_id":440,"stv_port":27016,"stv_name":"Uncletopia | Chicago | 5 | All Maps | STV","players":null},{"server_id":37,"name":"Uncletopia | Chicago | 6 | All Maps","name_short":"chi-6","host":"chi-2.us.uncletopia.com","port":27025,"enabled":true,"region":"us-central","cc":"us","latitude":41.881832,"longitude":-87.62318,"reserved":0,"last_update":"0001-01-01T00:00:00Z","name_a2s":"Uncletopia | Chicago | 6 | All Maps","protocol":17,"map":"koth_cascade","folder":"tf","game":"Team Fortress","app_id":440,"player_count":0,"max_players":24,"Bots":0,"server_type":"Dedicated","server_os":"Linux","password":true,"vac":true,"version":"7723704","steam_id":85568392924866363,"keywords":["cp","nocrits","nodmgspread","uncletopia"],"game_id":440,"stv_port":27026,"stv_name":"Uncletopia | Chicago | 6 | All Maps | STV","players":null},{"server_id":38,"name":"Uncletopia | Chicago | 7 | Stopwatch Beta","name_short":"chi-7","host":"chi-2.us.uncletopia.com","port":27035,"enabled":true,"region":"us-central","cc":"us","latitude":41.881832,"longitude":-87.62318,"reserved":0,"last_update":"0001-01-01T00:00:00Z","name_a2s":"Uncletopia | Chicago | 7 | Stopwatch Beta","protocol":17,"map":"workshop/koth_clearcut_b15.ugc2107050255","folder":"tf","game":"Team Fortress","app_id":440,"player_count":0,"max_players":24,"Bots":0,"server_type":"Dedicated","server_os":"Linux","password":true,"vac":true,"version":"7723704","steam_id":85568392924866364,"keywords":["cp","nocrits","nodmgspread","uncletopia"],"game_id":440,"stv_port":27036,"stv_name":"Uncletopia | Chicago | 7 | Stopwatch Beta | STV","players":null},{"server_id":39,"name":"Uncletopia | Chicago | 8 | Community","name_short":"chi-8","host":"chi-2.us.uncletopia.com","port":27045,"enabled":true,"region":"us-central","cc":"us","latitude":41.881832,"longitude":-87.62318,"reserved":0,"last_update":"0001-01-01T00:00:00Z","name_a2s":"Uncletopia | Chicago | 8 | Community","protocol":17,"map":"workshop/cp_overgrown_rc7b.ugc503939302","folder":"tf","game":"Team Fortress","app_id":440,"player_count":0,"max_players":24,"Bots":0,"server_type":"Dedicated","server_os":"Linux","password":true,"vac":true,"version":"7723704","steam_id":85568392924866365,"keywords":["cp","nocrits","nodmgspread","uncletopia"],"game_id":440,"stv_port":27046,"stv_name":"Uncletopia | Chicago | 8 | Community | STV","players":null},{"server_id":8,"name":"Uncletopia | Dallas | 1 | All Maps","name_short":"dal-1","host":"dal-1.us.uncletopia.com","port":27015,"enabled":true,"region":"us-central","cc":"us","latitude":32.779167,"longitude":-96.80889,"reserved":0,"last_update":"0001-01-01T00:00:00Z","name_a2s":"Uncletopia | Dallas | 1 | All Maps","protocol":17,"map":"pl_barnblitz","folder":"tf","game":"Team Fortress","app_id":440,"player_count":24,"max_players":24,"Bots":0,"server_type":"Dedicated","server_os":"Linux","password":true,"vac":true,"version":"7723704","steam_id":85568392924469986,"keywords":["nocrits","nodmgspread","payload","uncletopia"],"game_id":440,"stv_port":27016,"stv_name":"Uncletopia | Dallas | 1 | All Maps | STV","players":[{"user_id":932,"name":"BeyondInsanity","steam_id":76561198043856409,"connected_time":260000000000,"state":"active","ping":63},{"user_id":897,"name":"FG7","steam_id":76561198381197197,"connected_time":1927000000000,"state":"active","ping":145},{"user_id":927,"name":"Buffy","steam_id":76561198083222227,"connected_time":343000000000,"state":"active","ping":92},{"user_id":919,"name":"Bootstrap","steam_id":76561199110353614,"connected_time":860000000000,"state":"active","ping":83},{"user_id":923,"name":"JINJI","steam_id":76561198311686677,"connected_time":449000000000,"state":"active","ping":47},{"user_id":918,"name":"majormace64","steam_id":76561198045078098,"connected_time":926000000000,"state":"active","ping":71},{"user_id":926,"name":"al.vasiglev","steam_id":76561198307359545,"connected_time":375000000000,"state":"active","ping":83},{"user_id":924,"name":"no sound (no smell)","steam_id":76561198062712676,"connected_time":433000000000,"state":"active","ping":97},{"user_id":881,"name":"Fever Dreams","steam_id":76561198116614620,"connected_time":2614000000000,"state":"active","ping":66},{"user_id":920,"name":"ihave80hp","steam_id":76561199251621911,"connected_time":850000000000,"state":"active","ping":73},{"user_id":929,"name":"stockhack","steam_id":76561198050220225,"connected_time":321000000000,"state":"active","ping":90},{"user_id":745,"name":"namaste at home dad","steam_id":76561198056971063,"connected_time":13671000000000,"state":"active","ping":59},{"user_id":858,"name":"HammerHead","steam_id":76561197975668646,"connected_time":3880000000000,"state":"active","ping":54},{"user_id":930,"name":"Tenrou","steam_id":76561198061448188,"connected_time":318000000000,"state":"active","ping":95},{"user_id":878,"name":"lil Fufu","steam_id":76561198072523325,"connected_time":2730000000000,"state":"active","ping":51},{"user_id":931,"name":"plink","steam_id":76561198057829889,"connected_time":313000000000,"state":"active","ping":93},{"user_id":903,"name":"Lt. Shrub","steam_id":76561198136621952,"connected_time":1727000000000,"state":"active","ping":81},{"user_id":933,"name":"Grogly_Lazy","steam_id":76561198160237448,"connected_time":247000000000,"state":"active","ping":91},{"user_id":880,"name":"Newt","steam_id":76561198842909288,"connected_time":2679000000000,"state":"active","ping":78},{"user_id":934,"name":"Mrluigi1111111","steam_id":76561198284677119,"connected_time":232000000000,"state":"active","ping":95},{"user_id":891,"name":"Fumohuxi Viriphyto","steam_id":76561198369395636,"connected_time":2294000000000,"state":"active","ping":103},{"user_id":902,"name":"Russo the DHonK Wizard","steam_id":76561198108645097,"connected_time":1777000000000,"state":"active","ping":56},{"user_id":883,"name":"Zorlovo","steam_id":76561198006443283,"connected_time":2585000000000,"state":"active","ping":77},{"user_id":907,"name":"Rise for the National Spamton","steam_id":76561198138468982,"connected_time":1567000000000,"state":"active","ping":107}]},{"server_id":108,"name":"Uncletopia | Dallas | 2 | All Maps","name_short":"dal-2","host":"dal-1.us.uncletopia.com","port":27025,"enabled":true,"region":"us-central","cc":"us","latitude":32.779167,"longitude":-96.80889,"reserved":0,"last_update":"0001-01-01T00:00:00Z","name_a2s":"Uncletopia | Dallas | 2 | All Maps","protocol":17,"map":"pl_borneo","folder":"tf","game":"Team Fortress","app_id":440,"player_count":0,"max_players":24,"Bots":0,"server_type":"Dedicated","server_os":"Linux","password":true,"vac":true,"version":"7723704","steam_id":85568392924469988,"keywords":["nocrits","nodmgspread","payload","uncletopia"],"game_id":440,"stv_port":27026,"stv_name":"Uncletopia | Dallas | 2 | All Maps | STV","players":null},{"server_id":5,"name":"Uncletopia | Frankfurt | 1 | All Maps","name_short":"frk-1","host":"frk-1.de.uncletopia.com","port":27015,"enabled":true,"region":"eu","cc":"de","latitude":50.110924,"longitude":8.682127,"reserved":0,"last_update":"0001-01-01T00:00:00Z","name_a2s":"Uncletopia | Frankfurt | 1 | All Maps","protocol":17,"map":"pl_pier","folder":"tf","game":"Team Fortress","app_id":440,"player_count":0,"max_players":24,"Bots":0,"server_type":"Dedicated","server_os":"Linux","password":true,"vac":true,"version":"7723704","steam_id":85568392924469989,"keywords":["nocrits","nodmgspread","payload","uncletopia"],"game_id":440,"stv_port":27016,"stv_name":"Uncletopia | Frankfurt | 1 | All Maps | STV","players":null},{"server_id":110,"name":"Uncletopia | Frankfurt | 2 | All Maps","name_short":"frk-2","host":"frk-1.de.uncletopia.com","port":27025,"enabled":true,"region":"eu","cc":"de","latitude":50.110924,"longitude":8.682127,"reserved":0,"last_update":"0001-01-01T00:00:00Z","name_a2s":"Uncletopia | Frankfurt | 2 | All Maps","protocol":17,"map":"cp_snakewater_final1","folder":"tf","game":"Team Fortress","app_id":440,"player_count":0,"max_players":24,"Bots":0,"server_type":"Dedicated","server_os":"Linux","password":true,"vac":true,"version":"7723704","steam_id":85568392924469990,"keywords":["cp","nocrits","nodmgspread","uncletopia"],"game_id":440,"stv_port":27026,"stv_name":"Uncletopia | Frankfurt | 2 | All Maps | STV","players":null},{"server_id":308,"name":"Uncletopia | Frankfurt | 3 | All Maps","name_short":"frk-3","host":"frk-1.de.uncletopia.com","port":27035,"enabled":true,"region":"eu","cc":"de","latitude":50.110924,"longitude":8.682127,"reserved":0,"last_update":"0001-01-01T00:00:00Z","name_a2s":"Uncletopia | Frankfurt | 3 | All Maps","protocol":17,"map":"pl_barnblitz","folder":"tf","game":"Team Fortress","app_id":440,"player_count":0,"max_players":24,"Bots":0,"server_type":"Dedicated","server_os":"Linux","password":true,"vac":true,"version":"7723704","steam_id":85568392924504274,"keywords":["nocrits","nodmgspread","payload","uncletopia"],"game_id":440,"stv_port":27036,"stv_name":"Uncletopia | Frankfurt | 3 | All Maps | STV","players":null},{"server_id":309,"name":"Uncletopia | Frankfurt | 4 | All Maps","name_short":"frk-4","host":"frk-1.de.uncletopia.com","port":27045,"enabled":true,"region":"eu","cc":"de","latitude":50.110924,"longitude":8.682127,"reserved":0,"last_update":"0001-01-01T00:00:00Z","name_a2s":"Uncletopia | Frankfurt | 4 | All Maps","protocol":17,"map":"cp_process_final","folder":"tf","game":"Team Fortress","app_id":440,"player_count":0,"max_players":24,"Bots":0,"server_type":"Dedicated","server_os":"Linux","password":true,"vac":true,"version":"7723704","steam_id":85568392924504275,"keywords":["cp","nocrits","nodmgspread","uncletopia"],"game_id":440,"stv_port":27046,"stv_name":"Uncletopia | Frankfurt | 4 | All Maps | STV","players":null},{"server_id":310,"name":"Uncletopia | Frankfurt | 5 | All Maps","name_short":"frk-5","host":"frk-1.de.uncletopia.com","port":27055,"enabled":true,"region":"eu","cc":"de","latitude":50.110924,"longitude":8.682127,"reserved":0,"last_update":"0001-01-01T00:00:00Z","name_a2s":"Uncletopia | Frankfurt | 5 | All Maps","protocol":17,"map":"koth_lakeside_final","folder":"tf","game":"Team Fortress","app_id":440,"player_count":2,"max_players":24,"Bots":0,"server_type":"Dedicated","server_os":"Linux","password":true,"vac":true,"version":"7723704","steam_id":85568392924504277,"keywords":["cp","nocrits","nodmgspread","uncletopia"],"game_id":440,"stv_port":27056,"stv_name":"Uncletopia | Frankfurt | 5 | All Maps | STV","players":[{"user_id":6,"name":"Light601","steam_id":76561198134998492,"connected_time":435000000000,"state":"active","ping":82},{"user_id":7,"name":"LesaPán","steam_id":76561198158691758,"connected_time":194000000000,"state":"active","ping":71}]},{"server_id":311,"name":"Uncletopia | Frankfurt | 6 | All Maps","name_short":"frk-6","host":"frk-1.de.uncletopia.com","port":27065,"enabled":true,"region":"eu","cc":"de","latitude":50.110924,"longitude":8.682127,"reserved":0,"last_update":"0001-01-01T00:00:00Z","name_a2s":"Uncletopia | Frankfurt | 6 | All Maps","protocol":17,"map":"pl_upward","folder":"tf","game":"Team Fortress","app_id":440,"player_count":0,"max_players":24,"Bots":0,"server_type":"Dedicated","server_os":"Linux","password":true,"vac":true,"version":"7723704","steam_id":85568392924504278,"keywords":["nocrits","nodmgspread","payload","uncletopia"],"game_id":440,"stv_port":27066,"stv_name":"Uncletopia | Frankfurt | 6 | All Maps | STV","players":null},{"server_id":23,"name":"Uncletopia | Frankfurt | 7 | Stopwatch Beta","name_short":"frk-7","host":"frk-1.de.uncletopia.com","port":27075,"enabled":true,"region":"eu","cc":"de","latitude":50.110924,"longitude":8.682127,"reserved":0,"last_update":"0001-01-01T00:00:00Z","name_a2s":"Uncletopia | Frankfurt | 7 | Stopwatch Beta","protocol":17,"map":"koth_viaduct","folder":"tf","game":"Team Fortress","app_id":440,"player_count":0,"max_players":24,"Bots":0,"server_type":"Dedicated","server_os":"Linux","password":true,"vac":true,"version":"7723704","steam_id":85568392924742827,"keywords":["cp","nocrits","nodmgspread","uncletopia"],"game_id":440,"stv_port":27076,"stv_name":"Uncletopia | Frankfurt | 7 | Stopwatch Beta | STV","players":null},{"server_id":24,"name":"Uncletopia | Frankfurt | 8 | Community","name_short":"frk-8","host":"frk-1.de.uncletopia.com","port":27085,"enabled":true,"region":"eu","cc":"de","latitude":50.110924,"longitude":8.682127,"reserved":0,"last_update":"0001-01-01T00:00:00Z","name_a2s":"Uncletopia | Frankfurt | 8 | Community","protocol":17,"map":"pl_frontier_final","folder":"tf","game":"Team Fortress","app_id":440,"player_count":0,"max_players":24,"Bots":0,"server_type":"Dedicated","server_os":"Linux","password":true,"vac":true,"version":"7723704","steam_id":85568392924742828,"keywords":["nocrits","nodmgspread","payload","uncletopia"],"game_id":440,"stv_port":27086,"stv_name":"Uncletopia | Frankfurt | 8 | Community | STV","players":null},{"server_id":202,"name":"Uncletopia | Hong Kong | 1 | All Maps","name_short":"hgk-1","host":"hgk-1.hk.uncletopia.com","port":27015,"enabled":true,"region":"asia","cc":"hk","latitude":22.302711,"longitude":114.177216,"reserved":0,"last_update":"0001-01-01T00:00:00Z","name_a2s":"Uncletopia | Hong Kong | 1 | All Maps","protocol":17,"map":"pl_badwater","folder":"tf","game":"Team Fortress","app_id":440,"player_count":25,"max_players":24,"Bots":0,"server_type":"Dedicated","server_os":"Linux","password":true,"vac":true,"version":"7723704","steam_id":85568392924494504,"keywords":["nocrits","nodmgspread","payload","uncletopia"],"game_id":440,"stv_port":27016,"stv_name":"Uncletopia | Hong Kong | 1 | All Maps | STV","players":[{"user_id":337,"name":"Noyour","steam_id":76561198323259830,"connected_time":2007000000000,"state":"active","ping":115},{"user_id":305,"name":"Festive Redmond :D","steam_id":76561198056390902,"connected_time":3325000000000,"state":"active","ping":63},{"user_id":331,"name":"Mashiro","steam_id":76561199204487722,"connected_time":2361000000000,"state":"active","ping":100},{"user_id":281,"name":"F2PJJ_11037☺","steam_id":76561199152956168,"connected_time":4742000000000,"state":"active","ping":126},{"user_id":376,"name":"Kenos234","steam_id":76561199183803664,"connected_time":751000000000,"state":"active","ping":134},{"user_id":362,"name":"LOLGAL","steam_id":76561198347418251,"connected_time":1118000000000,"state":"active","ping":78},{"user_id":295,"name":"hit me with a brick for Xmas","steam_id":76561198860895927,"connected_time":3930000000000,"state":"active","ping":79},{"user_id":364,"name":"aeross","steam_id":76561198834445483,"connected_time":1073000000000,"state":"active","ping":69},{"user_id":306,"name":"Krayken","steam_id":76561197997933283,"connected_time":3280000000000,"state":"active","ping":89},{"user_id":332,"name":"Junsei","steam_id":76561199088984886,"connected_time":2279000000000,"state":"active","ping":69},{"user_id":338,"name":"vickkkkkk","steam_id":76561198400698408,"connected_time":1860000000000,"state":"active","ping":88},{"user_id":348,"name":"bookman","steam_id":76561198989168133,"connected_time":1628000000000,"state":"active","ping":90},{"user_id":406,"name":"Silungar","steam_id":76561199043530432,"connected_time":6000000000,"state":"spawning","ping":336},{"user_id":369,"name":"sad music for horny people","steam_id":76561198413116920,"connected_time":974000000000,"state":"active","ping":83},{"user_id":322,"name":"screaming sniper","steam_id":76561199085568674,"connected_time":2725000000000,"state":"active","ping":74},{"user_id":279,"name":"The Average Spy","steam_id":76561199080783149,"connected_time":4935000000000,"state":"active","ping":107},{"user_id":370,"name":"TheSticky_Studio","steam_id":76561198428683022,"connected_time":967000000000,"state":"active","ping":71},{"user_id":396,"name":"Mechanic from tc2","steam_id":76561199198665314,"connected_time":121000000000,"state":"active","ping":73},{"user_id":330,"name":"Lym0n","steam_id":76561199192420260,"connected_time":2615000000000,"state":"active","ping":115},{"user_id":380,"name":"sett.","steam_id":76561199010718657,"connected_time":551000000000,"state":"active","ping":80},{"user_id":267,"name":"dkrgrptgj","steam_id":76561199445694770,"connected_time":5632000000000,"state":"active","ping":95},{"user_id":164,"name":"Zacy","steam_id":76561198114841670,"connected_time":15763000000000,"state":"active","ping":69},{"user_id":395,"name":"Zifr","steam_id":76561198176320871,"connected_time":133000000000,"state":"active","ping":86},{"user_id":268,"name":"Rev3lation","steam_id":76561198935157203,"connected_time":5609000000000,"state":"active","ping":97},{"user_id":352,"name":"big poo (training arc)","steam_id":76561199104552936,"connected_time":1280000000000,"state":"active","ping":82}]},{"server_id":1,"name":"Uncletopia | Los Angeles | 1 | All Maps","name_short":"lax-1","host":"lax-1.us.uncletopia.com","port":27015,"enabled":true,"region":"us-west","cc":"us","latitude":33.94279,"longitude":-118.41004,"reserved":0,"last_update":"0001-01-01T00:00:00Z","name_a2s":"Uncletopia | Los Angeles | 1 | All Maps","protocol":17,"map":"cp_altitude","folder":"tf","game":"Team Fortress","app_id":440,"player_count":0,"max_players":24,"Bots":0,"server_type":"Dedicated","server_os":"Linux","password":true,"vac":true,"version":"7723704","steam_id":85568392924469991,"keywords":["cp","nocrits","nodmgspread","uncletopia"],"game_id":440,"stv_port":27016,"stv_name":"Uncletopia | Los Angeles | 1 | All Maps | STV","players":null},{"server_id":112,"name":"Uncletopia | Los Angeles | 2 | All Maps","name_short":"lax-2","host":"lax-1.us.uncletopia.com","port":27025,"enabled":true,"region":"us-west","cc":"us","latitude":33.94279,"longitude":-118.41004,"reserved":0,"last_update":"0001-01-01T00:00:00Z","name_a2s":"Uncletopia | Los Angeles | 2 | All Maps","protocol":17,"map":"koth_cascade","folder":"tf","game":"Team Fortress","app_id":440,"player_count":0,"max_players":24,"Bots":0,"server_type":"Dedicated","server_os":"Linux","password":true,"vac":true,"version":"7723704","steam_id":85568392924469992,"keywords":["cp","nocrits","nodmgspread","uncletopia"],"game_id":440,"stv_port":27026,"stv_name":"Uncletopia | Los Angeles | 2 | All Maps | STV","players":null},{"server_id":324,"name":"Uncletopia | Los Angeles | 3 | All Maps","name_short":"lax-3","host":"lax-1.us.uncletopia.com","port":27035,"enabled":true,"region":"us-west","cc":"us","latitude":33.94279,"longitude":-118.41004,"reserved":0,"last_update":"0001-01-01T00:00:00Z","name_a2s":"Uncletopia | Los Angeles | 3 | All Maps","protocol":17,"map":"koth_harvest_final","folder":"tf","game":"Team Fortress","app_id":440,"player_count":13,"max_players":24,"Bots":0,"server_type":"Dedicated","server_os":"Linux","password":true,"vac":true,"version":"7723704","steam_id":85568392924510198,"keywords":["cp","nocrits","nodmgspread","uncletopia"],"game_id":440,"stv_port":27036,"stv_name":"Uncletopia | Los Angeles | 3 | All Maps | STV","players":[{"user_id":480,"name":"WeAreTheSpirits","steam_id":76561198191555728,"connected_time":170000000000,"state":"active","ping":45},{"user_id":478,"name":"goldhed","steam_id":76561198051751133,"connected_time":433000000000,"state":"active","ping":81},{"user_id":476,"name":"brobtlcehc","steam_id":76561198043558709,"connected_time":637000000000,"state":"active","ping":63},{"user_id":407,"name":"benglengler","steam_id":76561198150137369,"connected_time":6877000000000,"state":"active","ping":43},{"user_id":477,"name":"Florist","steam_id":76561198009121060,"connected_time":631000000000,"state":"active","ping":75},{"user_id":473,"name":"scoot","steam_id":76561198422395239,"connected_time":1011000000000,"state":"active","ping":44},{"user_id":438,"name":"methanar/brandon","steam_id":76561198049489349,"connected_time":4632000000000,"state":"active","ping":75},{"user_id":463,"name":"resh","steam_id":76561198239598834,"connected_time":2384000000000,"state":"active","ping":98},{"user_id":470,"name":"AGTheTitan","steam_id":76561198256014588,"connected_time":1677000000000,"state":"active","ping":49},{"user_id":416,"name":"Seriously Bruh","steam_id":76561198070408485,"connected_time":6498000000000,"state":"active","ping":75},{"user_id":455,"name":"itsudatte","steam_id":76561198048992536,"connected_time":3186000000000,"state":"active","ping":78},{"user_id":468,"name":"Timon's high on crack cocaine!","steam_id":76561198180396430,"connected_time":2060000000000,"state":"active","ping":60},{"user_id":467,"name":"i will marry you're dad.","steam_id":76561198208453395,"connected_time":2122000000000,"state":"active","ping":43}]},{"server_id":25,"name":"Uncletopia | Los Angeles | 4 | Stopwatch Beta","name_short":"lax-4","host":"lax-1.us.uncletopia.com","port":27045,"enabled":true,"region":"us-west","cc":"us","latitude":33.94279,"longitude":-118.41004,"reserved":0,"last_update":"0001-01-01T00:00:00Z","name_a2s":"Uncletopia | Los Angeles | 4 | Stopwatch Beta","protocol":17,"map":"workshop/pl_barnblitz_pro7.ugc582280235","folder":"tf","game":"Team Fortress","app_id":440,"player_count":0,"max_players":24,"Bots":0,"server_type":"Dedicated","server_os":"Linux","password":true,"vac":true,"version":"7723704","steam_id":85568392924510199,"keywords":["nocrits","nodmgspread","payload","uncletopia"],"game_id":440,"stv_port":27046,"stv_name":"Uncletopia | Los Angeles | 4 | Stopwatch Beta | STV","players":null},{"server_id":11,"name":"Uncletopia | London | 1 | All Maps","name_short":"lon-1","host":"lon-1.uk.uncletopia.com","port":27015,"enabled":true,"region":"eu","cc":"gb","latitude":51.509865,"longitude":-0.118092,"reserved":0,"last_update":"0001-01-01T00:00:00Z","name_a2s":"Uncletopia | London | 1 | All Maps","protocol":17,"map":"koth_viaduct","folder":"tf","game":"Team Fortress","app_id":440,"player_count":0,"max_players":24,"Bots":0,"server_type":"Dedicated","server_os":"Linux","password":true,"vac":true,"version":"7723704","steam_id":85568392924367362,"keywords":["cp","nocrits","nodmgspread","uncletopia"],"game_id":440,"stv_port":27016,"stv_name":"Uncletopia | London | 1 | All Maps | STV","players":null},{"server_id":114,"name":"Uncletopia | London | 2 | All Maps","name_short":"lon-2","host":"lon-1.uk.uncletopia.com","port":27025,"enabled":true,"region":"eu","cc":"gb","latitude":51.509865,"longitude":-0.118092,"reserved":0,"last_update":"0001-01-01T00:00:00Z","name_a2s":"Uncletopia | London | 2 | All Maps","protocol":17,"map":"cp_gorge","folder":"tf","game":"Team Fortress","app_id":440,"player_count":24,"max_players":24,"Bots":0,"server_type":"Dedicated","server_os":"Linux","password":true,"vac":true,"version":"7723704","steam_id":85568392924470941,"keywords":["cp","nocrits","nodmgspread","uncletopia"],"game_id":440,"stv_port":27026,"stv_name":"Uncletopia | London | 2 | All Maps | STV","players":[{"user_id":119,"name":"the","steam_id":76561198968160899,"connected_time":664000000000,"state":"active","ping":61},{"user_id":85,"name":"autistic luigi","steam_id":76561199218285040,"connected_time":3308000000000,"state":"active","ping":70},{"user_id":91,"name":"vani","steam_id":76561197991778291,"connected_time":2795000000000,"state":"active","ping":75},{"user_id":68,"name":"zek","steam_id":76561198862763731,"connected_time":4147000000000,"state":"active","ping":62},{"user_id":116,"name":"Perci","steam_id":76561198097789669,"connected_time":822000000000,"state":"active","ping":71},{"user_id":98,"name":"night.s","steam_id":76561198326287823,"connected_time":1929000000000,"state":"active","ping":84},{"user_id":111,"name":"♦Silvia♦","steam_id":76561198373039444,"connected_time":912000000000,"state":"active","ping":106},{"user_id":112,"name":"MAKENTAKEN","steam_id":76561199127359587,"connected_time":912000000000,"state":"active","ping":95},{"user_id":105,"name":"r0la","steam_id":76561198128315340,"connected_time":959000000000,"state":"active","ping":68},{"user_id":114,"name":"Iru","steam_id":76561198077602040,"connected_time":891000000000,"state":"active","ping":60},{"user_id":71,"name":"Azra","steam_id":76561198331351205,"connected_time":4067000000000,"state":"active","ping":88},{"user_id":122,"name":"rummy","steam_id":76561197997573379,"connected_time":611000000000,"state":"active","ping":47},{"user_id":113,"name":"dnz0","steam_id":76561199110766750,"connected_time":896000000000,"state":"active","ping":51},{"user_id":124,"name":"Uncle Lame","steam_id":76561198089003514,"connected_time":578000000000,"state":"active","ping":60},{"user_id":121,"name":"Lukas","steam_id":76561198009118452,"connected_time":633000000000,"state":"active","ping":59},{"user_id":107,"name":"makiverem","steam_id":76561198425866216,"connected_time":929000000000,"state":"active","ping":80},{"user_id":117,"name":"Abiogenez","steam_id":76561198000332215,"connected_time":820000000000,"state":"active","ping":74},{"user_id":62,"name":"PaWell","steam_id":76561198046860786,"connected_time":4476000000000,"state":"active","ping":85},{"user_id":125,"name":"bAdmon","steam_id":76561197961785793,"connected_time":298000000000,"state":"active","ping":47},{"user_id":104,"name":"yeldad","steam_id":76561198447264153,"connected_time":1624000000000,"state":"active","ping":108},{"user_id":80,"name":"\u003e.\u003c","steam_id":76561199216923710,"connected_time":3605000000000,"state":"active","ping":141},{"user_id":106,"name":"Mimo","steam_id":76561197974221343,"connected_time":945000000000,"state":"active","ping":90},{"user_id":123,"name":"Maerk","steam_id":76561199119121016,"connected_time":587000000000,"state":"active","ping":87},{"user_id":97,"name":"Johnny","steam_id":76561198880265246,"connected_time":2010000000000,"state":"active","ping":101}]},{"server_id":320,"name":"Uncletopia | London | 3 | All Maps","name_short":"lon-3","host":"lon-1.uk.uncletopia.com","port":27035,"enabled":true,"region":"eu","cc":"gb","latitude":51.509865,"longitude":-0.118092,"reserved":0,"last_update":"0001-01-01T00:00:00Z","name_a2s":"Uncletopia | London | 3 | All Maps","protocol":17,"map":"pl_snowycoast","folder":"tf","game":"Team Fortress","app_id":440,"player_count":5,"max_players":24,"Bots":0,"server_type":"Dedicated","server_os":"Linux","password":true,"vac":true,"version":"7723704","steam_id":85568392924510192,"keywords":["nocrits","nodmgspread","payload","uncletopia"],"game_id":440,"stv_port":27036,"stv_name":"Uncletopia | London | 3 | All Maps | STV","players":[{"user_id":4,"name":"still the best 1973 #savetf2","steam_id":76561199221139822,"connected_time":558000000000,"state":"active","ping":97},{"user_id":5,"name":"Eyencia","steam_id":76561198834995822,"connected_time":455000000000,"state":"active","ping":79},{"user_id":6,"name":"tori_spring #savetf2","steam_id":76561199375975842,"connected_time":203000000000,"state":"active","ping":43},{"user_id":7,"name":"vahas","steam_id":76561198173818374,"connected_time":149000000000,"state":"active","ping":87},{"user_id":8,"name":"arcticcu the croc","steam_id":76561198002435882,"connected_time":74000000000,"state":"active","ping":96}]},{"server_id":321,"name":"Uncletopia | London | 4 | All Maps","name_short":"lon-4","host":"lon-1.uk.uncletopia.com","port":27045,"enabled":true,"region":"eu","cc":"gb","latitude":51.509865,"longitude":-0.118092,"reserved":0,"last_update":"0001-01-01T00:00:00Z","name_a2s":"Uncletopia | London | 4 | All Maps","protocol":17,"map":"koth_lakeside_final","folder":"tf","game":"Team Fortress","app_id":440,"player_count":0,"max_players":24,"Bots":0,"server_type":"Dedicated","server_os":"Linux","password":true,"vac":true,"version":"7723704","steam_id":85568392924510193,"keywords":["cp","nocrits","nodmgspread","uncletopia"],"game_id":440,"stv_port":27046,"stv_name":"Uncletopia | London | 4 | All Maps | STV","players":null},{"server_id":21,"name":"Uncletopia | London | 5 | All Maps","name_short":"lon-5","host":"lon-1.uk.uncletopia.com","port":27055,"enabled":true,"region":"eu","cc":"gb","latitude":51.509865,"longitude":-0.118092,"reserved":0,"last_update":"0001-01-01T00:00:00Z","name_a2s":"Uncletopia | London | 5 | All Maps","protocol":17,"map":"cp_snakewater_final1","folder":"tf","game":"Team Fortress","app_id":440,"player_count":0,"max_players":24,"Bots":0,"server_type":"Dedicated","server_os":"Linux","password":true,"vac":true,"version":"7723704","steam_id":85568392924742829,"keywords":["cp","nocrits","nodmgspread","uncletopia"],"game_id":440,"stv_port":27056,"stv_name":"Uncletopia | London | 5 | All Maps | STV","players":null},{"server_id":22,"name":"Uncletopia | London | 6 | All Maps","name_short":"lon-6","host":"lon-1.uk.uncletopia.com","port":27065,"enabled":true,"region":"eu","cc":"gb","latitude":51.509865,"longitude":-0.118092,"reserved":0,"last_update":"0001-01-01T00:00:00Z","name_a2s":"Uncletopia | London | 6 | All Maps","protocol":17,"map":"cp_process_final","folder":"tf","game":"Team Fortress","app_id":440,"player_count":0,"max_players":24,"Bots":0,"server_type":"Dedicated","server_os":"Linux","password":true,"vac":true,"version":"7723704","steam_id":85568392924742830,"keywords":["cp","nocrits","nodmgspread","uncletopia"],"game_id":440,"stv_port":27066,"stv_name":"Uncletopia | London | 6 | All Maps | STV","players":null},{"server_id":40,"name":"Uncletopia | London | 7 | No Payload","name_short":"lon-7","host":"lon-1.uk.uncletopia.com","port":27075,"enabled":true,"region":"eu","cc":"gb","latitude":51.509865,"longitude":-0.118092,"reserved":0,"last_update":"0001-01-01T00:00:00Z","name_a2s":"Uncletopia | London | 7 | No Payload","protocol":17,"map":"koth_viaduct","folder":"tf","game":"Team Fortress","app_id":440,"player_count":0,"max_players":24,"Bots":0,"server_type":"Dedicated","server_os":"Linux","password":true,"vac":true,"version":"7723704","steam_id":85568392924964314,"keywords":["cp","nocrits","nodmgspread","uncletopia"],"game_id":440,"stv_port":27076,"stv_name":"Uncletopia | London | 7 | No Payload | STV","players":null},{"server_id":41,"name":"Uncletopia | London | 8 | Community","name_short":"lon-8","host":"lon-1.uk.uncletopia.com","port":27085,"enabled":true,"region":"eu","cc":"gb","latitude":51.509865,"longitude":-0.118092,"reserved":0,"last_update":"0001-01-01T00:00:00Z","name_a2s":"Uncletopia | London | 8 | Community","protocol":17,"map":"koth_highpass","folder":"tf","game":"Team Fortress","app_id":440,"player_count":0,"max_players":24,"Bots":0,"server_type":"Dedicated","server_os":"Linux","password":true,"vac":true,"version":"7723704","steam_id":85568392924964315,"keywords":["cp","nocrits","nodmgspread","uncletopia"],"game_id":440,"stv_port":27086,"stv_name":"Uncletopia | London | 8 | Community | STV","players":null},{"server_id":300,"name":"Uncletopia | Montréal | 1 | All Maps","name_short":"mtl-1","host":"mtl-1.ca.uncletopia.com","port":27015,"enabled":true,"region":"us-east","cc":"ca","latitude":45.50889,"longitude":-73.56167,"reserved":0,"last_update":"0001-01-01T00:00:00Z","name_a2s":"Uncletopia | Montréal | 1 | All Maps","protocol":17,"map":"koth_lakeside_final","folder":"tf","game":"Team Fortress","app_id":440,"player_count":0,"max_players":24,"Bots":0,"server_type":"Dedicated","server_os":"Linux","password":true,"vac":true,"version":"7723704","steam_id":85568392924500087,"keywords":["cp","nocrits","nodmgspread","uncletopia"],"game_id":440,"stv_port":27016,"stv_name":"Uncletopia | Montréal | 1 | All Maps | STV","players":null},{"server_id":301,"name":"Uncletopia | Montréal | 2 | All Maps","name_short":"mtl-2","host":"mtl-1.ca.uncletopia.com","port":27025,"enabled":true,"region":"us-east","cc":"ca","latitude":45.50889,"longitude":-73.56167,"reserved":0,"last_update":"0001-01-01T00:00:00Z","name_a2s":"Uncletopia | Montréal | 2 | All Maps","protocol":17,"map":"koth_cascade","folder":"tf","game":"Team Fortress","app_id":440,"player_count":0,"max_players":24,"Bots":0,"server_type":"Dedicated","server_os":"Linux","password":true,"vac":true,"version":"7723704","steam_id":85568392924500088,"keywords":["cp","nocrits","nodmgspread","uncletopia"],"game_id":440,"stv_port":27026,"stv_name":"Uncletopia | Montréal | 2 | All Maps | STV","players":null},{"server_id":302,"name":"Uncletopia | Montréal | 3 | All Maps","name_short":"mtl-3","host":"mtl-1.ca.uncletopia.com","port":27035,"enabled":true,"region":"us-east","cc":"ca","latitude":45.50889,"longitude":-73.56167,"reserved":0,"last_update":"0001-01-01T00:00:00Z","name_a2s":"Uncletopia | Montréal | 3 | All Maps","protocol":17,"map":"pl_barnblitz","folder":"tf","game":"Team Fortress","app_id":440,"player_count":0,"max_players":24,"Bots":0,"server_type":"Dedicated","server_os":"Linux","password":true,"vac":true,"version":"7723704","steam_id":85568392924500089,"keywords":["nocrits","nodmgspread","payload","uncletopia"],"game_id":440,"stv_port":27036,"stv_name":"Uncletopia | Montréal | 3 | All Maps | STV","players":null},{"server_id":303,"name":"Uncletopia | Montréal | 4 | No Payload","name_short":"mtl-4","host":"mtl-1.ca.uncletopia.com","port":27045,"enabled":true,"region":"us-east","cc":"ca","latitude":45.50889,"longitude":-73.56167,"reserved":0,"last_update":"0001-01-01T00:00:00Z","name_a2s":"Uncletopia | Montréal | 4 | No Payload","protocol":17,"map":"koth_cascade","folder":"tf","game":"Team Fortress","app_id":440,"player_count":0,"max_players":24,"Bots":0,"server_type":"Dedicated","server_os":"Linux","password":true,"vac":true,"version":"7723704","steam_id":85568392924500090,"keywords":["cp","nocrits","nodmgspread","uncletopia"],"game_id":440,"stv_port":27046,"stv_name":"Uncletopia | Montréal | 4 | No Payload | STV","players":null},{"server_id":13,"name":"Uncletopia | New York City | 1 | All Maps","name_short":"nyc-1","host":"nyc-1.us.uncletopia.com","port":27015,"enabled":true,"region":"us-east","cc":"us","latitude":40.73061,"longitude":-73.93524,"reserved":0,"last_update":"0001-01-01T00:00:00Z","name_a2s":"Uncletopia | New York City | 1 | All Maps","protocol":17,"map":"pl_swiftwater_final1","folder":"tf","game":"Team Fortress","app_id":440,"player_count":0,"max_players":24,"Bots":0,"server_type":"Dedicated","server_os":"Linux","password":true,"vac":true,"version":"7723704","steam_id":85568392924469993,"keywords":["nocrits","nodmgspread","payload","uncletopia"],"game_id":440,"stv_port":27016,"stv_name":"Uncletopia | New York City | 1 | All Maps | STV","players":null},{"server_id":14,"name":"Uncletopia | New York City | 2 | All Maps","name_short":"nyc-2","host":"nyc-1.us.uncletopia.com","port":27025,"enabled":true,"region":"us-east","cc":"us","latitude":40.73061,"longitude":-73.93524,"reserved":0,"last_update":"0001-01-01T00:00:00Z","name_a2s":"Uncletopia | New York City | 2 | All Maps","protocol":17,"map":"pl_pier","folder":"tf","game":"Team Fortress","app_id":440,"player_count":0,"max_players":24,"Bots":0,"server_type":"Dedicated","server_os":"Linux","password":true,"vac":true,"version":"7723704","steam_id":85568392924469994,"keywords":["nocrits","nodmgspread","payload","uncletopia"],"game_id":440,"stv_port":27026,"stv_name":"Uncletopia | New York City | 2 | All Maps | STV","players":null},{"server_id":15,"name":"Uncletopia | New York City | 3 | Stopwatch Beta","name_short":"nyc-3","host":"nyc-1.us.uncletopia.com","port":27035,"enabled":true,"region":"us-east","cc":"us","latitude":40.73061,"longitude":-73.93524,"reserved":0,"last_update":"0001-01-01T00:00:00Z","name_a2s":"Uncletopia | New York City | 3 | Stopwatch Beta","protocol":17,"map":"cp_sunshine","folder":"tf","game":"Team Fortress","app_id":440,"player_count":0,"max_players":24,"Bots":0,"server_type":"Dedicated","server_os":"Linux","password":true,"vac":true,"version":"7723704","steam_id":85568392924742820,"keywords":["cp","nocrits","nodmgspread","uncletopia"],"game_id":440,"stv_port":27036,"stv_name":"Uncletopia | New York City | 3 | Stopwatch Beta | STV","players":null},{"server_id":16,"name":"Uncletopia | New York City | 4 | Community","name_short":"nyc-4","host":"nyc-1.us.uncletopia.com","port":27045,"enabled":true,"region":"us-east","cc":"us","latitude":40.73061,"longitude":-73.93524,"reserved":0,"last_update":"0001-01-01T00:00:00Z","name_a2s":"Uncletopia | New York City | 4 | Community","protocol":17,"map":"workshop/koth_synthetic_rc6a.ugc1549817316","folder":"tf","game":"Team Fortress","app_id":440,"player_count":0,"max_players":24,"Bots":0,"server_type":"Dedicated","server_os":"Linux","password":true,"vac":true,"version":"7723704","steam_id":85568392924742821,"keywords":["cp","nocrits","nodmgspread","uncletopia"],"game_id":440,"stv_port":27046,"stv_name":"Uncletopia | New York City | 4 | Community | STV","players":null},{"server_id":142,"name":"Uncletopia | São Paulo | 1 | All Maps","name_short":"sao-1","host":"sao-1.br.uncletopia.com","port":27015,"enabled":true,"region":"sa","cc":"br","latitude":-23.533773,"longitude":-46.62529,"reserved":0,"last_update":"0001-01-01T00:00:00Z","name_a2s":"Uncletopia | São Paulo | 1 | All Maps","protocol":17,"map":"pl_barnblitz","folder":"tf","game":"Team Fortress","app_id":440,"player_count":0,"max_players":24,"Bots":0,"server_type":"Dedicated","server_os":"Linux","password":true,"vac":true,"version":"7723704","steam_id":85568392924469996,"keywords":["nocrits","nodmgspread","payload","uncletopia"],"game_id":440,"stv_port":27016,"stv_name":"Uncletopia | São Paulo | 1 | All Maps | STV","players":null},{"server_id":143,"name":"Uncletopia | São Paulo | 2 | All Maps","name_short":"sao-2","host":"sao-2.br.uncletopia.com","port":27015,"enabled":true,"region":"sa","cc":"br","latitude":-23.533773,"longitude":-46.62529,"reserved":0,"last_update":"0001-01-01T00:00:00Z","name_a2s":"Uncletopia | São Paulo | 2 | All Maps","protocol":17,"map":"pl_frontier_final","folder":"tf","game":"Team Fortress","app_id":440,"player_count":0,"max_players":24,"Bots":0,"server_type":"Dedicated","server_os":"Linux","password":true,"vac":true,"version":"7723704","steam_id":85568392924485349,"keywords":["nocrits","nodmgspread","payload","uncletopia"],"game_id":440,"stv_port":27016,"stv_name":"Uncletopia | São Paulo | 2 | All Maps | STV","players":null},{"server_id":7,"name":"Uncletopia | Seattle | 1 | All Maps","name_short":"sea-1","host":"sea-1.us.uncletopia.com","port":27015,"enabled":true,"region":"us-west","cc":"us","latitude":47.608013,"longitude":-122.33517,"reserved":0,"last_update":"0001-01-01T00:00:00Z","name_a2s":"Uncletopia | Seattle | 1 | All Maps","protocol":17,"map":"koth_harvest_final","folder":"tf","game":"Team Fortress","app_id":440,"player_count":21,"max_players":24,"Bots":0,"server_type":"Dedicated","server_os":"Linux","password":true,"vac":true,"version":"7723704","steam_id":85568392924469997,"keywords":["cp","nocrits","nodmgspread","uncletopia"],"game_id":440,"stv_port":27016,"stv_name":"Uncletopia | Seattle | 1 | All Maps | STV","players":[{"user_id":1027,"name":"Spy Crab","steam_id":76561198100625450,"connected_time":314000000000,"state":"active","ping":43},{"user_id":1033,"name":"Furious George","steam_id":76561198405111646,"connected_time":75000000000,"state":"active","ping":55},{"user_id":1031,"name":"Amon the Armless","steam_id":76561198022870309,"connected_time":260000000000,"state":"active","ping":50},{"user_id":1020,"name":"Clemont007","steam_id":76561198030935625,"connected_time":1241000000000,"state":"active","ping":65},{"user_id":1004,"name":"[TrC] Nosy","steam_id":76561197978859310,"connected_time":2001000000000,"state":"active","ping":55},{"user_id":1005,"name":"Saggle","steam_id":76561198056075147,"connected_time":1969000000000,"state":"active","ping":185},{"user_id":1032,"name":"Raian","steam_id":76561199138048671,"connected_time":108000000000,"state":"active","ping":62},{"user_id":994,"name":"cum flavored candles for sale","steam_id":76561198044180341,"connected_time":2673000000000,"state":"active","ping":75},{"user_id":922,"name":"gorlab","steam_id":76561198025089694,"connected_time":10575000000000,"state":"active","ping":60},{"user_id":1006,"name":"Weeniedoinks","steam_id":76561199033290976,"connected_time":1967000000000,"state":"active","ping":119},{"user_id":1019,"name":"Stev the Prurient Oxymoron","steam_id":76561197999442625,"connected_time":1313000000000,"state":"active","ping":53},{"user_id":991,"name":"Fluffy","steam_id":76561198115952540,"connected_time":3471000000000,"state":"active","ping":42},{"user_id":998,"name":"Finkly","steam_id":76561198049828110,"connected_time":2443000000000,"state":"active","ping":42},{"user_id":984,"name":"[TrC] Dackstrus","steam_id":76561197973518509,"connected_time":3938000000000,"state":"active","ping":58},{"user_id":1021,"name":"船尾","steam_id":76561198128764422,"connected_time":1089000000000,"state":"active","ping":45},{"user_id":1022,"name":"PopcornNinja101","steam_id":76561198330680181,"connected_time":1084000000000,"state":"active","ping":46},{"user_id":1024,"name":"resting neutral face","steam_id":76561197999259502,"connected_time":797000000000,"state":"active","ping":61},{"user_id":1009,"name":"squid game","steam_id":76561199248960166,"connected_time":1940000000000,"state":"active","ping":44},{"user_id":1011,"name":"mac_cheese","steam_id":76561198071334162,"connected_time":1901000000000,"state":"active","ping":47},{"user_id":1029,"name":"Richard","steam_id":76561198044563637,"connected_time":302000000000,"state":"active","ping":96},{"user_id":996,"name":"An Old Lady","steam_id":76561198047480318,"connected_time":2497000000000,"state":"active","ping":66}]},{"server_id":119,"name":"Uncletopia | Seattle | 2 | All Maps","name_short":"sea-2","host":"sea-1.us.uncletopia.com","port":27025,"enabled":true,"region":"us-west","cc":"us","latitude":47.608013,"longitude":-122.33517,"reserved":0,"last_update":"0001-01-01T00:00:00Z","name_a2s":"Uncletopia | Seattle | 2 | All Maps","protocol":17,"map":"cp_process_final","folder":"tf","game":"Team Fortress","app_id":440,"player_count":1,"max_players":24,"Bots":0,"server_type":"Dedicated","server_os":"Linux","password":true,"vac":true,"version":"7723704","steam_id":85568392924469998,"keywords":["cp","nocrits","nodmgspread","uncletopia"],"game_id":440,"stv_port":27026,"stv_name":"Uncletopia | Seattle | 2 | All Maps | STV","players":[{"user_id":481,"name":"online","steam_id":76561198192531745,"connected_time":116000000000,"state":"active","ping":71}]},{"server_id":406,"name":"Uncletopia | Seattle | 3 | Stopwatch Beta","name_short":"sea-3","host":"sea-1.us.uncletopia.com","port":27035,"enabled":true,"region":"us-west","cc":"us","latitude":47.608013,"longitude":-122.33517,"reserved":0,"last_update":"0001-01-01T00:00:00Z","name_a2s":"Uncletopia | Seattle | 3 | Stopwatch Beta","protocol":17,"map":"cp_altitude","folder":"tf","game":"Team Fortress","app_id":440,"player_count":0,"max_players":24,"Bots":0,"server_type":"Dedicated","server_os":"Linux","password":true,"vac":false,"version":"7723704","steam_id":0,"keywords":["cp","nocrits","nodmgspread","uncletopia"],"game_id":440,"stv_port":27036,"stv_name":"Uncletopia | Seattle | 3 | Stopwatch Beta | STV","players":null},{"server_id":17,"name":"Uncletopia | San Francisco | 1 | All Maps","name_short":"sfo-1","host":"sfo-1.us.uncletopia.com","port":27015,"enabled":true,"region":"us-west","cc":"us","latitude":37.77397,"longitude":-122.4313,"reserved":0,"last_update":"0001-01-01T00:00:00Z","name_a2s":"Uncletopia | San Francisco | 1 | All Maps","protocol":17,"map":"cp_sunshine","folder":"tf","game":"Team Fortress","app_id":440,"player_count":24,"max_players":24,"Bots":0,"server_type":"Dedicated","server_os":"Linux","password":true,"vac":true,"version":"7723704","steam_id":85568392924469999,"keywords":["cp","nocrits","nodmgspread","uncletopia"],"game_id":440,"stv_port":27016,"stv_name":"Uncletopia | San Francisco | 1 | All Maps | STV","players":[{"user_id":534,"name":"pigman3000","steam_id":76561198020374829,"connected_time":1344000000000,"state":"active","ping":93},{"user_id":537,"name":"🎶","steam_id":76561198018213050,"connected_time":1215000000000,"state":"active","ping":89},{"user_id":535,"name":"✯ASTONECO✯","steam_id":76561198078374613,"connected_time":1304000000000,"state":"active","ping":56},{"user_id":526,"name":"UneditedAndy","steam_id":76561198982544947,"connected_time":2331000000000,"state":"active","ping":51},{"user_id":536,"name":"neeko go fishing","steam_id":76561198108938632,"connected_time":1260000000000,"state":"active","ping":89},{"user_id":500,"name":"Wham Mistress","steam_id":76561198115422032,"connected_time":4657000000000,"state":"active","ping":44},{"user_id":555,"name":"'Oddo","steam_id":76561198090866900,"connected_time":586000000000,"state":"active","ping":93},{"user_id":313,"name":"tweet","steam_id":76561198166515735,"connected_time":18208000000000,"state":"active","ping":47},{"user_id":538,"name":"Antreuse","steam_id":76561198219721132,"connected_time":1201000000000,"state":"active","ping":53},{"user_id":501,"name":"selvhat","steam_id":76561198114225509,"connected_time":4595000000000,"state":"active","ping":50},{"user_id":554,"name":"Cipher","steam_id":76561198086010787,"connected_time":610000000000,"state":"active","ping":101},{"user_id":495,"name":"Special Gorilla","steam_id":76561198120705900,"connected_time":4908000000000,"state":"active","ping":53},{"user_id":540,"name":"Testicular Torsion","steam_id":76561197968179862,"connected_time":1117000000000,"state":"active","ping":61},{"user_id":502,"name":"⛧Alkahestry","steam_id":76561198109641497,"connected_time":4582000000000,"state":"active","ping":51},{"user_id":541,"name":"spongebob","steam_id":76561198133360797,"connected_time":1027000000000,"state":"active","ping":64},{"user_id":542,"name":"Pescado","steam_id":76561198122437426,"connected_time":1021000000000,"state":"active","ping":83},{"user_id":510,"name":"served","steam_id":76561199438267625,"connected_time":4132000000000,"state":"active","ping":56},{"user_id":547,"name":"Spam Musubi","steam_id":76561198168749202,"connected_time":797000000000,"state":"active","ping":40},{"user_id":512,"name":"Ytown","steam_id":76561198165879751,"connected_time":3821000000000,"state":"active","ping":67},{"user_id":550,"name":"caribou","steam_id":76561198137197751,"connected_time":744000000000,"state":"active","ping":83},{"user_id":543,"name":"pine beetle","steam_id":76561197960794303,"connected_time":1002000000000,"state":"active","ping":110},{"user_id":546,"name":"1000 Ping","steam_id":76561198098330939,"connected_time":925000000000,"state":"active","ping":69},{"user_id":556,"name":"June","steam_id":76561198141803658,"connected_time":230000000000,"state":"active","ping":56},{"user_id":552,"name":"xxxnickthesick69420xxx","steam_id":76561198056329143,"connected_time":672000000000,"state":"active","ping":65}]},{"server_id":18,"name":"Uncletopia | San Francisco | 2 | All Maps","name_short":"sfo-2","host":"sfo-1.us.uncletopia.com","port":27025,"enabled":true,"region":"us-west","cc":"us","latitude":37.77397,"longitude":-122.4313,"reserved":0,"last_update":"0001-01-01T00:00:00Z","name_a2s":"Uncletopia | San Francisco | 2 | All Maps","protocol":17,"map":"pl_snowycoast","folder":"tf","game":"Team Fortress","app_id":440,"player_count":0,"max_players":24,"Bots":0,"server_type":"Dedicated","server_os":"Linux","password":true,"vac":true,"version":"7723704","steam_id":85568392924470000,"keywords":["nocrits","nodmgspread","payload","uncletopia"],"game_id":440,"stv_port":27026,"stv_name":"Uncletopia | San Francisco | 2 | All Maps | STV","players":null},{"server_id":19,"name":"Uncletopia | San Francisco | 3 | Stopwatch Beta","name_short":"sfo-3","host":"sfo-1.us.uncletopia.com","port":27035,"enabled":true,"region":"us-west","cc":"us","latitude":37.77397,"longitude":-122.4313,"reserved":0,"last_update":"0001-01-01T00:00:00Z","name_a2s":"Uncletopia | San Francisco | 3 | Stopwatch Beta","protocol":17,"map":"pl_pier","folder":"tf","game":"Team Fortress","app_id":440,"player_count":0,"max_players":24,"Bots":0,"server_type":"Dedicated","server_os":"Linux","password":true,"vac":true,"version":"7723704","steam_id":85568392924742824,"keywords":["nocrits","nodmgspread","payload","uncletopia"],"game_id":440,"stv_port":27036,"stv_name":"Uncletopia | San Francisco | 3 | Stopwatch Beta | STV","players":null},{"server_id":20,"name":"Uncletopia | San Francisco | 4 | Community","name_short":"sfo-4","host":"sfo-1.us.uncletopia.com","port":27045,"enabled":true,"region":"us-west","cc":"us","latitude":37.77397,"longitude":-122.4313,"reserved":0,"last_update":"0001-01-01T00:00:00Z","name_a2s":"Uncletopia | San Francisco | 4 | Community","protocol":17,"map":"workshop/pl_fifthcurve_rc1.ugc648227046","folder":"tf","game":"Team Fortress","app_id":440,"player_count":0,"max_players":24,"Bots":0,"server_type":"Dedicated","server_os":"Linux","password":true,"vac":true,"version":"7723704","steam_id":85568392924742826,"keywords":["nocrits","nodmgspread","payload","uncletopia"],"game_id":440,"stv_port":27046,"stv_name":"Uncletopia | San Francisco | 4 | Community | STV","players":null},{"server_id":141,"name":"Uncletopia | Sydney | 1 | All Maps","name_short":"syd-1","host":"syd-1.au.uncletopia.com","port":27015,"enabled":true,"region":"au","cc":"au","latitude":-33.865143,"longitude":151.2099,"reserved":0,"last_update":"0001-01-01T00:00:00Z","name_a2s":"Uncletopia | Sydney | 1 | All Maps","protocol":17,"map":"koth_viaduct","folder":"tf","game":"Team Fortress","app_id":440,"player_count":21,"max_players":24,"Bots":0,"server_type":"Dedicated","server_os":"Linux","password":true,"vac":true,"version":"7723704","steam_id":85568392924470001,"keywords":["cp","nocrits","nodmgspread","uncletopia"],"game_id":440,"stv_port":27016,"stv_name":"Uncletopia | Sydney | 1 | All Maps | STV","players":[{"user_id":482,"name":"carf","steam_id":76561199142612869,"connected_time":367000000000,"state":"active","ping":36},{"user_id":439,"name":"Epic","steam_id":76561198378184112,"connected_time":2613000000000,"state":"active","ping":61},{"user_id":469,"name":"Not A F2P","steam_id":76561198376756608,"connected_time":925000000000,"state":"active","ping":75},{"user_id":481,"name":"ZaEpicScout205","steam_id":76561198170693338,"connected_time":412000000000,"state":"active","ping":89},{"user_id":403,"name":"Jack","steam_id":76561198064889041,"connected_time":5550000000000,"state":"active","ping":45},{"user_id":470,"name":"Zilvera","steam_id":76561198065801850,"connected_time":854000000000,"state":"active","ping":31},{"user_id":430,"name":"Paradon YT","steam_id":76561198060176705,"connected_time":3334000000000,"state":"active","ping":105},{"user_id":471,"name":"Mama Origami","steam_id":76561198330338645,"connected_time":836000000000,"state":"active","ping":69},{"user_id":436,"name":"Hoovy :)","steam_id":76561199223043753,"connected_time":2831000000000,"state":"active","ping":55},{"user_id":472,"name":"RAINY BIG BRAINY","steam_id":76561198009848533,"connected_time":771000000000,"state":"active","ping":58},{"user_id":459,"name":"Dr. Hoppity","steam_id":76561197999715646,"connected_time":1339000000000,"state":"active","ping":55},{"user_id":457,"name":"The Zoo (They/Them)","steam_id":76561198061713340,"connected_time":1516000000000,"state":"active","ping":64},{"user_id":474,"name":"¯\\_(ツ)_/¯","steam_id":76561199206182584,"connected_time":672000000000,"state":"active","ping":50},{"user_id":475,"name":"Techlord","steam_id":76561199117241969,"connected_time":635000000000,"state":"active","ping":42},{"user_id":468,"name":"Bubba Schmeat","steam_id":76561198094348782,"connected_time":1003000000000,"state":"active","ping":86},{"user_id":461,"name":"The Goodnight Kiwi","steam_id":76561198866433807,"connected_time":1269000000000,"state":"active","ping":60},{"user_id":479,"name":"TheDoctor30","steam_id":76561198433686866,"connected_time":505000000000,"state":"active","ping":95},{"user_id":463,"name":"tazz.","steam_id":76561197999757636,"connected_time":1212000000000,"state":"active","ping":59},{"user_id":465,"name":"SilverPenguin","steam_id":76561199025744213,"connected_time":1195000000000,"state":"active","ping":94},{"user_id":434,"name":"SoyBoy","steam_id":76561197992447102,"connected_time":3136000000000,"state":"active","ping":48},{"user_id":487,"name":"eyj","steam_id":76561198049039374,"connected_time":132000000000,"state":"active","ping":44}]},{"server_id":123,"name":"Uncletopia | Sydney | 2 | All Maps","name_short":"syd-2","host":"syd-1.au.uncletopia.com","port":27025,"enabled":true,"region":"au","cc":"au","latitude":-33.865143,"longitude":151.2099,"reserved":0,"last_update":"0001-01-01T00:00:00Z","name_a2s":"Uncletopia | Sydney | 2 | All Maps","protocol":17,"map":"ctf_well","folder":"tf","game":"Team Fortress","app_id":440,"player_count":17,"max_players":24,"Bots":0,"server_type":"Dedicated","server_os":"Linux","password":true,"vac":true,"version":"7723704","steam_id":85568392924470002,"keywords":["ctf","nocrits","nodmgspread","uncletopia"],"game_id":440,"stv_port":27026,"stv_name":"Uncletopia | Sydney | 2 | All Maps | STV","players":[{"user_id":175,"name":"Mission","steam_id":76561199218935728,"connected_time":565000000000,"state":"active","ping":59},{"user_id":170,"name":"boboisgud","steam_id":76561199044667462,"connected_time":774000000000,"state":"active","ping":59},{"user_id":182,"name":"hummus","steam_id":76561198089440627,"connected_time":203000000000,"state":"active","ping":50},{"user_id":176,"name":"sarah.nintendogs","steam_id":76561198035811678,"connected_time":541000000000,"state":"active","ping":35},{"user_id":112,"name":"Autistic Raptor","steam_id":76561198354523762,"connected_time":6027000000000,"state":"active","ping":45},{"user_id":183,"name":"howl","steam_id":76561198213150435,"connected_time":202000000000,"state":"active","ping":44},{"user_id":184,"name":"TFC Gives (Sometimes)","steam_id":76561198130868318,"connected_time":154000000000,"state":"active","ping":55},{"user_id":185,"name":"rich","steam_id":76561198003594944,"connected_time":62000000000,"state":"active","ping":53},{"user_id":110,"name":"____________________________","steam_id":76561198848287180,"connected_time":6102000000000,"state":"active","ping":46},{"user_id":107,"name":"Jamie2Cool","steam_id":76561198155695809,"connected_time":6294000000000,"state":"active","ping":71},{"user_id":129,"name":"normans on sabbatical honey","steam_id":76561198082423230,"connected_time":5016000000000,"state":"active","ping":76},{"user_id":148,"name":"quasi","steam_id":76561198282589938,"connected_time":3862000000000,"state":"active","ping":78},{"user_id":126,"name":"Lesbian Heavy","steam_id":76561198126153554,"connected_time":5114000000000,"state":"active","ping":79},{"user_id":178,"name":"Dangerous DPad","steam_id":76561198452829128,"connected_time":430000000000,"state":"active","ping":71},{"user_id":186,"name":"fortnite sussy balls","steam_id":76561199129900994,"connected_time":37000000000,"state":"active","ping":52},{"user_id":155,"name":"squrrel","steam_id":76561198083429611,"connected_time":3064000000000,"state":"active","ping":69},{"user_id":145,"name":"TW_light2022","steam_id":76561199393566784,"connected_time":4062000000000,"state":"active","ping":64}]},{"server_id":395,"name":"Uncletopia | Sydney | 3 | All Maps","name_short":"syd-3","host":"syd-1.au.uncletopia.com","port":27035,"enabled":true,"region":"au","cc":"au","latitude":-33.865143,"longitude":151.2099,"reserved":0,"last_update":"0001-01-01T00:00:00Z","name_a2s":"Uncletopia | Sydney | 3 | All Maps","protocol":17,"map":"pl_badwater","folder":"tf","game":"Team Fortress","app_id":440,"player_count":4,"max_players":24,"Bots":0,"server_type":"Dedicated","server_os":"Linux","password":true,"vac":true,"version":"7723704","steam_id":85568392925194467,"keywords":["nocrits","nodmgspread","payload","uncletopia"],"game_id":440,"stv_port":27036,"stv_name":"Uncletopia | Sydney | 3 | All Maps | STV","players":[{"user_id":15,"name":"Branko","steam_id":76561199262196710,"connected_time":2703000000000,"state":"active","ping":46},{"user_id":18,"name":"Cyborgcupine","steam_id":76561198257389366,"connected_time":2309000000000,"state":"active","ping":100},{"user_id":19,"name":"apache.oru","steam_id":76561199275926883,"connected_time":2214000000000,"state":"active","ping":78},{"user_id":24,"name":"lavendermelody","steam_id":76561198238001880,"connected_time":600000000000,"state":"active","ping":44}]},{"server_id":396,"name":"Uncletopia | Sydney | 4 | All Maps","name_short":"syd-4","host":"syd-1.au.uncletopia.com","port":27045,"enabled":true,"region":"au","cc":"au","latitude":-33.865143,"longitude":151.2099,"reserved":0,"last_update":"0001-01-01T00:00:00Z","name_a2s":"Uncletopia | Sydney | 4 | All Maps","protocol":17,"map":"cp_altitude","folder":"tf","game":"Team Fortress","app_id":440,"player_count":0,"max_players":24,"Bots":0,"server_type":"Dedicated","server_os":"Linux","password":true,"vac":true,"version":"7723704","steam_id":85568392925397958,"keywords":["cp","nocrits","nodmgspread","uncletopia"],"game_id":440,"stv_port":27046,"stv_name":"Uncletopia | Sydney | 4 | All Maps | STV","players":null},{"server_id":58,"name":"Uncletopia | Sydney | 5 | Stopwatch Beta","name_short":"syd-5","host":"syd-1.au.uncletopia.com","port":27055,"enabled":true,"region":"au","cc":"au","latitude":-33.865143,"longitude":151.2099,"reserved":0,"last_update":"0001-01-01T00:00:00Z","name_a2s":"Uncletopia | Sydney | 5 | Stopwatch Beta","protocol":17,"map":"cp_altitude","folder":"tf","game":"Team Fortress","app_id":440,"player_count":0,"max_players":24,"Bots":0,"server_type":"Dedicated","server_os":"Linux","password":true,"vac":true,"version":"7723704","steam_id":85568392925397959,"keywords":["cp","nocrits","nodmgspread","uncletopia"],"game_id":440,"stv_port":27056,"stv_name":"Uncletopia | Sydney | 5 | Stopwatch Beta | STV","players":null},{"server_id":59,"name":"Uncletopia | Sydney | 6 | Community","name_short":"syd-6","host":"syd-1.au.uncletopia.com","port":27065,"enabled":true,"region":"au","cc":"au","latitude":-33.865143,"longitude":151.2099,"reserved":0,"last_update":"0001-01-01T00:00:00Z","name_a2s":"Uncletopia | Sydney | 6 | Community","protocol":17,"map":"workshop/pl_fifthcurve_rc1.ugc648227046","folder":"tf","game":"Team Fortress","app_id":440,"player_count":0,"max_players":24,"Bots":0,"server_type":"Dedicated","server_os":"Linux","password":true,"vac":true,"version":"7723704","steam_id":85568392925397960,"keywords":["nocrits","nodmgspread","payload","uncletopia"],"game_id":440,"stv_port":27066,"stv_name":"Uncletopia | Sydney | 6 | Community | STV","players":null},{"server_id":49,"name":"Uncletopia | Warsaw | 1 | All Maps","name_short":"waw-1","host":"waw-1.pl.uncletopia.com","port":27015,"enabled":true,"region":"eu","cc":"pl","latitude":52.2297,"longitude":21.017532,"reserved":0,"last_update":"0001-01-01T00:00:00Z","name_a2s":"Uncletopia | Warsaw | 1 | All Maps","protocol":17,"map":"cp_snakewater_final1","folder":"tf","game":"Team Fortress","app_id":440,"player_count":0,"max_players":24,"Bots":0,"server_type":"Dedicated","server_os":"Linux","password":true,"vac":true,"version":"7723704","steam_id":85568392925397850,"keywords":["cp","nocrits","nodmgspread","uncletopia"],"game_id":440,"stv_port":27016,"stv_name":"Uncletopia | Warsaw | 1 | All Maps | STV","players":null},{"server_id":50,"name":"Uncletopia | Warsaw | 2 | All Maps","name_short":"waw-2","host":"waw-1.pl.uncletopia.com","port":27025,"enabled":true,"region":"eu","cc":"pl","latitude":52.2297,"longitude":21.017532,"reserved":0,"last_update":"0001-01-01T00:00:00Z","name_a2s":"Uncletopia | Warsaw | 2 | All Maps","protocol":17,"map":"pl_barnblitz","folder":"tf","game":"Team Fortress","app_id":440,"player_count":0,"max_players":24,"Bots":0,"server_type":"Dedicated","server_os":"Linux","password":true,"vac":true,"version":"7723704","steam_id":85568392925397851,"keywords":["nocrits","nodmgspread","payload","uncletopia"],"game_id":440,"stv_port":27026,"stv_name":"Uncletopia | Warsaw | 2 | All Maps | STV","players":null},{"server_id":51,"name":"Uncletopia | Warsaw | 3 | All Maps","name_short":"waw-3","host":"waw-1.pl.uncletopia.com","port":27035,"enabled":true,"region":"eu","cc":"pl","latitude":52.2297,"longitude":21.017532,"reserved":0,"last_update":"0001-01-01T00:00:00Z","name_a2s":"Uncletopia | Warsaw | 3 | All Maps","protocol":17,"map":"pl_barnblitz","folder":"tf","game":"Team Fortress","app_id":440,"player_count":0,"max_players":24,"Bots":0,"server_type":"Dedicated","server_os":"Linux","password":true,"vac":true,"version":"7723704","steam_id":85568392925397852,"keywords":["nocrits","nodmgspread","payload","uncletopia"],"game_id":440,"stv_port":27036,"stv_name":"Uncletopia | Warsaw | 3 | All Maps | STV","players":null},{"server_id":52,"name":"Uncletopia | Warsaw | 4 | All Maps","name_short":"waw-4","host":"waw-1.pl.uncletopia.com","port":27045,"enabled":true,"region":"eu","cc":"pl","latitude":52.2297,"longitude":21.017532,"reserved":0,"last_update":"0001-01-01T00:00:00Z","name_a2s":"Uncletopia | Warsaw | 4 | All Maps","protocol":17,"map":"cp_dustbowl","folder":"tf","game":"Team Fortress","app_id":440,"player_count":0,"max_players":24,"Bots":0,"server_type":"Dedicated","server_os":"Linux","password":true,"vac":true,"version":"7723704","steam_id":85568392925397853,"keywords":["cp","nocrits","nodmgspread","uncletopia"],"game_id":440,"stv_port":27046,"stv_name":"Uncletopia | Warsaw | 4 | All Maps | STV","players":null},{"server_id":53,"name":"Uncletopia | Warsaw | 5 | Stopwatch Beta","name_short":"waw-5","host":"waw-1.pl.uncletopia.com","port":27055,"enabled":true,"region":"eu","cc":"pl","latitude":52.2297,"longitude":21.017532,"reserved":0,"last_update":"0001-01-01T00:00:00Z","name_a2s":"Uncletopia | Warsaw | 5 | Stopwatch Beta","protocol":17,"map":"cp_sunshine","folder":"tf","game":"Team Fortress","app_id":440,"player_count":0,"max_players":24,"Bots":0,"server_type":"Dedicated","server_os":"Linux","password":true,"vac":true,"version":"7723704","steam_id":85568392925397854,"keywords":["cp","nocrits","nodmgspread","uncletopia"],"game_id":440,"stv_port":27056,"stv_name":"Uncletopia | Warsaw | 5 | Stopwatch Beta | STV","players":null},{"server_id":54,"name":"Uncletopia | Warsaw | 6 | Community","name_short":"waw-6","host":"waw-1.pl.uncletopia.com","port":27065,"enabled":true,"region":"eu","cc":"pl","latitude":52.2297,"longitude":21.017532,"reserved":0,"last_update":"0001-01-01T00:00:00Z","name_a2s":"Uncletopia | Warsaw | 6 | Community","protocol":17,"map":"workshop/koth_product_final.ugc454272353","folder":"tf","game":"Team Fortress","app_id":440,"player_count":0,"max_players":24,"Bots":0,"server_type":"Dedicated","server_os":"Linux","password":true,"vac":true,"version":"7723704","steam_id":85568392925397856,"keywords":["cp","nocrits","nodmgspread","uncletopia"],"game_id":440,"stv_port":27066,"stv_name":"Uncletopia | Warsaw | 6 | Community | STV","players":null}]}