{"status":true,"message":"","result":[{"server_id":9,"name":"Uncletopia | Atlanta | 1 | All Maps","name_short":"atl-1","host":"atl-1.us.uncletopia.com","port":27015,"enabled":true,"region":"us-east","cc":"us","latitude":33.753746,"longitude":-84.38633,"reserved":0,"last_update":"0001-01-01T00:00:00Z","name_a2s":"Uncletopia | Atlanta | 1 | All Maps","protocol":17,"map":"koth_cascade","folder":"tf","game":"Team Fortress","app_id":440,"player_count":0,"max_players":24,"Bots":0,"server_type":"Dedicated","server_os":"Linux","password":true,"vac":true,"version":"7695204","steam_id":85568392924469982,"keywords":["cp","nocrits","nodmgspread","uncletopia"],"game_id":440,"stv_port":0,"stv_name":"","players":null},{"server_id":400,"name":"Uncletopia | Atlanta | 3 | All Maps","name_short":"atl-3","host":"atl-1.us.uncletopia.com","port":27035,"enabled":true,"region":"us-east","cc":"us","latitude":33.753746,"longitude":-84.38633,"reserved":0,"last_update":"0001-01-01T00:00:00Z","name_a2s":"Uncletopia | Atlanta | 3 | All Maps","protocol":17,"map":"pl_frontier_final","folder":"tf","game":"Team Fortress","app_id":440,"player_count":0,"max_players":24,"Bots":0,"server_type":"Dedicated","server_os":"Linux","password":true,"vac":true,"version":"7695204","steam_id":85568392924515187,"keywords":["nocrits","nodmgspread","payload","uncletopia"],"game_id":440,"stv_port":0,"stv_name":"","players":null},{"server_id":401,"name":"Uncletopia | Atlanta | 4 | No Payload","name_short":"atl-4","host":"atl-1.us.uncletopia.com","port":27045,"enabled":true,"region":"us-east","cc":"us","latitude":33.753746,"longitude":-84.38633,"reserved":0,"last_update":"0001-01-01T00:00:00Z","name_a2s":"Uncletopia | Atlanta | 4 | No Payload","protocol":17,"map":"cp_snakewater_final1","folder":"tf","game":"Team Fortress","app_id":440,"player_count":0,"max_players":24,"Bots":0,"server_type":"Dedicated","server_os":"Linux","password":true,"vac":true,"version":"7695204","steam_id":85568392924515188,"keywords":["cp","nocrits","nodmgspread","uncletopia"],"game_id":440,"stv_port":0,"stv_name":"","players":null},{"server_id":2,"name":"Uncletopia | Chicago | 1 | All Maps","name_short":"chi-1","host":"chi-1.us.uncletopia.com","port":27015,"enabled":true,"region":"us-central","cc":"us","latitude":41.881832,"longitude":-87.62318,"reserved":0,"last_update":"0001-01-01T00:00:00Z","name_a2s":"Uncletopia | Chicago | 1 | All Maps","protocol":17,"map":"cp_altitude","folder":"tf","game":"Team Fortress","app_id":440,"player_count":0,"max_players":24,"Bots":0,"server_type":"Dedicated","server_os":"Linux","password":true,"vac":true,"version":"7695204","steam_id":85568392924469984,"keywords":["cp","nocrits","nodmgspread","uncletopia"],"game_id":440,"stv_port":0,"stv_name":"","players":null},{"server_id":106,"name":"Uncletopia | Chicago | 2 | All Maps","name_short":"chi-2","host":"chi-1.us.uncletopia.com","port":27025,"enabled":true,"region":"us-central","cc":"us","latitude":41.881832,"longitude":-87.62318,"reserved":0,"last_update":"0001-01-01T00:00:00Z","name_a2s":"Uncletopia | Chicago | 2 | All Maps","protocol":17,"map":"cp_process_final","folder":"tf","game":"Team Fortress","app_id":440,"player_count":0,"max_players":24,"Bots":0,"server_type":"Dedicated","server_os":"Linux","password":true,"vac":true,"version":"7695204","steam_id":85568392924469985,"keywords":["cp","nocrits","nodmgspread","uncletopia"],"game_id":440,"stv_port":0,"stv_name":"","players":null},{"server_id":402,"name":"Uncletopia | Chicago | 3 | All Maps","name_short":"chi-3","host":"chi-1.us.uncletopia.com","port":27035,"enabled":true,"region":"us-central","cc":"us","latitude":41.881832,"longitude":-87.62318,"reserved":0,"last_update":"0001-01-01T00:00:00Z","name_a2s":"Uncletopia | Chicago | 3 | All Maps","protocol":17,"map":"pl_upward","folder":"tf","game":"Team Fortress","app_id":440,"player_count":0,"max_players":24,"Bots":0,"server_type":"Dedicated","server_os":"Linux","password":true,"vac":true,"version":"7695204","steam_id":85568392924515191,"keywords":["nocrits","nodmgspread","payload","uncletopia"],"game_id":440,"stv_port":0,"stv_name":"","players":null},{"server_id":403,"name":"Uncletopia | Chicago | 4 | All Maps","name_short":"chi-4","host":"chi-1.us.uncletopia.com","port":27045,"enabled":true,"region":"us-central","cc":"us","latitude":41.881832,"longitude":-87.62318,"reserved":0,"last_update":"0001-01-01T00:00:00Z","name_a2s":"Uncletopia | Chicago | 4 | All Maps","protocol":17,"map":"koth_highpass","folder":"tf","game":"Team Fortress","app_id":440,"player_count":0,"max_players":24,"Bots":0,"server_type":"Dedicated","server_os":"Linux","password":true,"vac":true,"version":"7695204","steam_id":85568392924515193,"keywords":["cp","nocrits","nodmgspread","uncletopia"],"game_id":440,"stv_port":0,"stv_name":"","players":null},{"server_id":36,"name":"Uncletopia | Chicago | 5 | All Maps","name_short":"chi-5","host":"chi-2.us.uncletopia.com","port":27015,"enabled":true,"region":"us-central","cc":"us","latitude":41.881832,"longitude":-87.62318,"reserved":0,"last_update":"0001-01-01T00:00:00Z","name_a2s":"Uncletopia | Chicago | 5 | All Maps","protocol":17,"map":"cp_altitude","folder":"tf","game":"Team Fortress","app_id":440,"player_count":0,"max_players":24,"Bots":0,"server_type":"Dedicated","server_os":"Linux","password":true,"vac":true,"version":"7695204","steam_id":85568392924866362,"keywords":["cp","nocrits","nodmgspread","uncletopia"],"game_id":440,"stv_port":0,"stv_name":"","players":null},{"server_id":37,"name":"Uncletopia | Chicago | 6 | All Maps","name_short":"chi-6","host":"chi-2.us.uncletopia.com","port":27025,"enabled":true,"region":"us-central","cc":"us","latitude":41.881832,"longitude":-87.62318,"reserved":0,"last_update":"0001-01-01T00:00:00Z","name_a2s":"Uncletopia | Chicago | 6 | All Maps","protocol":17,"map":"cp_snakewater_final1","folder":"tf","game":"Team Fortress","app_id":440,"player_count":0,"max_players":24,"Bots":0,"server_type":"Dedicated","server_os":"Linux","password":true,"vac":true,"version":"7695204","steam_id":85568392924866363,"keywords":["cp","nocrits","nodmgspread","uncletopia"],"game_id":440,"stv_port":0,"stv_name":"","players":null},{"server_id":38,"name":"Uncletopia | Chicago | 7 | No Payload","name_short":"chi-7","host":"chi-2.us.uncletopia.com","port":27035,"enabled":true,"region":"us-central","cc":"us","latitude":41.881832,"longitude":-87.62318,"reserved":0,"last_update":"0001-01-01T00:00:00Z","name_a2s":"Uncletopia | Chicago | 7 | No Payload","protocol":17,"map":"cp_altitude","folder":"tf","game":"Team Fortress","app_id":440,"player_count":0,"max_players":24,"Bots":0,"server_type":"Dedicated","server_os":"Linux","password":true,"vac":true,"version":"7695204","steam_id":85568392924866364,"keywords":["cp","nocrits","nodmgspread","uncletopia"],"game_id":440,"stv_port":0,"stv_name":"","players":null},{"server_id":39,"name":"Uncletopia | Chicago | 8 | Community","name_short":"chi-8","host":"chi-2.us.uncletopia.com","port":27045,"enabled":true,"region":"us-central","cc":"us","latitude":41.881832,"longitude":-87.62318,"reserved":0,"last_update":"0001-01-01T00:00:00Z","name_a2s":"Uncletopia | Chicago | 8 | Community","protocol":17,"map":"cp_altitude","folder":"tf","game":"Team Fortress","app_id":440,"player_count":0,"max_players":24,"Bots":0,"server_type":"Dedicated","server_os":"Linux","password":true,"vac":true,"version":"7695204","steam_id":85568392924866365,"keywords":["cp","nocrits","nodmgspread","uncletopia"],"game_id":440,"stv_port":0,"stv_name":"","players":null},{"server_id":8,"name":"Uncletopia | Dallas | 1 | All Maps","name_short":"dal-1","host":"dal-1.us.uncletopia.com","port":27015,"enabled":true,"region":"us-central","cc":"us","latitude":32.779167,"longitude":-96.80889,"reserved":0,"last_update":"0001-01-01T00:00:00Z","name_a2s":"Uncletopia | Dallas | 1 | All Maps","protocol":17,"map":"pl_snowycoast","folder":"tf","game":"Team Fortress","app_id":440,"player_count":24,"max_players":24,"Bots":0,"server_type":"Dedicated","server_os":"Linux","password":true,"vac":true,"version":"7695204","steam_id":85568392924469986,"keywords":["nocrits","nodmgspread","payload","uncletopia"],"game_id":440,"stv_port":0,"stv_name":"","players":[{"user_id":2,"name":"Tyler\u0026Fingers","steam_id":76561198085154485,"connected_time":1207000000000,"state":"active","ping":75},{"user_id":4,"name":"ssquare -bt","steam_id":76561198341784551,"connected_time":1203000000000,"state":"active","ping":45},{"user_id":5,"name":"rose","steam_id":76561198048882285,"connected_time":1203000000000,"state":"active","ping":80},{"user_id":27,"name":"Zorlovo","steam_id":76561198006443283,"connected_time":670000000000,"state":"active","ping":69},{"user_id":7,"name":"Derpy rabbit","steam_id":76561198128343478,"connected_time":1201000000000,"state":"active","ping":80},{"user_id":8,"name":"+","steam_id":76561198262422184,"connected_time":1198000000000,"state":"active","ping":49},{"user_id":34,"name":"obbeymaster19","steam_id":76561199197244143,"connected_time":518000000000,"state":"active","ping":84},{"user_id":10,"name":"catboy (real)","steam_id":76561198298140571,"connected_time":1197000000000,"state":"active","ping":80},{"user_id":11,"name":"Jocores","steam_id":76561198142139854,"connected_time":1196000000000,"state":"active","ping":78},{"user_id":12,"name":"Cinn","steam_id":76561198091650021,"connected_time":1196000000000,"state":"active","ping":100},{"user_id":13,"name":"Kerosene","steam_id":76561198978778718,"connected_time":1187000000000,"state":"active","ping":137},{"user_id":31,"name":"Kamin","steam_id":76561198255299559,"connected_time":569000000000,"state":"active","ping":59},{"user_id":36,"name":"Casual Costanza","steam_id":76561198024409325,"connected_time":399000000000,"state":"active","ping":90},{"user_id":16,"name":"DSM-IVCE","steam_id":76561199438515797,"connected_time":1177000000000,"state":"active","ping":123},{"user_id":17,"name":"Red","steam_id":76561198059964992,"connected_time":1147000000000,"state":"active","ping":108},{"user_id":19,"name":"RURU","steam_id":76561198039758987,"connected_time":1065000000000,"state":"active","ping":106},{"user_id":24,"name":"Mommy Sophie","steam_id":76561198203646976,"connected_time":762000000000,"state":"active","ping":157},{"user_id":21,"name":"minkmink","steam_id":76561198144911224,"connected_time":984000000000,"state":"active","ping":61},{"user_id":22,"name":"Doctor Boofenshmirtz","steam_id":76561198164579239,"connected_time":941000000000,"state":"active","ping":93},{"user_id":26,"name":"Cherry-7","steam_id":76561198097779684,"connected_time":684000000000,"state":"active","ping":89},{"user_id":37,"name":"Mythius","steam_id":76561198401392472,"connected_time":309000000000,"state":"active","ping":90},{"user_id":35,"name":"NitrodeZ","steam_id":76561198275346308,"connected_time":472000000000,"state":"active","ping":178},{"user_id":38,"name":"*something in russian*","steam_id":76561198964471859,"connected_time":243000000000,"state":"active","ping":85},{"user_id":33,"name":"Zozbieta","steam_id":76561198010336265,"connected_time":540000000000,"state":"active","ping":60}]},{"server_id":108,"name":"Uncletopia | Dallas | 2 | All Maps","name_short":"dal-2","host":"dal-1.us.uncletopia.com","port":27025,"enabled":true,"region":"us-central","cc":"us","latitude":32.779167,"longitude":-96.80889,"reserved":0,"last_update":"0001-01-01T00:00:00Z","name_a2s":"Uncletopia | Dallas | 2 | All Maps","protocol":17,"map":"cp_mountainlab","folder":"tf","game":"Team Fortress","app_id":440,"player_count":0,"max_players":24,"Bots":0,"server_type":"Dedicated","server_os":"Linux","password":true,"vac":true,"version":"7695204","steam_id":85568392924469988,"keywords":["cp","nocrits","nodmgspread","uncletopia"],"game_id":440,"stv_port":0,"stv_name":"","players":null},{"server_id":5,"name":"Uncletopia | Frankfurt | 1 | All Maps","name_short":"frk-1","host":"frk-1.de.uncletopia.com","port":27015,"enabled":true,"region":"eu","cc":"de","latitude":50.110924,"longitude":8.682127,"reserved":0,"last_update":"0001-01-01T00:00:00Z","name_a2s":"Uncletopia | Frankfurt | 1 | All Maps","protocol":17,"map":"pl_frontier_final","folder":"tf","game":"Team Fortress","app_id":440,"player_count":24,"max_players":24,"Bots":0,"server_type":"Dedicated","server_os":"Linux","password":true,"vac":true,"version":"7695204","steam_id":85568392924469989,"keywords":["nocrits","nodmgspread","payload","uncletopia"],"game_id":440,"stv_port":27016,"stv_name":"Uncletopia | Frankfurt | 1 | All Maps | STV","players":[{"user_id":141,"name":"xiiski","steam_id":76561198152387747,"connected_time":1308000000000,"state":"active","ping":91},{"user_id":153,"name":"Nin","steam_id":76561198227246584,"connected_time":237000000000,"state":"active","ping":59},{"user_id":152,"name":"weSt","steam_id":76561198000913325,"connected_time":811000000000,"state":"active","ping":63},{"user_id":138,"name":"Polish Unqualified Politician","steam_id":76561198126398022,"connected_time":1787000000000,"state":"active","ping":75},{"user_id":126,"name":"SugipuLaur","steam_id":76561199138556623,"connected_time":2618000000000,"state":"active","ping":60},{"user_id":146,"name":"Big Gamer (real)","steam_id":76561198160114532,"connected_time":973000000000,"state":"active","ping":51},{"user_id":144,"name":"=OKB= P4NTH3R","steam_id":76561197999204603,"connected_time":1021000000000,"state":"active","ping":54},{"user_id":131,"name":"yeldad","steam_id":76561198447264153,"connected_time":2152000000000,"state":"active","ping":117},{"user_id":145,"name":"WUTVILLESWEEP","steam_id":76561199176835169,"connected_time":1015000000000,"state":"active","ping":64},{"user_id":150,"name":"Toaster1337","steam_id":76561198103706881,"connected_time":886000000000,"state":"active","ping":49},{"user_id":151,"name":"M1rkus","steam_id":76561198171215447,"connected_time":877000000000,"state":"active","ping":60},{"user_id":118,"name":"AWildTamim","steam_id":76561198048060652,"connected_time":3213000000000,"state":"active","ping":53},{"user_id":139,"name":"HE MADE GRADUATION HE MADE GRAD","steam_id":76561199206660048,"connected_time":1615000000000,"state":"active","ping":66},{"user_id":124,"name":"Stepoface","steam_id":76561198091569863,"connected_time":2862000000000,"state":"active","ping":62},{"user_id":154,"name":"9S","steam_id":76561198114507369,"connected_time":65000000000,"state":"active","ping":59},{"user_id":114,"name":"Ch4bby","steam_id":76561198058792875,"connected_time":3761000000000,"state":"active","ping":60},{"user_id":134,"name":"Paulie Enjoyer","steam_id":76561198364121077,"connected_time":2072000000000,"state":"active","ping":94},{"user_id":82,"name":"Alfiine","steam_id":76561198206082887,"connected_time":5708000000000,"state":"active","ping":64},{"user_id":147,"name":"Anti_Dragon","steam_id":76561198969060607,"connected_time":957000000000,"state":"active","ping":100},{"user_id":149,"name":"shoras","steam_id":76561198019680159,"connected_time":936000000000,"state":"active","ping":85},{"user_id":148,"name":"Mallkiri","steam_id":76561198055914926,"connected_time":948000000000,"state":"active","ping":134},{"user_id":136,"name":"Afgan","steam_id":76561198043221511,"connected_time":1989000000000,"state":"active","ping":104},{"user_id":128,"name":"C++","steam_id":76561198214855155,"connected_time":2549000000000,"state":"active","ping":74},{"user_id":137,"name":"Yuval","steam_id":76561198241802390,"connected_time":1987000000000,"state":"active","ping":102}]},{"server_id":110,"name":"Uncletopia | Frankfurt | 2 | All Maps","name_short":"frk-2","host":"frk-1.de.uncletopia.com","port":27025,"enabled":true,"region":"eu","cc":"de","latitude":50.110924,"longitude":8.682127,"reserved":0,"last_update":"0001-01-01T00:00:00Z","name_a2s":"Uncletopia | Frankfurt | 2 | All Maps","protocol":17,"map":"pl_pier","folder":"tf","game":"Team Fortress","app_id":440,"player_count":0,"max_players":24,"Bots":0,"server_type":"Dedicated","server_os":"Linux","password":true,"vac":true,"version":"7695204","steam_id":85568392924469990,"keywords":["nocrits","nodmgspread","payload","uncletopia"],"game_id":440,"stv_port":27026,"stv_name":"Uncletopia | Frankfurt | 2 | All Maps | STV","players":null},{"server_id":308,"name":"Uncletopia | Frankfurt | 3 | All Maps","name_short":"frk-3","host":"frk-1.de.uncletopia.com","port":27035,"enabled":true,"region":"eu","cc":"de","latitude":50.110924,"longitude":8.682127,"reserved":0,"last_update":"0001-01-01T00:00:00Z","name_a2s":"Uncletopia | Frankfurt | 3 | All Maps","protocol":17,"map":"pl_upward","folder":"tf","game":"Team Fortress","app_id":440,"player_count":24,"max_players":24,"Bots":0,"server_type":"Dedicated","server_os":"Linux","password":true,"vac":true,"version":"7695204","steam_id":85568392924504274,"keywords":["nocrits","nodmgspread","payload","uncletopia"],"game_id":440,"stv_port":27036,"stv_name":"Uncletopia | Frankfurt | 3 | All Maps | STV","players":[{"user_id":59,"name":"uncle dane (real)","steam_id":76561198281703666,"connected_time":1743000000000,"state":"active","ping":68},{"user_id":60,"name":"Dora","steam_id":76561198072207649,"connected_time":1577000000000,"state":"active","ping":67},{"user_id":52,"name":"LasagnaLarry22","steam_id":76561198089478290,"connected_time":2597000000000,"state":"active","ping":54},{"user_id":67,"name":"LemonLeCitron","steam_id":76561198215545267,"connected_time":1331000000000,"state":"active","ping":66},{"user_id":85,"name":"Rin-Nakaret","steam_id":76561197971051188,"connected_time":148000000000,"state":"active","ping":68},{"user_id":68,"name":"I wanna be a lassie","steam_id":76561198131924713,"connected_time":1323000000000,"state":"active","ping":58},{"user_id":69,"name":"DridyEXE","steam_id":76561198059408341,"connected_time":1315000000000,"state":"active","ping":54},{"user_id":40,"name":"Mclovin567","steam_id":76561198799105302,"connected_time":3631000000000,"state":"active","ping":51},{"user_id":75,"name":"Tweehoek","steam_id":76561197993796913,"connected_time":1087000000000,"state":"active","ping":62},{"user_id":76,"name":"Нечуй-Левицький","steam_id":76561198870926865,"connected_time":1000000000000,"state":"active","ping":58},{"user_id":79,"name":"Christuhfar","steam_id":76561198044496678,"connected_time":595000000000,"state":"active","ping":65},{"user_id":56,"name":"[T]aKer","steam_id":76561198001778013,"connected_time":2079000000000,"state":"active","ping":58},{"user_id":84,"name":"swueuws","steam_id":76561198020716743,"connected_time":261000000000,"state":"active","ping":49},{"user_id":83,"name":"Nibiru_Agent","steam_id":76561198796404149,"connected_time":438000000000,"state":"active","ping":95},{"user_id":53,"name":"river","steam_id":76561198205177587,"connected_time":2386000000000,"state":"active","ping":46},{"user_id":65,"name":"MaRo","steam_id":76561198992286676,"connected_time":1427000000000,"state":"active","ping":68},{"user_id":74,"name":"Alice in the Badlands","steam_id":76561198052410860,"connected_time":1128000000000,"state":"active","ping":140},{"user_id":27,"name":"Ixsus\u003c3","steam_id":76561198094756869,"connected_time":4291000000000,"state":"active","ping":59},{"user_id":70,"name":"squikkel3","steam_id":76561198286393699,"connected_time":1302000000000,"state":"active","ping":66},{"user_id":71,"name":"YV","steam_id":76561198147868242,"connected_time":1299000000000,"state":"active","ping":45},{"user_id":30,"name":"Biały","steam_id":76561197996016988,"connected_time":4232000000000,"state":"active","ping":71},{"user_id":46,"name":"Bingus is WAM","steam_id":76561199131547722,"connected_time":2895000000000,"state":"active","ping":73},{"user_id":51,"name":"-ˏˋ marruu ˎˊ-","steam_id":76561198391108779,"connected_time":2615000000000,"state":"active","ping":62},{"user_id":81,"name":"Explosive-Legend #savetf2","steam_id":76561199126827973,"connected_time":502000000000,"state":"active","ping":123}]},{"server_id":309,"name":"Uncletopia | Frankfurt | 4 | All Maps","name_short":"frk-4","host":"frk-1.de.uncletopia.com","port":27045,"enabled":true,"region":"eu","cc":"de","latitude":50.110924,"longitude":8.682127,"reserved":0,"last_update":"0001-01-01T00:00:00Z","name_a2s":"Uncletopia | Frankfurt | 4 | All Maps","protocol":17,"map":"koth_highpass","folder":"tf","game":"Team Fortress","app_id":440,"player_count":3,"max_players":24,"Bots":0,"server_type":"Dedicated","server_os":"Linux","password":true,"vac":true,"version":"7695204","steam_id":85568392924504275,"keywords":["cp","nocrits","nodmgspread","uncletopia"],"game_id":440,"stv_port":0,"stv_name":"","players":[{"user_id":5,"name":"human garbage","steam_id":76561198400544043,"connected_time":279000000000,"state":"active","ping":68},{"user_id":6,"name":"Alender","steam_id":76561198061122036,"connected_time":56000000000,"state":"active","ping":55},{"user_id":7,"name":"Scientific Idiocy","steam_id":76561198951206047,"connected_time":22000000000,"state":"spawning","ping":119}]},{"server_id":310,"name":"Uncletopia | Frankfurt | 5 | All Maps","name_short":"frk-5","host":"frk-1.de.uncletopia.com","port":27055,"enabled":true,"region":"eu","cc":"de","latitude":50.110924,"longitude":8.682127,"reserved":0,"last_update":"0001-01-01T00:00:00Z","name_a2s":"Uncletopia | Frankfurt | 5 | All Maps","protocol":17,"map":"koth_highpass","folder":"tf","game":"Team Fortress","app_id":440,"player_count":0,"max_players":24,"Bots":0,"server_type":"Dedicated","server_os":"Linux","password":true,"vac":true,"version":"7695204","steam_id":85568392924504277,"keywords":["cp","nocrits","nodmgspread","uncletopia"],"game_id":440,"stv_port":27056,"stv_name":"Uncletopia | Frankfurt | 5 | All Maps | STV","players":null},{"server_id":311,"name":"Uncletopia | Frankfurt | 6 | All Maps","name_short":"frk-6","host":"frk-1.de.uncletopia.com","port":27065,"enabled":true,"region":"eu","cc":"de","latitude":50.110924,"longitude":8.682127,"reserved":0,"last_update":"0001-01-01T00:00:00Z","name_a2s":"Uncletopia | Frankfurt | 6 | All Maps","protocol":17,"map":"koth_highpass","folder":"tf","game":"Team Fortress","app_id":440,"player_count":24,"max_players":24,"Bots":0,"server_type":"Dedicated","server_os":"Linux","password":true,"vac":true,"version":"7695204","steam_id":85568392924504278,"keywords":["cp","nocrits","nodmgspread","uncletopia"],"game_id":440,"stv_port":27066,"stv_name":"Uncletopia | Frankfurt | 6 | All Maps | STV","players":[{"user_id":52,"name":"Rebel Friend","steam_id":76561198046347156,"connected_time":1180000000000,"state":"active","ping":56},{"user_id":49,"name":"Mega Fish","steam_id":76561198147779392,"connected_time":1372000000000,"state":"active","ping":53},{"user_id":76,"name":"I Love Coffee","steam_id":76561199028651017,"connected_time":40000000000,"state":"active","ping":73},{"user_id":77,"name":"garbage mikuknight","steam_id":76561198361819054,"connected_time":20000000000,"state":"spawning","ping":125},{"user_id":70,"name":"KenPendersOfficial","steam_id":76561198065112022,"connected_time":351000000000,"state":"active","ping":106},{"user_id":53,"name":"Keelan","steam_id":76561198013665543,"connected_time":1175000000000,"state":"active","ping":65},{"user_id":78,"name":"LOBZIK","steam_id":76561198114830120,"connected_time":3000000000,"state":"spawning","ping":87},{"user_id":62,"name":"Man of Testicular Proportions","steam_id":76561198055949151,"connected_time":858000000000,"state":"active","ping":57},{"user_id":58,"name":"Mustard Chef","steam_id":76561198167560993,"connected_time":916000000000,"state":"active","ping":85},{"user_id":63,"name":"28","steam_id":76561198140608606,"connected_time":854000000000,"state":"active","ping":75},{"user_id":19,"name":"tob:ias","steam_id":76561198832146626,"connected_time":2395000000000,"state":"active","ping":49},{"user_id":74,"name":"Somebody","steam_id":76561199227885144,"connected_time":132000000000,"state":"active","ping":121},{"user_id":60,"name":"123","steam_id":76561199172647182,"connected_time":882000000000,"state":"active","ping":88},{"user_id":40,"name":"altertaken","steam_id":76561199016050401,"connected_time":2063000000000,"state":"active","ping":128},{"user_id":67,"name":"Blastrock64","steam_id":76561199008932704,"connected_time":670000000000,"state":"active","ping":80},{"user_id":56,"name":"Ohio final boss","steam_id":76561199116882319,"connected_time":1103000000000,"state":"active","ping":58},{"user_id":71,"name":".morale-","steam_id":76561198102195119,"connected_time":290000000000,"state":"active","ping":52},{"user_id":28,"name":"Empress of Blades","steam_id":76561198044798583,"connected_time":2302000000000,"state":"active","ping":75},{"user_id":79,"name":"h e r t e l e k i","steam_id":76561198974861983,"connected_time":1000000000,"state":"spawning","ping":59},{"user_id":75,"name":"Sp-","steam_id":76561198400657925,"connected_time":87000000000,"state":"active","ping":108},{"user_id":36,"name":"Engineer Gaming","steam_id":76561198866730509,"connected_time":2178000000000,"state":"active","ping":92},{"user_id":42,"name":"Qwertuss","steam_id":76561198026305366,"connected_time":2029000000000,"state":"active","ping":56},{"user_id":34,"name":"Charmedelf","steam_id":76561197993611881,"connected_time":2199000000000,"state":"active","ping":59},{"user_id":44,"name":"cat (they/them)","steam_id":76561198416657815,"connected_time":2022000000000,"state":"active","ping":117}]},{"server_id":23,"name":"Uncletopia | Frankfurt | 7 | No Payload","name_short":"frk-7","host":"frk-1.de.uncletopia.com","port":27075,"enabled":true,"region":"eu","cc":"de","latitude":50.110924,"longitude":8.682127,"reserved":0,"last_update":"0001-01-01T00:00:00Z","name_a2s":"Uncletopia | Frankfurt | 7 | No Payload","protocol":17,"map":"cp_granary","folder":"tf","game":"Team Fortress","app_id":440,"player_count":0,"max_players":24,"Bots":0,"server_type":"Dedicated","server_os":"Linux","password":true,"vac":true,"version":"7695204","steam_id":85568392924742827,"keywords":["cp","nocrits","nodmgspread","uncletopia"],"game_id":440,"stv_port":27076,"stv_name":"Uncletopia | Frankfurt | 7 | No Payload | STV","players":null},{"server_id":24,"name":"Uncletopia | Frankfurt | 8 | Community","name_short":"frk-8","host":"frk-1.de.uncletopia.com","port":27085,"enabled":true,"region":"eu","cc":"de","latitude":50.110924,"longitude":8.682127,"reserved":0,"last_update":"0001-01-01T00:00:00Z","name_a2s":"Uncletopia | Frankfurt | 8 | Community","protocol":17,"map":"koth_lakeside_final","folder":"tf","game":"Team Fortress","app_id":440,"player_count":0,"max_players":24,"Bots":0,"server_type":"Dedicated","server_os":"Linux","password":true,"vac":true,"version":"7695204","steam_id":85568392924742828,"keywords":["cp","nocrits","nodmgspread","uncletopia"],"game_id":440,"stv_port":0,"stv_name":"","players":null},{"server_id":202,"name":"Uncletopia | Hong Kong | 1 | All Maps","name_short":"hgk-1","host":"hgk-1.hk.uncletopia.com","port":27015,"enabled":true,"region":"asia","cc":"hk","latitude":22.302711,"longitude":114.177216,"reserved":0,"last_update":"0001-01-01T00:00:00Z","name_a2s":"Uncletopia | Hong Kong | 1 | All Maps","protocol":17,"map":"pl_frontier_final","folder":"tf","game":"Team Fortress","app_id":440,"player_count":24,"max_players":24,"Bots":0,"server_type":"Dedicated","server_os":"Linux","password":true,"vac":true,"version":"7695204","steam_id":85568392924494504,"keywords":["nocrits","nodmgspread","payload","uncletopia"],"game_id":440,"stv_port":27016,"stv_name":"Uncletopia | Hong Kong | 1 | All Maps | STV","players":[{"user_id":422,"name":"ellz","steam_id":76561199216074568,"connected_time":6094000000000,"state":"active","ping":85},{"user_id":491,"name":"r/leroy","steam_id":76561199137927625,"connected_time":463000000000,"state":"active","ping":94},{"user_id":482,"name":"ASDSDAWDADAS","steam_id":76561198120068578,"connected_time":1057000000000,"state":"active","ping":129},{"user_id":444,"name":"terrybl","steam_id":76561198055553140,"connected_time":4330000000000,"state":"active","ping":78},{"user_id":460,"name":"godhood","steam_id":76561198412329672,"connected_time":2476000000000,"state":"active","ping":85},{"user_id":449,"name":"stap","steam_id":76561198003863187,"connected_time":3579000000000,"state":"active","ping":92},{"user_id":478,"name":"crispy chicken nugget","steam_id":76561198114452937,"connected_time":1181000000000,"state":"active","ping":77},{"user_id":459,"name":"Nephew Nate","steam_id":76561199137872034,"connected_time":2507000000000,"state":"active","ping":134},{"user_id":461,"name":"SICSIN","steam_id":76561198083923462,"connected_time":2283000000000,"state":"active","ping":83},{"user_id":453,"name":"piyoko no english","steam_id":76561198088403016,"connected_time":3355000000000,"state":"active","ping":111},{"user_id":437,"name":"unchi","steam_id":76561197969873415,"connected_time":4556000000000,"state":"active","ping":103},{"user_id":476,"name":"General_Goat","steam_id":76561199085601059,"connected_time":1221000000000,"state":"active","ping":48},{"user_id":470,"name":"sett.","steam_id":76561199010718657,"connected_time":1842000000000,"state":"active","ping":75},{"user_id":481,"name":"hoot","steam_id":76561198261404413,"connected_time":1073000000000,"state":"active","ping":79},{"user_id":492,"name":"nick","steam_id":76561198400698408,"connected_time":342000000000,"state":"active","ping":87},{"user_id":451,"name":"Rebecca, EdgeRunner","steam_id":76561199023086791,"connected_time":3506000000000,"state":"active","ping":76},{"user_id":487,"name":"solo","steam_id":76561199221433871,"connected_time":834000000000,"state":"active","ping":119},{"user_id":426,"name":"Saggle","steam_id":76561198056075147,"connected_time":5976000000000,"state":"active","ping":124},{"user_id":490,"name":"phloxa","steam_id":76561199208218301,"connected_time":719000000000,"state":"active","ping":48},{"user_id":477,"name":"Rephex","steam_id":76561198308185574,"connected_time":1221000000000,"state":"active","ping":166},{"user_id":493,"name":"Pizza_Jammies1345","steam_id":76561199228950246,"connected_time":75000000000,"state":"active","ping":165},{"user_id":463,"name":"condiment king","steam_id":76561199039560921,"connected_time":2095000000000,"state":"active","ping":75},{"user_id":391,"name":"MASLACK","steam_id":76561198039787857,"connected_time":8883000000000,"state":"active","ping":128},{"user_id":485,"name":"Pinecomb","steam_id":76561198825329716,"connected_time":971000000000,"state":"active","ping":49}]},{"server_id":1,"name":"Uncletopia | Los Angeles | 1 | All Maps","name_short":"lax-1","host":"lax-1.us.uncletopia.com","port":27015,"enabled":true,"region":"us-west","cc":"us","latitude":33.94279,"longitude":-118.41004,"reserved":0,"last_update":"0001-01-01T00:00:00Z","name_a2s":"Uncletopia | Los Angeles | 1 | All Maps","protocol":17,"map":"koth_nucleus","folder":"tf","game":"Team Fortress","app_id":440,"player_count":0,"max_players":24,"Bots":0,"server_type":"Dedicated","server_os":"Linux","password":true,"vac":true,"version":"7695204","steam_id":85568392924469991,"keywords":["cp","nocrits","nodmgspread","uncletopia"],"game_id":440,"stv_port":27016,"stv_name":"Uncletopia | Los Angeles | 1 | All Maps | STV","players":null},{"server_id":112,"name":"Uncletopia | Los Angeles | 2 | All Maps","name_short":"lax-2","host":"lax-1.us.uncletopia.com","port":27025,"enabled":true,"region":"us-west","cc":"us","latitude":33.94279,"longitude":-118.41004,"reserved":0,"last_update":"0001-01-01T00:00:00Z","name_a2s":"Uncletopia | Los Angeles | 2 | All Maps","protocol":17,"map":"koth_viaduct","folder":"tf","game":"Team Fortress","app_id":440,"player_count":0,"max_players":24,"Bots":0,"server_type":"Dedicated","server_os":"Linux","password":true,"vac":true,"version":"7695204","steam_id":85568392924469992,"keywords":["cp","nocrits","nodmgspread","uncletopia"],"game_id":440,"stv_port":27026,"stv_name":"Uncletopia | Los Angeles | 2 | All Maps | STV","players":null},{"server_id":324,"name":"Uncletopia | Los Angeles | 3 | All Maps","name_short":"lax-3","host":"lax-1.us.uncletopia.com","port":27035,"enabled":true,"region":"us-west","cc":"us","latitude":33.94279,"longitude":-118.41004,"reserved":0,"last_update":"0001-01-01T00:00:00Z","name_a2s":"Uncletopia | Los Angeles | 3 | All Maps","protocol":17,"map":"koth_cascade","folder":"tf","game":"Team Fortress","app_id":440,"player_count":0,"max_players":24,"Bots":0,"server_type":"Dedicated","server_os":"Linux","password":true,"vac":true,"version":"7695204","steam_id":85568392924510198,"keywords":["cp","nocrits","nodmgspread","uncletopia"],"game_id":440,"stv_port":27036,"stv_name":"Uncletopia | Los Angeles | 3 | All Maps | STV","players":null},{"server_id":25,"name":"Uncletopia | Los Angeles | 4 | No Payload","name_short":"lax-4","host":"lax-1.us.uncletopia.com","port":27045,"enabled":true,"region":"us-west","cc":"us","latitude":33.94279,"longitude":-118.41004,"reserved":0,"last_update":"0001-01-01T00:00:00Z","name_a2s":"Uncletopia | Los Angeles | 4 | No Payload","protocol":17,"map":"koth_harvest_final","folder":"tf","game":"Team Fortress","app_id":440,"player_count":0,"max_players":24,"Bots":0,"server_type":"Dedicated","server_os":"Linux","password":true,"vac":true,"version":"7695204","steam_id":85568392924510199,"keywords":["cp","nocrits","nodmgspread","uncletopia"],"game_id":440,"stv_port":27046,"stv_name":"Uncletopia | Los Angeles | 4 | No Payload | STV","players":null},{"server_id":11,"name":"Uncletopia | London | 1 | All Maps","name_short":"lon-1","host":"lon-1.uk.uncletopia.com","port":27015,"enabled":true,"region":"eu","cc":"gb","latitude":51.509865,"longitude":-0.118092,"reserved":0,"last_update":"0001-01-01T00:00:00Z","name_a2s":"Uncletopia | London | 1 | All Maps","protocol":17,"map":"cp_mountainlab","folder":"tf","game":"Team Fortress","app_id":440,"player_count":7,"max_players":24,"Bots":0,"server_type":"Dedicated","server_os":"Linux","password":true,"vac":true,"version":"7695204","steam_id":85568392924367362,"keywords":["cp","nocrits","nodmgspread","uncletopia"],"game_id":440,"stv_port":27016,"stv_name":"Uncletopia | London | 1 | All Maps | STV","players":[{"user_id":10,"name":"tealoverr.190","steam_id":76561199028497703,"connected_time":306000000000,"state":"active","ping":100},{"user_id":11,"name":"the smissmass cretin","steam_id":76561198334042273,"connected_time":193000000000,"state":"active","ping":75},{"user_id":17,"name":"freddie","steam_id":76561199227056699,"connected_time":54000000000,"state":"spawning","ping":59},{"user_id":13,"name":"barosans FR","steam_id":76561198038109099,"connected_time":164000000000,"state":"active","ping":37},{"user_id":14,"name":"When Life gives you Lemons","steam_id":76561198318290663,"connected_time":111000000000,"state":"active","ping":55},{"user_id":15,"name":"YourDoom","steam_id":76561198080790857,"connected_time":104000000000,"state":"active","ping":30},{"user_id":18,"name":"Azurh","steam_id":76561199330143102,"connected_time":38000000000,"state":"active","ping":75}]},{"server_id":114,"name":"Uncletopia | London | 2 | All Maps","name_short":"lon-2","host":"lon-1.uk.uncletopia.com","port":27025,"enabled":true,"region":"eu","cc":"gb","latitude":51.509865,"longitude":-0.118092,"reserved":0,"last_update":"0001-01-01T00:00:00Z","name_a2s":"Uncletopia | London | 2 | All Maps","protocol":17,"map":"cp_sunshine","folder":"tf","game":"Team Fortress","app_id":440,"player_count":0,"max_players":24,"Bots":0,"server_type":"Dedicated","server_os":"Linux","password":true,"vac":true,"version":"7695204","steam_id":85568392924470941,"keywords":["cp","nocrits","nodmgspread","uncletopia"],"game_id":440,"stv_port":0,"stv_name":"","players":null},{"server_id":320,"name":"Uncletopia | London | 3 | All Maps","name_short":"lon-3","host":"lon-1.uk.uncletopia.com","port":27035,"enabled":true,"region":"eu","cc":"gb","latitude":51.509865,"longitude":-0.118092,"reserved":0,"last_update":"0001-01-01T00:00:00Z","name_a2s":"Uncletopia | London | 3 | All Maps","protocol":17,"map":"pl_borneo","folder":"tf","game":"Team Fortress","app_id":440,"player_count":0,"max_players":24,"Bots":0,"server_type":"Dedicated","server_os":"Linux","password":true,"vac":true,"version":"7695204","steam_id":85568392924510192,"keywords":["nocrits","nodmgspread","payload","uncletopia"],"game_id":440,"stv_port":27036,"stv_name":"Uncletopia | London | 3 | All Maps | STV","players":null},{"server_id":321,"name":"Uncletopia | London | 4 | All Maps","name_short":"lon-4","host":"lon-1.uk.uncletopia.com","port":27045,"enabled":true,"region":"eu","cc":"gb","latitude":51.509865,"longitude":-0.118092,"reserved":0,"last_update":"0001-01-01T00:00:00Z","name_a2s":"Uncletopia | London | 4 | All Maps","protocol":17,"map":"koth_highpass","folder":"tf","game":"Team Fortress","app_id":440,"player_count":24,"max_players":24,"Bots":0,"server_type":"Dedicated","server_os":"Linux","password":true,"vac":true,"version":"7695204","steam_id":85568392924510193,"keywords":["cp","nocrits","nodmgspread","uncletopia"],"game_id":440,"stv_port":27046,"stv_name":"Uncletopia | London | 4 | All Maps | STV","players":[{"user_id":100,"name":"GAZZOLX","steam_id":76561199239470712,"connected_time":1735000000000,"state":"active","ping":62},{"user_id":94,"name":"πp","steam_id":76561199026097466,"connected_time":2078000000000,"state":"active","ping":75},{"user_id":92,"name":"Panda","steam_id":76561198176342325,"connected_time":2297000000000,"state":"active","ping":81},{"user_id":93,"name":"nuko","steam_id":76561198054563040,"connected_time":2086000000000,"state":"active","ping":50},{"user_id":121,"name":"R!not","steam_id":76561197986328786,"connected_time":170000000000,"state":"active","ping":46},{"user_id":106,"name":"High G","steam_id":76561198114542857,"connected_time":1523000000000,"state":"active","ping":51},{"user_id":97,"name":"Andrea","steam_id":76561199350746762,"connected_time":1888000000000,"state":"active","ping":78},{"user_id":43,"name":"ciliorkun18","steam_id":76561198228942500,"connected_time":5726000000000,"state":"active","ping":90},{"user_id":122,"name":"0_Dan","steam_id":76561199006567387,"connected_time":97000000000,"state":"active","ping":51},{"user_id":123,"name":"curious femboy","steam_id":76561199199388221,"connected_time":7000000000,"state":"spawning","ping":39},{"user_id":104,"name":"mana","steam_id":76561198193802523,"connected_time":1580000000000,"state":"active","ping":39},{"user_id":111,"name":"average voices enjoyer","steam_id":76561198307919303,"connected_time":1089000000000,"state":"active","ping":59},{"user_id":95,"name":"Mudkipz_NL","steam_id":76561198042180801,"connected_time":2042000000000,"state":"active","ping":54},{"user_id":72,"name":"Clitorina","steam_id":76561198077570815,"connected_time":3806000000000,"state":"active","ping":43},{"user_id":108,"name":"dotdotdot","steam_id":76561198057628751,"connected_time":1207000000000,"state":"active","ping":65},{"user_id":102,"name":"Guru","steam_id":76561198093853069,"connected_time":1615000000000,"state":"active","ping":66},{"user_id":103,"name":"Feelin' Supersonic","steam_id":76561198005738407,"connected_time":1604000000000,"state":"active","ping":83},{"user_id":112,"name":"tukata","steam_id":76561198861013993,"connected_time":1034000000000,"state":"active","ping":65},{"user_id":98,"name":"Him","steam_id":76561198086400484,"connected_time":1811000000000,"state":"active","ping":63},{"user_id":74,"name":"Kapitan Polska","steam_id":76561197968069413,"connected_time":3301000000000,"state":"active","ping":76},{"user_id":114,"name":"UndyingSimmer","steam_id":76561199070656136,"connected_time":982000000000,"state":"active","ping":53},{"user_id":120,"name":"Tywhip","steam_id":76561199207545191,"connected_time":198000000000,"state":"active","ping":55},{"user_id":99,"name":"Hkitchen","steam_id":76561198194779526,"connected_time":1740000000000,"state":"active","ping":37},{"user_id":117,"name":"(1)Him","steam_id":76561198155314925,"connected_time":502000000000,"state":"active","ping":60}]},{"server_id":21,"name":"Uncletopia | London | 5 | All Maps","name_short":"lon-5","host":"lon-1.uk.uncletopia.com","port":27055,"enabled":true,"region":"eu","cc":"gb","latitude":51.509865,"longitude":-0.118092,"reserved":0,"last_update":"0001-01-01T00:00:00Z","name_a2s":"Uncletopia | London | 5 | All Maps","protocol":17,"map":"koth_cascade","folder":"tf","game":"Team Fortress","app_id":440,"player_count":0,"max_players":24,"Bots":0,"server_type":"Dedicated","server_os":"Linux","password":true,"vac":true,"version":"7695204","steam_id":85568392924742829,"keywords":["cp","nocrits","nodmgspread","uncletopia"],"game_id":440,"stv_port":0,"stv_name":"","players":null},{"server_id":22,"name":"Uncletopia | London | 6 | All Maps","name_short":"lon-6","host":"lon-1.uk.uncletopia.com","port":27065,"enabled":true,"region":"eu","cc":"gb","latitude":51.509865,"longitude":-0.118092,"reserved":0,"last_update":"0001-01-01T00:00:00Z","name_a2s":"Uncletopia | London | 6 | All Maps","protocol":17,"map":"cp_dustbowl","folder":"tf","game":"Team Fortress","app_id":440,"player_count":0,"max_players":24,"Bots":0,"server_type":"Dedicated","server_os":"Linux","password":true,"vac":true,"version":"7695204","steam_id":85568392924742830,"keywords":["cp","nocrits","nodmgspread","uncletopia"],"game_id":440,"stv_port":27066,"stv_name":"Uncletopia | London | 6 | All Maps | STV","players":null},{"server_id":40,"name":"Uncletopia | London | 7 | No Payload","name_short":"lon-7","host":"lon-1.uk.uncletopia.com","port":27075,"enabled":true,"region":"eu","cc":"gb","latitude":51.509865,"longitude":-0.118092,"reserved":0,"last_update":"0001-01-01T00:00:00Z","name_a2s":"Uncletopia | London | 7 | No Payload","protocol":17,"map":"ctf_landfall","folder":"tf","game":"Team Fortress","app_id":440,"player_count":4,"max_players":24,"Bots":0,"server_type":"Dedicated","server_os":"Linux","password":true,"vac":true,"version":"7695204","steam_id":85568392924964314,"keywords":["ctf","nocrits","nodmgspread","uncletopia"],"game_id":440,"stv_port":27076,"stv_name":"Uncletopia | London | 7 | No Payload | STV","players":[{"user_id":7,"name":"Graceful Jabberwocky","steam_id":76561199013504849,"connected_time":567000000000,"state":"active","ping":45},{"user_id":8,"name":"Maken","steam_id":76561197995777078,"connected_time":465000000000,"state":"active","ping":49},{"user_id":9,"name":"not clickbait","steam_id":76561198951275407,"connected_time":458000000000,"state":"active","ping":70},{"user_id":12,"name":"Delltos™","steam_id":76561199076924213,"connected_time":150000000000,"state":"active","ping":39}]},{"server_id":41,"name":"Uncletopia | London | 8 | Community","name_short":"lon-8","host":"lon-1.uk.uncletopia.com","port":27085,"enabled":true,"region":"eu","cc":"gb","latitude":51.509865,"longitude":-0.118092,"reserved":0,"last_update":"0001-01-01T00:00:00Z","name_a2s":"Uncletopia | London | 8 | Community","protocol":17,"map":"workshop/rd_asteroid_redux_rc9.ugc2154902912","folder":"tf","game":"Team Fortress","app_id":440,"player_count":0,"max_players":24,"Bots":0,"server_type":"Dedicated","server_os":"Linux","password":true,"vac":true,"version":"7695204","steam_id":85568392924964315,"keywords":["beta","nocrits","nodmgspread","rd","uncletopia"],"game_id":440,"stv_port":27086,"stv_name":"Uncletopia | London | 8 | Community | STV","players":null},{"server_id":300,"name":"Uncletopia | Montréal | 1 | All Maps","name_short":"mtl-1","host":"mtl-1.ca.uncletopia.com","port":27015,"enabled":true,"region":"us-east","cc":"ca","latitude":45.50889,"longitude":-73.56167,"reserved":0,"last_update":"0001-01-01T00:00:00Z","name_a2s":"Uncletopia | Montréal | 1 | All Maps","protocol":17,"map":"cp_dustbowl","folder":"tf","game":"Team Fortress","app_id":440,"player_count":0,"max_players":24,"Bots":0,"server_type":"Dedicated","server_os":"Linux","password":true,"vac":true,"version":"7695204","steam_id":85568392924500087,"keywords":["cp","nocrits","nodmgspread","uncletopia"],"game_id":440,"stv_port":0,"stv_name":"","players":null},{"server_id":301,"name":"Uncletopia | Montréal | 2 | All Maps","name_short":"mtl-2","host":"mtl-1.ca.uncletopia.com","port":27025,"enabled":true,"region":"us-east","cc":"ca","latitude":45.50889,"longitude":-73.56167,"reserved":0,"last_update":"0001-01-01T00:00:00Z","name_a2s":"Uncletopia | Montréal | 2 | All Maps","protocol":17,"map":"pl_snowycoast","folder":"tf","game":"Team Fortress","app_id":440,"player_count":0,"max_players":24,"Bots":0,"server_type":"Dedicated","server_os":"Linux","password":true,"vac":true,"version":"7695204","steam_id":85568392924500088,"keywords":["nocrits","nodmgspread","payload","uncletopia"],"game_id":440,"stv_port":0,"stv_name":"","players":null},{"server_id":302,"name":"Uncletopia | Montréal | 3 | All Maps","name_short":"mtl-3","host":"mtl-1.ca.uncletopia.com","port":27035,"enabled":true,"region":"us-east","cc":"ca","latitude":45.50889,"longitude":-73.56167,"reserved":0,"last_update":"0001-01-01T00:00:00Z","name_a2s":"Uncletopia | Montréal | 3 | All Maps","protocol":17,"map":"koth_viaduct","folder":"tf","game":"Team Fortress","app_id":440,"player_count":0,"max_players":24,"Bots":0,"server_type":"Dedicated","server_os":"Linux","password":true,"vac":true,"version":"7695204","steam_id":85568392924500089,"keywords":["cp","nocrits","nodmgspread","uncletopia"],"game_id":440,"stv_port":0,"stv_name":"","players":null},{"server_id":303,"name":"Uncletopia | Montréal | 4 | No Payload","name_short":"mtl-4","host":"mtl-1.ca.uncletopia.com","port":27045,"enabled":true,"region":"us-east","cc":"ca","latitude":45.50889,"longitude":-73.56167,"reserved":0,"last_update":"0001-01-01T00:00:00Z","name_a2s":"Uncletopia | Montréal | 4 | No Payload","protocol":17,"map":"cp_dustbowl","folder":"tf","game":"Team Fortress","app_id":440,"player_count":0,"max_players":24,"Bots":0,"server_type":"Dedicated","server_os":"Linux","password":true,"vac":true,"version":"7695204","steam_id":85568392924500090,"keywords":["cp","nocrits","nodmgspread","uncletopia"],"game_id":440,"stv_port":0,"stv_name":"","players":null},{"server_id":13,"name":"Uncletopia | New York City | 1 | All Maps","name_short":"nyc-1","host":"nyc-1.us.uncletopia.com","port":27015,"enabled":true,"region":"us-east","cc":"us","latitude":40.73061,"longitude":-73.93524,"reserved":0,"last_update":"0001-01-01T00:00:00Z","name_a2s":"Uncletopia | New York City | 1 | All Maps","protocol":17,"map":"koth_viaduct","folder":"tf","game":"Team Fortress","app_id":440,"player_count":0,"max_players":24,"Bots":0,"server_type":"Dedicated","server_os":"Linux","password":true,"vac":true,"version":"7695204","steam_id":85568392924469993,"keywords":["cp","nocrits","nodmgspread","uncletopia"],"game_id":440,"stv_port":27016,"stv_name":"Uncletopia | New York City | 1 | All Maps | STV","players":null},{"server_id":14,"name":"Uncletopia | New York City | 2 | All Maps","name_short":"nyc-2","host":"nyc-1.us.uncletopia.com","port":27025,"enabled":true,"region":"us-east","cc":"us","latitude":40.73061,"longitude":-73.93524,"reserved":0,"last_update":"0001-01-01T00:00:00Z","name_a2s":"Uncletopia | New York City | 2 | All Maps","protocol":17,"map":"pl_borneo","folder":"tf","game":"Team Fortress","app_id":440,"player_count":0,"max_players":24,"Bots":0,"server_type":"Dedicated","server_os":"Linux","password":true,"vac":true,"version":"7695204","steam_id":85568392924469994,"keywords":["nocrits","nodmgspread","payload","uncletopia"],"game_id":440,"stv_port":0,"stv_name":"","players":null},{"server_id":15,"name":"Uncletopia | New York City | 3 | All Maps","name_short":"nyc-3","host":"nyc-1.us.uncletopia.com","port":27035,"enabled":true,"region":"us-east","cc":"us","latitude":40.73061,"longitude":-73.93524,"reserved":0,"last_update":"0001-01-01T00:00:00Z","name_a2s":"Uncletopia | New York City | 3 | All Maps","protocol":17,"map":"pl_snowycoast","folder":"tf","game":"Team Fortress","app_id":440,"player_count":0,"max_players":24,"Bots":0,"server_type":"Dedicated","server_os":"Linux","password":true,"vac":true,"version":"7695204","steam_id":85568392924742820,"keywords":["nocrits","nodmgspread","payload","uncletopia"],"game_id":440,"stv_port":0,"stv_name":"","players":null},{"server_id":16,"name":"Uncletopia | New York City | 4 | Community","name_short":"nyc-4","host":"nyc-1.us.uncletopia.com","port":27045,"enabled":true,"region":"us-east","cc":"us","latitude":40.73061,"longitude":-73.93524,"reserved":0,"last_update":"0001-01-01T00:00:00Z","name_a2s":"Uncletopia | New York City | 4 | Community","protocol":17,"map":"pl_barnblitz","folder":"tf","game":"Team Fortress","app_id":440,"player_count":0,"max_players":24,"Bots":0,"server_type":"Dedicated","server_os":"Linux","password":true,"vac":true,"version":"7695204","steam_id":85568392924742821,"keywords":["nocrits","nodmgspread","payload","uncletopia"],"game_id":440,"stv_port":0,"stv_name":"","players":null},{"server_id":142,"name":"Uncletopia | São Paulo | 1 | All Maps","name_short":"sao-1","host":"sao-1.br.uncletopia.com","port":27015,"enabled":true,"region":"sa","cc":"br","latitude":-23.533773,"longitude":-46.62529,"reserved":0,"last_update":"0001-01-01T00:00:00Z","name_a2s":"Uncletopia | São Paulo | 1 | All Maps","protocol":17,"map":"koth_cascade","folder":"tf","game":"Team Fortress","app_id":440,"player_count":0,"max_players":24,"Bots":0,"server_type":"Dedicated","server_os":"Linux","password":true,"vac":true,"version":"7695204","steam_id":85568392924469996,"keywords":["cp","nocrits","nodmgspread","uncletopia"],"game_id":440,"stv_port":0,"stv_name":"","players":null},{"server_id":143,"name":"Uncletopia | São Paulo | 2 | All Maps","name_short":"sao-2","host":"sao-2.br.uncletopia.com","port":27015,"enabled":true,"region":"sa","cc":"br","latitude":-23.533773,"longitude":-46.62529,"reserved":0,"last_update":"0001-01-01T00:00:00Z","name_a2s":"Uncletopia | São Paulo | 2 | All Maps","protocol":17,"map":"pl_borneo","folder":"tf","game":"Team Fortress","app_id":440,"player_count":0,"max_players":24,"Bots":0,"server_type":"Dedicated","server_os":"Linux","password":true,"vac":true,"version":"7695204","steam_id":85568392924485349,"keywords":["nocrits","nodmgspread","payload","uncletopia"],"game_id":440,"stv_port":27016,"stv_name":"Uncletopia | São Paulo | 2 | All Maps | STV","players":null},{"server_id":7,"name":"Uncletopia | Seattle | 1 | All Maps","name_short":"sea-1","host":"sea-1.us.uncletopia.com","port":27015,"enabled":true,"region":"us-west","cc":"us","latitude":47.608013,"longitude":-122.33517,"reserved":0,"last_update":"0001-01-01T00:00:00Z","name_a2s":"Uncletopia | Seattle | 1 | All Maps","protocol":17,"map":"koth_cascade","folder":"tf","game":"Team Fortress","app_id":440,"player_count":0,"max_players":24,"Bots":0,"server_type":"Dedicated","server_os":"Linux","password":true,"vac":true,"version":"7695204","steam_id":85568392924469997,"keywords":["cp","nocrits","nodmgspread","uncletopia"],"game_id":440,"stv_port":27016,"stv_name":"Uncletopia | Seattle | 1 | All Maps | STV","players":null},{"server_id":119,"name":"Uncletopia | Seattle | 2 | All Maps","name_short":"sea-2","host":"sea-1.us.uncletopia.com","port":27025,"enabled":true,"region":"us-west","cc":"us","latitude":47.608013,"longitude":-122.33517,"reserved":0,"last_update":"0001-01-01T00:00:00Z","name_a2s":"Uncletopia | Seattle | 2 | All Maps","protocol":17,"map":"koth_harvest_final","folder":"tf","game":"Team Fortress","app_id":440,"player_count":21,"max_players":24,"Bots":0,"server_type":"Dedicated","server_os":"Linux","password":true,"vac":true,"version":"7695204","steam_id":85568392924469998,"keywords":["cp","nocrits","nodmgspread","uncletopia"],"game_id":440,"stv_port":27026,"stv_name":"Uncletopia | Seattle | 2 | All Maps | STV","players":[{"user_id":802,"name":"bond burger","steam_id":76561198143132686,"connected_time":1888000000000,"state":"active","ping":72},{"user_id":766,"name":"Raian","steam_id":76561199138048671,"connected_time":4193000000000,"state":"active","ping":61},{"user_id":753,"name":"Red","steam_id":76561198037346199,"connected_time":5641000000000,"state":"active","ping":85},{"user_id":770,"name":"Tsudad","steam_id":76561198827362462,"connected_time":3959000000000,"state":"active","ping":65},{"user_id":804,"name":"Bagel™","steam_id":76561199188785814,"connected_time":1597000000000,"state":"active","ping":68},{"user_id":790,"name":"-","steam_id":76561198047128360,"connected_time":2436000000000,"state":"active","ping":61},{"user_id":795,"name":"rat gets the cheese","steam_id":76561198031234032,"connected_time":2195000000000,"state":"active","ping":93},{"user_id":825,"name":"Mouth Tea","steam_id":76561198285054047,"connected_time":511000000000,"state":"active","ping":78},{"user_id":807,"name":"amagicowl","steam_id":76561199060487814,"connected_time":1216000000000,"state":"active","ping":81},{"user_id":808,"name":"Twisted4000","steam_id":76561198031237102,"connected_time":1214000000000,"state":"active","ping":80},{"user_id":798,"name":"Rommel2007","steam_id":76561198041744631,"connected_time":2029000000000,"state":"active","ping":78},{"user_id":827,"name":"pt","steam_id":76561198143023330,"connected_time":303000000000,"state":"active","ping":75},{"user_id":811,"name":"Sad Sapling","steam_id":76561198075612150,"connected_time":1206000000000,"state":"active","ping":84},{"user_id":821,"name":"Sonata","steam_id":76561198088165440,"connected_time":774000000000,"state":"active","ping":82},{"user_id":814,"name":"Beef Wellington","steam_id":76561197995635241,"connected_time":1180000000000,"state":"active","ping":107},{"user_id":746,"name":"Elizabeth Großbrandt","steam_id":76561198209702785,"connected_time":6090000000000,"state":"active","ping":123},{"user_id":742,"name":"//NC SEGNO","steam_id":76561198102780113,"connected_time":6501000000000,"state":"active","ping":72},{"user_id":816,"name":"Joy in A Box","steam_id":76561198156820753,"connected_time":1085000000000,"state":"active","ping":208},{"user_id":817,"name":"Daz","steam_id":76561198041431938,"connected_time":1073000000000,"state":"active","ping":121},{"user_id":748,"name":"Okayokayokayokayokayokayokayoka","steam_id":76561198118754527,"connected_time":6061000000000,"state":"active","ping":96},{"user_id":818,"name":"[CoS] EnJohneer","steam_id":76561199195370653,"connected_time":1033000000000,"state":"active","ping":231}]},{"server_id":17,"name":"Uncletopia | San Francisco | 1 | All Maps","name_short":"sfo-1","host":"sfo-1.us.uncletopia.com","port":27015,"enabled":true,"region":"us-west","cc":"us","latitude":37.77397,"longitude":-122.4313,"reserved":0,"last_update":"0001-01-01T00:00:00Z","name_a2s":"Uncletopia | San Francisco | 1 | All Maps","protocol":17,"map":"koth_lakeside_final","folder":"tf","game":"Team Fortress","app_id":440,"player_count":0,"max_players":24,"Bots":0,"server_type":"Dedicated","server_os":"Linux","password":true,"vac":true,"version":"7695204","steam_id":85568392924469999,"keywords":["cp","nocrits","nodmgspread","uncletopia"],"game_id":440,"stv_port":27016,"stv_name":"Uncletopia | San Francisco | 1 | All Maps | STV","players":null},{"server_id":18,"name":"Uncletopia | San Francisco | 2 | All Maps","name_short":"sfo-2","host":"sfo-1.us.uncletopia.com","port":27025,"enabled":true,"region":"us-west","cc":"us","latitude":37.77397,"longitude":-122.4313,"reserved":0,"last_update":"0001-01-01T00:00:00Z","name_a2s":"Uncletopia | San Francisco | 2 | All Maps","protocol":17,"map":"koth_viaduct","folder":"tf","game":"Team Fortress","app_id":440,"player_count":0,"max_players":24,"Bots":0,"server_type":"Dedicated","server_os":"Linux","password":true,"vac":true,"version":"7695204","steam_id":85568392924470000,"keywords":["cp","nocrits","nodmgspread","uncletopia"],"game_id":440,"stv_port":27026,"stv_name":"Uncletopia | San Francisco | 2 | All Maps | STV","players":null},{"server_id":19,"name":"Uncletopia | San Francisco | 3 | No Payload","name_short":"sfo-3","host":"sfo-1.us.uncletopia.com","port":27035,"enabled":true,"region":"us-west","cc":"us","latitude":37.77397,"longitude":-122.4313,"reserved":0,"last_update":"0001-01-01T00:00:00Z","name_a2s":"Uncletopia | San Francisco | 3 | No Payload","protocol":17,"map":"plr_hightower","folder":"tf","game":"Team Fortress","app_id":440,"player_count":0,"max_players":24,"Bots":0,"server_type":"Dedicated","server_os":"Linux","password":true,"vac":true,"version":"7695204","steam_id":85568392924742824,"keywords":["nocrits","nodmgspread","payload","uncletopia"],"game_id":440,"stv_port":27036,"stv_name":"Uncletopia | San Francisco | 3 | No Payload | STV","players":null},{"server_id":20,"name":"Uncletopia | San Francisco | 4 | Community","name_short":"sfo-4","host":"sfo-1.us.uncletopia.com","port":27045,"enabled":true,"region":"us-west","cc":"us","latitude":37.77397,"longitude":-122.4313,"reserved":0,"last_update":"0001-01-01T00:00:00Z","name_a2s":"Uncletopia | San Francisco | 4 | Community","protocol":17,"map":"workshop/cp_sulfur_rc2.ugc619869471","folder":"tf","game":"Team Fortress","app_id":440,"player_count":0,"max_players":24,"Bots":0,"server_type":"Dedicated","server_os":"Linux","password":true,"vac":true,"version":"7695204","steam_id":85568392924742826,"keywords":["cp","nocrits","nodmgspread","uncletopia"],"game_id":440,"stv_port":27046,"stv_name":"Uncletopia | San Francisco | 4 | Community | STV","players":null},{"server_id":141,"name":"Uncletopia | Sydney | 1 | All Maps","name_short":"syd-1","host":"syd-1.au.uncletopia.com","port":27015,"enabled":true,"region":"au","cc":"au","latitude":-33.865143,"longitude":151.2099,"reserved":0,"last_update":"0001-01-01T00:00:00Z","name_a2s":"Uncletopia | Sydney | 1 | All Maps","protocol":17,"map":"pl_upward","folder":"tf","game":"Team Fortress","app_id":440,"player_count":0,"max_players":24,"Bots":0,"server_type":"Dedicated","server_os":"Linux","password":true,"vac":true,"version":"7695204","steam_id":85568392924470001,"keywords":["nocrits","nodmgspread","payload","uncletopia"],"game_id":440,"stv_port":27016,"stv_name":"Uncletopia | Sydney | 1 | All Maps | STV","players":null},{"server_id":123,"name":"Uncletopia | Sydney | 2 | All Maps","name_short":"syd-2","host":"syd-1.au.uncletopia.com","port":27025,"enabled":true,"region":"au","cc":"au","latitude":-33.865143,"longitude":151.2099,"reserved":0,"last_update":"0001-01-01T00:00:00Z","name_a2s":"Uncletopia | Sydney | 2 | All Maps","protocol":17,"map":"pl_frontier_final","folder":"tf","game":"Team Fortress","app_id":440,"player_count":20,"max_players":24,"Bots":0,"server_type":"Dedicated","server_os":"Linux","password":true,"vac":true,"version":"7695204","steam_id":85568392924470002,"keywords":["nocrits","nodmgspread","payload","uncletopia"],"game_id":440,"stv_port":27026,"stv_name":"Uncletopia | Sydney | 2 | All Maps | STV","players":[{"user_id":587,"name":"LockStryder","steam_id":76561198117384113,"connected_time":4229000000000,"state":"active","ping":48},{"user_id":605,"name":"Homebrand Chronic","steam_id":76561198941549137,"connected_time":3225000000000,"state":"active","ping":76},{"user_id":625,"name":"blicky","steam_id":76561198029829077,"connected_time":2137000000000,"state":"active","ping":101},{"user_id":558,"name":"Kouler","steam_id":76561197960804719,"connected_time":7359000000000,"state":"active","ping":59},{"user_id":655,"name":"Martial","steam_id":76561198071597924,"connected_time":167000000000,"state":"active","ping":52},{"user_id":638,"name":"curtis","steam_id":76561197993731862,"connected_time":971000000000,"state":"active","ping":90},{"user_id":656,"name":"Jacob","steam_id":76561198059341907,"connected_time":21000000000,"state":"spawning","ping":57},{"user_id":640,"name":"korn","steam_id":76561198022563294,"connected_time":802000000000,"state":"active","ping":104},{"user_id":642,"name":"obj","steam_id":76561199218481136,"connected_time":707000000000,"state":"active","ping":56},{"user_id":641,"name":"Rarity the Fabulous","steam_id":76561198077653287,"connected_time":733000000000,"state":"active","ping":36},{"user_id":608,"name":"RoverTw0","steam_id":76561198025416071,"connected_time":3024000000000,"state":"active","ping":38},{"user_id":590,"name":"Kickersboy08","steam_id":76561198367262914,"connected_time":4013000000000,"state":"active","ping":126},{"user_id":644,"name":"bonehead #saveTF2","steam_id":76561199020855261,"connected_time":693000000000,"state":"active","ping":60},{"user_id":645,"name":"hobo","steam_id":76561199046481213,"connected_time":670000000000,"state":"active","ping":67},{"user_id":647,"name":"grg","steam_id":76561198152329584,"connected_time":519000000000,"state":"active","ping":83},{"user_id":620,"name":"Leany","steam_id":76561198029322296,"connected_time":2686000000000,"state":"active","ping":89},{"user_id":626,"name":"hawk","steam_id":76561198135164277,"connected_time":2116000000000,"state":"active","ping":55},{"user_id":621,"name":"On My Way to Smooch You, I Am","steam_id":76561198041713339,"connected_time":2530000000000,"state":"active","ping":70},{"user_id":619,"name":"Yeehaw","steam_id":76561198039684922,"connected_time":2757000000000,"state":"active","ping":41},{"user_id":650,"name":"campbell","steam_id":76561197982503303,"connected_time":449000000000,"state":"active","ping":55}]},{"server_id":395,"name":"Uncletopia | Sydney | 3 | All Maps","name_short":"syd-3","host":"syd-1.au.uncletopia.com","port":27035,"enabled":true,"region":"au","cc":"au","latitude":-33.865143,"longitude":151.2099,"reserved":0,"last_update":"0001-01-01T00:00:00Z","name_a2s":"Uncletopia | Sydney | 3 | All Maps","protocol":17,"map":"pl_pier","folder":"tf","game":"Team Fortress","app_id":440,"player_count":19,"max_players":24,"Bots":0,"server_type":"Dedicated","server_os":"Linux","password":true,"vac":true,"version":"7695204","steam_id":85568392925194467,"keywords":["nocrits","nodmgspread","payload","uncletopia"],"game_id":440,"stv_port":27036,"stv_name":"Uncletopia | Sydney | 3 | All Maps | STV","players":[{"user_id":447,"name":"SCHEFF","steam_id":76561198078226216,"connected_time":417000000000,"state":"active","ping":58},{"user_id":373,"name":"Elves","steam_id":76561198010873624,"connected_time":5138000000000,"state":"active","ping":61},{"user_id":442,"name":"Charm","steam_id":76561198028891054,"connected_time":816000000000,"state":"active","ping":62},{"user_id":364,"name":"york","steam_id":76561197996817216,"connected_time":5517000000000,"state":"active","ping":45},{"user_id":313,"name":"ุbifcheg","steam_id":76561198319806610,"connected_time":9491000000000,"state":"active","ping":61},{"user_id":399,"name":"Tlareg","steam_id":76561198134450606,"connected_time":3962000000000,"state":"active","ping":63},{"user_id":401,"name":"Solty","steam_id":76561198044062896,"connected_time":3817000000000,"state":"active","ping":47},{"user_id":436,"name":"Tiger_Tan","steam_id":76561198221733844,"connected_time":1241000000000,"state":"active","ping":64},{"user_id":448,"name":"i like balls","steam_id":76561199010558927,"connected_time":332000000000,"state":"active","ping":160},{"user_id":379,"name":"Rogue (Anti-fire)","steam_id":76561198055404248,"connected_time":4938000000000,"state":"active","ping":49},{"user_id":392,"name":"Magpie Marauder","steam_id":76561198077266421,"connected_time":4089000000000,"state":"active","ping":52},{"user_id":437,"name":"TerraTerra","steam_id":76561197993730566,"connected_time":1179000000000,"state":"active","ping":52},{"user_id":420,"name":"DIY Miracle","steam_id":76561198046228152,"connected_time":2352000000000,"state":"active","ping":62},{"user_id":445,"name":"April","steam_id":76561198848287180,"connected_time":742000000000,"state":"active","ping":47},{"user_id":432,"name":"tenten","steam_id":76561198402822072,"connected_time":1729000000000,"state":"active","ping":76},{"user_id":398,"name":"DarthBail","steam_id":76561198135899894,"connected_time":3981000000000,"state":"active","ping":66},{"user_id":449,"name":"Little Red all grown up","steam_id":76561198054040718,"connected_time":291000000000,"state":"active","ping":46},{"user_id":429,"name":"ItsSnakey","steam_id":76561199187623513,"connected_time":1890000000000,"state":"active","ping":61},{"user_id":452,"name":"ManFlabs","steam_id":76561198971245592,"connected_time":124000000000,"state":"active","ping":62}]},{"server_id":396,"name":"Uncletopia | Sydney | 4 | All Maps","name_short":"syd-4","host":"syd-1.au.uncletopia.com","port":27045,"enabled":true,"region":"au","cc":"au","latitude":-33.865143,"longitude":151.2099,"reserved":0,"last_update":"0001-01-01T00:00:00Z","name_a2s":"Uncletopia | Sydney | 4 | All Maps","protocol":17,"map":"cp_snakewater_final1","folder":"tf","game":"Team Fortress","app_id":440,"player_count":0,"max_players":24,"Bots":0,"server_type":"Dedicated","server_os":"Linux","password":true,"vac":true,"version":"7695204","steam_id":85568392925397958,"keywords":["cp","nocrits","nodmgspread","uncletopia"],"game_id":440,"stv_port":27046,"stv_name":"Uncletopia | Sydney | 4 | All Maps | STV","players":null},{"server_id":58,"name":"Uncletopia | Sydney | 5 | No Payload","name_short":"syd-5","host":"syd-1.au.uncletopia.com","port":27055,"enabled":true,"region":"au","cc":"au","latitude":-33.865143,"longitude":151.2099,"reserved":0,"last_update":"0001-01-01T00:00:00Z","name_a2s":"Uncletopia | Sydney | 5 | No Payload","protocol":17,"map":"plr_hightower","folder":"tf","game":"Team Fortress","app_id":440,"player_count":3,"max_players":24,"Bots":0,"server_type":"Dedicated","server_os":"Linux","password":true,"vac":true,"version":"7695204","steam_id":85568392925397959,"keywords":["nocrits","nodmgspread","payload","uncletopia"],"game_id":440,"stv_port":27056,"stv_name":"Uncletopia | Sydney | 5 | No Payload | STV","players":[{"user_id":22,"name":"Shaggy Gaming","steam_id":76561198065107870,"connected_time":1661000000000,"state":"active","ping":81},{"user_id":23,"name":"Allah's Strongest Soldier","steam_id":76561199004503278,"connected_time":1627000000000,"state":"active","ping":41},{"user_id":25,"name":"bread","steam_id":76561198213961469,"connected_time":17000000000,"state":"spawning","ping":59}]},{"server_id":59,"name":"Uncletopia | Sydney | 6 | Community","name_short":"syd-6","host":"syd-1.au.uncletopia.com","port":27065,"enabled":true,"region":"au","cc":"au","latitude":-33.865143,"longitude":151.2099,"reserved":0,"last_update":"0001-01-01T00:00:00Z","name_a2s":"Uncletopia | Sydney | 6 | Community","protocol":17,"map":"workshop/koth_product_final.ugc454272353","folder":"tf","game":"Team Fortress","app_id":440,"player_count":0,"max_players":24,"Bots":0,"server_type":"Dedicated","server_os":"Linux","password":true,"vac":true,"version":"7695204","steam_id":85568392925397960,"keywords":["cp","nocrits","nodmgspread","uncletopia"],"game_id":440,"stv_port":27066,"stv_name":"Uncletopia | Sydney | 6 | Community | STV","players":null},{"server_id":49,"name":"Uncletopia | Warsaw | 1 | All Maps","name_short":"waw-1","host":"waw-1.pl.uncletopia.com","port":27015,"enabled":true,"region":"eu","cc":"pl","latitude":52.2297,"longitude":21.017532,"reserved":0,"last_update":"0001-01-01T00:00:00Z","name_a2s":"Uncletopia | Warsaw | 1 | All Maps","protocol":17,"map":"pl_pier","folder":"tf","game":"Team Fortress","app_id":440,"player_count":1,"max_players":24,"Bots":0,"server_type":"Dedicated","server_os":"Linux","password":true,"vac":true,"version":"7695204","steam_id":85568392925397850,"keywords":["nocrits","nodmgspread","payload","uncletopia"],"game_id":440,"stv_port":27016,"stv_name":"Uncletopia | Warsaw | 1 | All Maps | STV","players":[{"user_id":11,"name":"katze eins","steam_id":76561199005562645,"connected_time":65000000000,"state":"active","ping":99}]},{"server_id":50,"name":"Uncletopia | Warsaw | 2 | All Maps","name_short":"waw-2","host":"waw-1.pl.uncletopia.com","port":27025,"enabled":true,"region":"eu","cc":"pl","latitude":52.2297,"longitude":21.017532,"reserved":0,"last_update":"0001-01-01T00:00:00Z","name_a2s":"Uncletopia | Warsaw | 2 | All Maps","protocol":17,"map":"pl_frontier_final","folder":"tf","game":"Team Fortress","app_id":440,"player_count":24,"max_players":24,"Bots":0,"server_type":"Dedicated","server_os":"Linux","password":true,"vac":true,"version":"7695204","steam_id":85568392925397851,"keywords":["nocrits","nodmgspread","payload","uncletopia"],"game_id":440,"stv_port":27026,"stv_name":"Uncletopia | Warsaw | 2 | All Maps | STV","players":[{"user_id":138,"name":"Nomad994","steam_id":76561198051908201,"connected_time":7095000000000,"state":"active","ping":94},{"user_id":184,"name":"Dr. Heinz Doofenshmirtz","steam_id":76561198154962908,"connected_time":4655000000000,"state":"active","ping":75},{"user_id":258,"name":"Mapus Lepoldus","steam_id":76561198067705233,"connected_time":146000000000,"state":"active","ping":80},{"user_id":201,"name":"from the shadows","steam_id":76561198322217890,"connected_time":3836000000000,"state":"active","ping":124},{"user_id":227,"name":"KarvaPerse","steam_id":76561198141907704,"connected_time":2450000000000,"state":"active","ping":106},{"user_id":230,"name":"SvbK","steam_id":76561198201478866,"connected_time":2103000000000,"state":"active","ping":60},{"user_id":232,"name":"Nuts Berserk","steam_id":76561198306391641,"connected_time":1877000000000,"state":"active","ping":55},{"user_id":219,"name":"BritishBeef","steam_id":76561197971054321,"connected_time":3022000000000,"state":"active","ping":84},{"user_id":156,"name":"pandeux","steam_id":76561198343527617,"connected_time":6229000000000,"state":"active","ping":74},{"user_id":252,"name":"Fox","steam_id":76561198079364100,"connected_time":540000000000,"state":"active","ping":43},{"user_id":253,"name":"Gruel","steam_id":76561198045408509,"connected_time":360000000000,"state":"active","ping":77},{"user_id":254,"name":"BEAST MODE 24/7","steam_id":76561198089227864,"connected_time":274000000000,"state":"active","ping":75},{"user_id":237,"name":"Fevzi Lighter","steam_id":76561198165787436,"connected_time":1615000000000,"state":"active","ping":119},{"user_id":256,"name":"Checkmate.","steam_id":76561198339466196,"connected_time":225000000000,"state":"active","ping":70},{"user_id":233,"name":"эмо бой 2007","steam_id":76561198243917964,"connected_time":1829000000000,"state":"active","ping":90},{"user_id":249,"name":"snoowbrigade","steam_id":76561197989507394,"connected_time":771000000000,"state":"active","ping":84},{"user_id":257,"name":"deadass","steam_id":76561199076171509,"connected_time":215000000000,"state":"active","ping":118},{"user_id":213,"name":"The Funny Cat 面白い猫","steam_id":76561198439978112,"connected_time":3270000000000,"state":"active","ping":113},{"user_id":183,"name":"MomoInTheBox","steam_id":76561197994150695,"connected_time":4768000000000,"state":"active","ping":53},{"user_id":187,"name":"Fauli™","steam_id":76561198125109310,"connected_time":4618000000000,"state":"active","ping":81},{"user_id":250,"name":"captain garlic","steam_id":76561198188808605,"connected_time":760000000000,"state":"active","ping":102},{"user_id":235,"name":"Panzerwaffle","steam_id":76561198030382800,"connected_time":1783000000000,"state":"active","ping":69},{"user_id":210,"name":"L78k3","steam_id":76561198042189577,"connected_time":3414000000000,"state":"active","ping":81},{"user_id":236,"name":"average glue sniffer","steam_id":76561198104603442,"connected_time":1767000000000,"state":"active","ping":112}]},{"server_id":51,"name":"Uncletopia | Warsaw | 3 | All Maps","name_short":"waw-3","host":"waw-1.pl.uncletopia.com","port":27035,"enabled":true,"region":"eu","cc":"pl","latitude":52.2297,"longitude":21.017532,"reserved":0,"last_update":"0001-01-01T00:00:00Z","name_a2s":"Uncletopia | Warsaw | 3 | All Maps","protocol":17,"map":"pl_barnblitz","folder":"tf","game":"Team Fortress","app_id":440,"player_count":0,"max_players":24,"Bots":0,"server_type":"Dedicated","server_os":"Linux","password":true,"vac":true,"version":"7695204","steam_id":85568392925397852,"keywords":["nocrits","nodmgspread","payload","uncletopia"],"game_id":440,"stv_port":0,"stv_name":"","players":null},{"server_id":52,"name":"Uncletopia | Warsaw | 4 | All Maps","name_short":"waw-4","host":"waw-1.pl.uncletopia.com","port":27045,"enabled":true,"region":"eu","cc":"pl","latitude":52.2297,"longitude":21.017532,"reserved":0,"last_update":"0001-01-01T00:00:00Z","name_a2s":"Uncletopia | Warsaw | 4 | All Maps","protocol":17,"map":"cp_altitude","folder":"tf","game":"Team Fortress","app_id":440,"player_count":0,"max_players":24,"Bots":0,"server_type":"Dedicated","server_os":"Linux","password":true,"vac":true,"version":"7695204","steam_id":85568392925397853,"keywords":["cp","nocrits","nodmgspread","uncletopia"],"game_id":440,"stv_port":0,"stv_name":"","players":null},{"server_id":53,"name":"Uncletopia | Warsaw | 5 | No Payload","name_short":"waw-5","host":"waw-1.pl.uncletopia.com","port":27055,"enabled":true,"region":"eu","cc":"pl","latitude":52.2297,"longitude":21.017532,"reserved":0,"last_update":"0001-01-01T00:00:00Z","name_a2s":"Uncletopia | Warsaw | 5 | No Payload","protocol":17,"map":"ctf_sawmill","folder":"tf","game":"Team Fortress","app_id":440,"player_count":15,"max_players":24,"Bots":0,"server_type":"Dedicated","server_os":"Linux","password":true,"vac":true,"version":"7695204","steam_id":85568392925397854,"keywords":["ctf","nocrits","nodmgspread","uncletopia"],"game_id":440,"stv_port":27056,"stv_name":"Uncletopia | Warsaw | 5 | No Payload | STV","players":[{"user_id":24,"name":"Профиль?","steam_id":76561199109950841,"connected_time":464000000000,"state":"active","ping":125},{"user_id":13,"name":"ze_thing","steam_id":76561199121679778,"connected_time":742000000000,"state":"active","ping":80},{"user_id":10,"name":"Viperense","steam_id":76561198036206811,"connected_time":987000000000,"state":"active","ping":79},{"user_id":8,"name":"Boobs rater","steam_id":76561198066977580,"connected_time":1007000000000,"state":"active","ping":58},{"user_id":9,"name":"Hikikomori","steam_id":76561198092506991,"connected_time":1003000000000,"state":"active","ping":82},{"user_id":11,"name":"Karsapaali","steam_id":76561198322322739,"connected_time":859000000000,"state":"active","ping":97},{"user_id":20,"name":"Kekrock","steam_id":76561199231302376,"connected_time":505000000000,"state":"active","ping":34},{"user_id":15,"name":"Fus in Boots","steam_id":76561198053897722,"connected_time":676000000000,"state":"active","ping":81},{"user_id":18,"name":"Donete333","steam_id":76561198409266344,"connected_time":548000000000,"state":"active","ping":95},{"user_id":30,"name":"The storm that is approaching","steam_id":76561198982155864,"connected_time":116000000000,"state":"active","ping":78},{"user_id":21,"name":"RogatiyZhuk","steam_id":76561199386822589,"connected_time":494000000000,"state":"active","ping":50},{"user_id":23,"name":"Canis[Magnus]Pectus","steam_id":76561198363775072,"connected_time":470000000000,"state":"active","ping":122},{"user_id":25,"name":"Talent","steam_id":76561198153880354,"connected_time":463000000000,"state":"active","ping":119},{"user_id":26,"name":"SoManyNames","steam_id":76561199433752757,"connected_time":373000000000,"state":"active","ping":243},{"user_id":28,"name":"Michael","steam_id":76561198003146906,"connected_time":323000000000,"state":"active","ping":72}]},{"server_id":54,"name":"Uncletopia | Warsaw | 6 | Community","name_short":"waw-6","host":"waw-1.pl.uncletopia.com","port":27065,"enabled":true,"region":"eu","cc":"pl","latitude":52.2297,"longitude":21.017532,"reserved":0,"last_update":"0001-01-01T00:00:00Z","name_a2s":"Uncletopia | Warsaw | 6 | Community","protocol":17,"map":"pl_barnblitz","folder":"tf","game":"Team Fortress","app_id":440,"player_count":0,"max_players":24,"Bots":0,"server_type":"Dedicated","server_os":"Linux","password":true,"vac":true,"version":"7695204","steam_id":85568392925397856,"keywords":["nocrits","nodmgspread","payload","uncletopia"],"game_id":440,"stv_port":0,"stv_name":"","players":null}]}