{"status":true,"message":"","result":[{"server_id":9,"name":"Uncletopia | Atlanta | 1 | All Maps","name_short":"atl-1","host":"atl-1.us.uncletopia.com","port":27015,"enabled":true,"region":"us-east","cc":"us","latitude":33.753746,"longitude":-84.38633,"reserved":0,"last_update":"0001-01-01T00:00:00Z","name_a2s":"Uncletopia | Atlanta | 1 | All Maps","protocol":17,"map":"pl_badwater","folder":"tf","game":"Team Fortress","app_id":440,"player_count":23,"max_players":24,"Bots":0,"server_type":"Dedicated","server_os":"Linux","password":true,"vac":true,"version":"7882260","steam_id":85568392924469982,"keywords":["nocrits","nodmgspread","payload","uncletopia"],"game_id":440,"stv_port":27016,"stv_name":"Uncletopia | Atlanta | 1 | All Maps | STV","players":[{"user_id":67,"name":"Horse","steam_id":76561198004583631,"connected_time":962000000000,"state":"active","ping":86},{"user_id":64,"name":"your–¥—Ä—É–≥","steam_id":76561198317927140,"connected_time":1240000000000,"state":"active","ping":76},{"user_id":70,"name":"Sup m8","steam_id":76561198081659121,"connected_time":804000000000,"state":"active","ping":76},{"user_id":29,"name":"Almond_Milk","steam_id":76561198332977071,"connected_time":2758000000000,"state":"active","ping":115},{"user_id":69,"name":"6t26j","steam_id":76561198278282836,"connected_time":948000000000,"state":"active","ping":72},{"user_id":73,"name":"Grave Shifter15","steam_id":76561198036381323,"connected_time":507000000000,"state":"active","ping":53},{"user_id":56,"name":"wally","steam_id":76561198027450079,"connected_time":2103000000000,"state":"active","ping":61},{"user_id":81,"name":"J O V A","steam_id":76561198090333536,"connected_time":36000000000,"state":"active","ping":72},{"user_id":74,"name":"g00bur","steam_id":76561197993622520,"connected_time":486000000000,"state":"active","ping":57},{"user_id":48,"name":"Spinnig","steam_id":76561199135735271,"connected_time":2275000000000,"state":"active","ping":177},{"user_id":55,"name":"1997 Acura integra gs","steam_id":76561198997971509,"connected_time":2140000000000,"state":"active","ping":128},{"user_id":46,"name":"send dudes","steam_id":76561198084277762,"connected_time":2388000000000,"state":"active","ping":77},{"user_id":66,"name":"Wattle","steam_id":76561198036756626,"connected_time":1059000000000,"state":"active","ping":70},{"user_id":75,"name":"Im High","steam_id":76561198049954886,"connected_time":479000000000,"state":"active","ping":68},{"user_id":60,"name":"Keroro","steam_id":76561198075106705,"connected_time":1977000000000,"state":"active","ping":73},{"user_id":38,"name":"Jim Lamb, Angel of Death","steam_id":76561198053131184,"connected_time":2486000000000,"state":"active","ping":61},{"user_id":72,"name":"[TSG] Turner's Chocolate Milk","steam_id":76561198058963288,"connected_time":523000000000,"state":"active","ping":65},{"user_id":80,"name":"MjrMovnTARGET","steam_id":76561199125908849,"connected_time":134000000000,"state":"active","ping":76},{"user_id":34,"name":"YummySocks","steam_id":76561198834312535,"connected_time":2596000000000,"state":"active","ping":65},{"user_id":77,"name":"Drygongames","steam_id":76561198250418424,"connected_time":472000000000,"state":"active","ping":81},{"user_id":78,"name":"scrotal recall","steam_id":76561198135945598,"connected_time":461000000000,"state":"active","ping":90},{"user_id":58,"name":"WarMace","steam_id":76561198395937853,"connected_time":2098000000000,"state":"active","ping":115},{"user_id":79,"name":"King Col","steam_id":76561198033384990,"connected_time":461000000000,"state":"active","ping":48}]},{"server_id":104,"name":"Uncletopia | Atlanta | 2 | All Maps","name_short":"atl-2","host":"atl-1.us.uncletopia.com","port":27025,"enabled":true,"region":"us-east","cc":"us","latitude":33.753746,"longitude":-84.38633,"reserved":0,"last_update":"0001-01-01T00:00:00Z","name_a2s":"Uncletopia | Atlanta | 2 | All Maps","protocol":17,"map":"cp_freight_final1","folder":"tf","game":"Team Fortress","app_id":440,"player_count":24,"max_players":24,"Bots":0,"server_type":"Dedicated","server_os":"Linux","password":true,"vac":true,"version":"7882260","steam_id":85568392924469983,"keywords":["cp","nocrits","nodmgspread","uncletopia"],"game_id":440,"stv_port":27026,"stv_name":"Uncletopia | Atlanta | 2 | All Maps | STV","players":[{"user_id":246,"name":"Bombat","steam_id":76561198083096946,"connected_time":2711000000000,"state":"active","ping":99},{"user_id":154,"name":"SHADY SWEATER SALESMAN","steam_id":76561198014616865,"connected_time":11626000000000,"state":"active","ping":85},{"user_id":266,"name":"MoePlaysGames","steam_id":76561198316877833,"connected_time":918000000000,"state":"active","ping":112},{"user_id":255,"name":"CJDGuy","steam_id":76561198213009545,"connected_time":1786000000000,"state":"active","ping":74},{"user_id":256,"name":"Pixeled","steam_id":76561198088917077,"connected_time":1783000000000,"state":"active","ping":70},{"user_id":257,"name":"Jasper Zawn","steam_id":76561198077651204,"connected_time":1755000000000,"state":"active","ping":93},{"user_id":240,"name":"JuJuVox","steam_id":76561198052371247,"connected_time":3373000000000,"state":"active","ping":61},{"user_id":271,"name":"Shame","steam_id":76561198100490994,"connected_time":255000000000,"state":"active","ping":59},{"user_id":224,"name":"braindead","steam_id":76561198263631055,"connected_time":4744000000000,"state":"active","ping":45},{"user_id":258,"name":"Bush.exe","steam_id":76561198124385307,"connected_time":1746000000000,"state":"active","ping":79},{"user_id":203,"name":"Glory","steam_id":76561198013975080,"connected_time":6443000000000,"state":"active","ping":103},{"user_id":141,"name":"BuncusBeffer","steam_id":76561198285936616,"connected_time":12723000000000,"state":"active","ping":115},{"user_id":268,"name":"Literally a Trans Woman","steam_id":76561198054639925,"connected_time":332000000000,"state":"active","ping":72},{"user_id":259,"name":"Red","steam_id":76561198082958231,"connected_time":1735000000000,"state":"active","ping":57},{"user_id":252,"name":"chestes *\u003c|B^)","steam_id":76561198066223818,"connected_time":1916000000000,"state":"active","ping":78},{"user_id":261,"name":"Shattered Glass","steam_id":76561198116835391,"connected_time":1720000000000,"state":"active","ping":82},{"user_id":262,"name":"Quartermistress","steam_id":76561198140199123,"connected_time":1687000000000,"state":"active","ping":133},{"user_id":272,"name":"t(._. t)","steam_id":76561198241034752,"connected_time":240000000000,"state":"active","ping":112},{"user_id":264,"name":"‚ô• PsychicCellar ‚ô•","steam_id":76561198045923020,"connected_time":1559000000000,"state":"active","ping":74},{"user_id":198,"name":"mother coconuts","steam_id":76561198124679073,"connected_time":7336000000000,"state":"active","ping":71},{"user_id":169,"name":"Somsnosa","steam_id":76561198366299848,"connected_time":9790000000000,"state":"active","ping":54},{"user_id":265,"name":"goth gaming","steam_id":76561198044696803,"connected_time":1544000000000,"state":"active","ping":72},{"user_id":254,"name":"Walmart Employee","steam_id":76561198840373909,"connected_time":1866000000000,"state":"active","ping":80},{"user_id":243,"name":"scrapheap","steam_id":76561198202407087,"connected_time":3055000000000,"state":"active","ping":96}]},{"server_id":400,"name":"Uncletopia | Atlanta | 3 | Community","name_short":"atl-3","host":"atl-1.us.uncletopia.com","port":27035,"enabled":true,"region":"us-east","cc":"us","latitude":33.753746,"longitude":-84.38633,"reserved":0,"last_update":"0001-01-01T00:00:00Z","name_a2s":"Uncletopia | Atlanta | 3 | Community","protocol":17,"map":"workshop/koth_trenchfoot_b1a.ugc731436616","folder":"tf","game":"Team Fortress","app_id":440,"player_count":0,"max_players":24,"Bots":0,"server_type":"Dedicated","server_os":"Linux","password":true,"vac":true,"version":"7882260","steam_id":85568392924515187,"keywords":["cp","nocrits","nodmgspread","uncletopia"],"game_id":440,"stv_port":27036,"stv_name":"Uncletopia | Atlanta | 3 | Community | STV","players":null},{"server_id":401,"name":"Uncletopia | Atlanta | 4 | No Payload","name_short":"atl-4","host":"atl-1.us.uncletopia.com","port":27045,"enabled":true,"region":"us-east","cc":"us","latitude":33.753746,"longitude":-84.38633,"reserved":0,"last_update":"0001-01-01T00:00:00Z","name_a2s":"","protocol":0,"map":"","folder":"","game":"","app_id":0,"player_count":0,"max_players":0,"Bots":0,"server_type":"","server_os":"","password":false,"vac":false,"version":"","steam_id":0,"keywords":null,"game_id":0,"stv_port":0,"stv_name":"","players":null},{"server_id":2,"name":"Uncletopia | Chicago | 1 | All Maps","name_short":"chi-1","host":"chi-1.us.uncletopia.com","port":27015,"enabled":true,"region":"us-central","cc":"us","latitude":41.881832,"longitude":-87.62318,"reserved":0,"last_update":"0001-01-01T00:00:00Z","name_a2s":"Uncletopia | Chicago | 1 | All Maps","protocol":17,"map":"pl_swiftwater_final1","folder":"tf","game":"Team Fortress","app_id":440,"player_count":24,"max_players":24,"Bots":0,"server_type":"Dedicated","server_os":"Linux","password":true,"vac":true,"version":"7882260","steam_id":85568392924469984,"keywords":["nocrits","nodmgspread","payload","uncletopia"],"game_id":440,"stv_port":27016,"stv_name":"Uncletopia | Chicago | 1 | All Maps | STV","players":[{"user_id":136,"name":"abed","steam_id":76561198072856511,"connected_time":313000000000,"state":"active","ping":101},{"user_id":121,"name":"gl1tchr","steam_id":76561198302661983,"connected_time":2950000000000,"state":"active","ping":77},{"user_id":118,"name":"Fangirl (deck gaming)","steam_id":76561198253710690,"connected_time":3197000000000,"state":"active","ping":91},{"user_id":119,"name":"Ayumu \"Oakland\" Kasuga","steam_id":76561198345276434,"connected_time":3090000000000,"state":"active","ping":82},{"user_id":131,"name":"Samitch","steam_id":76561198038247982,"connected_time":1219000000000,"state":"active","ping":58},{"user_id":137,"name":"Falafel","steam_id":76561198111493042,"connected_time":291000000000,"state":"active","ping":154},{"user_id":132,"name":"Coop Draws","steam_id":76561198238568640,"connected_time":958000000000,"state":"active","ping":79},{"user_id":134,"name":"Mixomin","steam_id":76561198295061570,"connected_time":851000000000,"state":"active","ping":46},{"user_id":113,"name":"magickxanadu","steam_id":76561199117360103,"connected_time":3418000000000,"state":"active","ping":78},{"user_id":127,"name":"F0restFerret","steam_id":76561199112458876,"connected_time":2238000000000,"state":"active","ping":67},{"user_id":54,"name":"PyroEagle","steam_id":76561198296434231,"connected_time":7397000000000,"state":"active","ping":61},{"user_id":139,"name":"Rec","steam_id":76561198022813906,"connected_time":144000000000,"state":"active","ping":57},{"user_id":85,"name":"Influrrno","steam_id":76561198398893302,"connected_time":5448000000000,"state":"active","ping":73},{"user_id":126,"name":"steven","steam_id":76561198173047169,"connected_time":2259000000000,"state":"active","ping":60},{"user_id":123,"name":"AdorableMew","steam_id":76561198186706405,"connected_time":2793000000000,"state":"active","ping":73},{"user_id":133,"name":"zec","steam_id":76561198149278265,"connected_time":949000000000,"state":"active","ping":46},{"user_id":138,"name":"LVL 4 Dispenser Gaming","steam_id":76561198044244547,"connected_time":237000000000,"state":"active","ping":77},{"user_id":74,"name":"fancyfreak","steam_id":76561198326466375,"connected_time":6011000000000,"state":"active","ping":104},{"user_id":109,"name":"Smoker Lung","steam_id":76561198077167395,"connected_time":3658000000000,"state":"active","ping":49},{"user_id":124,"name":"Ripheart","steam_id":76561198089661561,"connected_time":2788000000000,"state":"active","ping":44},{"user_id":115,"name":"cling","steam_id":76561198061283208,"connected_time":3363000000000,"state":"active","ping":48},{"user_id":135,"name":"Jak(i)","steam_id":76561198076823144,"connected_time":428000000000,"state":"active","ping":58},{"user_id":105,"name":"shit bro","steam_id":76561199178885266,"connected_time":3906000000000,"state":"active","ping":59},{"user_id":129,"name":"daniel.smith.2009@hotmail.com","steam_id":76561199072955534,"connected_time":1491000000000,"state":"active","ping":48}]},{"server_id":106,"name":"Uncletopia | Chicago | 2 | All Maps","name_short":"chi-2","host":"chi-1.us.uncletopia.com","port":27025,"enabled":true,"region":"us-central","cc":"us","latitude":41.881832,"longitude":-87.62318,"reserved":0,"last_update":"0001-01-01T00:00:00Z","name_a2s":"Uncletopia | Chicago | 2 | All Maps","protocol":17,"map":"pl_frontier_final","folder":"tf","game":"Team Fortress","app_id":440,"player_count":0,"max_players":24,"Bots":0,"server_type":"Dedicated","server_os":"Linux","password":true,"vac":true,"version":"7882260","steam_id":85568392924469985,"keywords":["nocrits","nodmgspread","payload","uncletopia"],"game_id":440,"stv_port":27026,"stv_name":"Uncletopia | Chicago | 2 | All Maps | STV","players":null},{"server_id":402,"name":"Uncletopia | Chicago | 3 | All Maps","name_short":"chi-3","host":"chi-1.us.uncletopia.com","port":27035,"enabled":true,"region":"us-central","cc":"us","latitude":41.881832,"longitude":-87.62318,"reserved":0,"last_update":"0001-01-01T00:00:00Z","name_a2s":"Uncletopia | Chicago | 3 | All Maps","protocol":17,"map":"pl_swiftwater_final1","folder":"tf","game":"Team Fortress","app_id":440,"player_count":0,"max_players":24,"Bots":0,"server_type":"Dedicated","server_os":"Linux","password":true,"vac":true,"version":"7882260","steam_id":85568392924515191,"keywords":["nocrits","nodmgspread","payload","uncletopia"],"game_id":440,"stv_port":27036,"stv_name":"Uncletopia | Chicago | 3 | All Maps | STV","players":null},{"server_id":403,"name":"Uncletopia | Chicago | 4 | All Maps","name_short":"chi-4","host":"chi-1.us.uncletopia.com","port":27045,"enabled":true,"region":"us-central","cc":"us","latitude":41.881832,"longitude":-87.62318,"reserved":0,"last_update":"0001-01-01T00:00:00Z","name_a2s":"Uncletopia | Chicago | 4 | All Maps","protocol":17,"map":"koth_cascade","folder":"tf","game":"Team Fortress","app_id":440,"player_count":0,"max_players":24,"Bots":0,"server_type":"Dedicated","server_os":"Linux","password":true,"vac":true,"version":"7882260","steam_id":85568392924515193,"keywords":["cp","nocrits","nodmgspread","uncletopia"],"game_id":440,"stv_port":27046,"stv_name":"Uncletopia | Chicago | 4 | All Maps | STV","players":null},{"server_id":36,"name":"Uncletopia | Chicago | 5 | All Maps","name_short":"chi-5","host":"chi-2.us.uncletopia.com","port":27015,"enabled":true,"region":"us-central","cc":"us","latitude":41.881832,"longitude":-87.62318,"reserved":0,"last_update":"0001-01-01T00:00:00Z","name_a2s":"Uncletopia | Chicago | 5 | All Maps","protocol":17,"map":"pl_snowycoast","folder":"tf","game":"Team Fortress","app_id":440,"player_count":0,"max_players":24,"Bots":0,"server_type":"Dedicated","server_os":"Linux","password":true,"vac":true,"version":"7882260","steam_id":85568392924866362,"keywords":["nocrits","nodmgspread","payload","uncletopia"],"game_id":440,"stv_port":27016,"stv_name":"Uncletopia | Chicago | 5 | All Maps | STV","players":null},{"server_id":37,"name":"Uncletopia | Chicago | 6 | All Maps","name_short":"chi-6","host":"chi-2.us.uncletopia.com","port":27025,"enabled":true,"region":"us-central","cc":"us","latitude":41.881832,"longitude":-87.62318,"reserved":0,"last_update":"0001-01-01T00:00:00Z","name_a2s":"Uncletopia | Chicago | 6 | All Maps","protocol":17,"map":"koth_cascade","folder":"tf","game":"Team Fortress","app_id":440,"player_count":0,"max_players":24,"Bots":0,"server_type":"Dedicated","server_os":"Linux","password":true,"vac":true,"version":"7882260","steam_id":85568392924866363,"keywords":["cp","nocrits","nodmgspread","uncletopia"],"game_id":440,"stv_port":27026,"stv_name":"Uncletopia | Chicago | 6 | All Maps | STV","players":null},{"server_id":38,"name":"Uncletopia | Chicago | 7 | Stopwatch Beta","name_short":"chi-7","host":"chi-2.us.uncletopia.com","port":27035,"enabled":true,"region":"us-central","cc":"us","latitude":41.881832,"longitude":-87.62318,"reserved":0,"last_update":"0001-01-01T00:00:00Z","name_a2s":"Uncletopia | Chicago | 7 | Stopwatch Beta","protocol":17,"map":"pl_borneo","folder":"tf","game":"Team Fortress","app_id":440,"player_count":0,"max_players":24,"Bots":0,"server_type":"Dedicated","server_os":"Linux","password":true,"vac":true,"version":"7882260","steam_id":85568392924866364,"keywords":["nocrits","nodmgspread","payload","uncletopia"],"game_id":440,"stv_port":27036,"stv_name":"Uncletopia | Chicago | 7 | Stopwatch Beta | STV","players":null},{"server_id":39,"name":"Uncletopia | Chicago | 8 | Community","name_short":"chi-8","host":"chi-2.us.uncletopia.com","port":27045,"enabled":true,"region":"us-central","cc":"us","latitude":41.881832,"longitude":-87.62318,"reserved":0,"last_update":"0001-01-01T00:00:00Z","name_a2s":"Uncletopia | Chicago | 8 | Community","protocol":17,"map":"cp_snakewater_final1","folder":"tf","game":"Team Fortress","app_id":440,"player_count":0,"max_players":24,"Bots":0,"server_type":"Dedicated","server_os":"Linux","password":true,"vac":true,"version":"7882260","steam_id":85568392924866365,"keywords":["cp","nocrits","nodmgspread","uncletopia"],"game_id":440,"stv_port":27046,"stv_name":"Uncletopia | Chicago | 8 | Community | STV","players":null},{"server_id":8,"name":"Uncletopia | Dallas | 1 | All Maps","name_short":"dal-1","host":"dal-1.us.uncletopia.com","port":27015,"enabled":true,"region":"us-central","cc":"us","latitude":32.779167,"longitude":-96.80889,"reserved":0,"last_update":"0001-01-01T00:00:00Z","name_a2s":"Uncletopia | Dallas | 1 | All Maps","protocol":17,"map":"pl_pier","folder":"tf","game":"Team Fortress","app_id":440,"player_count":0,"max_players":24,"Bots":0,"server_type":"Dedicated","server_os":"Linux","password":true,"vac":true,"version":"7882260","steam_id":85568392924469986,"keywords":["nocrits","nodmgspread","payload","uncletopia"],"game_id":440,"stv_port":27016,"stv_name":"Uncletopia | Dallas | 1 | All Maps | STV","players":null},{"server_id":108,"name":"Uncletopia | Dallas | 2 | All Maps","name_short":"dal-2","host":"dal-1.us.uncletopia.com","port":27025,"enabled":true,"region":"us-central","cc":"us","latitude":32.779167,"longitude":-96.80889,"reserved":0,"last_update":"0001-01-01T00:00:00Z","name_a2s":"Uncletopia | Dallas | 2 | All Maps","protocol":17,"map":"pl_frontier_final","folder":"tf","game":"Team Fortress","app_id":440,"player_count":0,"max_players":24,"Bots":0,"server_type":"Dedicated","server_os":"Linux","password":true,"vac":true,"version":"7882260","steam_id":85568392924469988,"keywords":["nocrits","nodmgspread","payload","uncletopia"],"game_id":440,"stv_port":27026,"stv_name":"Uncletopia | Dallas | 2 | All Maps | STV","players":null},{"server_id":5,"name":"Uncletopia | Frankfurt | 1 | All Maps","name_short":"frk-1","host":"frk-1.de.uncletopia.com","port":27015,"enabled":true,"region":"eu","cc":"de","latitude":50.110924,"longitude":8.682127,"reserved":0,"last_update":"0001-01-01T00:00:00Z","name_a2s":"Uncletopia | Frankfurt | 1 | All Maps","protocol":17,"map":"pl_borneo","folder":"tf","game":"Team Fortress","app_id":440,"player_count":24,"max_players":24,"Bots":0,"server_type":"Dedicated","server_os":"Linux","password":true,"vac":true,"version":"7882260","steam_id":85568392924469989,"keywords":["nocrits","nodmgspread","payload","uncletopia"],"game_id":440,"stv_port":27016,"stv_name":"Uncletopia | Frankfurt | 1 | All Maps | STV","players":[{"user_id":224,"name":"mmlock","steam_id":76561198069516191,"connected_time":573000000000,"state":"active","ping":85},{"user_id":214,"name":"MoistMomMauler","steam_id":76561198069359049,"connected_time":1137000000000,"state":"active","ping":82},{"user_id":172,"name":"XPullaHiiri","steam_id":76561198031652375,"connected_time":4140000000000,"state":"active","ping":93},{"user_id":186,"name":"jaime8D","steam_id":76561197980590671,"connected_time":3001000000000,"state":"active","ping":86},{"user_id":215,"name":"Makasim:)","steam_id":76561198816061842,"connected_time":1136000000000,"state":"active","ping":72},{"user_id":177,"name":"and that's on Gek","steam_id":76561198104896547,"connected_time":3516000000000,"state":"active","ping":72},{"user_id":196,"name":"MAKENTAKEN","steam_id":76561199127359587,"connected_time":1915000000000,"state":"active","ping":89},{"user_id":236,"name":"BLACKBIRD CLOSE [she/her]","steam_id":76561198262910410,"connected_time":11000000000,"state":"spawning","ping":103},{"user_id":213,"name":"PONCHO 90","steam_id":76561198412197820,"connected_time":1140000000000,"state":"active","ping":86},{"user_id":222,"name":"Jim Eagle","steam_id":76561197964961639,"connected_time":1065000000000,"state":"active","ping":155},{"user_id":223,"name":"kirkland signature sex","steam_id":76561199077027954,"connected_time":661000000000,"state":"active","ping":161},{"user_id":225,"name":"OMFGninjaneer #Hetero","steam_id":76561198044174757,"connected_time":569000000000,"state":"active","ping":86},{"user_id":227,"name":"Mega Man Legends 3","steam_id":76561198014110199,"connected_time":562000000000,"state":"active","ping":59},{"user_id":194,"name":"gegit08","steam_id":76561199040010283,"connected_time":2286000000000,"state":"active","ping":91},{"user_id":175,"name":"r06u3","steam_id":76561198254099253,"connected_time":3742000000000,"state":"active","ping":164},{"user_id":226,"name":"Storm's Foreshadow","steam_id":76561198098462526,"connected_time":565000000000,"state":"active","ping":66},{"user_id":229,"name":"Radegast the Brown","steam_id":76561198075489505,"connected_time":469000000000,"state":"active","ping":60},{"user_id":230,"name":"mud","steam_id":76561198141497461,"connected_time":454000000000,"state":"active","ping":64},{"user_id":155,"name":"LOBZIK","steam_id":76561198114830120,"connected_time":6088000000000,"state":"active","ping":75},{"user_id":163,"name":"Estyle","steam_id":76561198157804700,"connected_time":5272000000000,"state":"active","ping":83},{"user_id":234,"name":"Milosz52","steam_id":76561199060940204,"connected_time":125000000000,"state":"active","ping":79},{"user_id":232,"name":"Carl","steam_id":76561198285931413,"connected_time":429000000000,"state":"active","ping":165},{"user_id":233,"name":"THE LAST BALLOONICORN","steam_id":76561198354549261,"connected_time":262000000000,"state":"active","ping":114},{"user_id":211,"name":"JohaTG","steam_id":76561198804468284,"connected_time":1206000000000,"state":"active","ping":51}]},{"server_id":110,"name":"Uncletopia | Frankfurt | 2 | All Maps","name_short":"frk-2","host":"frk-1.de.uncletopia.com","port":27025,"enabled":true,"region":"eu","cc":"de","latitude":50.110924,"longitude":8.682127,"reserved":0,"last_update":"0001-01-01T00:00:00Z","name_a2s":"Uncletopia | Frankfurt | 2 | All Maps","protocol":17,"map":"pl_barnblitz","folder":"tf","game":"Team Fortress","app_id":440,"player_count":24,"max_players":24,"Bots":0,"server_type":"Dedicated","server_os":"Linux","password":true,"vac":true,"version":"7882260","steam_id":85568392924469990,"keywords":["nocrits","nodmgspread","payload","uncletopia"],"game_id":440,"stv_port":27026,"stv_name":"Uncletopia | Frankfurt | 2 | All Maps | STV","players":[{"user_id":352,"name":"Twitch.tv/Siigull","steam_id":76561198133341026,"connected_time":1529000000000,"state":"active","ping":96},{"user_id":360,"name":"___","steam_id":76561198304096958,"connected_time":798000000000,"state":"active","ping":63},{"user_id":338,"name":"That Phlog mfer","steam_id":76561198050416948,"connected_time":2613000000000,"state":"active","ping":58},{"user_id":303,"name":"Cuthbert","steam_id":76561198204649481,"connected_time":6122000000000,"state":"active","ping":98},{"user_id":369,"name":"Ch0rys","steam_id":76561198314985318,"connected_time":352000000000,"state":"active","ping":45},{"user_id":346,"name":"Walle","steam_id":76561197995148937,"connected_time":1999000000000,"state":"active","ping":69},{"user_id":341,"name":"on1on (fried)","steam_id":76561197995304137,"connected_time":2447000000000,"state":"active","ping":66},{"user_id":371,"name":"Leituga","steam_id":76561198051127598,"connected_time":310000000000,"state":"active","ping":100},{"user_id":359,"name":"Marky","steam_id":76561199474556920,"connected_time":820000000000,"state":"active","ping":120},{"user_id":320,"name":"Nod officer","steam_id":76561199086927196,"connected_time":4208000000000,"state":"active","ping":51},{"user_id":361,"name":"Halifax","steam_id":76561198056300796,"connected_time":793000000000,"state":"active","ping":64},{"user_id":336,"name":"[HOL] Solringen","steam_id":76561198003584681,"connected_time":2737000000000,"state":"active","ping":65},{"user_id":351,"name":"weed fairy","steam_id":76561197998843096,"connected_time":1561000000000,"state":"active","ping":74},{"user_id":347,"name":"WaterFk??","steam_id":76561198080419334,"connected_time":1939000000000,"state":"active","ping":59},{"user_id":363,"name":"i eat glue competitively","steam_id":76561198053929269,"connected_time":778000000000,"state":"active","ping":87},{"user_id":298,"name":"Peanut","steam_id":76561198018865486,"connected_time":6456000000000,"state":"active","ping":71},{"user_id":364,"name":"Spheedermern","steam_id":76561198160898152,"connected_time":776000000000,"state":"active","ping":62},{"user_id":365,"name":"Isohel [Kiba]","steam_id":76561198129032662,"connected_time":759000000000,"state":"active","ping":57},{"user_id":368,"name":"celt","steam_id":76561198406083426,"connected_time":528000000000,"state":"active","ping":99},{"user_id":372,"name":"Jeetach","steam_id":76561199062437546,"connected_time":245000000000,"state":"active","ping":51},{"user_id":370,"name":"murderwow","steam_id":76561198024566944,"connected_time":351000000000,"state":"active","ping":98},{"user_id":334,"name":"Franticlamp","steam_id":76561198339698995,"connected_time":3014000000000,"state":"active","ping":92},{"user_id":284,"name":"Lord of Beans","steam_id":76561198283379801,"connected_time":7514000000000,"state":"active","ping":107}]},{"server_id":308,"name":"Uncletopia | Frankfurt | 3 | All Maps","name_short":"frk-3","host":"frk-1.de.uncletopia.com","port":27035,"enabled":true,"region":"eu","cc":"de","latitude":50.110924,"longitude":8.682127,"reserved":0,"last_update":"0001-01-01T00:00:00Z","name_a2s":"Uncletopia | Frankfurt | 3 | All Maps","protocol":17,"map":"pl_barnblitz","folder":"tf","game":"Team Fortress","app_id":440,"player_count":24,"max_players":24,"Bots":0,"server_type":"Dedicated","server_os":"Linux","password":true,"vac":true,"version":"7882260","steam_id":85568392924504274,"keywords":["nocrits","nodmgspread","payload","uncletopia"],"game_id":440,"stv_port":27036,"stv_name":"Uncletopia | Frankfurt | 3 | All Maps | STV","players":[{"user_id":710,"name":"WHUSSKEY","steam_id":76561198137827441,"connected_time":3811000000000,"state":"active","ping":60},{"user_id":734,"name":"uma","steam_id":76561198147976939,"connected_time":2782000000000,"state":"active","ping":51},{"user_id":761,"name":"WolfmanCZ","steam_id":76561199157141414,"connected_time":639000000000,"state":"active","ping":68},{"user_id":765,"name":"biden blast","steam_id":76561198059699043,"connected_time":320000000000,"state":"active","ping":70},{"user_id":686,"name":"Skuld","steam_id":76561198064734905,"connected_time":4545000000000,"state":"active","ping":90},{"user_id":758,"name":"Sneaky","steam_id":76561198069417496,"connected_time":936000000000,"state":"active","ping":87},{"user_id":679,"name":"Kocham Wode z Filtra","steam_id":76561198016042113,"connected_time":4771000000000,"state":"active","ping":83},{"user_id":767,"name":"Ocelot9610","steam_id":76561199227216384,"connected_time":104000000000,"state":"active","ping":70},{"user_id":726,"name":"dogot","steam_id":76561198880890519,"connected_time":3216000000000,"state":"active","ping":80},{"user_id":762,"name":"Rigel","steam_id":76561197993641284,"connected_time":476000000000,"state":"active","ping":59},{"user_id":727,"name":"wolffy","steam_id":76561198083145076,"connected_time":3208000000000,"state":"active","ping":52},{"user_id":724,"name":"Pokershark","steam_id":76561198080086744,"connected_time":3406000000000,"state":"active","ping":75},{"user_id":750,"name":"CumbustiblePunda","steam_id":76561197974274677,"connected_time":1992000000000,"state":"active","ping":54},{"user_id":751,"name":"Kolmannen","steam_id":76561198288826376,"connected_time":1970000000000,"state":"active","ping":54},{"user_id":742,"name":"lulu","steam_id":76561199147764133,"connected_time":2572000000000,"state":"active","ping":76},{"user_id":739,"name":"Peter Cipher","steam_id":76561198078944963,"connected_time":2659000000000,"state":"active","ping":57},{"user_id":759,"name":"sin","steam_id":76561198193416785,"connected_time":754000000000,"state":"active","ping":58},{"user_id":738,"name":"piotrpiotrek003","steam_id":76561199029189261,"connected_time":2662000000000,"state":"active","ping":70},{"user_id":757,"name":"metamikko","steam_id":76561198324704234,"connected_time":1036000000000,"state":"active","ping":107},{"user_id":764,"name":"hbi*venomcrosshairs","steam_id":76561197996468677,"connected_time":345000000000,"state":"active","ping":57},{"user_id":753,"name":"Haha?","steam_id":76561198056882245,"connected_time":1579000000000,"state":"active","ping":45},{"user_id":756,"name":"Jughead","steam_id":76561198000355410,"connected_time":1291000000000,"state":"active","ping":60},{"user_id":752,"name":"CAMON ENGELAND","steam_id":76561198054301125,"connected_time":1933000000000,"state":"active","ping":87},{"user_id":442,"name":"LasagneMan","steam_id":76561198971904377,"connected_time":18653000000000,"state":"active","ping":61}]},{"server_id":309,"name":"Uncletopia | Frankfurt | 4 | All Maps","name_short":"frk-4","host":"frk-1.de.uncletopia.com","port":27045,"enabled":true,"region":"eu","cc":"de","latitude":50.110924,"longitude":8.682127,"reserved":0,"last_update":"0001-01-01T00:00:00Z","name_a2s":"Uncletopia | Frankfurt | 4 | All Maps","protocol":17,"map":"pl_pier","folder":"tf","game":"Team Fortress","app_id":440,"player_count":8,"max_players":24,"Bots":0,"server_type":"Dedicated","server_os":"Linux","password":true,"vac":true,"version":"7882260","steam_id":85568392924504275,"keywords":["nocrits","nodmgspread","payload","uncletopia"],"game_id":440,"stv_port":27046,"stv_name":"Uncletopia | Frankfurt | 4 | All Maps | STV","players":[{"user_id":19,"name":"Daddyflabburger","steam_id":76561198104352907,"connected_time":208000000000,"state":"active","ping":65},{"user_id":14,"name":"lolger","steam_id":76561199405958997,"connected_time":1320000000000,"state":"active","ping":30},{"user_id":15,"name":"SOBAKIN_F","steam_id":76561199226117708,"connected_time":1125000000000,"state":"active","ping":72},{"user_id":20,"name":"SerialKILLA!","steam_id":76561198093458326,"connected_time":194000000000,"state":"active","ping":55},{"user_id":21,"name":"cherri","steam_id":76561198146570384,"connected_time":137000000000,"state":"active","ping":60},{"user_id":22,"name":"AidenQG","steam_id":76561198864678536,"connected_time":133000000000,"state":"active","ping":59},{"user_id":23,"name":"bglaptop","steam_id":76561199465756040,"connected_time":94000000000,"state":"active","ping":70},{"user_id":24,"name":"Wholesome","steam_id":76561198010329501,"connected_time":10000000000,"state":"spawning","ping":46}]},{"server_id":310,"name":"Uncletopia | Frankfurt | 5 | All Maps","name_short":"frk-5","host":"frk-1.de.uncletopia.com","port":27055,"enabled":true,"region":"eu","cc":"de","latitude":50.110924,"longitude":8.682127,"reserved":0,"last_update":"0001-01-01T00:00:00Z","name_a2s":"Uncletopia | Frankfurt | 5 | All Maps","protocol":17,"map":"pl_upward","folder":"tf","game":"Team Fortress","app_id":440,"player_count":23,"max_players":24,"Bots":0,"server_type":"Dedicated","server_os":"Linux","password":true,"vac":true,"version":"7882260","steam_id":85568392924504277,"keywords":["nocrits","nodmgspread","payload","uncletopia"],"game_id":440,"stv_port":27056,"stv_name":"Uncletopia | Frankfurt | 5 | All Maps | STV","players":[{"user_id":69,"name":"Hoff","steam_id":76561198138540938,"connected_time":109000000000,"state":"active","ping":85},{"user_id":73,"name":"Mon pote est un femboy","steam_id":76561198173218318,"connected_time":20000000000,"state":"active","ping":65},{"user_id":71,"name":"DOMAIN","steam_id":76561199095640319,"connected_time":40000000000,"state":"active","ping":85},{"user_id":72,"name":"Magirby","steam_id":76561198818777390,"connected_time":24000000000,"state":"active","ping":228},{"user_id":74,"name":"Josh","steam_id":76561198274546904,"connected_time":13000000000,"state":"active","ping":160},{"user_id":53,"name":"Punchy","steam_id":76561197961020896,"connected_time":1359000000000,"state":"active","ping":72},{"user_id":68,"name":"Mr. Mietsch","steam_id":76561198077516818,"connected_time":378000000000,"state":"active","ping":54},{"user_id":66,"name":"Tyra","steam_id":76561198043739064,"connected_time":839000000000,"state":"active","ping":60},{"user_id":67,"name":"Tsuwu","steam_id":76561198354596897,"connected_time":692000000000,"state":"active","ping":93},{"user_id":40,"name":"driz","steam_id":76561198069462235,"connected_time":1641000000000,"state":"active","ping":64},{"user_id":58,"name":"Aldiyr","steam_id":76561198101917105,"connected_time":1245000000000,"state":"active","ping":178},{"user_id":75,"name":"Sensei","steam_id":76561198383582429,"connected_time":4000000000,"state":"spawning","ping":73},{"user_id":54,"name":"Ôº§ÔΩÅÔΩíÔΩãÔΩìÔΩîÔΩÅÔΩíÔΩì","steam_id":76561198070570879,"connected_time":1355000000000,"state":"active","ping":72},{"user_id":43,"name":"Sammy096","steam_id":76561198128167541,"connected_time":1571000000000,"state":"active","ping":58},{"user_id":44,"name":"radek","steam_id":76561197998883721,"connected_time":1561000000000,"state":"active","ping":62},{"user_id":45,"name":".apo","steam_id":76561198003042239,"connected_time":1554000000000,"state":"active","ping":51},{"user_id":46,"name":"big poo","steam_id":76561199088284199,"connected_time":1549000000000,"state":"active","ping":58},{"user_id":47,"name":"tea girl","steam_id":76561198068054530,"connected_time":1538000000000,"state":"active","ping":79},{"user_id":50,"name":"Kiha","steam_id":76561198031408608,"connected_time":1510000000000,"state":"active","ping":59},{"user_id":52,"name":"Tank","steam_id":76561199059174576,"connected_time":1468000000000,"state":"active","ping":166},{"user_id":56,"name":"Greencoffee","steam_id":76561198842090589,"connected_time":1344000000000,"state":"active","ping":87},{"user_id":57,"name":"Foreskin Gamer","steam_id":76561198283106341,"connected_time":1316000000000,"state":"active","ping":64},{"user_id":60,"name":"Yuzu","steam_id":76561198121694613,"connected_time":1058000000000,"state":"active","ping":52}]},{"server_id":311,"name":"Uncletopia | Frankfurt | 6 | All Maps","name_short":"frk-6","host":"frk-1.de.uncletopia.com","port":27065,"enabled":true,"region":"eu","cc":"de","latitude":50.110924,"longitude":8.682127,"reserved":0,"last_update":"0001-01-01T00:00:00Z","name_a2s":"Uncletopia | Frankfurt | 6 | All Maps","protocol":17,"map":"cp_sunshine","folder":"tf","game":"Team Fortress","app_id":440,"player_count":0,"max_players":24,"Bots":0,"server_type":"Dedicated","server_os":"Linux","password":true,"vac":true,"version":"7882260","steam_id":85568392924504278,"keywords":["cp","nocrits","nodmgspread","uncletopia"],"game_id":440,"stv_port":27066,"stv_name":"Uncletopia | Frankfurt | 6 | All Maps | STV","players":null},{"server_id":23,"name":"Uncletopia | Frankfurt | 7 | Stopwatch Beta","name_short":"frk-7","host":"frk-1.de.uncletopia.com","port":27075,"enabled":true,"region":"eu","cc":"de","latitude":50.110924,"longitude":8.682127,"reserved":0,"last_update":"0001-01-01T00:00:00Z","name_a2s":"Uncletopia | Frankfurt | 7 | Stopwatch Beta","protocol":17,"map":"cp_dustbowl","folder":"tf","game":"Team Fortress","app_id":440,"player_count":0,"max_players":24,"Bots":0,"server_type":"Dedicated","server_os":"Linux","password":true,"vac":true,"version":"7882260","steam_id":85568392924742827,"keywords":["cp","nocrits","nodmgspread","uncletopia"],"game_id":440,"stv_port":27076,"stv_name":"Uncletopia | Frankfurt | 7 | Stopwatch Beta | STV","players":null},{"server_id":24,"name":"Uncletopia | Frankfurt | 8 | Community","name_short":"frk-8","host":"frk-1.de.uncletopia.com","port":27085,"enabled":true,"region":"eu","cc":"de","latitude":50.110924,"longitude":8.682127,"reserved":0,"last_update":"0001-01-01T00:00:00Z","name_a2s":"Uncletopia | Frankfurt | 8 | Community","protocol":17,"map":"koth_cascade","folder":"tf","game":"Team Fortress","app_id":440,"player_count":0,"max_players":24,"Bots":0,"server_type":"Dedicated","server_os":"Linux","password":true,"vac":true,"version":"7882260","steam_id":85568392924742828,"keywords":["cp","nocrits","nodmgspread","uncletopia"],"game_id":440,"stv_port":27086,"stv_name":"Uncletopia | Frankfurt | 8 | Community | STV","players":null},{"server_id":202,"name":"Uncletopia | Hong Kong | 1 | All Maps","name_short":"hgk-1","host":"hgk-1.hk.uncletopia.com","port":27015,"enabled":true,"region":"asia","cc":"hk","latitude":22.302711,"longitude":114.177216,"reserved":0,"last_update":"0001-01-01T00:00:00Z","name_a2s":"Uncletopia | Hong Kong | 1 | All Maps","protocol":17,"map":"pl_borneo","folder":"tf","game":"Team Fortress","app_id":440,"player_count":0,"max_players":24,"Bots":0,"server_type":"Dedicated","server_os":"Linux","password":true,"vac":true,"version":"7882260","steam_id":85568392924494504,"keywords":["nocrits","nodmgspread","payload","uncletopia"],"game_id":440,"stv_port":27016,"stv_name":"Uncletopia | Hong Kong | 1 | All Maps | STV","players":null},{"server_id":1,"name":"Uncletopia | Los Angeles | 1 | All Maps","name_short":"lax-1","host":"lax-1.us.uncletopia.com","port":27015,"enabled":true,"region":"us-west","cc":"us","latitude":33.94279,"longitude":-118.41004,"reserved":0,"last_update":"0001-01-01T00:00:00Z","name_a2s":"Uncletopia | Los Angeles | 1 | All Maps","protocol":17,"map":"pl_pier","folder":"tf","game":"Team Fortress","app_id":440,"player_count":0,"max_players":24,"Bots":0,"server_type":"Dedicated","server_os":"Linux","password":true,"vac":true,"version":"7882260","steam_id":85568392924469991,"keywords":["nocrits","nodmgspread","payload","uncletopia"],"game_id":440,"stv_port":27016,"stv_name":"Uncletopia | Los Angeles | 1 | All Maps | STV","players":null},{"server_id":112,"name":"Uncletopia | Los Angeles | 2 | All Maps","name_short":"lax-2","host":"lax-1.us.uncletopia.com","port":27025,"enabled":true,"region":"us-west","cc":"us","latitude":33.94279,"longitude":-118.41004,"reserved":0,"last_update":"0001-01-01T00:00:00Z","name_a2s":"Uncletopia | Los Angeles | 2 | All Maps","protocol":17,"map":"pl_swiftwater_final1","folder":"tf","game":"Team Fortress","app_id":440,"player_count":19,"max_players":24,"Bots":0,"server_type":"Dedicated","server_os":"Linux","password":true,"vac":true,"version":"7882260","steam_id":85568392924469992,"keywords":["nocrits","nodmgspread","payload","uncletopia"],"game_id":440,"stv_port":27026,"stv_name":"Uncletopia | Los Angeles | 2 | All Maps | STV","players":[{"user_id":126,"name":"TheScootGuy","steam_id":76561198847107866,"connected_time":721000000000,"state":"active","ping":104},{"user_id":90,"name":"Lord Theodore XIII","steam_id":76561198085842797,"connected_time":4492000000000,"state":"active","ping":80},{"user_id":134,"name":"sleep","steam_id":76561198212421513,"connected_time":110000000000,"state":"active","ping":45},{"user_id":122,"name":"Pombley","steam_id":76561198141227263,"connected_time":1786000000000,"state":"active","ping":88},{"user_id":128,"name":"Satori Komeiji","steam_id":76561198158211423,"connected_time":297000000000,"state":"active","ping":41},{"user_id":129,"name":"Mr. Dick‚Ñ¢","steam_id":76561198047309044,"connected_time":296000000000,"state":"active","ping":83},{"user_id":130,"name":"ghoster","steam_id":76561199001918194,"connected_time":281000000000,"state":"active","ping":63},{"user_id":131,"name":"Harold","steam_id":76561198057317770,"connected_time":233000000000,"state":"active","ping":52},{"user_id":88,"name":"Kuyumiester","steam_id":76561198126835302,"connected_time":4687000000000,"state":"active","ping":78},{"user_id":123,"name":"HeartAttack","steam_id":76561198135833968,"connected_time":1725000000000,"state":"active","ping":62},{"user_id":125,"name":"SnakeyK","steam_id":76561198038414152,"connected_time":849000000000,"state":"active","ping":56},{"user_id":105,"name":"Ghostly","steam_id":76561199229629421,"connected_time":2987000000000,"state":"active","ping":149},{"user_id":110,"name":"vŒªughn","steam_id":76561198144165856,"connected_time":2375000000000,"state":"active","ping":87},{"user_id":111,"name":"he was forced to play scout","steam_id":76561198170381402,"connected_time":2373000000000,"state":"active","ping":103},{"user_id":112,"name":"A Shiny Meat Bicycle","steam_id":76561198358757709,"connected_time":2337000000000,"state":"active","ping":122},{"user_id":118,"name":"Drapph","steam_id":76561199384213314,"connected_time":2061000000000,"state":"active","ping":115},{"user_id":119,"name":"A Lil Guy","steam_id":76561198135662712,"connected_time":2010000000000,"state":"active","ping":61},{"user_id":120,"name":"meszaros1293","steam_id":76561198168201600,"connected_time":2002000000000,"state":"active","ping":60},{"user_id":121,"name":"Wendall555","steam_id":76561198985637603,"connected_time":1922000000000,"state":"active","ping":40}]},{"server_id":324,"name":"Uncletopia | Los Angeles | 3 | All Maps","name_short":"lax-3","host":"lax-1.us.uncletopia.com","port":27035,"enabled":true,"region":"us-west","cc":"us","latitude":33.94279,"longitude":-118.41004,"reserved":0,"last_update":"0001-01-01T00:00:00Z","name_a2s":"Uncletopia | Los Angeles | 3 | All Maps","protocol":17,"map":"plr_pipeline","folder":"tf","game":"Team Fortress","app_id":440,"player_count":24,"max_players":24,"Bots":0,"server_type":"Dedicated","server_os":"Linux","password":true,"vac":true,"version":"7882260","steam_id":85568392924510198,"keywords":["nocrits","nodmgspread","payload","uncletopia"],"game_id":440,"stv_port":27036,"stv_name":"Uncletopia | Los Angeles | 3 | All Maps | STV","players":[{"user_id":72,"name":"cacaspy","steam_id":76561198140946476,"connected_time":5326000000000,"state":"active","ping":125},{"user_id":121,"name":"Smokey","steam_id":76561198071523590,"connected_time":846000000000,"state":"active","ping":129},{"user_id":97,"name":"Gavial the Invincible","steam_id":76561198348354629,"connected_time":2783000000000,"state":"active","ping":76},{"user_id":131,"name":"Skrunkly","steam_id":76561198241629912,"connected_time":83000000000,"state":"active","ping":106},{"user_id":76,"name":"jayeskae","steam_id":76561198144220801,"connected_time":5148000000000,"state":"active","ping":74},{"user_id":115,"name":"ThatGamingKiwi","steam_id":76561199170522237,"connected_time":1056000000000,"state":"active","ping":135},{"user_id":100,"name":"RED","steam_id":76561198030282308,"connected_time":2367000000000,"state":"active","ping":63},{"user_id":128,"name":"OminousNoises","steam_id":76561198263320321,"connected_time":250000000000,"state":"active","ping":121},{"user_id":111,"name":"Acro Banwagon","steam_id":76561198092451804,"connected_time":1153000000000,"state":"active","ping":101},{"user_id":105,"name":"puffy","steam_id":76561198411347037,"connected_time":1797000000000,"state":"active","ping":106},{"user_id":127,"name":"tyg","steam_id":76561198056246867,"connected_time":345000000000,"state":"active","ping":105},{"user_id":116,"name":"CasemanTheBlondeBear","steam_id":76561198144862404,"connected_time":1047000000000,"state":"active","ping":105},{"user_id":120,"name":"Buswolley","steam_id":76561197995205571,"connected_time":881000000000,"state":"active","ping":64},{"user_id":108,"name":"a goose","steam_id":76561197995403717,"connected_time":1421000000000,"state":"active","ping":51},{"user_id":129,"name":"TwinAirplane959","steam_id":76561198866756840,"connected_time":241000000000,"state":"active","ping":108},{"user_id":79,"name":"FI LO","steam_id":76561198976530881,"connected_time":4825000000000,"state":"active","ping":30},{"user_id":132,"name":"insanity","steam_id":76561198880037229,"connected_time":30000000000,"state":"spawning","ping":86},{"user_id":123,"name":"Saint Laurent Don","steam_id":76561198116820706,"connected_time":788000000000,"state":"active","ping":73},{"user_id":64,"name":"Gaskranx","steam_id":76561198020269547,"connected_time":5831000000000,"state":"active","ping":115},{"user_id":103,"name":"Blitzy","steam_id":76561198149472890,"connected_time":1911000000000,"state":"active","ping":103},{"user_id":124,"name":"\u003c3 gay for women \u003c3","steam_id":76561198089978036,"connected_time":742000000000,"state":"active","ping":109},{"user_id":104,"name":"üÖúüÖîüÖîüÖöüÖ¢üÖ£üÖî\ufffd\ufffd\ufffd","steam_id":76561197999748343,"connected_time":1906000000000,"state":"active","ping":61},{"user_id":133,"name":"andmonske","steam_id":76561198821716991,"connected_time":23000000000,"state":"active","ping":101},{"user_id":126,"name":"{·¥õ Ä_·¥Ñ·¥á Ä·¥ò} zl","steam_id":76561198374406575,"connected_time":700000000000,"state":"active","ping":151}]},{"server_id":25,"name":"Uncletopia | Los Angeles | 4 | Stopwatch Beta","name_short":"lax-4","host":"lax-1.us.uncletopia.com","port":27045,"enabled":true,"region":"us-west","cc":"us","latitude":33.94279,"longitude":-118.41004,"reserved":0,"last_update":"0001-01-01T00:00:00Z","name_a2s":"Uncletopia | Los Angeles | 4 | Stopwatch Beta","protocol":17,"map":"cp_snakewater_final1","folder":"tf","game":"Team Fortress","app_id":440,"player_count":0,"max_players":24,"Bots":0,"server_type":"Dedicated","server_os":"Linux","password":true,"vac":true,"version":"7882260","steam_id":85568392924510199,"keywords":["cp","nocrits","nodmgspread","uncletopia"],"game_id":440,"stv_port":27046,"stv_name":"Uncletopia | Los Angeles | 4 | Stopwatch Beta | STV","players":null},{"server_id":11,"name":"Uncletopia | London | 1 | All Maps","name_short":"lon-1","host":"lon-1.uk.uncletopia.com","port":27015,"enabled":true,"region":"eu","cc":"gb","latitude":51.509865,"longitude":-0.118092,"reserved":0,"last_update":"0001-01-01T00:00:00Z","name_a2s":"Uncletopia | London | 1 | All Maps","protocol":17,"map":"pl_badwater","folder":"tf","game":"Team Fortress","app_id":440,"player_count":24,"max_players":24,"Bots":0,"server_type":"Dedicated","server_os":"Linux","password":true,"vac":true,"version":"7882260","steam_id":85568392924367362,"keywords":["nocrits","nodmgspread","payload","uncletopia"],"game_id":440,"stv_port":27016,"stv_name":"Uncletopia | London | 1 | All Maps | STV","players":[{"user_id":499,"name":"Critless","steam_id":76561198133968184,"connected_time":243000000000,"state":"active","ping":47},{"user_id":491,"name":"BayanTheBear","steam_id":76561198134537476,"connected_time":622000000000,"state":"active","ping":159},{"user_id":480,"name":"guly√°s √∫rfi","steam_id":76561198852327271,"connected_time":1825000000000,"state":"active","ping":74},{"user_id":427,"name":"and i'm javert!","steam_id":76561198117033273,"connected_time":6701000000000,"state":"active","ping":49},{"user_id":458,"name":"IEatFishLegs","steam_id":76561199079933178,"connected_time":4149000000000,"state":"active","ping":53},{"user_id":498,"name":"E¬≤ FTH","steam_id":76561198066287815,"connected_time":465000000000,"state":"active","ping":107},{"user_id":481,"name":"X-tis","steam_id":76561198043837480,"connected_time":1822000000000,"state":"active","ping":68},{"user_id":478,"name":"Son Goku","steam_id":76561199383437138,"connected_time":1911000000000,"state":"active","ping":119},{"user_id":494,"name":"Rui","steam_id":76561198263735498,"connected_time":602000000000,"state":"active","ping":98},{"user_id":485,"name":"Nifi","steam_id":76561198102682566,"connected_time":1418000000000,"state":"active","ping":75},{"user_id":467,"name":"flub_","steam_id":76561198337519315,"connected_time":2662000000000,"state":"active","ping":44},{"user_id":495,"name":"LarsInABox","steam_id":76561198028329262,"connected_time":584000000000,"state":"active","ping":73},{"user_id":501,"name":"fshfkr","steam_id":76561198095979282,"connected_time":45000000000,"state":"active","ping":40},{"user_id":472,"name":"gimmick","steam_id":76561198930670117,"connected_time":2603000000000,"state":"active","ping":42},{"user_id":484,"name":"Kurage","steam_id":76561198021221288,"connected_time":1591000000000,"state":"active","ping":70},{"user_id":476,"name":"dimitrij_6ix_god","steam_id":76561199023275543,"connected_time":1995000000000,"state":"active","ping":81},{"user_id":488,"name":"Jesus Enjoyer","steam_id":76561198840259819,"connected_time":838000000000,"state":"active","ping":54},{"user_id":497,"name":"Doctor Mobius","steam_id":76561197971281806,"connected_time":491000000000,"state":"active","ping":70},{"user_id":453,"name":"‚ô• aura ‚ô•","steam_id":76561198066258544,"connected_time":4574000000000,"state":"active","ping":66},{"user_id":500,"name":"Jara.","steam_id":76561197992207165,"connected_time":217000000000,"state":"active","ping":103},{"user_id":496,"name":"Lyf√´","steam_id":76561197998372828,"connected_time":568000000000,"state":"active","ping":89},{"user_id":493,"name":"Rahmed","steam_id":76561198136056704,"connected_time":613000000000,"state":"active","ping":48},{"user_id":332,"name":"‚ú™ qua ‚ú™","steam_id":76561198066408333,"connected_time":12744000000000,"state":"active","ping":85},{"user_id":470,"name":"Orbit","steam_id":76561198242999878,"connected_time":2661000000000,"state":"active","ping":57}]},{"server_id":114,"name":"Uncletopia | London | 2 | All Maps","name_short":"lon-2","host":"lon-1.uk.uncletopia.com","port":27025,"enabled":true,"region":"eu","cc":"gb","latitude":51.509865,"longitude":-0.118092,"reserved":0,"last_update":"0001-01-01T00:00:00Z","name_a2s":"Uncletopia | London | 2 | All Maps","protocol":17,"map":"koth_highpass","folder":"tf","game":"Team Fortress","app_id":440,"player_count":0,"max_players":24,"Bots":0,"server_type":"Dedicated","server_os":"Linux","password":true,"vac":true,"version":"7882260","steam_id":85568392924470941,"keywords":["cp","nocrits","nodmgspread","uncletopia"],"game_id":440,"stv_port":27026,"stv_name":"Uncletopia | London | 2 | All Maps | STV","players":null},{"server_id":320,"name":"Uncletopia | London | 3 | All Maps","name_short":"lon-3","host":"lon-1.uk.uncletopia.com","port":27035,"enabled":true,"region":"eu","cc":"gb","latitude":51.509865,"longitude":-0.118092,"reserved":0,"last_update":"0001-01-01T00:00:00Z","name_a2s":"Uncletopia | London | 3 | All Maps","protocol":17,"map":"koth_highpass","folder":"tf","game":"Team Fortress","app_id":440,"player_count":0,"max_players":24,"Bots":0,"server_type":"Dedicated","server_os":"Linux","password":true,"vac":true,"version":"7882260","steam_id":85568392924510192,"keywords":["cp","nocrits","nodmgspread","uncletopia"],"game_id":440,"stv_port":27036,"stv_name":"Uncletopia | London | 3 | All Maps | STV","players":null},{"server_id":321,"name":"Uncletopia | London | 4 | All Maps","name_short":"lon-4","host":"lon-1.uk.uncletopia.com","port":27045,"enabled":true,"region":"eu","cc":"gb","latitude":51.509865,"longitude":-0.118092,"reserved":0,"last_update":"0001-01-01T00:00:00Z","name_a2s":"Uncletopia | London | 4 | All Maps","protocol":17,"map":"pl_pier","folder":"tf","game":"Team Fortress","app_id":440,"player_count":24,"max_players":24,"Bots":0,"server_type":"Dedicated","server_os":"Linux","password":true,"vac":true,"version":"7882260","steam_id":85568392924510193,"keywords":["nocrits","nodmgspread","payload","uncletopia"],"game_id":440,"stv_port":27046,"stv_name":"Uncletopia | London | 4 | All Maps | STV","players":[{"user_id":288,"name":"Bambi","steam_id":76561198166972711,"connected_time":7630000000000,"state":"active","ping":45},{"user_id":413,"name":"the least schizo med main","steam_id":76561198048530109,"connected_time":1034000000000,"state":"active","ping":73},{"user_id":387,"name":"jt7","steam_id":76561198073655162,"connected_time":2319000000000,"state":"active","ping":78},{"user_id":329,"name":"t√Øger","steam_id":76561198260483157,"connected_time":5239000000000,"state":"active","ping":81},{"user_id":383,"name":"Agartha's child soldier","steam_id":76561198076881381,"connected_time":2464000000000,"state":"active","ping":75},{"user_id":409,"name":"Rask","steam_id":76561198052934944,"connected_time":1061000000000,"state":"active","ping":86},{"user_id":399,"name":"? Y-not ?","steam_id":76561198004077449,"connected_time":1809000000000,"state":"active","ping":63},{"user_id":420,"name":"DiscoTraveler","steam_id":76561199240168088,"connected_time":868000000000,"state":"active","ping":109},{"user_id":269,"name":"clunk","steam_id":76561198836460767,"connected_time":9917000000000,"state":"active","ping":76},{"user_id":404,"name":"Tele Guardian","steam_id":76561198071790583,"connected_time":1191000000000,"state":"active","ping":124},{"user_id":421,"name":"SpilledMilk","steam_id":76561198174123971,"connected_time":808000000000,"state":"active","ping":60},{"user_id":426,"name":"Sirzen","steam_id":76561198170155434,"connected_time":24000000000,"state":"active","ping":47},{"user_id":372,"name":"Bodeine Brazy","steam_id":76561198122181176,"connected_time":3072000000000,"state":"active","ping":44},{"user_id":407,"name":"John Fortress","steam_id":76561197984661199,"connected_time":1082000000000,"state":"active","ping":52},{"user_id":414,"name":"dnl","steam_id":76561198074156929,"connected_time":1001000000000,"state":"active","ping":77},{"user_id":400,"name":"whyamialive","steam_id":76561199070008862,"connected_time":1492000000000,"state":"active","ping":41},{"user_id":405,"name":"the_Qcumber","steam_id":76561199152515819,"connected_time":1186000000000,"state":"active","ping":69},{"user_id":423,"name":"washed up","steam_id":76561198275742101,"connected_time":681000000000,"state":"active","ping":68},{"user_id":386,"name":"Breizbuc","steam_id":76561198118220633,"connected_time":2326000000000,"state":"active","ping":55},{"user_id":422,"name":"ALARM","steam_id":76561198120686521,"connected_time":728000000000,"state":"active","ping":61},{"user_id":417,"name":"Mean Green Peen","steam_id":76561198228455736,"connected_time":916000000000,"state":"active","ping":50},{"user_id":378,"name":"LemonLeCitron","steam_id":76561198215545267,"connected_time":2966000000000,"state":"active","ping":67},{"user_id":406,"name":"—è —Å–æ—Å–∞–ª –º–µ–Ω—è –µ–±–∞–ª","steam_id":76561197971140507,"connected_time":1092000000000,"state":"active","ping":79},{"user_id":425,"name":"Elix","steam_id":76561199072306920,"connected_time":561000000000,"state":"active","ping":97}]},{"server_id":21,"name":"Uncletopia | London | 5 | All Maps","name_short":"lon-5","host":"lon-1.uk.uncletopia.com","port":27055,"enabled":true,"region":"eu","cc":"gb","latitude":51.509865,"longitude":-0.118092,"reserved":0,"last_update":"0001-01-01T00:00:00Z","name_a2s":"Uncletopia | London | 5 | All Maps","protocol":17,"map":"cp_snakewater_final1","folder":"tf","game":"Team Fortress","app_id":440,"player_count":0,"max_players":24,"Bots":0,"server_type":"Dedicated","server_os":"Linux","password":true,"vac":true,"version":"7882260","steam_id":85568392924742829,"keywords":["cp","nocrits","nodmgspread","uncletopia"],"game_id":440,"stv_port":27056,"stv_name":"Uncletopia | London | 5 | All Maps | STV","players":null},{"server_id":22,"name":"Uncletopia | London | 6 | All Maps","name_short":"lon-6","host":"lon-1.uk.uncletopia.com","port":27065,"enabled":true,"region":"eu","cc":"gb","latitude":51.509865,"longitude":-0.118092,"reserved":0,"last_update":"0001-01-01T00:00:00Z","name_a2s":"Uncletopia | London | 6 | All Maps","protocol":17,"map":"cp_altitude","folder":"tf","game":"Team Fortress","app_id":440,"player_count":0,"max_players":24,"Bots":0,"server_type":"Dedicated","server_os":"Linux","password":true,"vac":true,"version":"7882260","steam_id":85568392924742830,"keywords":["cp","nocrits","nodmgspread","uncletopia"],"game_id":440,"stv_port":27066,"stv_name":"Uncletopia | London | 6 | All Maps | STV","players":null},{"server_id":40,"name":"Uncletopia | London | 7 | No Payload","name_short":"lon-7","host":"lon-1.uk.uncletopia.com","port":27075,"enabled":true,"region":"eu","cc":"gb","latitude":51.509865,"longitude":-0.118092,"reserved":0,"last_update":"0001-01-01T00:00:00Z","name_a2s":"Uncletopia | London | 7 | No Payload","protocol":17,"map":"cp_sunshine","folder":"tf","game":"Team Fortress","app_id":440,"player_count":21,"max_players":24,"Bots":0,"server_type":"Dedicated","server_os":"Linux","password":true,"vac":true,"version":"7882260","steam_id":85568392924964314,"keywords":["cp","nocrits","nodmgspread","uncletopia"],"game_id":440,"stv_port":27076,"stv_name":"Uncletopia | London | 7 | No Payload | STV","players":[{"user_id":188,"name":"bad at tf2 episode 2","steam_id":76561198002451113,"connected_time":562000000000,"state":"active","ping":90},{"user_id":189,"name":"XBlueBeam","steam_id":76561199084917373,"connected_time":476000000000,"state":"active","ping":69},{"user_id":195,"name":"Reverie","steam_id":76561198987005784,"connected_time":338000000000,"state":"active","ping":149},{"user_id":145,"name":"DaKing","steam_id":76561197995935273,"connected_time":2669000000000,"state":"active","ping":118},{"user_id":117,"name":"üóªüé¥Hadrian Maloneüé¥üóª","steam_id":76561198036151103,"connected_time":3892000000000,"state":"active","ping":51},{"user_id":196,"name":"cat","steam_id":76561198832231975,"connected_time":278000000000,"state":"active","ping":98},{"user_id":200,"name":"calum92","steam_id":76561197992188760,"connected_time":156000000000,"state":"active","ping":56},{"user_id":129,"name":"i am sneak","steam_id":76561199136308055,"connected_time":3475000000000,"state":"active","ping":54},{"user_id":183,"name":"Anonymous47007","steam_id":76561199005211417,"connected_time":831000000000,"state":"active","ping":81},{"user_id":185,"name":"I eat pigeons","steam_id":76561198073769916,"connected_time":685000000000,"state":"active","ping":56},{"user_id":201,"name":"Wuli","steam_id":76561198056928284,"connected_time":97000000000,"state":"active","ping":75},{"user_id":121,"name":"Lucky B.üèÜ","steam_id":76561198077571162,"connected_time":3831000000000,"state":"active","ping":54},{"user_id":202,"name":"GGabe","steam_id":76561198117199068,"connected_time":79000000000,"state":"active","ping":70},{"user_id":179,"name":"neet","steam_id":76561197968115168,"connected_time":1130000000000,"state":"active","ping":124},{"user_id":168,"name":"Truegear","steam_id":76561198059511386,"connected_time":1810000000000,"state":"active","ping":68},{"user_id":190,"name":"St√ºmpy","steam_id":76561198255904077,"connected_time":456000000000,"state":"active","ping":67},{"user_id":180,"name":"Falco","steam_id":76561199061187430,"connected_time":1117000000000,"state":"active","ping":55},{"user_id":191,"name":"Gordon","steam_id":76561198088042034,"connected_time":455000000000,"state":"active","ping":102},{"user_id":181,"name":"Rosenmontag","steam_id":76561198079477964,"connected_time":858000000000,"state":"active","ping":47},{"user_id":194,"name":"Favi","steam_id":76561198013236935,"connected_time":384000000000,"state":"active","ping":75},{"user_id":199,"name":"Doohickey mechanic","steam_id":76561198146180114,"connected_time":238000000000,"state":"active","ping":88}]},{"server_id":41,"name":"Uncletopia | London | 8 | Community","name_short":"lon-8","host":"lon-1.uk.uncletopia.com","port":27085,"enabled":true,"region":"eu","cc":"gb","latitude":51.509865,"longitude":-0.118092,"reserved":0,"last_update":"0001-01-01T00:00:00Z","name_a2s":"Uncletopia | London | 8 | Community","protocol":17,"map":"workshop/cp_sulfur_rc2.ugc619869471","folder":"tf","game":"Team Fortress","app_id":440,"player_count":0,"max_players":24,"Bots":0,"server_type":"Dedicated","server_os":"Linux","password":true,"vac":true,"version":"7882260","steam_id":85568392924964315,"keywords":["cp","nocrits","nodmgspread","uncletopia"],"game_id":440,"stv_port":27086,"stv_name":"Uncletopia | London | 8 | Community | STV","players":null},{"server_id":300,"name":"Uncletopia | Montr√©al | 1 | All Maps","name_short":"mtl-1","host":"mtl-1.ca.uncletopia.com","port":27015,"enabled":true,"region":"us-east","cc":"ca","latitude":45.50889,"longitude":-73.56167,"reserved":0,"last_update":"0001-01-01T00:00:00Z","name_a2s":"Uncletopia | Montr√©al | 1 | All Maps","protocol":17,"map":"pl_snowycoast","folder":"tf","game":"Team Fortress","app_id":440,"player_count":0,"max_players":24,"Bots":0,"server_type":"Dedicated","server_os":"Linux","password":true,"vac":true,"version":"7882260","steam_id":85568392924500087,"keywords":["nocrits","nodmgspread","payload","uncletopia"],"game_id":440,"stv_port":27016,"stv_name":"Uncletopia | Montr√©al | 1 | All Maps | STV","players":null},{"server_id":301,"name":"Uncletopia | Montr√©al | 2 | All Maps","name_short":"mtl-2","host":"mtl-1.ca.uncletopia.com","port":27025,"enabled":true,"region":"us-east","cc":"ca","latitude":45.50889,"longitude":-73.56167,"reserved":0,"last_update":"0001-01-01T00:00:00Z","name_a2s":"Uncletopia | Montr√©al | 2 | All Maps","protocol":17,"map":"cp_sunshine","folder":"tf","game":"Team Fortress","app_id":440,"player_count":0,"max_players":24,"Bots":0,"server_type":"Dedicated","server_os":"Linux","password":true,"vac":true,"version":"7882260","steam_id":85568392924500088,"keywords":["cp","nocrits","nodmgspread","uncletopia"],"game_id":440,"stv_port":27026,"stv_name":"Uncletopia | Montr√©al | 2 | All Maps | STV","players":null},{"server_id":302,"name":"Uncletopia | Montr√©al | 3 | All Maps","name_short":"mtl-3","host":"mtl-1.ca.uncletopia.com","port":27035,"enabled":true,"region":"us-east","cc":"ca","latitude":45.50889,"longitude":-73.56167,"reserved":0,"last_update":"0001-01-01T00:00:00Z","name_a2s":"Uncletopia | Montr√©al | 3 | All Maps","protocol":17,"map":"pl_borneo","folder":"tf","game":"Team Fortress","app_id":440,"player_count":0,"max_players":24,"Bots":0,"server_type":"Dedicated","server_os":"Linux","password":true,"vac":true,"version":"7882260","steam_id":85568392924500089,"keywords":["nocrits","nodmgspread","payload","uncletopia"],"game_id":440,"stv_port":27036,"stv_name":"Uncletopia | Montr√©al | 3 | All Maps | STV","players":null},{"server_id":303,"name":"Uncletopia | Montr√©al | 4 | No Payload","name_short":"mtl-4","host":"mtl-1.ca.uncletopia.com","port":27045,"enabled":true,"region":"us-east","cc":"ca","latitude":45.50889,"longitude":-73.56167,"reserved":0,"last_update":"0001-01-01T00:00:00Z","name_a2s":"Uncletopia | Montr√©al | 4 | No Payload","protocol":17,"map":"cp_altitude","folder":"tf","game":"Team Fortress","app_id":440,"player_count":0,"max_players":24,"Bots":0,"server_type":"Dedicated","server_os":"Linux","password":true,"vac":true,"version":"7882260","steam_id":85568392924500090,"keywords":["cp","nocrits","nodmgspread","uncletopia"],"game_id":440,"stv_port":27046,"stv_name":"Uncletopia | Montr√©al | 4 | No Payload | STV","players":null},{"server_id":13,"name":"Uncletopia | New York City | 1 | All Maps","name_short":"nyc-1","host":"nyc-1.us.uncletopia.com","port":27015,"enabled":true,"region":"us-east","cc":"us","latitude":40.73061,"longitude":-73.93524,"reserved":0,"last_update":"0001-01-01T00:00:00Z","name_a2s":"Uncletopia | New York City | 1 | All Maps","protocol":17,"map":"koth_highpass","folder":"tf","game":"Team Fortress","app_id":440,"player_count":0,"max_players":24,"Bots":0,"server_type":"Dedicated","server_os":"Linux","password":true,"vac":true,"version":"7882260","steam_id":85568392924469993,"keywords":["cp","nocrits","nodmgspread","uncletopia"],"game_id":440,"stv_port":27016,"stv_name":"Uncletopia | New York City | 1 | All Maps | STV","players":null},{"server_id":14,"name":"Uncletopia | New York City | 2 | All Maps","name_short":"nyc-2","host":"nyc-1.us.uncletopia.com","port":27025,"enabled":true,"region":"us-east","cc":"us","latitude":40.73061,"longitude":-73.93524,"reserved":0,"last_update":"0001-01-01T00:00:00Z","name_a2s":"Uncletopia | New York City | 2 | All Maps","protocol":17,"map":"pl_swiftwater_final1","folder":"tf","game":"Team Fortress","app_id":440,"player_count":0,"max_players":24,"Bots":0,"server_type":"Dedicated","server_os":"Linux","password":true,"vac":true,"version":"7882260","steam_id":85568392924469994,"keywords":["nocrits","nodmgspread","payload","uncletopia"],"game_id":440,"stv_port":27026,"stv_name":"Uncletopia | New York City | 2 | All Maps | STV","players":null},{"server_id":15,"name":"Uncletopia | New York City | 3 | Stopwatch Beta","name_short":"nyc-3","host":"nyc-1.us.uncletopia.com","port":27035,"enabled":true,"region":"us-east","cc":"us","latitude":40.73061,"longitude":-73.93524,"reserved":0,"last_update":"0001-01-01T00:00:00Z","name_a2s":"Uncletopia | New York City | 3 | Stopwatch Beta","protocol":17,"map":"cp_sunshine","folder":"tf","game":"Team Fortress","app_id":440,"player_count":0,"max_players":24,"Bots":0,"server_type":"Dedicated","server_os":"Linux","password":true,"vac":true,"version":"7882260","steam_id":85568392924742820,"keywords":["cp","nocrits","nodmgspread","uncletopia"],"game_id":440,"stv_port":27036,"stv_name":"Uncletopia | New York City | 3 | Stopwatch Beta | STV","players":null},{"server_id":16,"name":"Uncletopia | New York City | 4 | Community","name_short":"nyc-4","host":"nyc-1.us.uncletopia.com","port":27045,"enabled":true,"region":"us-east","cc":"us","latitude":40.73061,"longitude":-73.93524,"reserved":0,"last_update":"0001-01-01T00:00:00Z","name_a2s":"Uncletopia | New York City | 4 | Community","protocol":17,"map":"pl_badwater","folder":"tf","game":"Team Fortress","app_id":440,"player_count":0,"max_players":24,"Bots":0,"server_type":"Dedicated","server_os":"Linux","password":true,"vac":true,"version":"7882260","steam_id":85568392924742821,"keywords":["nocrits","nodmgspread","payload","uncletopia"],"game_id":440,"stv_port":27046,"stv_name":"Uncletopia | New York City | 4 | Community | STV","players":null},{"server_id":142,"name":"Uncletopia | S√£o Paulo | 1 | All Maps","name_short":"sao-1","host":"sao-1.br.uncletopia.com","port":27015,"enabled":true,"region":"sa","cc":"br","latitude":-23.533773,"longitude":-46.62529,"reserved":0,"last_update":"0001-01-01T00:00:00Z","name_a2s":"Uncletopia | S√£o Paulo | 1 | All Maps","protocol":17,"map":"pl_badwater","folder":"tf","game":"Team Fortress","app_id":440,"player_count":0,"max_players":24,"Bots":0,"server_type":"Dedicated","server_os":"Linux","password":true,"vac":true,"version":"7882260","steam_id":85568392924469996,"keywords":["nocrits","nodmgspread","payload","uncletopia"],"game_id":440,"stv_port":27016,"stv_name":"Uncletopia | S√£o Paulo | 1 | All Maps | STV","players":null},{"server_id":143,"name":"Uncletopia | S√£o Paulo | 2 | All Maps","name_short":"sao-2","host":"sao-2.br.uncletopia.com","port":27015,"enabled":true,"region":"sa","cc":"br","latitude":-23.533773,"longitude":-46.62529,"reserved":0,"last_update":"0001-01-01T00:00:00Z","name_a2s":"Uncletopia | S√£o Paulo | 2 | All Maps","protocol":17,"map":"pl_pier","folder":"tf","game":"Team Fortress","app_id":440,"player_count":0,"max_players":24,"Bots":0,"server_type":"Dedicated","server_os":"Linux","password":true,"vac":true,"version":"7882260","steam_id":85568392924485349,"keywords":["nocrits","nodmgspread","payload","uncletopia"],"game_id":440,"stv_port":27016,"stv_name":"Uncletopia | S√£o Paulo | 2 | All Maps | STV","players":null},{"server_id":7,"name":"Uncletopia | Seattle | 1 | All Maps","name_short":"sea-1","host":"sea-1.us.uncletopia.com","port":27015,"enabled":true,"region":"us-west","cc":"us","latitude":47.608013,"longitude":-122.33517,"reserved":0,"last_update":"0001-01-01T00:00:00Z","name_a2s":"Uncletopia | Seattle | 1 | All Maps","protocol":17,"map":"pl_swiftwater_final1","folder":"tf","game":"Team Fortress","app_id":440,"player_count":1,"max_players":24,"Bots":0,"server_type":"Dedicated","server_os":"Linux","password":true,"vac":true,"version":"7882260","steam_id":85568392924469997,"keywords":["nocrits","nodmgspread","payload","uncletopia"],"game_id":440,"stv_port":27016,"stv_name":"Uncletopia | Seattle | 1 | All Maps | STV","players":[{"user_id":13,"name":"Lochness_monster","steam_id":76561198417831973,"connected_time":298000000000,"state":"active","ping":58}]},{"server_id":119,"name":"Uncletopia | Seattle | 2 | All Maps","name_short":"sea-2","host":"sea-1.us.uncletopia.com","port":27025,"enabled":true,"region":"us-west","cc":"us","latitude":47.608013,"longitude":-122.33517,"reserved":0,"last_update":"0001-01-01T00:00:00Z","name_a2s":"Uncletopia | Seattle | 2 | All Maps","protocol":17,"map":"koth_highpass","folder":"tf","game":"Team Fortress","app_id":440,"player_count":0,"max_players":24,"Bots":0,"server_type":"Dedicated","server_os":"Linux","password":true,"vac":true,"version":"7882260","steam_id":85568392924469998,"keywords":["cp","nocrits","nodmgspread","uncletopia"],"game_id":440,"stv_port":27026,"stv_name":"Uncletopia | Seattle | 2 | All Maps | STV","players":null},{"server_id":406,"name":"Uncletopia | Seattle | 3 | Stopwatch Beta","name_short":"sea-3","host":"sea-1.us.uncletopia.com","port":27035,"enabled":true,"region":"us-west","cc":"us","latitude":47.608013,"longitude":-122.33517,"reserved":0,"last_update":"0001-01-01T00:00:00Z","name_a2s":"Uncletopia | Seattle | 3 | Stopwatch Beta","protocol":17,"map":"cp_mountainlab","folder":"tf","game":"Team Fortress","app_id":440,"player_count":0,"max_players":24,"Bots":0,"server_type":"Dedicated","server_os":"Linux","password":true,"vac":true,"version":"7882260","steam_id":85568392924515217,"keywords":["cp","nocrits","nodmgspread","uncletopia"],"game_id":440,"stv_port":27036,"stv_name":"Uncletopia | Seattle | 3 | Stopwatch Beta | STV","players":null},{"server_id":17,"name":"Uncletopia | San Francisco | 1 | All Maps","name_short":"sfo-1","host":"sfo-1.us.uncletopia.com","port":27015,"enabled":true,"region":"us-west","cc":"us","latitude":37.77397,"longitude":-122.4313,"reserved":0,"last_update":"0001-01-01T00:00:00Z","name_a2s":"Uncletopia | San Francisco | 1 | All Maps","protocol":17,"map":"cp_process_final","folder":"tf","game":"Team Fortress","app_id":440,"player_count":0,"max_players":24,"Bots":0,"server_type":"Dedicated","server_os":"Linux","password":true,"vac":true,"version":"7757534","steam_id":85568392924469999,"keywords":["cp","nocrits","nodmgspread","uncletopia"],"game_id":440,"stv_port":27016,"stv_name":"Uncletopia | San Francisco | 1 | All Maps | STV","players":null},{"server_id":18,"name":"Uncletopia | San Francisco | 2 | All Maps","name_short":"sfo-2","host":"sfo-1.us.uncletopia.com","port":27025,"enabled":true,"region":"us-west","cc":"us","latitude":37.77397,"longitude":-122.4313,"reserved":0,"last_update":"0001-01-01T00:00:00Z","name_a2s":"Uncletopia | San Francisco | 2 | All Maps","protocol":17,"map":"koth_highpass","folder":"tf","game":"Team Fortress","app_id":440,"player_count":0,"max_players":24,"Bots":0,"server_type":"Dedicated","server_os":"Linux","password":true,"vac":true,"version":"7757534","steam_id":85568392924470000,"keywords":["cp","nocrits","nodmgspread","uncletopia"],"game_id":440,"stv_port":27026,"stv_name":"Uncletopia | San Francisco | 2 | All Maps | STV","players":null},{"server_id":19,"name":"Uncletopia | San Francisco | 3 | Stopwatch Beta","name_short":"sfo-3","host":"sfo-1.us.uncletopia.com","port":27035,"enabled":true,"region":"us-west","cc":"us","latitude":37.77397,"longitude":-122.4313,"reserved":0,"last_update":"0001-01-01T00:00:00Z","name_a2s":"Uncletopia | San Francisco | 3 | Stopwatch Beta","protocol":17,"map":"koth_lakeside_final","folder":"tf","game":"Team Fortress","app_id":440,"player_count":0,"max_players":24,"Bots":0,"server_type":"Dedicated","server_os":"Linux","password":true,"vac":true,"version":"7757534","steam_id":85568392924742824,"keywords":["cp","nocrits","nodmgspread","uncletopia"],"game_id":440,"stv_port":27036,"stv_name":"Uncletopia | San Francisco | 3 | Stopwatch Beta | STV","players":null},{"server_id":20,"name":"Uncletopia | San Francisco | 4 | Community","name_short":"sfo-4","host":"sfo-1.us.uncletopia.com","port":27045,"enabled":true,"region":"us-west","cc":"us","latitude":37.77397,"longitude":-122.4313,"reserved":0,"last_update":"0001-01-01T00:00:00Z","name_a2s":"Uncletopia | San Francisco | 4 | Community","protocol":17,"map":"cp_altitude","folder":"tf","game":"Team Fortress","app_id":440,"player_count":0,"max_players":24,"Bots":0,"server_type":"Dedicated","server_os":"Linux","password":true,"vac":true,"version":"7757534","steam_id":85568392924742826,"keywords":["cp","nocrits","nodmgspread","uncletopia"],"game_id":440,"stv_port":27046,"stv_name":"Uncletopia | San Francisco | 4 | Community | STV","players":null},{"server_id":141,"name":"Uncletopia | Sydney | 1 | All Maps","name_short":"syd-1","host":"syd-1.au.uncletopia.com","port":27015,"enabled":true,"region":"au","cc":"au","latitude":-33.865143,"longitude":151.2099,"reserved":0,"last_update":"0001-01-01T00:00:00Z","name_a2s":"Uncletopia | Sydney | 1 | All Maps","protocol":17,"map":"pl_badwater","folder":"tf","game":"Team Fortress","app_id":440,"player_count":0,"max_players":24,"Bots":0,"server_type":"Dedicated","server_os":"Linux","password":true,"vac":true,"version":"7882260","steam_id":85568392924470001,"keywords":["nocrits","nodmgspread","payload","uncletopia"],"game_id":440,"stv_port":27016,"stv_name":"Uncletopia | Sydney | 1 | All Maps | STV","players":null},{"server_id":123,"name":"Uncletopia | Sydney | 2 | All Maps","name_short":"syd-2","host":"syd-1.au.uncletopia.com","port":27025,"enabled":true,"region":"au","cc":"au","latitude":-33.865143,"longitude":151.2099,"reserved":0,"last_update":"0001-01-01T00:00:00Z","name_a2s":"Uncletopia | Sydney | 2 | All Maps","protocol":17,"map":"pl_borneo","folder":"tf","game":"Team Fortress","app_id":440,"player_count":0,"max_players":24,"Bots":0,"server_type":"Dedicated","server_os":"Linux","password":true,"vac":true,"version":"7882260","steam_id":85568392924470002,"keywords":["nocrits","nodmgspread","payload","uncletopia"],"game_id":440,"stv_port":27026,"stv_name":"Uncletopia | Sydney | 2 | All Maps | STV","players":null},{"server_id":395,"name":"Uncletopia | Sydney | 3 | All Maps","name_short":"syd-3","host":"syd-1.au.uncletopia.com","port":27035,"enabled":true,"region":"au","cc":"au","latitude":-33.865143,"longitude":151.2099,"reserved":0,"last_update":"0001-01-01T00:00:00Z","name_a2s":"Uncletopia | Sydney | 3 | All Maps","protocol":17,"map":"koth_brazil","folder":"tf","game":"Team Fortress","app_id":440,"player_count":0,"max_players":24,"Bots":0,"server_type":"Dedicated","server_os":"Linux","password":true,"vac":true,"version":"7882260","steam_id":85568392925194467,"keywords":["cp","nocrits","nodmgspread","uncletopia"],"game_id":440,"stv_port":27036,"stv_name":"Uncletopia | Sydney | 3 | All Maps | STV","players":null},{"server_id":396,"name":"Uncletopia | Sydney | 4 | All Maps","name_short":"syd-4","host":"syd-1.au.uncletopia.com","port":27045,"enabled":true,"region":"au","cc":"au","latitude":-33.865143,"longitude":151.2099,"reserved":0,"last_update":"0001-01-01T00:00:00Z","name_a2s":"Uncletopia | Sydney | 4 | All Maps","protocol":17,"map":"pl_badwater","folder":"tf","game":"Team Fortress","app_id":440,"player_count":0,"max_players":24,"Bots":0,"server_type":"Dedicated","server_os":"Linux","password":true,"vac":true,"version":"7882260","steam_id":85568392925397958,"keywords":["nocrits","nodmgspread","payload","uncletopia"],"game_id":440,"stv_port":27046,"stv_name":"Uncletopia | Sydney | 4 | All Maps | STV","players":null},{"server_id":58,"name":"Uncletopia | Sydney | 5 | Stopwatch Beta","name_short":"syd-5","host":"syd-1.au.uncletopia.com","port":27055,"enabled":true,"region":"au","cc":"au","latitude":-33.865143,"longitude":151.2099,"reserved":0,"last_update":"0001-01-01T00:00:00Z","name_a2s":"Uncletopia | Sydney | 5 | Stopwatch Beta","protocol":17,"map":"workshop/pl_summercoast_rc8e.ugc1761528829","folder":"tf","game":"Team Fortress","app_id":440,"player_count":0,"max_players":24,"Bots":0,"server_type":"Dedicated","server_os":"Linux","password":true,"vac":true,"version":"7882260","steam_id":85568392925397959,"keywords":["nocrits","nodmgspread","payload","uncletopia"],"game_id":440,"stv_port":27056,"stv_name":"Uncletopia | Sydney | 5 | Stopwatch Beta | STV","players":null},{"server_id":59,"name":"Uncletopia | Sydney | 6 | Community","name_short":"syd-6","host":"syd-1.au.uncletopia.com","port":27065,"enabled":true,"region":"au","cc":"au","latitude":-33.865143,"longitude":151.2099,"reserved":0,"last_update":"0001-01-01T00:00:00Z","name_a2s":"Uncletopia | Sydney | 6 | Community","protocol":17,"map":"workshop/cp_indulge.ugc528106646","folder":"tf","game":"Team Fortress","app_id":440,"player_count":0,"max_players":24,"Bots":0,"server_type":"Dedicated","server_os":"Linux","password":true,"vac":true,"version":"7882260","steam_id":85568392925397960,"keywords":["cp","nocrits","nodmgspread","uncletopia"],"game_id":440,"stv_port":27066,"stv_name":"Uncletopia | Sydney | 6 | Community | STV","players":null},{"server_id":49,"name":"Uncletopia | Warsaw | 1 | All Maps","name_short":"waw-1","host":"waw-1.pl.uncletopia.com","port":27015,"enabled":true,"region":"eu","cc":"pl","latitude":52.2297,"longitude":21.017532,"reserved":0,"last_update":"0001-01-01T00:00:00Z","name_a2s":"","protocol":0,"map":"","folder":"","game":"","app_id":0,"player_count":0,"max_players":0,"Bots":0,"server_type":"","server_os":"","password":false,"vac":false,"version":"","steam_id":0,"keywords":null,"game_id":0,"stv_port":0,"stv_name":"","players":null},{"server_id":50,"name":"Uncletopia | Warsaw | 2 | All Maps","name_short":"waw-2","host":"waw-1.pl.uncletopia.com","port":27025,"enabled":true,"region":"eu","cc":"pl","latitude":52.2297,"longitude":21.017532,"reserved":0,"last_update":"0001-01-01T00:00:00Z","name_a2s":"Uncletopia | Warsaw | 2 | All Maps","protocol":17,"map":"koth_lakeside_final","folder":"tf","game":"Team Fortress","app_id":440,"player_count":0,"max_players":24,"Bots":0,"server_type":"Dedicated","server_os":"Linux","password":true,"vac":true,"version":"7882260","steam_id":85568392925397851,"keywords":["cp","nocrits","nodmgspread","uncletopia"],"game_id":440,"stv_port":27026,"stv_name":"Uncletopia | Warsaw | 2 | All Maps | STV","players":null},{"server_id":51,"name":"Uncletopia | Warsaw | 3 | All Maps","name_short":"waw-3","host":"waw-1.pl.uncletopia.com","port":27035,"enabled":true,"region":"eu","cc":"pl","latitude":52.2297,"longitude":21.017532,"reserved":0,"last_update":"0001-01-01T00:00:00Z","name_a2s":"Uncletopia | Warsaw | 3 | All Maps","protocol":17,"map":"koth_viaduct","folder":"tf","game":"Team Fortress","app_id":440,"player_count":0,"max_players":24,"Bots":0,"server_type":"Dedicated","server_os":"Linux","password":true,"vac":true,"version":"7882260","steam_id":85568392925397852,"keywords":["cp","nocrits","nodmgspread","uncletopia"],"game_id":440,"stv_port":27036,"stv_name":"Uncletopia | Warsaw | 3 | All Maps | STV","players":null},{"server_id":52,"name":"Uncletopia | Warsaw | 4 | All Maps","name_short":"waw-4","host":"waw-1.pl.uncletopia.com","port":27045,"enabled":true,"region":"eu","cc":"pl","latitude":52.2297,"longitude":21.017532,"reserved":0,"last_update":"0001-01-01T00:00:00Z","name_a2s":"Uncletopia | Warsaw | 4 | All Maps","protocol":17,"map":"koth_highpass","folder":"tf","game":"Team Fortress","app_id":440,"player_count":0,"max_players":24,"Bots":0,"server_type":"Dedicated","server_os":"Linux","password":true,"vac":true,"version":"7882260","steam_id":85568392925397853,"keywords":["cp","nocrits","nodmgspread","uncletopia"],"game_id":440,"stv_port":27046,"stv_name":"Uncletopia | Warsaw | 4 | All Maps | STV","players":null},{"server_id":53,"name":"Uncletopia | Warsaw | 5 | Stopwatch Beta","name_short":"waw-5","host":"waw-1.pl.uncletopia.com","port":27055,"enabled":true,"region":"eu","cc":"pl","latitude":52.2297,"longitude":21.017532,"reserved":0,"last_update":"0001-01-01T00:00:00Z","name_a2s":"Uncletopia | Warsaw | 5 | Stopwatch Beta","protocol":17,"map":"cp_mountainlab","folder":"tf","game":"Team Fortress","app_id":440,"player_count":0,"max_players":24,"Bots":0,"server_type":"Dedicated","server_os":"Linux","password":true,"vac":true,"version":"7882260","steam_id":85568392925397854,"keywords":["cp","nocrits","nodmgspread","uncletopia"],"game_id":440,"stv_port":27056,"stv_name":"Uncletopia | Warsaw | 5 | Stopwatch Beta | STV","players":null},{"server_id":54,"name":"Uncletopia | Warsaw | 6 | Community","name_short":"waw-6","host":"waw-1.pl.uncletopia.com","port":27065,"enabled":true,"region":"eu","cc":"pl","latitude":52.2297,"longitude":21.017532,"reserved":0,"last_update":"0001-01-01T00:00:00Z","name_a2s":"Uncletopia | Warsaw | 6 | Community","protocol":17,"map":"koth_viaduct","folder":"tf","game":"Team Fortress","app_id":440,"player_count":0,"max_players":24,"Bots":0,"server_type":"Dedicated","server_os":"Linux","password":true,"vac":true,"version":"7882260","steam_id":85568392925397856,"keywords":["cp","nocrits","nodmgspread","uncletopia"],"game_id":440,"stv_port":27066,"stv_name":"Uncletopia | Warsaw | 6 | Community | STV","players":null}]}