{"status":true,"message":"","result":[{"server_id":9,"name":"Uncletopia | Atlanta | 1 | All Maps","name_short":"atl-1","host":"atl-1.us.uncletopia.com","port":27015,"enabled":true,"region":"us-east","cc":"us","latitude":33.753746,"longitude":-84.38633,"reserved":0,"last_update":"0001-01-01T00:00:00Z","name_a2s":"Uncletopia | Atlanta | 1 | All Maps","protocol":17,"map":"cp_sunshine","folder":"tf","game":"Team Fortress","app_id":440,"player_count":4,"max_players":24,"Bots":0,"server_type":"Dedicated","server_os":"Linux","password":true,"vac":true,"version":"7932396","steam_id":85568392924469982,"keywords":["cp","nocrits","nodmgspread","uncletopia"],"game_id":440,"stv_port":27016,"stv_name":"Uncletopia | Atlanta | 1 | All Maps | STV","players":[{"user_id":583,"name":"Jasper","steam_id":76561198239635448,"connected_time":1943000000000,"state":"active","ping":86},{"user_id":584,"name":"Brkeii","steam_id":76561198110650572,"connected_time":1873000000000,"state":"active","ping":58},{"user_id":585,"name":"shooty","steam_id":76561198128485603,"connected_time":67000000000,"state":"active","ping":62},{"user_id":586,"name":"Jose","steam_id":76561198101051538,"connected_time":42000000000,"state":"active","ping":47}]},{"server_id":104,"name":"Uncletopia | Atlanta | 2 | All Maps","name_short":"atl-2","host":"atl-1.us.uncletopia.com","port":27025,"enabled":true,"region":"us-east","cc":"us","latitude":33.753746,"longitude":-84.38633,"reserved":0,"last_update":"0001-01-01T00:00:00Z","name_a2s":"Uncletopia | Atlanta | 2 | All Maps","protocol":17,"map":"pl_borneo","folder":"tf","game":"Team Fortress","app_id":440,"player_count":0,"max_players":24,"Bots":0,"server_type":"Dedicated","server_os":"Linux","password":true,"vac":true,"version":"7932396","steam_id":85568392924469983,"keywords":["nocrits","nodmgspread","payload","uncletopia"],"game_id":440,"stv_port":27026,"stv_name":"Uncletopia | Atlanta | 2 | All Maps | STV","players":null},{"server_id":400,"name":"Uncletopia | Atlanta | 3 | Community","name_short":"atl-3","host":"atl-1.us.uncletopia.com","port":27035,"enabled":true,"region":"us-east","cc":"us","latitude":33.753746,"longitude":-84.38633,"reserved":0,"last_update":"0001-01-01T00:00:00Z","name_a2s":"Uncletopia | Atlanta | 3 | Community","protocol":17,"map":"workshop/koth_trenchfoot_b1a.ugc731436616","folder":"tf","game":"Team Fortress","app_id":440,"player_count":0,"max_players":24,"Bots":0,"server_type":"Dedicated","server_os":"Linux","password":true,"vac":true,"version":"7932396","steam_id":85568392924515187,"keywords":["cp","nocrits","nodmgspread","uncletopia"],"game_id":440,"stv_port":27036,"stv_name":"Uncletopia | Atlanta | 3 | Community | STV","players":null},{"server_id":401,"name":"Uncletopia | Atlanta | 4 | No Payload","name_short":"atl-4","host":"atl-1.us.uncletopia.com","port":27045,"enabled":true,"region":"us-east","cc":"us","latitude":33.753746,"longitude":-84.38633,"reserved":0,"last_update":"0001-01-01T00:00:00Z","name_a2s":"","protocol":0,"map":"","folder":"","game":"","app_id":0,"player_count":0,"max_players":0,"Bots":0,"server_type":"","server_os":"","password":false,"vac":false,"version":"","steam_id":0,"keywords":null,"game_id":0,"stv_port":0,"stv_name":"","players":null},{"server_id":2,"name":"Uncletopia | Chicago | 1 | All Maps","name_short":"chi-1","host":"chi-1.us.uncletopia.com","port":27015,"enabled":true,"region":"us-central","cc":"us","latitude":41.881832,"longitude":-87.62318,"reserved":0,"last_update":"0001-01-01T00:00:00Z","name_a2s":"Uncletopia | Chicago | 1 | All Maps","protocol":17,"map":"cp_sunshine","folder":"tf","game":"Team Fortress","app_id":440,"player_count":24,"max_players":24,"Bots":0,"server_type":"Dedicated","server_os":"Linux","password":true,"vac":true,"version":"7932396","steam_id":85568392924469984,"keywords":["cp","nocrits","nodmgspread","uncletopia"],"game_id":440,"stv_port":27016,"stv_name":"Uncletopia | Chicago | 1 | All Maps | STV","players":[{"user_id":902,"name":"Dr. Blair Chao","steam_id":76561198146027518,"connected_time":2880000000000,"state":"active","ping":62},{"user_id":941,"name":"Squid","steam_id":76561198092753658,"connected_time":516000000000,"state":"active","ping":94},{"user_id":921,"name":"Yoshimelon","steam_id":76561198253054325,"connected_time":1689000000000,"state":"active","ping":61},{"user_id":923,"name":"Meh","steam_id":76561198078187920,"connected_time":1640000000000,"state":"active","ping":85},{"user_id":940,"name":"ttv/Gummyia (live!)","steam_id":76561198092419346,"connected_time":535000000000,"state":"active","ping":50},{"user_id":950,"name":"Cream","steam_id":76561198346432954,"connected_time":169000000000,"state":"active","ping":114},{"user_id":924,"name":"Zaza Merchant","steam_id":76561198189330642,"connected_time":1621000000000,"state":"active","ping":104},{"user_id":936,"name":"afatlazyturtle","steam_id":76561198044860535,"connected_time":919000000000,"state":"active","ping":71},{"user_id":896,"name":"Danmar33","steam_id":76561198056453091,"connected_time":3061000000000,"state":"active","ping":45},{"user_id":909,"name":"he munch","steam_id":76561198339644583,"connected_time":2551000000000,"state":"active","ping":60},{"user_id":918,"name":"rhys","steam_id":76561198273316381,"connected_time":1917000000000,"state":"active","ping":111},{"user_id":861,"name":"incredirocks","steam_id":76561198061079993,"connected_time":5940000000000,"state":"active","ping":50},{"user_id":942,"name":"Fibly","steam_id":76561198139522952,"connected_time":514000000000,"state":"active","ping":60},{"user_id":922,"name":"Ryan Lewis truther","steam_id":76561198050505826,"connected_time":1665000000000,"state":"active","ping":76},{"user_id":937,"name":"Cliffigriff","steam_id":76561198121924499,"connected_time":822000000000,"state":"active","ping":86},{"user_id":919,"name":"Zen","steam_id":76561198025194921,"connected_time":1896000000000,"state":"active","ping":59},{"user_id":943,"name":"breaking bad hammer sale","steam_id":76561198149100897,"connected_time":492000000000,"state":"active","ping":67},{"user_id":881,"name":"craZend","steam_id":76561198848063795,"connected_time":3965000000000,"state":"active","ping":70},{"user_id":935,"name":"ElKyle","steam_id":76561198071259339,"connected_time":929000000000,"state":"active","ping":112},{"user_id":894,"name":"The King of Piss World","steam_id":76561198082806956,"connected_time":3238000000000,"state":"active","ping":171},{"user_id":954,"name":"engibot","steam_id":76561198349716684,"connected_time":56000000000,"state":"active","ping":56},{"user_id":908,"name":"Jelqing Table","steam_id":76561198051373750,"connected_time":2608000000000,"state":"active","ping":71},{"user_id":932,"name":"PageBoiSkull","steam_id":76561198237353578,"connected_time":1189000000000,"state":"active","ping":109},{"user_id":939,"name":"l3fty","steam_id":76561198057788958,"connected_time":636000000000,"state":"active","ping":89}]},{"server_id":106,"name":"Uncletopia | Chicago | 2 | All Maps","name_short":"chi-2","host":"chi-1.us.uncletopia.com","port":27025,"enabled":true,"region":"us-central","cc":"us","latitude":41.881832,"longitude":-87.62318,"reserved":0,"last_update":"0001-01-01T00:00:00Z","name_a2s":"Uncletopia | Chicago | 2 | All Maps","protocol":17,"map":"pl_frontier_final","folder":"tf","game":"Team Fortress","app_id":440,"player_count":24,"max_players":24,"Bots":0,"server_type":"Dedicated","server_os":"Linux","password":true,"vac":true,"version":"7932396","steam_id":85568392924469985,"keywords":["nocrits","nodmgspread","payload","uncletopia"],"game_id":440,"stv_port":27026,"stv_name":"Uncletopia | Chicago | 2 | All Maps | STV","players":[{"user_id":936,"name":"Leeloo9","steam_id":76561198864126773,"connected_time":526000000000,"state":"active","ping":67},{"user_id":901,"name":"IanFishooks","steam_id":76561199403427527,"connected_time":3847000000000,"state":"active","ping":71},{"user_id":937,"name":"Tresthebest360","steam_id":76561198965347175,"connected_time":502000000000,"state":"active","ping":69},{"user_id":919,"name":"HOTA","steam_id":76561199002778841,"connected_time":2271000000000,"state":"active","ping":74},{"user_id":926,"name":"Jezzus","steam_id":76561199289676387,"connected_time":1566000000000,"state":"active","ping":87},{"user_id":918,"name":"Thomas Goblin-man Yorke","steam_id":76561197999658755,"connected_time":2334000000000,"state":"active","ping":54},{"user_id":846,"name":"ultralisk52","steam_id":76561198051666604,"connected_time":7286000000000,"state":"active","ping":59},{"user_id":922,"name":"Bern","steam_id":76561198294032289,"connected_time":1666000000000,"state":"active","ping":47},{"user_id":934,"name":"ShamShack","steam_id":76561198356291966,"connected_time":840000000000,"state":"active","ping":65},{"user_id":927,"name":"exa*‚ú©‚Äß‚ÇäÀö","steam_id":76561198044511912,"connected_time":1538000000000,"state":"active","ping":90},{"user_id":928,"name":"winter","steam_id":76561198126358045,"connected_time":1456000000000,"state":"active","ping":75},{"user_id":940,"name":"Lindes","steam_id":76561198132472867,"connected_time":379000000000,"state":"active","ping":43},{"user_id":889,"name":"Fig Newton","steam_id":76561198064255155,"connected_time":4503000000000,"state":"active","ping":63},{"user_id":930,"name":"Fostrel","steam_id":76561198152160601,"connected_time":1353000000000,"state":"active","ping":100},{"user_id":941,"name":"DJ-Whatchya #rEtiReD","steam_id":76561198060355298,"connected_time":258000000000,"state":"active","ping":85},{"user_id":914,"name":"Pie‚Ñ¢","steam_id":76561198158312625,"connected_time":2680000000000,"state":"active","ping":117},{"user_id":851,"name":"Lucide","steam_id":76561197998530400,"connected_time":7220000000000,"state":"active","ping":108},{"user_id":933,"name":"Robert Plant's Tight Pants","steam_id":76561198088634861,"connected_time":1257000000000,"state":"active","ping":103},{"user_id":929,"name":"MALWARE9000","steam_id":76561198065238093,"connected_time":1374000000000,"state":"active","ping":85},{"user_id":916,"name":"Boosie","steam_id":76561198992968144,"connected_time":2561000000000,"state":"active","ping":62},{"user_id":939,"name":"The A-Train","steam_id":76561199020601178,"connected_time":483000000000,"state":"active","ping":97},{"user_id":935,"name":"Dagoth Ur","steam_id":76561199007079402,"connected_time":734000000000,"state":"active","ping":59},{"user_id":931,"name":"Alan","steam_id":76561198977083959,"connected_time":1347000000000,"state":"active","ping":99},{"user_id":932,"name":"STILLZ","steam_id":76561198131892406,"connected_time":1334000000000,"state":"active","ping":84}]},{"server_id":402,"name":"Uncletopia | Chicago | 3 | All Maps","name_short":"chi-3","host":"chi-1.us.uncletopia.com","port":27035,"enabled":true,"region":"us-central","cc":"us","latitude":41.881832,"longitude":-87.62318,"reserved":0,"last_update":"0001-01-01T00:00:00Z","name_a2s":"Uncletopia | Chicago | 3 | All Maps","protocol":17,"map":"pl_pier","folder":"tf","game":"Team Fortress","app_id":440,"player_count":22,"max_players":24,"Bots":0,"server_type":"Dedicated","server_os":"Linux","password":true,"vac":true,"version":"7932396","steam_id":85568392924515191,"keywords":["nocrits","nodmgspread","payload","uncletopia"],"game_id":440,"stv_port":27036,"stv_name":"Uncletopia | Chicago | 3 | All Maps | STV","players":[{"user_id":487,"name":"Spud \u003c3","steam_id":76561198208657333,"connected_time":2594000000000,"state":"active","ping":50},{"user_id":523,"name":"Toyota MR2 SW20","steam_id":76561198014376640,"connected_time":405000000000,"state":"active","ping":83},{"user_id":526,"name":"KyleDaDumb","steam_id":76561198059843740,"connected_time":276000000000,"state":"active","ping":82},{"user_id":530,"name":"Bobby Ray","steam_id":76561198044131188,"connected_time":117000000000,"state":"active","ping":75},{"user_id":531,"name":"Hobo Joe","steam_id":76561197986838399,"connected_time":108000000000,"state":"active","ping":91},{"user_id":520,"name":"CashBin","steam_id":76561199382865598,"connected_time":1071000000000,"state":"active","ping":70},{"user_id":499,"name":"Mak","steam_id":76561198089197922,"connected_time":2127000000000,"state":"active","ping":109},{"user_id":527,"name":"Fargo","steam_id":76561198044703931,"connected_time":219000000000,"state":"active","ping":75},{"user_id":528,"name":"ZAZA","steam_id":76561198185063181,"connected_time":199000000000,"state":"active","ping":76},{"user_id":488,"name":"Trippy","steam_id":76561199090730294,"connected_time":2570000000000,"state":"active","ping":60},{"user_id":493,"name":"radiodadio","steam_id":76561198153239594,"connected_time":2207000000000,"state":"active","ping":61},{"user_id":532,"name":"sleepy catgirl","steam_id":76561198388123421,"connected_time":103000000000,"state":"active","ping":107},{"user_id":533,"name":"Menlymen","steam_id":76561198046508051,"connected_time":95000000000,"state":"active","ping":67},{"user_id":501,"name":"unc","steam_id":76561198136642793,"connected_time":2076000000000,"state":"active","ping":80},{"user_id":534,"name":"hotdogwater","steam_id":76561199091061860,"connected_time":62000000000,"state":"active","ping":81},{"user_id":521,"name":"V√†l","steam_id":76561198118751831,"connected_time":751000000000,"state":"active","ping":53},{"user_id":535,"name":"QuietCrimson","steam_id":76561198380518705,"connected_time":49000000000,"state":"active","ping":114},{"user_id":491,"name":"Kdash","steam_id":76561198043829155,"connected_time":2368000000000,"state":"active","ping":76},{"user_id":518,"name":"Playkon3kon","steam_id":76561198261543973,"connected_time":1251000000000,"state":"active","ping":68},{"user_id":505,"name":"IDC. UR MOM = LOOSE BOOTY THOT","steam_id":76561198144766439,"connected_time":2057000000000,"state":"active","ping":45},{"user_id":519,"name":"Midnight Drift","steam_id":76561198111296668,"connected_time":1248000000000,"state":"active","ping":91},{"user_id":506,"name":"aleksei","steam_id":76561199061380038,"connected_time":1993000000000,"state":"active","ping":73}]},{"server_id":403,"name":"Uncletopia | Chicago | 4 | All Maps","name_short":"chi-4","host":"chi-1.us.uncletopia.com","port":27045,"enabled":true,"region":"us-central","cc":"us","latitude":41.881832,"longitude":-87.62318,"reserved":0,"last_update":"0001-01-01T00:00:00Z","name_a2s":"Uncletopia | Chicago | 4 | All Maps","protocol":17,"map":"cp_process_final","folder":"tf","game":"Team Fortress","app_id":440,"player_count":21,"max_players":24,"Bots":0,"server_type":"Dedicated","server_os":"Linux","password":true,"vac":true,"version":"7932396","steam_id":85568392924515193,"keywords":["cp","nocrits","nodmgspread","uncletopia"],"game_id":440,"stv_port":27046,"stv_name":"Uncletopia | Chicago | 4 | All Maps | STV","players":[{"user_id":496,"name":"theconqueror","steam_id":76561199229806456,"connected_time":1773000000000,"state":"active","ping":63},{"user_id":488,"name":"Aldinach","steam_id":76561198079912615,"connected_time":3082000000000,"state":"active","ping":45},{"user_id":497,"name":"Janix","steam_id":76561198192700879,"connected_time":1740000000000,"state":"active","ping":96},{"user_id":493,"name":"reymundo","steam_id":76561197989412830,"connected_time":2395000000000,"state":"active","ping":115},{"user_id":498,"name":"moopmop","steam_id":76561198065224965,"connected_time":1728000000000,"state":"active","ping":90},{"user_id":504,"name":"1-800-GHOST-DANCE","steam_id":76561198835430429,"connected_time":1352000000000,"state":"active","ping":87},{"user_id":508,"name":"Groovy!","steam_id":76561198211858204,"connected_time":981000000000,"state":"active","ping":117},{"user_id":479,"name":"*","steam_id":76561198173047169,"connected_time":5375000000000,"state":"active","ping":52},{"user_id":438,"name":"Truffles","steam_id":76561198095868800,"connected_time":9041000000000,"state":"active","ping":81},{"user_id":462,"name":"Grand","steam_id":76561198290143399,"connected_time":7299000000000,"state":"active","ping":74},{"user_id":509,"name":"ùíÜùíóùíäùíçArnoldGamingÔæ†","steam_id":76561198040140247,"connected_time":859000000000,"state":"active","ping":89},{"user_id":502,"name":"kaputon","steam_id":76561198146299782,"connected_time":1539000000000,"state":"active","ping":58},{"user_id":464,"name":"captainspatklz","steam_id":76561198432167270,"connected_time":7169000000000,"state":"active","ping":72},{"user_id":503,"name":"deka","steam_id":76561198149826808,"connected_time":1450000000000,"state":"active","ping":76},{"user_id":511,"name":"YoursTruely","steam_id":76561198072129131,"connected_time":766000000000,"state":"active","ping":75},{"user_id":507,"name":"EvoSigma","steam_id":76561198043656891,"connected_time":1224000000000,"state":"active","ping":61},{"user_id":512,"name":"Zeke l","steam_id":76561198811359709,"connected_time":423000000000,"state":"active","ping":83},{"user_id":515,"name":"Mr. Fancy Tea","steam_id":76561198079210754,"connected_time":235000000000,"state":"active","ping":59},{"user_id":483,"name":"Fred Durst","steam_id":76561198415850476,"connected_time":5309000000000,"state":"active","ping":56},{"user_id":519,"name":"A Person","steam_id":76561198833818753,"connected_time":160000000000,"state":"active","ping":80},{"user_id":517,"name":"MajorGeneral","steam_id":76561198096725670,"connected_time":178000000000,"state":"active","ping":53}]},{"server_id":36,"name":"Uncletopia | Chicago | 5 | All Maps","name_short":"chi-5","host":"chi-2.us.uncletopia.com","port":27015,"enabled":true,"region":"us-central","cc":"us","latitude":41.881832,"longitude":-87.62318,"reserved":0,"last_update":"0001-01-01T00:00:00Z","name_a2s":"Uncletopia | Chicago | 5 | All Maps","protocol":17,"map":"koth_viaduct","folder":"tf","game":"Team Fortress","app_id":440,"player_count":16,"max_players":24,"Bots":0,"server_type":"Dedicated","server_os":"Linux","password":true,"vac":true,"version":"7932396","steam_id":85568392924866362,"keywords":["cp","nocrits","nodmgspread","uncletopia"],"game_id":440,"stv_port":27016,"stv_name":"Uncletopia | Chicago | 5 | All Maps | STV","players":[{"user_id":566,"name":"HikerDave's lil' budi","steam_id":76561198311156819,"connected_time":70000000000,"state":"active","ping":74},{"user_id":483,"name":"Anne Boonchuy","steam_id":76561198914114704,"connected_time":6017000000000,"state":"active","ping":98},{"user_id":479,"name":"AcousticMayo","steam_id":76561198041848354,"connected_time":6183000000000,"state":"active","ping":101},{"user_id":503,"name":"silverspark","steam_id":76561198277421732,"connected_time":4483000000000,"state":"active","ping":108},{"user_id":545,"name":"dark souls 1 is easy ur just ba","steam_id":76561198155403131,"connected_time":2379000000000,"state":"active","ping":73},{"user_id":558,"name":"Potato","steam_id":76561198115604238,"connected_time":1880000000000,"state":"connecting","ping":938},{"user_id":504,"name":"Dodo","steam_id":76561198136880364,"connected_time":4478000000000,"state":"active","ping":86},{"user_id":548,"name":"The Angel of Death","steam_id":76561198026079349,"connected_time":2212000000000,"state":"active","ping":107},{"user_id":505,"name":"Jose.Gonzalez.2007","steam_id":76561198125709363,"connected_time":4475000000000,"state":"active","ping":59},{"user_id":506,"name":"theredspycoo","steam_id":76561199417718007,"connected_time":4467000000000,"state":"active","ping":87},{"user_id":557,"name":"OnlyTheBest","steam_id":76561198116898098,"connected_time":1934000000000,"state":"active","ping":61},{"user_id":534,"name":"moonshine‚òÜ","steam_id":76561198148312296,"connected_time":3255000000000,"state":"active","ping":77},{"user_id":556,"name":"carne asada","steam_id":76561198108398751,"connected_time":2022000000000,"state":"active","ping":56},{"user_id":560,"name":"reis","steam_id":76561199232952016,"connected_time":1813000000000,"state":"active","ping":177},{"user_id":515,"name":"‚ú™ goofbears -iwnl-","steam_id":76561199100831175,"connected_time":4159000000000,"state":"active","ping":59},{"user_id":524,"name":"Bone Daddy","steam_id":76561198037836736,"connected_time":3737000000000,"state":"active","ping":86}]},{"server_id":37,"name":"Uncletopia | Chicago | 6 | All Maps","name_short":"chi-6","host":"chi-2.us.uncletopia.com","port":27025,"enabled":true,"region":"us-central","cc":"us","latitude":41.881832,"longitude":-87.62318,"reserved":0,"last_update":"0001-01-01T00:00:00Z","name_a2s":"Uncletopia | Chicago | 6 | All Maps","protocol":17,"map":"cp_dustbowl","folder":"tf","game":"Team Fortress","app_id":440,"player_count":12,"max_players":24,"Bots":0,"server_type":"Dedicated","server_os":"Linux","password":true,"vac":true,"version":"7932396","steam_id":85568392924866363,"keywords":["cp","nocrits","nodmgspread","uncletopia"],"game_id":440,"stv_port":27026,"stv_name":"Uncletopia | Chicago | 6 | All Maps | STV","players":[{"user_id":619,"name":"you","steam_id":76561199472644525,"connected_time":250000000000,"state":"active","ping":161},{"user_id":529,"name":"Vladikr1","steam_id":76561198401495362,"connected_time":10891000000000,"state":"active","ping":57},{"user_id":570,"name":"AnonymousCritter","steam_id":76561198864475187,"connected_time":5471000000000,"state":"active","ping":47},{"user_id":564,"name":"C Papi","steam_id":76561198027779564,"connected_time":6991000000000,"state":"active","ping":58},{"user_id":618,"name":"Malevolo Cucaracho","steam_id":76561198055822497,"connected_time":518000000000,"state":"active","ping":130},{"user_id":605,"name":"Vzl√¶d","steam_id":76561198044192839,"connected_time":2920000000000,"state":"active","ping":59},{"user_id":607,"name":"Doorhinge","steam_id":76561198872501684,"connected_time":2832000000000,"state":"active","ping":113},{"user_id":547,"name":"Help","steam_id":76561198316494223,"connected_time":9282000000000,"state":"active","ping":91},{"user_id":386,"name":"daemon","steam_id":76561198001541433,"connected_time":22113000000000,"state":"active","ping":60},{"user_id":593,"name":"Techo","steam_id":76561199169405285,"connected_time":3445000000000,"state":"active","ping":99},{"user_id":585,"name":"jimmycricket","steam_id":76561199232877274,"connected_time":4048000000000,"state":"active","ping":77},{"user_id":569,"name":"DarkHero","steam_id":76561198197125710,"connected_time":5518000000000,"state":"active","ping":59}]},{"server_id":38,"name":"Uncletopia | Chicago | 7 | Stopwatch Beta","name_short":"chi-7","host":"chi-2.us.uncletopia.com","port":27035,"enabled":true,"region":"us-central","cc":"us","latitude":41.881832,"longitude":-87.62318,"reserved":0,"last_update":"0001-01-01T00:00:00Z","name_a2s":"Uncletopia | Chicago | 7 | Stopwatch Beta","protocol":17,"map":"pl_borneo","folder":"tf","game":"Team Fortress","app_id":440,"player_count":0,"max_players":24,"Bots":0,"server_type":"Dedicated","server_os":"Linux","password":true,"vac":true,"version":"7932396","steam_id":85568392924866364,"keywords":["nocrits","nodmgspread","payload","uncletopia"],"game_id":440,"stv_port":27036,"stv_name":"Uncletopia | Chicago | 7 | Stopwatch Beta | STV","players":null},{"server_id":39,"name":"Uncletopia | Chicago | 8 | Community","name_short":"chi-8","host":"chi-2.us.uncletopia.com","port":27045,"enabled":true,"region":"us-central","cc":"us","latitude":41.881832,"longitude":-87.62318,"reserved":0,"last_update":"0001-01-01T00:00:00Z","name_a2s":"Uncletopia | Chicago | 8 | Community","protocol":17,"map":"workshop/pl_vigil_rc9.ugc1266210012","folder":"tf","game":"Team Fortress","app_id":440,"player_count":0,"max_players":24,"Bots":0,"server_type":"Dedicated","server_os":"Linux","password":true,"vac":true,"version":"7932396","steam_id":85568392924866365,"keywords":["nocrits","nodmgspread","payload","uncletopia"],"game_id":440,"stv_port":27046,"stv_name":"Uncletopia | Chicago | 8 | Community | STV","players":null},{"server_id":8,"name":"Uncletopia | Dallas | 1 | All Maps","name_short":"dal-1","host":"dal-1.us.uncletopia.com","port":27015,"enabled":true,"region":"us-central","cc":"us","latitude":32.779167,"longitude":-96.80889,"reserved":0,"last_update":"0001-01-01T00:00:00Z","name_a2s":"Uncletopia | Dallas | 1 | All Maps","protocol":17,"map":"ctf_doublecross","folder":"tf","game":"Team Fortress","app_id":440,"player_count":24,"max_players":24,"Bots":0,"server_type":"Dedicated","server_os":"Linux","password":true,"vac":true,"version":"7932396","steam_id":85568392924469986,"keywords":["ctf","nocrits","nodmgspread","uncletopia"],"game_id":440,"stv_port":27016,"stv_name":"Uncletopia | Dallas | 1 | All Maps | STV","players":[{"user_id":554,"name":"iaPK","steam_id":76561198056618642,"connected_time":2628000000000,"state":"active","ping":46},{"user_id":543,"name":"IZISOO","steam_id":76561198970380577,"connected_time":3350000000000,"state":"active","ping":70},{"user_id":570,"name":"Reaper","steam_id":76561198435826103,"connected_time":723000000000,"state":"active","ping":74},{"user_id":542,"name":"cringeass nae-nae girl","steam_id":76561198108753857,"connected_time":3424000000000,"state":"active","ping":84},{"user_id":562,"name":"cypherzero","steam_id":76561199182960322,"connected_time":1167000000000,"state":"active","ping":53},{"user_id":546,"name":"the private","steam_id":76561198232500756,"connected_time":3061000000000,"state":"active","ping":59},{"user_id":563,"name":"Spenjo59","steam_id":76561198082358486,"connected_time":1121000000000,"state":"active","ping":64},{"user_id":564,"name":"Nebe0","steam_id":76561199133770186,"connected_time":1009000000000,"state":"active","ping":100},{"user_id":585,"name":"Moss Giant","steam_id":76561198062535902,"connected_time":90000000000,"state":"active","ping":75},{"user_id":559,"name":"Snoopy","steam_id":76561198273735974,"connected_time":1447000000000,"state":"active","ping":77},{"user_id":581,"name":"Rusted Cake","steam_id":76561198209755931,"connected_time":292000000000,"state":"active","ping":91},{"user_id":566,"name":"MithStyck","steam_id":76561198071538489,"connected_time":804000000000,"state":"active","ping":43},{"user_id":540,"name":"TechnoBear2099","steam_id":76561198238863596,"connected_time":3451000000000,"state":"active","ping":46},{"user_id":560,"name":"BADWOLF42","steam_id":76561198055447523,"connected_time":1369000000000,"state":"active","ping":48},{"user_id":584,"name":"Jebby","steam_id":76561198300150276,"connected_time":196000000000,"state":"active","ping":117},{"user_id":545,"name":"damiankiller1243","steam_id":76561198868885090,"connected_time":3079000000000,"state":"active","ping":74},{"user_id":571,"name":"Tommy Provolone","steam_id":76561198170062377,"connected_time":710000000000,"state":"active","ping":68},{"user_id":575,"name":"Walfools","steam_id":76561198798909928,"connected_time":576000000000,"state":"active","ping":77},{"user_id":576,"name":"baby","steam_id":76561198401942740,"connected_time":561000000000,"state":"active","ping":79},{"user_id":580,"name":"fernando","steam_id":76561198142586591,"connected_time":359000000000,"state":"active","ping":69},{"user_id":582,"name":"Peter","steam_id":76561198065796300,"connected_time":277000000000,"state":"active","ping":96},{"user_id":491,"name":"Motreir","steam_id":76561198151717946,"connected_time":5098000000000,"state":"active","ping":88},{"user_id":586,"name":"Quietsharp","steam_id":76561198277968438,"connected_time":89000000000,"state":"active","ping":83},{"user_id":587,"name":"XERXES","steam_id":76561198119639635,"connected_time":76000000000,"state":"active","ping":75}]},{"server_id":108,"name":"Uncletopia | Dallas | 2 | All Maps","name_short":"dal-2","host":"dal-1.us.uncletopia.com","port":27025,"enabled":true,"region":"us-central","cc":"us","latitude":32.779167,"longitude":-96.80889,"reserved":0,"last_update":"0001-01-01T00:00:00Z","name_a2s":"Uncletopia | Dallas | 2 | All Maps","protocol":17,"map":"pl_thundermountain","folder":"tf","game":"Team Fortress","app_id":440,"player_count":17,"max_players":24,"Bots":0,"server_type":"Dedicated","server_os":"Linux","password":true,"vac":true,"version":"7932396","steam_id":85568392924469988,"keywords":["nocrits","nodmgspread","payload","uncletopia"],"game_id":440,"stv_port":27026,"stv_name":"Uncletopia | Dallas | 2 | All Maps | STV","players":[{"user_id":322,"name":"cat9","steam_id":76561198353456379,"connected_time":2006000000000,"state":"active","ping":61},{"user_id":346,"name":"Khaiden","steam_id":76561198104454754,"connected_time":100000000000,"state":"active","ping":178},{"user_id":199,"name":"aisu","steam_id":76561198043768507,"connected_time":14899000000000,"state":"active","ping":76},{"user_id":325,"name":"A Shiny Meat Bicycle","steam_id":76561198358757709,"connected_time":1925000000000,"state":"active","ping":85},{"user_id":296,"name":"JimPlatinum","steam_id":76561198950714198,"connected_time":4797000000000,"state":"active","ping":64},{"user_id":300,"name":"lucasgamer4life","steam_id":76561198129816242,"connected_time":3677000000000,"state":"active","ping":89},{"user_id":339,"name":"2002 Toyota Corolla VE","steam_id":76561198149172070,"connected_time":807000000000,"state":"active","ping":37},{"user_id":257,"name":"HAT-WEARING‚Ñ¢ Maggot Gamer Cat","steam_id":76561197973992705,"connected_time":10638000000000,"state":"active","ping":93},{"user_id":315,"name":"Pancho","steam_id":76561198155847264,"connected_time":2808000000000,"state":"active","ping":55},{"user_id":343,"name":"peebs","steam_id":76561198261319753,"connected_time":678000000000,"state":"active","ping":45},{"user_id":323,"name":"GreekGoat_Coffee","steam_id":76561198129331088,"connected_time":1961000000000,"state":"active","ping":69},{"user_id":293,"name":"SleeplessCollin","steam_id":76561198968140914,"connected_time":5401000000000,"state":"active","ping":62},{"user_id":329,"name":"Swiifty","steam_id":76561198148262643,"connected_time":1751000000000,"state":"active","ping":86},{"user_id":331,"name":"TransWomanGaming","steam_id":76561198809645656,"connected_time":1699000000000,"state":"active","ping":72},{"user_id":345,"name":"AKK0","steam_id":76561199063194145,"connected_time":500000000000,"state":"active","ping":72},{"user_id":332,"name":"‚òÇBliffenstimmers‚òÇ","steam_id":76561198059984896,"connected_time":1698000000000,"state":"active","ping":60},{"user_id":310,"name":"!! NOT A FLYING TOY !!","steam_id":76561198069735882,"connected_time":3359000000000,"state":"active","ping":72}]},{"server_id":5,"name":"Uncletopia | Frankfurt | 1 | All Maps","name_short":"frk-1","host":"frk-1.de.uncletopia.com","port":27015,"enabled":true,"region":"eu","cc":"de","latitude":50.110924,"longitude":8.682127,"reserved":0,"last_update":"0001-01-01T00:00:00Z","name_a2s":"Uncletopia | Frankfurt | 1 | All Maps","protocol":17,"map":"pl_badwater","folder":"tf","game":"Team Fortress","app_id":440,"player_count":0,"max_players":24,"Bots":0,"server_type":"Dedicated","server_os":"Linux","password":true,"vac":true,"version":"7932396","steam_id":85568392924469989,"keywords":["nocrits","nodmgspread","payload","uncletopia"],"game_id":440,"stv_port":27016,"stv_name":"Uncletopia | Frankfurt | 1 | All Maps | STV","players":null},{"server_id":110,"name":"Uncletopia | Frankfurt | 2 | All Maps","name_short":"frk-2","host":"frk-1.de.uncletopia.com","port":27025,"enabled":true,"region":"eu","cc":"de","latitude":50.110924,"longitude":8.682127,"reserved":0,"last_update":"0001-01-01T00:00:00Z","name_a2s":"Uncletopia | Frankfurt | 2 | All Maps","protocol":17,"map":"pl_borneo","folder":"tf","game":"Team Fortress","app_id":440,"player_count":1,"max_players":24,"Bots":0,"server_type":"Dedicated","server_os":"Linux","password":true,"vac":true,"version":"7932396","steam_id":85568392924469990,"keywords":["nocrits","nodmgspread","payload","uncletopia"],"game_id":440,"stv_port":27026,"stv_name":"Uncletopia | Frankfurt | 2 | All Maps | STV","players":[{"user_id":4,"name":"Truegr","steam_id":76561198811912339,"connected_time":312000000000,"state":"active","ping":66}]},{"server_id":308,"name":"Uncletopia | Frankfurt | 3 | All Maps","name_short":"frk-3","host":"frk-1.de.uncletopia.com","port":27035,"enabled":true,"region":"eu","cc":"de","latitude":50.110924,"longitude":8.682127,"reserved":0,"last_update":"0001-01-01T00:00:00Z","name_a2s":"Uncletopia | Frankfurt | 3 | All Maps","protocol":17,"map":"pl_badwater","folder":"tf","game":"Team Fortress","app_id":440,"player_count":0,"max_players":24,"Bots":0,"server_type":"Dedicated","server_os":"Linux","password":true,"vac":true,"version":"7932396","steam_id":85568392924504274,"keywords":["nocrits","nodmgspread","payload","uncletopia"],"game_id":440,"stv_port":27036,"stv_name":"Uncletopia | Frankfurt | 3 | All Maps | STV","players":null},{"server_id":309,"name":"Uncletopia | Frankfurt | 4 | All Maps","name_short":"frk-4","host":"frk-1.de.uncletopia.com","port":27045,"enabled":true,"region":"eu","cc":"de","latitude":50.110924,"longitude":8.682127,"reserved":0,"last_update":"0001-01-01T00:00:00Z","name_a2s":"Uncletopia | Frankfurt | 4 | All Maps","protocol":17,"map":"pl_upward","folder":"tf","game":"Team Fortress","app_id":440,"player_count":0,"max_players":24,"Bots":0,"server_type":"Dedicated","server_os":"Linux","password":true,"vac":true,"version":"7932396","steam_id":85568392924504275,"keywords":["nocrits","nodmgspread","payload","uncletopia"],"game_id":440,"stv_port":27046,"stv_name":"Uncletopia | Frankfurt | 4 | All Maps | STV","players":null},{"server_id":310,"name":"Uncletopia | Frankfurt | 5 | All Maps","name_short":"frk-5","host":"frk-1.de.uncletopia.com","port":27055,"enabled":true,"region":"eu","cc":"de","latitude":50.110924,"longitude":8.682127,"reserved":0,"last_update":"0001-01-01T00:00:00Z","name_a2s":"Uncletopia | Frankfurt | 5 | All Maps","protocol":17,"map":"pl_badwater","folder":"tf","game":"Team Fortress","app_id":440,"player_count":0,"max_players":24,"Bots":0,"server_type":"Dedicated","server_os":"Linux","password":true,"vac":true,"version":"7932396","steam_id":85568392924504277,"keywords":["nocrits","nodmgspread","payload","uncletopia"],"game_id":440,"stv_port":27056,"stv_name":"Uncletopia | Frankfurt | 5 | All Maps | STV","players":null},{"server_id":311,"name":"Uncletopia | Frankfurt | 6 | All Maps","name_short":"frk-6","host":"frk-1.de.uncletopia.com","port":27065,"enabled":true,"region":"eu","cc":"de","latitude":50.110924,"longitude":8.682127,"reserved":0,"last_update":"0001-01-01T00:00:00Z","name_a2s":"Uncletopia | Frankfurt | 6 | All Maps","protocol":17,"map":"koth_viaduct","folder":"tf","game":"Team Fortress","app_id":440,"player_count":0,"max_players":24,"Bots":0,"server_type":"Dedicated","server_os":"Linux","password":true,"vac":true,"version":"7932396","steam_id":85568392924504278,"keywords":["cp","nocrits","nodmgspread","uncletopia"],"game_id":440,"stv_port":27066,"stv_name":"Uncletopia | Frankfurt | 6 | All Maps | STV","players":null},{"server_id":23,"name":"Uncletopia | Frankfurt | 7 | Stopwatch Beta","name_short":"frk-7","host":"frk-1.de.uncletopia.com","port":27075,"enabled":true,"region":"eu","cc":"de","latitude":50.110924,"longitude":8.682127,"reserved":0,"last_update":"0001-01-01T00:00:00Z","name_a2s":"Uncletopia | Frankfurt | 7 | Stopwatch Beta","protocol":17,"map":"pl_snowycoast","folder":"tf","game":"Team Fortress","app_id":440,"player_count":0,"max_players":24,"Bots":0,"server_type":"Dedicated","server_os":"Linux","password":true,"vac":true,"version":"7932396","steam_id":85568392924742827,"keywords":["nocrits","nodmgspread","payload","uncletopia"],"game_id":440,"stv_port":27076,"stv_name":"Uncletopia | Frankfurt | 7 | Stopwatch Beta | STV","players":null},{"server_id":24,"name":"Uncletopia | Frankfurt | 8 | Community","name_short":"frk-8","host":"frk-1.de.uncletopia.com","port":27085,"enabled":true,"region":"eu","cc":"de","latitude":50.110924,"longitude":8.682127,"reserved":0,"last_update":"0001-01-01T00:00:00Z","name_a2s":"Uncletopia | Frankfurt | 8 | Community","protocol":17,"map":"pl_barnblitz","folder":"tf","game":"Team Fortress","app_id":440,"player_count":0,"max_players":24,"Bots":0,"server_type":"Dedicated","server_os":"Linux","password":true,"vac":true,"version":"7932396","steam_id":85568392924742828,"keywords":["nocrits","nodmgspread","payload","uncletopia"],"game_id":440,"stv_port":27086,"stv_name":"Uncletopia | Frankfurt | 8 | Community | STV","players":null},{"server_id":202,"name":"Uncletopia | Hong Kong | 1 | All Maps","name_short":"hgk-1","host":"hgk-1.hk.uncletopia.com","port":27015,"enabled":true,"region":"asia","cc":"hk","latitude":22.302711,"longitude":114.177216,"reserved":0,"last_update":"0001-01-01T00:00:00Z","name_a2s":"Uncletopia | Hong Kong | 1 | All Maps","protocol":17,"map":"pl_pier","folder":"tf","game":"Team Fortress","app_id":440,"player_count":24,"max_players":24,"Bots":0,"server_type":"Dedicated","server_os":"Linux","password":true,"vac":true,"version":"7932396","steam_id":85568392924494504,"keywords":["nocrits","nodmgspread","payload","uncletopia"],"game_id":440,"stv_port":27016,"stv_name":"Uncletopia | Hong Kong | 1 | All Maps | STV","players":[{"user_id":105,"name":"Shibe009 (F2P)","steam_id":76561199118649916,"connected_time":490000000000,"state":"active","ping":172},{"user_id":101,"name":"Green","steam_id":76561198391718463,"connected_time":966000000000,"state":"active","ping":59},{"user_id":86,"name":"STAR 15(MOD3)","steam_id":76561198859316385,"connected_time":2798000000000,"state":"active","ping":123},{"user_id":24,"name":"MS PowerPoint","steam_id":76561198369523192,"connected_time":7442000000000,"state":"active","ping":65},{"user_id":100,"name":"Samoyed","steam_id":76561198299150410,"connected_time":972000000000,"state":"active","ping":74},{"user_id":26,"name":"KUZCO","steam_id":76561198115298835,"connected_time":7067000000000,"state":"active","ping":71},{"user_id":93,"name":"brizzard","steam_id":76561198048438653,"connected_time":1444000000000,"state":"active","ping":52},{"user_id":73,"name":"Lu","steam_id":76561198320532821,"connected_time":3933000000000,"state":"active","ping":59},{"user_id":54,"name":"17","steam_id":76561198241530712,"connected_time":5605000000000,"state":"active","ping":60},{"user_id":45,"name":"qb_r","steam_id":76561198412329672,"connected_time":6313000000000,"state":"active","ping":99},{"user_id":109,"name":"Milf (The fan O'Milk)","steam_id":76561198213031155,"connected_time":187000000000,"state":"active","ping":95},{"user_id":84,"name":"Not_An_Otaku","steam_id":76561198305884432,"connected_time":2812000000000,"state":"active","ping":86},{"user_id":37,"name":"hotgamerth","steam_id":76561199026418153,"connected_time":6676000000000,"state":"active","ping":94},{"user_id":98,"name":"screaming sniper","steam_id":76561199085568674,"connected_time":977000000000,"state":"active","ping":80},{"user_id":38,"name":"Dokutah, Husband of W","steam_id":76561199273390091,"connected_time":6667000000000,"state":"active","ping":58},{"user_id":107,"name":"TomProPlayer","steam_id":76561199223292521,"connected_time":200000000000,"state":"active","ping":76},{"user_id":87,"name":"spinach (old mouse)","steam_id":76561198042539541,"connected_time":2784000000000,"state":"active","ping":76},{"user_id":67,"name":"SICSIN","steam_id":76561198083923462,"connected_time":4516000000000,"state":"active","ping":75},{"user_id":99,"name":"Beef Wellington","steam_id":76561197995635241,"connected_time":977000000000,"state":"active","ping":123},{"user_id":77,"name":"Med","steam_id":76561199087727164,"connected_time":3733000000000,"state":"active","ping":93},{"user_id":85,"name":"H·∫±ng Ra ƒë∆°","steam_id":76561199373637717,"connected_time":2809000000000,"state":"active","ping":72},{"user_id":50,"name":"Kaguya-Sama","steam_id":76561199020222424,"connected_time":5982000000000,"state":"active","ping":121},{"user_id":82,"name":"stupendous sycophant","steam_id":76561198055553140,"connected_time":3269000000000,"state":"active","ping":82},{"user_id":89,"name":"booty cheeks xd","steam_id":76561198324008555,"connected_time":2496000000000,"state":"active","ping":56}]},{"server_id":1,"name":"Uncletopia | Los Angeles | 1 | All Maps","name_short":"lax-1","host":"lax-1.us.uncletopia.com","port":27015,"enabled":true,"region":"us-west","cc":"us","latitude":33.94279,"longitude":-118.41004,"reserved":0,"last_update":"0001-01-01T00:00:00Z","name_a2s":"Uncletopia | Los Angeles | 1 | All Maps","protocol":17,"map":"cp_dustbowl","folder":"tf","game":"Team Fortress","app_id":440,"player_count":23,"max_players":24,"Bots":0,"server_type":"Dedicated","server_os":"Linux","password":true,"vac":true,"version":"7932396","steam_id":85568392924469991,"keywords":["cp","nocrits","nodmgspread","uncletopia"],"game_id":440,"stv_port":27016,"stv_name":"Uncletopia | Los Angeles | 1 | All Maps | STV","players":[{"user_id":386,"name":"TwinkGaming(Jerma)","steam_id":76561197972835907,"connected_time":1565000000000,"state":"active","ping":72},{"user_id":365,"name":"a chicken","steam_id":76561198313121580,"connected_time":4439000000000,"state":"active","ping":45},{"user_id":369,"name":"Goth Spy Boyfriend","steam_id":76561198104086771,"connected_time":3841000000000,"state":"active","ping":45},{"user_id":377,"name":"HeroOfTime","steam_id":76561199096218001,"connected_time":3408000000000,"state":"active","ping":57},{"user_id":379,"name":"Shazzy","steam_id":76561198145460523,"connected_time":3212000000000,"state":"active","ping":62},{"user_id":389,"name":"banjobun #savelight_env","steam_id":76561198116814525,"connected_time":1231000000000,"state":"active","ping":75},{"user_id":347,"name":"Feel the bern","steam_id":76561198078824519,"connected_time":5386000000000,"state":"active","ping":43},{"user_id":330,"name":"Hindmost","steam_id":76561199081837220,"connected_time":6598000000000,"state":"active","ping":95},{"user_id":390,"name":"Based Jvnko Fan","steam_id":76561198355290984,"connected_time":664000000000,"state":"active","ping":76},{"user_id":382,"name":"DarkMewMew","steam_id":76561199471715552,"connected_time":1987000000000,"state":"active","ping":70},{"user_id":328,"name":"flo rida","steam_id":76561198226169704,"connected_time":6670000000000,"state":"active","ping":51},{"user_id":391,"name":"werolat","steam_id":76561197960544784,"connected_time":509000000000,"state":"active","ping":68},{"user_id":349,"name":"ejschild745","steam_id":76561199013388867,"connected_time":5357000000000,"state":"active","ping":107},{"user_id":385,"name":"DesertFroggo","steam_id":76561198015607829,"connected_time":1719000000000,"state":"active","ping":125},{"user_id":374,"name":"xbox record that","steam_id":76561198150117455,"connected_time":3677000000000,"state":"active","ping":55},{"user_id":280,"name":"vioxynteris","steam_id":76561198161428666,"connected_time":9629000000000,"state":"active","ping":31},{"user_id":371,"name":"Mr8bittripper","steam_id":76561198133894229,"connected_time":3710000000000,"state":"active","ping":82},{"user_id":383,"name":"WaveSmash","steam_id":76561198208785485,"connected_time":1911000000000,"state":"active","ping":79},{"user_id":384,"name":"Nyx","steam_id":76561198100929724,"connected_time":1862000000000,"state":"active","ping":72},{"user_id":373,"name":"Hawksgamer","steam_id":76561198152405941,"connected_time":3694000000000,"state":"active","ping":78},{"user_id":388,"name":"That wasn't milk","steam_id":76561198155294045,"connected_time":1518000000000,"state":"active","ping":94},{"user_id":355,"name":"sweaterfan","steam_id":76561199389567214,"connected_time":5064000000000,"state":"active","ping":95},{"user_id":356,"name":"scamchez","steam_id":76561198447562701,"connected_time":5053000000000,"state":"active","ping":60}]},{"server_id":112,"name":"Uncletopia | Los Angeles | 2 | All Maps","name_short":"lax-2","host":"lax-1.us.uncletopia.com","port":27025,"enabled":true,"region":"us-west","cc":"us","latitude":33.94279,"longitude":-118.41004,"reserved":0,"last_update":"0001-01-01T00:00:00Z","name_a2s":"Uncletopia | Los Angeles | 2 | All Maps","protocol":17,"map":"pl_frontier_final","folder":"tf","game":"Team Fortress","app_id":440,"player_count":24,"max_players":24,"Bots":0,"server_type":"Dedicated","server_os":"Linux","password":true,"vac":true,"version":"7932396","steam_id":85568392924469992,"keywords":["nocrits","nodmgspread","payload","uncletopia"],"game_id":440,"stv_port":27026,"stv_name":"Uncletopia | Los Angeles | 2 | All Maps | STV","players":[{"user_id":510,"name":"mrthugpug1732","steam_id":76561198881200768,"connected_time":1196000000000,"state":"active","ping":47},{"user_id":512,"name":"bcizzo","steam_id":76561197994399953,"connected_time":1043000000000,"state":"active","ping":63},{"user_id":506,"name":"cream team","steam_id":76561198139043953,"connected_time":1456000000000,"state":"active","ping":78},{"user_id":481,"name":"Tacobell","steam_id":76561197963619134,"connected_time":3340000000000,"state":"active","ping":62},{"user_id":423,"name":"dairy delinquent","steam_id":76561198971552734,"connected_time":8074000000000,"state":"active","ping":44},{"user_id":493,"name":"Plateinator","steam_id":76561198831547217,"connected_time":2723000000000,"state":"active","ping":50},{"user_id":494,"name":"HooDoo","steam_id":76561198088994018,"connected_time":2614000000000,"state":"active","ping":78},{"user_id":498,"name":"Big Blue","steam_id":76561198084930108,"connected_time":1917000000000,"state":"active","ping":77},{"user_id":513,"name":"Mustachacre","steam_id":76561198056309992,"connected_time":1014000000000,"state":"active","ping":62},{"user_id":421,"name":"perc 10","steam_id":76561198116471653,"connected_time":8096000000000,"state":"active","ping":58},{"user_id":507,"name":"webbah troutsupply.net","steam_id":76561198170939290,"connected_time":1443000000000,"state":"active","ping":102},{"user_id":480,"name":"shitass | troutsupply.net","steam_id":76561198210572481,"connected_time":3355000000000,"state":"active","ping":44},{"user_id":524,"name":"allahsdroptop","steam_id":76561198133195238,"connected_time":429000000000,"state":"active","ping":68},{"user_id":526,"name":"coolbro55","steam_id":76561198137489572,"connected_time":100000000000,"state":"active","ping":54},{"user_id":514,"name":"thumb","steam_id":76561198353762582,"connected_time":1005000000000,"state":"active","ping":69},{"user_id":424,"name":"beeble!","steam_id":76561198219538525,"connected_time":8069000000000,"state":"active","ping":88},{"user_id":482,"name":"doro","steam_id":76561198099041747,"connected_time":3328000000000,"state":"active","ping":45},{"user_id":523,"name":"nat","steam_id":76561198179923093,"connected_time":689000000000,"state":"active","ping":46},{"user_id":527,"name":"[SDVG] Clear Shenanigans","steam_id":76561198053702025,"connected_time":52000000000,"state":"active","ping":54},{"user_id":516,"name":"Bot Maxwell","steam_id":76561198040781615,"connected_time":984000000000,"state":"active","ping":60},{"user_id":522,"name":"An Alien Mango","steam_id":76561198864823970,"connected_time":771000000000,"state":"active","ping":92},{"user_id":528,"name":"Fernando","steam_id":76561198443038047,"connected_time":18000000000,"state":"active","ping":47},{"user_id":519,"name":"A Gmod Virgin","steam_id":76561198420637458,"connected_time":928000000000,"state":"active","ping":57},{"user_id":525,"name":"smough","steam_id":76561198988333996,"connected_time":124000000000,"state":"active","ping":313}]},{"server_id":324,"name":"Uncletopia | Los Angeles | 3 | All Maps","name_short":"lax-3","host":"lax-1.us.uncletopia.com","port":27035,"enabled":true,"region":"us-west","cc":"us","latitude":33.94279,"longitude":-118.41004,"reserved":0,"last_update":"0001-01-01T00:00:00Z","name_a2s":"Uncletopia | Los Angeles | 3 | All Maps","protocol":17,"map":"pl_borneo","folder":"tf","game":"Team Fortress","app_id":440,"player_count":24,"max_players":24,"Bots":0,"server_type":"Dedicated","server_os":"Linux","password":true,"vac":true,"version":"7932396","steam_id":85568392924510198,"keywords":["nocrits","nodmgspread","payload","uncletopia"],"game_id":440,"stv_port":27036,"stv_name":"Uncletopia | Los Angeles | 3 | All Maps | STV","players":[{"user_id":443,"name":"Starkiller","steam_id":76561198101643120,"connected_time":4673000000000,"state":"active","ping":68},{"user_id":498,"name":"Nickmigole","steam_id":76561198149329592,"connected_time":1927000000000,"state":"active","ping":53},{"user_id":507,"name":"Taco","steam_id":76561198158621392,"connected_time":493000000000,"state":"active","ping":122},{"user_id":501,"name":"Lumen*`","steam_id":76561197985372319,"connected_time":1292000000000,"state":"active","ping":106},{"user_id":508,"name":"Pancake","steam_id":76561198057888197,"connected_time":491000000000,"state":"active","ping":111},{"user_id":487,"name":"Yoozer","steam_id":76561198420257694,"connected_time":3055000000000,"state":"active","ping":49},{"user_id":512,"name":"nella","steam_id":76561198079349621,"connected_time":369000000000,"state":"active","ping":49},{"user_id":506,"name":"feel the bean","steam_id":76561198858328080,"connected_time":563000000000,"state":"active","ping":43},{"user_id":509,"name":"Ink","steam_id":76561198328781175,"connected_time":405000000000,"state":"active","ping":61},{"user_id":485,"name":"Schnitz","steam_id":76561198265484253,"connected_time":3221000000000,"state":"active","ping":58},{"user_id":492,"name":"I'm Playing Yu-Gi-Oh Master Due","steam_id":76561198070800159,"connected_time":2635000000000,"state":"active","ping":59},{"user_id":395,"name":"taunt kill warrior","steam_id":76561198072515851,"connected_time":8532000000000,"state":"active","ping":52},{"user_id":505,"name":"Bonkers","steam_id":76561198161835788,"connected_time":565000000000,"state":"active","ping":76},{"user_id":426,"name":"Mr. Carfox","steam_id":76561198041664428,"connected_time":5994000000000,"state":"active","ping":60},{"user_id":397,"name":"Red","steam_id":76561198009772689,"connected_time":8409000000000,"state":"active","ping":105},{"user_id":510,"name":"Funky Kong Jr.","steam_id":76561199351137762,"connected_time":399000000000,"state":"active","ping":86},{"user_id":483,"name":"lasagnalarry12","steam_id":76561198162688146,"connected_time":3267000000000,"state":"active","ping":55},{"user_id":438,"name":"Catherine","steam_id":76561198125233120,"connected_time":5135000000000,"state":"active","ping":58},{"user_id":511,"name":"zoiboi","steam_id":76561198069598590,"connected_time":397000000000,"state":"active","ping":51},{"user_id":486,"name":"SODA!!!!!!!!","steam_id":76561198837570484,"connected_time":3215000000000,"state":"active","ping":52},{"user_id":391,"name":"Phaze","steam_id":76561198025267071,"connected_time":8731000000000,"state":"active","ping":77},{"user_id":462,"name":"‚ô†Silver‚ô†","steam_id":76561198206109224,"connected_time":3710000000000,"state":"active","ping":109},{"user_id":499,"name":"Clornk (Destroyer of Happiness)","steam_id":76561198360396485,"connected_time":1916000000000,"state":"active","ping":70},{"user_id":513,"name":"Snooter","steam_id":76561198042435225,"connected_time":345000000000,"state":"active","ping":67}]},{"server_id":25,"name":"Uncletopia | Los Angeles | 4 | Stopwatch Beta","name_short":"lax-4","host":"lax-1.us.uncletopia.com","port":27045,"enabled":true,"region":"us-west","cc":"us","latitude":33.94279,"longitude":-118.41004,"reserved":0,"last_update":"0001-01-01T00:00:00Z","name_a2s":"Uncletopia | Los Angeles | 4 | Stopwatch Beta","protocol":17,"map":"cp_snakewater_final1","folder":"tf","game":"Team Fortress","app_id":440,"player_count":21,"max_players":24,"Bots":0,"server_type":"Dedicated","server_os":"Linux","password":true,"vac":true,"version":"7932396","steam_id":85568392924510199,"keywords":["cp","nocrits","nodmgspread","uncletopia"],"game_id":440,"stv_port":27046,"stv_name":"Uncletopia | Los Angeles | 4 | Stopwatch Beta | STV","players":[{"user_id":179,"name":"Mr. Comrade","steam_id":76561198155667562,"connected_time":2006000000000,"state":"active","ping":60},{"user_id":180,"name":"Scorpion","steam_id":76561198325651066,"connected_time":1908000000000,"state":"active","ping":74},{"user_id":189,"name":"halfwaysdown","steam_id":76561199344558559,"connected_time":1097000000000,"state":"active","ping":179},{"user_id":197,"name":"Roosevelt Chadwick","steam_id":76561198278169311,"connected_time":367000000000,"state":"active","ping":67},{"user_id":140,"name":"Taco+Taco=Burrito","steam_id":76561198063128663,"connected_time":5154000000000,"state":"active","ping":49},{"user_id":183,"name":"Rat","steam_id":76561199143308799,"connected_time":1672000000000,"state":"active","ping":84},{"user_id":184,"name":"Pyre Elson","steam_id":76561198070842336,"connected_time":1418000000000,"state":"active","ping":54},{"user_id":185,"name":"Benjamin","steam_id":76561197982822947,"connected_time":1393000000000,"state":"active","ping":83},{"user_id":198,"name":"Weiner Cleaner","steam_id":76561198147514577,"connected_time":292000000000,"state":"active","ping":62},{"user_id":187,"name":"Jomdac","steam_id":76561198150447896,"connected_time":1266000000000,"state":"active","ping":48},{"user_id":188,"name":"Gidostink","steam_id":76561198828727975,"connected_time":1237000000000,"state":"active","ping":85},{"user_id":175,"name":"me when the candyman can","steam_id":76561198175955138,"connected_time":2386000000000,"state":"active","ping":59},{"user_id":115,"name":"naturia","steam_id":76561198092317849,"connected_time":7773000000000,"state":"active","ping":46},{"user_id":116,"name":"-_-","steam_id":76561198048754646,"connected_time":7770000000000,"state":"active","ping":54},{"user_id":190,"name":"One Horned Bitch Destroyer","steam_id":76561198045810191,"connected_time":1058000000000,"state":"active","ping":74},{"user_id":191,"name":"Maid 'n' China","steam_id":76561198423392976,"connected_time":857000000000,"state":"active","ping":61},{"user_id":201,"name":"mango cafe","steam_id":76561198142328193,"connected_time":101000000000,"state":"active","ping":77},{"user_id":193,"name":"thesaucedynasty","steam_id":76561198350041365,"connected_time":534000000000,"state":"active","ping":108},{"user_id":194,"name":"Pyrolimited","steam_id":76561198195455657,"connected_time":534000000000,"state":"active","ping":75},{"user_id":200,"name":"RaixaR","steam_id":76561198025289430,"connected_time":105000000000,"state":"active","ping":60},{"user_id":202,"name":"viedoamges","steam_id":76561198025295263,"connected_time":67000000000,"state":"active","ping":77}]},{"server_id":11,"name":"Uncletopia | London | 1 | All Maps","name_short":"lon-1","host":"lon-1.uk.uncletopia.com","port":27015,"enabled":true,"region":"eu","cc":"gb","latitude":51.509865,"longitude":-0.118092,"reserved":0,"last_update":"0001-01-01T00:00:00Z","name_a2s":"Uncletopia | London | 1 | All Maps","protocol":17,"map":"pl_barnblitz","folder":"tf","game":"Team Fortress","app_id":440,"player_count":22,"max_players":24,"Bots":0,"server_type":"Dedicated","server_os":"Linux","password":true,"vac":true,"version":"7932396","steam_id":85568392924367362,"keywords":["nocrits","nodmgspread","payload","uncletopia"],"game_id":440,"stv_port":27016,"stv_name":"Uncletopia | London | 1 | All Maps | STV","players":[{"user_id":28,"name":"ruinfox","steam_id":76561197960529160,"connected_time":1695000000000,"state":"active","ping":68},{"user_id":4,"name":"A3517","steam_id":76561198346434027,"connected_time":2682000000000,"state":"active","ping":112},{"user_id":37,"name":"Mega Saturn","steam_id":76561198024750500,"connected_time":1343000000000,"state":"active","ping":77},{"user_id":49,"name":"Huncraft 12","steam_id":76561198304495095,"connected_time":599000000000,"state":"active","ping":74},{"user_id":53,"name":"Sex Man TF2","steam_id":76561198798657045,"connected_time":363000000000,"state":"active","ping":69},{"user_id":48,"name":"puskamies","steam_id":76561198972627411,"connected_time":769000000000,"state":"active","ping":73},{"user_id":45,"name":"Armok","steam_id":76561198972559096,"connected_time":873000000000,"state":"active","ping":76},{"user_id":22,"name":"Speltok","steam_id":76561198084028223,"connected_time":2041000000000,"state":"active","ping":91},{"user_id":12,"name":"Mr. Cobbweb","steam_id":76561198215079953,"connected_time":2452000000000,"state":"active","ping":60},{"user_id":13,"name":"Mallkiri","steam_id":76561198055914926,"connected_time":2448000000000,"state":"active","ping":137},{"user_id":42,"name":"Asmodeus","steam_id":76561198283156425,"connected_time":1155000000000,"state":"active","ping":85},{"user_id":46,"name":"lim√£o","steam_id":76561198033695429,"connected_time":840000000000,"state":"active","ping":35},{"user_id":18,"name":"heinz mustard","steam_id":76561198818037965,"connected_time":2197000000000,"state":"active","ping":105},{"user_id":51,"name":"Wujek Cacek","steam_id":76561198010267943,"connected_time":484000000000,"state":"active","ping":77},{"user_id":20,"name":"bleh","steam_id":76561198257158275,"connected_time":2073000000000,"state":"active","ping":142},{"user_id":23,"name":"MeBandae","steam_id":76561198910770432,"connected_time":2021000000000,"state":"active","ping":86},{"user_id":44,"name":"Dragon","steam_id":76561198163255365,"connected_time":897000000000,"state":"active","ping":114},{"user_id":25,"name":"Narvhal√∏","steam_id":76561198147495474,"connected_time":1988000000000,"state":"active","ping":42},{"user_id":32,"name":"o?","steam_id":76561199057152724,"connected_time":1527000000000,"state":"active","ping":97},{"user_id":38,"name":"tamagochiii","steam_id":76561198037810091,"connected_time":1277000000000,"state":"active","ping":101},{"user_id":39,"name":"bugCheck.exe","steam_id":76561198050973207,"connected_time":1277000000000,"state":"active","ping":75},{"user_id":41,"name":"GoblinGaming","steam_id":76561198360395476,"connected_time":1258000000000,"state":"active","ping":37}]},{"server_id":114,"name":"Uncletopia | London | 2 | All Maps","name_short":"lon-2","host":"lon-1.uk.uncletopia.com","port":27025,"enabled":true,"region":"eu","cc":"gb","latitude":51.509865,"longitude":-0.118092,"reserved":0,"last_update":"0001-01-01T00:00:00Z","name_a2s":"Uncletopia | London | 2 | All Maps","protocol":17,"map":"koth_highpass","folder":"tf","game":"Team Fortress","app_id":440,"player_count":0,"max_players":24,"Bots":0,"server_type":"Dedicated","server_os":"Linux","password":true,"vac":true,"version":"7932396","steam_id":85568392924470941,"keywords":["cp","nocrits","nodmgspread","uncletopia"],"game_id":440,"stv_port":27026,"stv_name":"Uncletopia | London | 2 | All Maps | STV","players":null},{"server_id":320,"name":"Uncletopia | London | 3 | All Maps","name_short":"lon-3","host":"lon-1.uk.uncletopia.com","port":27035,"enabled":true,"region":"eu","cc":"gb","latitude":51.509865,"longitude":-0.118092,"reserved":0,"last_update":"0001-01-01T00:00:00Z","name_a2s":"Uncletopia | London | 3 | All Maps","protocol":17,"map":"cp_altitude","folder":"tf","game":"Team Fortress","app_id":440,"player_count":0,"max_players":24,"Bots":0,"server_type":"Dedicated","server_os":"Linux","password":true,"vac":true,"version":"7932396","steam_id":85568392924510192,"keywords":["cp","nocrits","nodmgspread","uncletopia"],"game_id":440,"stv_port":27036,"stv_name":"Uncletopia | London | 3 | All Maps | STV","players":null},{"server_id":321,"name":"Uncletopia | London | 4 | All Maps","name_short":"lon-4","host":"lon-1.uk.uncletopia.com","port":27045,"enabled":true,"region":"eu","cc":"gb","latitude":51.509865,"longitude":-0.118092,"reserved":0,"last_update":"0001-01-01T00:00:00Z","name_a2s":"Uncletopia | London | 4 | All Maps","protocol":17,"map":"cp_snakewater_final1","folder":"tf","game":"Team Fortress","app_id":440,"player_count":0,"max_players":24,"Bots":0,"server_type":"Dedicated","server_os":"Linux","password":true,"vac":true,"version":"7932396","steam_id":85568392924510193,"keywords":["cp","nocrits","nodmgspread","uncletopia"],"game_id":440,"stv_port":27046,"stv_name":"Uncletopia | London | 4 | All Maps | STV","players":null},{"server_id":21,"name":"Uncletopia | London | 5 | All Maps","name_short":"lon-5","host":"lon-1.uk.uncletopia.com","port":27055,"enabled":true,"region":"eu","cc":"gb","latitude":51.509865,"longitude":-0.118092,"reserved":0,"last_update":"0001-01-01T00:00:00Z","name_a2s":"Uncletopia | London | 5 | All Maps","protocol":17,"map":"pl_borneo","folder":"tf","game":"Team Fortress","app_id":440,"player_count":0,"max_players":24,"Bots":0,"server_type":"Dedicated","server_os":"Linux","password":true,"vac":true,"version":"7932396","steam_id":85568392924742829,"keywords":["nocrits","nodmgspread","payload","uncletopia"],"game_id":440,"stv_port":27056,"stv_name":"Uncletopia | London | 5 | All Maps | STV","players":null},{"server_id":22,"name":"Uncletopia | London | 6 | All Maps","name_short":"lon-6","host":"lon-1.uk.uncletopia.com","port":27065,"enabled":true,"region":"eu","cc":"gb","latitude":51.509865,"longitude":-0.118092,"reserved":0,"last_update":"0001-01-01T00:00:00Z","name_a2s":"Uncletopia | London | 6 | All Maps","protocol":17,"map":"cp_mountainlab","folder":"tf","game":"Team Fortress","app_id":440,"player_count":0,"max_players":24,"Bots":0,"server_type":"Dedicated","server_os":"Linux","password":true,"vac":true,"version":"7932396","steam_id":85568392924742830,"keywords":["cp","nocrits","nodmgspread","uncletopia"],"game_id":440,"stv_port":27066,"stv_name":"Uncletopia | London | 6 | All Maps | STV","players":null},{"server_id":40,"name":"Uncletopia | London | 7 | No Payload","name_short":"lon-7","host":"lon-1.uk.uncletopia.com","port":27075,"enabled":true,"region":"eu","cc":"gb","latitude":51.509865,"longitude":-0.118092,"reserved":0,"last_update":"0001-01-01T00:00:00Z","name_a2s":"Uncletopia | London | 7 | No Payload","protocol":17,"map":"pl_snowycoast","folder":"tf","game":"Team Fortress","app_id":440,"player_count":0,"max_players":24,"Bots":0,"server_type":"Dedicated","server_os":"Linux","password":true,"vac":true,"version":"7932396","steam_id":85568392924964314,"keywords":["nocrits","nodmgspread","payload","uncletopia"],"game_id":440,"stv_port":27076,"stv_name":"Uncletopia | London | 7 | No Payload | STV","players":null},{"server_id":41,"name":"Uncletopia | London | 8 | Community","name_short":"lon-8","host":"lon-1.uk.uncletopia.com","port":27085,"enabled":true,"region":"eu","cc":"gb","latitude":51.509865,"longitude":-0.118092,"reserved":0,"last_update":"0001-01-01T00:00:00Z","name_a2s":"Uncletopia | London | 8 | Community","protocol":17,"map":"pl_barnblitz","folder":"tf","game":"Team Fortress","app_id":440,"player_count":0,"max_players":24,"Bots":0,"server_type":"Dedicated","server_os":"Linux","password":true,"vac":true,"version":"7932396","steam_id":85568392924964315,"keywords":["nocrits","nodmgspread","payload","uncletopia"],"game_id":440,"stv_port":27086,"stv_name":"Uncletopia | London | 8 | Community | STV","players":null},{"server_id":300,"name":"Uncletopia | Montr√©al | 1 | All Maps","name_short":"mtl-1","host":"mtl-1.ca.uncletopia.com","port":27015,"enabled":true,"region":"us-east","cc":"ca","latitude":45.50889,"longitude":-73.56167,"reserved":0,"last_update":"0001-01-01T00:00:00Z","name_a2s":"Uncletopia | Montr√©al | 1 | All Maps","protocol":17,"map":"koth_cascade","folder":"tf","game":"Team Fortress","app_id":440,"player_count":0,"max_players":24,"Bots":0,"server_type":"Dedicated","server_os":"Linux","password":true,"vac":true,"version":"7932396","steam_id":85568392924500087,"keywords":["cp","nocrits","nodmgspread","uncletopia"],"game_id":440,"stv_port":27016,"stv_name":"Uncletopia | Montr√©al | 1 | All Maps | STV","players":null},{"server_id":301,"name":"Uncletopia | Montr√©al | 2 | All Maps","name_short":"mtl-2","host":"mtl-1.ca.uncletopia.com","port":27025,"enabled":true,"region":"us-east","cc":"ca","latitude":45.50889,"longitude":-73.56167,"reserved":0,"last_update":"0001-01-01T00:00:00Z","name_a2s":"Uncletopia | Montr√©al | 2 | All Maps","protocol":17,"map":"koth_lakeside_final","folder":"tf","game":"Team Fortress","app_id":440,"player_count":0,"max_players":24,"Bots":0,"server_type":"Dedicated","server_os":"Linux","password":true,"vac":true,"version":"7932396","steam_id":85568392924500088,"keywords":["cp","nocrits","nodmgspread","uncletopia"],"game_id":440,"stv_port":27026,"stv_name":"Uncletopia | Montr√©al | 2 | All Maps | STV","players":null},{"server_id":302,"name":"Uncletopia | Montr√©al | 3 | All Maps","name_short":"mtl-3","host":"mtl-1.ca.uncletopia.com","port":27035,"enabled":true,"region":"us-east","cc":"ca","latitude":45.50889,"longitude":-73.56167,"reserved":0,"last_update":"0001-01-01T00:00:00Z","name_a2s":"Uncletopia | Montr√©al | 3 | All Maps","protocol":17,"map":"koth_cascade","folder":"tf","game":"Team Fortress","app_id":440,"player_count":0,"max_players":24,"Bots":0,"server_type":"Dedicated","server_os":"Linux","password":true,"vac":true,"version":"7932396","steam_id":85568392924500089,"keywords":["cp","nocrits","nodmgspread","uncletopia"],"game_id":440,"stv_port":27036,"stv_name":"Uncletopia | Montr√©al | 3 | All Maps | STV","players":null},{"server_id":303,"name":"Uncletopia | Montr√©al | 4 | No Payload","name_short":"mtl-4","host":"mtl-1.ca.uncletopia.com","port":27045,"enabled":true,"region":"us-east","cc":"ca","latitude":45.50889,"longitude":-73.56167,"reserved":0,"last_update":"0001-01-01T00:00:00Z","name_a2s":"Uncletopia | Montr√©al | 4 | No Payload","protocol":17,"map":"cp_dustbowl","folder":"tf","game":"Team Fortress","app_id":440,"player_count":0,"max_players":24,"Bots":0,"server_type":"Dedicated","server_os":"Linux","password":true,"vac":true,"version":"7932396","steam_id":85568392924500090,"keywords":["cp","nocrits","nodmgspread","uncletopia"],"game_id":440,"stv_port":27046,"stv_name":"Uncletopia | Montr√©al | 4 | No Payload | STV","players":null},{"server_id":13,"name":"Uncletopia | New York City | 1 | All Maps","name_short":"nyc-1","host":"nyc-1.us.uncletopia.com","port":27015,"enabled":true,"region":"us-east","cc":"us","latitude":40.73061,"longitude":-73.93524,"reserved":0,"last_update":"0001-01-01T00:00:00Z","name_a2s":"Uncletopia | New York City | 1 | All Maps","protocol":17,"map":"cp_snakewater_final1","folder":"tf","game":"Team Fortress","app_id":440,"player_count":17,"max_players":24,"Bots":0,"server_type":"Dedicated","server_os":"Linux","password":true,"vac":true,"version":"7932396","steam_id":85568392924469993,"keywords":["cp","nocrits","nodmgspread","uncletopia"],"game_id":440,"stv_port":27016,"stv_name":"Uncletopia | New York City | 1 | All Maps | STV","players":[{"user_id":569,"name":"Starfruit66","steam_id":76561198069917277,"connected_time":4522000000000,"state":"active","ping":113},{"user_id":601,"name":"PaidProgramming","steam_id":76561198329193255,"connected_time":673000000000,"state":"active","ping":110},{"user_id":605,"name":"eldritchtea","steam_id":76561198087085443,"connected_time":541000000000,"state":"active","ping":129},{"user_id":579,"name":"LambKraut","steam_id":76561198061695514,"connected_time":3266000000000,"state":"active","ping":59},{"user_id":592,"name":"Hi","steam_id":76561198038247668,"connected_time":2271000000000,"state":"active","ping":80},{"user_id":610,"name":"Brisket","steam_id":76561199371070576,"connected_time":97000000000,"state":"active","ping":62},{"user_id":599,"name":"Zirael","steam_id":76561198057143358,"connected_time":1076000000000,"state":"active","ping":58},{"user_id":565,"name":"wise","steam_id":76561198030066204,"connected_time":4738000000000,"state":"active","ping":44},{"user_id":602,"name":"Crow","steam_id":76561198274977209,"connected_time":645000000000,"state":"active","ping":89},{"user_id":607,"name":"Quirinus","steam_id":76561198011516889,"connected_time":344000000000,"state":"active","ping":62},{"user_id":596,"name":"Chems Boger","steam_id":76561198861385462,"connected_time":1284000000000,"state":"active","ping":161},{"user_id":541,"name":"Horrizan","steam_id":76561197965028480,"connected_time":6492000000000,"state":"active","ping":88},{"user_id":587,"name":"slaanesh worshiper","steam_id":76561198017283523,"connected_time":3131000000000,"state":"active","ping":108},{"user_id":549,"name":"ApertureCity","steam_id":76561198004153607,"connected_time":5751000000000,"state":"active","ping":70},{"user_id":583,"name":"Lemonade Juice","steam_id":76561198402892608,"connected_time":3194000000000,"state":"active","ping":103},{"user_id":584,"name":"DO THE DEVIL CHALLENGE","steam_id":76561198045437723,"connected_time":3184000000000,"state":"active","ping":86},{"user_id":600,"name":"Zoro01","steam_id":76561198407989540,"connected_time":936000000000,"state":"active","ping":130}]},{"server_id":14,"name":"Uncletopia | New York City | 2 | All Maps","name_short":"nyc-2","host":"nyc-1.us.uncletopia.com","port":27025,"enabled":true,"region":"us-east","cc":"us","latitude":40.73061,"longitude":-73.93524,"reserved":0,"last_update":"0001-01-01T00:00:00Z","name_a2s":"Uncletopia | New York City | 2 | All Maps","protocol":17,"map":"pl_borneo","folder":"tf","game":"Team Fortress","app_id":440,"player_count":23,"max_players":24,"Bots":0,"server_type":"Dedicated","server_os":"Linux","password":true,"vac":true,"version":"7932396","steam_id":85568392924469994,"keywords":["nocrits","nodmgspread","payload","uncletopia"],"game_id":440,"stv_port":27026,"stv_name":"Uncletopia | New York City | 2 | All Maps | STV","players":[{"user_id":501,"name":"Eldkveikir","steam_id":76561198087760308,"connected_time":3081000000000,"state":"active","ping":104},{"user_id":505,"name":".:Thespikedballofdoom:.","steam_id":76561198128793141,"connected_time":2767000000000,"state":"active","ping":50},{"user_id":517,"name":"LazySushi","steam_id":76561198043802202,"connected_time":805000000000,"state":"active","ping":57},{"user_id":476,"name":"spreadable arse","steam_id":76561198032259680,"connected_time":5363000000000,"state":"active","ping":61},{"user_id":506,"name":"Young ZALES","steam_id":76561198114207768,"connected_time":2559000000000,"state":"active","ping":86},{"user_id":477,"name":"Rigby","steam_id":76561198131652100,"connected_time":5357000000000,"state":"active","ping":80},{"user_id":509,"name":"taytehwolf","steam_id":76561198221552500,"connected_time":2071000000000,"state":"active","ping":102},{"user_id":410,"name":"Foonut","steam_id":76561198075740574,"connected_time":9760000000000,"state":"active","ping":76},{"user_id":490,"name":"nori_420","steam_id":76561199117134203,"connected_time":4180000000000,"state":"active","ping":130},{"user_id":452,"name":"Selenddron","steam_id":76561198130341338,"connected_time":7116000000000,"state":"active","ping":110},{"user_id":493,"name":"Krobalt","steam_id":76561198167570971,"connected_time":4102000000000,"state":"active","ping":121},{"user_id":427,"name":"Zack","steam_id":76561198308083836,"connected_time":8639000000000,"state":"active","ping":57},{"user_id":492,"name":"Purplesphere","steam_id":76561198202786833,"connected_time":4134000000000,"state":"active","ping":180},{"user_id":512,"name":"Doubting Dave","steam_id":76561198066410749,"connected_time":1433000000000,"state":"active","ping":104},{"user_id":511,"name":"Sentient Trash Can","steam_id":76561199438622491,"connected_time":1768000000000,"state":"active","ping":120},{"user_id":518,"name":"gromit","steam_id":76561198037746805,"connected_time":439000000000,"state":"active","ping":60},{"user_id":514,"name":"ddar55","steam_id":76561198123203595,"connected_time":1182000000000,"state":"active","ping":108},{"user_id":520,"name":"BADLANDS CHUGS","steam_id":76561198129028971,"connected_time":261000000000,"state":"active","ping":56},{"user_id":503,"name":"Andallfor","steam_id":76561198350143349,"connected_time":2975000000000,"state":"active","ping":54},{"user_id":521,"name":"harlowng","steam_id":76561198060542928,"connected_time":241000000000,"state":"active","ping":131},{"user_id":489,"name":"Ludcmorais","steam_id":76561198359217809,"connected_time":4437000000000,"state":"active","ping":178},{"user_id":522,"name":"Juvice","steam_id":76561198843371502,"connected_time":232000000000,"state":"active","ping":43}]},{"server_id":15,"name":"Uncletopia | New York City | 3 | Stopwatch Beta","name_short":"nyc-3","host":"nyc-1.us.uncletopia.com","port":27035,"enabled":true,"region":"us-east","cc":"us","latitude":40.73061,"longitude":-73.93524,"reserved":0,"last_update":"0001-01-01T00:00:00Z","name_a2s":"Uncletopia | New York City | 3 | Stopwatch Beta","protocol":17,"map":"workshop/koth_clearcut_b15.ugc2107050255","folder":"tf","game":"Team Fortress","app_id":440,"player_count":0,"max_players":24,"Bots":0,"server_type":"Dedicated","server_os":"Linux","password":true,"vac":true,"version":"7932396","steam_id":85568392924742820,"keywords":["cp","nocrits","nodmgspread","uncletopia"],"game_id":440,"stv_port":27036,"stv_name":"Uncletopia | New York City | 3 | Stopwatch Beta | STV","players":null},{"server_id":16,"name":"Uncletopia | New York City | 4 | Community","name_short":"nyc-4","host":"nyc-1.us.uncletopia.com","port":27045,"enabled":true,"region":"us-east","cc":"us","latitude":40.73061,"longitude":-73.93524,"reserved":0,"last_update":"0001-01-01T00:00:00Z","name_a2s":"Uncletopia | New York City | 4 | Community","protocol":17,"map":"workshop/koth_ramjam_rc1.ugc459778887","folder":"tf","game":"Team Fortress","app_id":440,"player_count":0,"max_players":24,"Bots":0,"server_type":"Dedicated","server_os":"Linux","password":true,"vac":true,"version":"7932396","steam_id":85568392924742821,"keywords":["cp","nocrits","nodmgspread","uncletopia"],"game_id":440,"stv_port":27046,"stv_name":"Uncletopia | New York City | 4 | Community | STV","players":null},{"server_id":142,"name":"Uncletopia | S√£o Paulo | 1 | All Maps","name_short":"sao-1","host":"sao-1.br.uncletopia.com","port":27015,"enabled":true,"region":"sa","cc":"br","latitude":-23.533773,"longitude":-46.62529,"reserved":0,"last_update":"0001-01-01T00:00:00Z","name_a2s":"Uncletopia | S√£o Paulo | 1 | All Maps","protocol":17,"map":"koth_cascade","folder":"tf","game":"Team Fortress","app_id":440,"player_count":0,"max_players":24,"Bots":0,"server_type":"Dedicated","server_os":"Linux","password":true,"vac":true,"version":"7932396","steam_id":85568392924469996,"keywords":["cp","nocrits","nodmgspread","uncletopia"],"game_id":440,"stv_port":27016,"stv_name":"Uncletopia | S√£o Paulo | 1 | All Maps | STV","players":null},{"server_id":143,"name":"Uncletopia | S√£o Paulo | 2 | All Maps","name_short":"sao-2","host":"sao-2.br.uncletopia.com","port":27015,"enabled":true,"region":"sa","cc":"br","latitude":-23.533773,"longitude":-46.62529,"reserved":0,"last_update":"0001-01-01T00:00:00Z","name_a2s":"Uncletopia | S√£o Paulo | 2 | All Maps","protocol":17,"map":"cp_sunshine","folder":"tf","game":"Team Fortress","app_id":440,"player_count":0,"max_players":24,"Bots":0,"server_type":"Dedicated","server_os":"Linux","password":true,"vac":true,"version":"7932396","steam_id":85568392924485349,"keywords":["cp","nocrits","nodmgspread","uncletopia"],"game_id":440,"stv_port":27016,"stv_name":"Uncletopia | S√£o Paulo | 2 | All Maps | STV","players":null},{"server_id":7,"name":"Uncletopia | Seattle | 1 | All Maps","name_short":"sea-1","host":"sea-1.us.uncletopia.com","port":27015,"enabled":true,"region":"us-west","cc":"us","latitude":47.608013,"longitude":-122.33517,"reserved":0,"last_update":"0001-01-01T00:00:00Z","name_a2s":"Uncletopia | Seattle | 1 | All Maps","protocol":17,"map":"koth_harvest_final","folder":"tf","game":"Team Fortress","app_id":440,"player_count":24,"max_players":24,"Bots":0,"server_type":"Dedicated","server_os":"Linux","password":true,"vac":true,"version":"7932396","steam_id":85568392924469997,"keywords":["cp","nocrits","nodmgspread","uncletopia"],"game_id":440,"stv_port":27016,"stv_name":"Uncletopia | Seattle | 1 | All Maps | STV","players":[{"user_id":478,"name":"BlazedBunny","steam_id":76561198243610560,"connected_time":4763000000000,"state":"active","ping":69},{"user_id":517,"name":"Nolan","steam_id":76561198169648081,"connected_time":1806000000000,"state":"active","ping":102},{"user_id":510,"name":"Distraction","steam_id":76561199445895882,"connected_time":2278000000000,"state":"active","ping":47},{"user_id":448,"name":"io_est","steam_id":76561198079538952,"connected_time":7859000000000,"state":"active","ping":49},{"user_id":501,"name":"mike, man spreads on ttc","steam_id":76561198225411004,"connected_time":3535000000000,"state":"active","ping":67},{"user_id":507,"name":"bbbbb","steam_id":76561198095480838,"connected_time":2801000000000,"state":"active","ping":44},{"user_id":524,"name":"Phantis_Squid","steam_id":76561199428864090,"connected_time":1111000000000,"state":"active","ping":113},{"user_id":528,"name":"Facepalm","steam_id":76561198001935226,"connected_time":643000000000,"state":"active","ping":71},{"user_id":483,"name":"goldhed","steam_id":76561198051751133,"connected_time":4498000000000,"state":"active","ping":56},{"user_id":531,"name":"Pockets","steam_id":76561198290683306,"connected_time":127000000000,"state":"active","ping":47},{"user_id":508,"name":"[TrC] Nosy","steam_id":76561197978859310,"connected_time":2788000000000,"state":"active","ping":61},{"user_id":499,"name":"‚ô• Milo Stefferson ‚ô• (Soupca","steam_id":76561198056269538,"connected_time":3778000000000,"state":"active","ping":57},{"user_id":425,"name":"selvhat","steam_id":76561198114225509,"connected_time":10266000000000,"state":"active","ping":76},{"user_id":471,"name":"Zee‚úû","steam_id":76561198274550638,"connected_time":5800000000000,"state":"active","ping":105},{"user_id":530,"name":"Nakasmacka","steam_id":76561198049787270,"connected_time":150000000000,"state":"active","ping":42},{"user_id":523,"name":"Raian","steam_id":76561199138048671,"connected_time":1412000000000,"state":"active","ping":64},{"user_id":529,"name":"SCUD missile up your ass","steam_id":76561198066452726,"connected_time":526000000000,"state":"active","ping":74},{"user_id":525,"name":"bengineer","steam_id":76561198171912174,"connected_time":924000000000,"state":"active","ping":55},{"user_id":518,"name":"Grill Skills","steam_id":76561198053575147,"connected_time":1661000000000,"state":"active","ping":69},{"user_id":505,"name":"[TrC] Dackstrus","steam_id":76561197973518509,"connected_time":2823000000000,"state":"active","ping":59},{"user_id":527,"name":"Cr0wD3r","steam_id":76561198153612764,"connected_time":657000000000,"state":"active","ping":99},{"user_id":522,"name":"LittleFieryOne","steam_id":76561198107463724,"connected_time":1582000000000,"state":"active","ping":111},{"user_id":516,"name":"trackpad gaming | f2p","steam_id":76561198840414371,"connected_time":1897000000000,"state":"active","ping":51},{"user_id":513,"name":"SAVECASEY","steam_id":76561198857896847,"connected_time":1984000000000,"state":"active","ping":73}]},{"server_id":119,"name":"Uncletopia | Seattle | 2 | All Maps","name_short":"sea-2","host":"sea-1.us.uncletopia.com","port":27025,"enabled":true,"region":"us-west","cc":"us","latitude":47.608013,"longitude":-122.33517,"reserved":0,"last_update":"0001-01-01T00:00:00Z","name_a2s":"Uncletopia | Seattle | 2 | All Maps","protocol":17,"map":"pl_upward","folder":"tf","game":"Team Fortress","app_id":440,"player_count":24,"max_players":24,"Bots":0,"server_type":"Dedicated","server_os":"Linux","password":true,"vac":true,"version":"7932396","steam_id":85568392924469998,"keywords":["nocrits","nodmgspread","payload","uncletopia"],"game_id":440,"stv_port":27026,"stv_name":"Uncletopia | Seattle | 2 | All Maps | STV","players":[{"user_id":890,"name":"Arsonist Goose","steam_id":76561198147441830,"connected_time":171000000000,"state":"active","ping":74},{"user_id":863,"name":"mega","steam_id":76561198089520959,"connected_time":3527000000000,"state":"active","ping":95},{"user_id":874,"name":"rat gets the cheese","steam_id":76561198031234032,"connected_time":1206000000000,"state":"active","ping":96},{"user_id":891,"name":"ice","steam_id":76561197994528974,"connected_time":159000000000,"state":"active","ping":77},{"user_id":840,"name":"gorlab","steam_id":76561198025089694,"connected_time":6647000000000,"state":"active","ping":60},{"user_id":873,"name":"pandoRA","steam_id":76561198075490385,"connected_time":1282000000000,"state":"active","ping":76},{"user_id":843,"name":"NEBULA","steam_id":76561198086878595,"connected_time":6504000000000,"state":"active","ping":69},{"user_id":846,"name":"Retesaurus","steam_id":76561198045189319,"connected_time":6035000000000,"state":"active","ping":46},{"user_id":887,"name":"Branta","steam_id":76561199103842843,"connected_time":450000000000,"state":"active","ping":53},{"user_id":875,"name":"Finkly","steam_id":76561198049828110,"connected_time":1203000000000,"state":"active","ping":45},{"user_id":859,"name":"lasky","steam_id":76561198017030029,"connected_time":4602000000000,"state":"active","ping":72},{"user_id":851,"name":"todd","steam_id":76561198096671524,"connected_time":4858000000000,"state":"active","ping":68},{"user_id":877,"name":"Milk","steam_id":76561198083766036,"connected_time":1159000000000,"state":"active","ping":57},{"user_id":861,"name":"Ayayayayayahuasca","steam_id":76561199002906056,"connected_time":4233000000000,"state":"active","ping":65},{"user_id":882,"name":"Jeffery","steam_id":76561199226711716,"connected_time":1111000000000,"state":"active","ping":119},{"user_id":857,"name":"delight","steam_id":76561197980280272,"connected_time":4714000000000,"state":"active","ping":46},{"user_id":862,"name":"Sniff","steam_id":76561198010270922,"connected_time":3699000000000,"state":"active","ping":60},{"user_id":886,"name":"Stev the Prurient Oxymoron","steam_id":76561197999442625,"connected_time":541000000000,"state":"active","ping":69},{"user_id":855,"name":"Muralo","steam_id":76561198202160268,"connected_time":4840000000000,"state":"active","ping":53},{"user_id":836,"name":"Florist","steam_id":76561198009121060,"connected_time":7402000000000,"state":"active","ping":46},{"user_id":893,"name":"Power-Fusion","steam_id":76561197981220590,"connected_time":36000000000,"state":"active","ping":72},{"user_id":885,"name":"squash","steam_id":76561198150281353,"connected_time":695000000000,"state":"active","ping":61},{"user_id":884,"name":"rorywashere /·ê† - Àï -„Éû ‚≥ä","steam_id":76561198065825165,"connected_time":870000000000,"state":"active","ping":116},{"user_id":889,"name":"Reaptiles","steam_id":76561198414817784,"connected_time":407000000000,"state":"active","ping":43}]},{"server_id":406,"name":"Uncletopia | Seattle | 3 | Stopwatch Beta","name_short":"sea-3","host":"sea-1.us.uncletopia.com","port":27035,"enabled":true,"region":"us-west","cc":"us","latitude":47.608013,"longitude":-122.33517,"reserved":0,"last_update":"0001-01-01T00:00:00Z","name_a2s":"Uncletopia | Seattle | 3 | Stopwatch Beta","protocol":17,"map":"workshop/koth_bagel_rc6.ugc2514036946","folder":"tf","game":"Team Fortress","app_id":440,"player_count":0,"max_players":24,"Bots":0,"server_type":"Dedicated","server_os":"Linux","password":true,"vac":true,"version":"7932396","steam_id":85568392924515217,"keywords":["cp","nocrits","nodmgspread","uncletopia"],"game_id":440,"stv_port":27036,"stv_name":"Uncletopia | Seattle | 3 | Stopwatch Beta | STV","players":null},{"server_id":17,"name":"Uncletopia | San Francisco | 1 | All Maps","name_short":"sfo-1","host":"sfo-1.us.uncletopia.com","port":27015,"enabled":true,"region":"us-west","cc":"us","latitude":37.77397,"longitude":-122.4313,"reserved":0,"last_update":"0001-01-01T00:00:00Z","name_a2s":"Uncletopia | San Francisco | 1 | All Maps","protocol":17,"map":"koth_lakeside_final","folder":"tf","game":"Team Fortress","app_id":440,"player_count":23,"max_players":24,"Bots":0,"server_type":"Dedicated","server_os":"Linux","password":true,"vac":true,"version":"7932396","steam_id":85568392924469999,"keywords":["cp","nocrits","nodmgspread","uncletopia"],"game_id":440,"stv_port":27016,"stv_name":"Uncletopia | San Francisco | 1 | All Maps | STV","players":[{"user_id":314,"name":"Rusty","steam_id":76561198055585129,"connected_time":2279000000000,"state":"active","ping":63},{"user_id":338,"name":"wiz","steam_id":76561198045731206,"connected_time":38000000000,"state":"active","ping":60},{"user_id":319,"name":"lili","steam_id":76561199391478575,"connected_time":1424000000000,"state":"active","ping":79},{"user_id":336,"name":"Paul Gaming","steam_id":76561198065538229,"connected_time":149000000000,"state":"active","ping":54},{"user_id":330,"name":"diymo the noob assaulter","steam_id":76561198017600790,"connected_time":442000000000,"state":"active","ping":57},{"user_id":331,"name":"Frank Forearms.","steam_id":76561198225910596,"connected_time":441000000000,"state":"active","ping":65},{"user_id":325,"name":"HanakoToast","steam_id":76561198045233131,"connected_time":1172000000000,"state":"active","ping":73},{"user_id":261,"name":"El Gato Paranoico","steam_id":76561198116567116,"connected_time":5519000000000,"state":"active","ping":103},{"user_id":339,"name":"adamsdaniel898","steam_id":76561199404549929,"connected_time":11000000000,"state":"active","ping":51},{"user_id":335,"name":"Anthid","steam_id":76561198074493797,"connected_time":277000000000,"state":"active","ping":61},{"user_id":333,"name":"b0urbaki7","steam_id":76561198141342345,"connected_time":413000000000,"state":"active","ping":95},{"user_id":318,"name":"Hector Salamanca","steam_id":76561199103213955,"connected_time":2036000000000,"state":"active","ping":66},{"user_id":275,"name":"SQbuilder","steam_id":76561198076473375,"connected_time":4686000000000,"state":"active","ping":45},{"user_id":239,"name":"mndbrkn","steam_id":76561198054390505,"connected_time":8558000000000,"state":"active","ping":104},{"user_id":281,"name":"Stoofy","steam_id":76561198280750328,"connected_time":4413000000000,"state":"active","ping":74},{"user_id":327,"name":"Granny from Hoodwinked","steam_id":76561198116389072,"connected_time":1082000000000,"state":"active","ping":79},{"user_id":296,"name":"‚ò≠Borris‚ò≠","steam_id":76561198011136886,"connected_time":3553000000000,"state":"active","ping":55},{"user_id":326,"name":"selling rice","steam_id":76561198063357023,"connected_time":1167000000000,"state":"active","ping":45},{"user_id":317,"name":"danielarmvt","steam_id":76561198799723201,"connected_time":2236000000000,"state":"active","ping":110},{"user_id":337,"name":"Perry the Platypus #savetf2","steam_id":76561198273045773,"connected_time":143000000000,"state":"active","ping":68},{"user_id":313,"name":"the hype man","steam_id":76561199052875314,"connected_time":2345000000000,"state":"active","ping":69},{"user_id":298,"name":"SilverMango","steam_id":76561198091243252,"connected_time":3467000000000,"state":"active","ping":57},{"user_id":328,"name":"big car","steam_id":76561198067082350,"connected_time":875000000000,"state":"active","ping":54}]},{"server_id":18,"name":"Uncletopia | San Francisco | 2 | All Maps","name_short":"sfo-2","host":"sfo-1.us.uncletopia.com","port":27025,"enabled":true,"region":"us-west","cc":"us","latitude":37.77397,"longitude":-122.4313,"reserved":0,"last_update":"0001-01-01T00:00:00Z","name_a2s":"Uncletopia | San Francisco | 2 | All Maps","protocol":17,"map":"plr_nightfall_final","folder":"tf","game":"Team Fortress","app_id":440,"player_count":0,"max_players":24,"Bots":0,"server_type":"Dedicated","server_os":"Linux","password":true,"vac":true,"version":"7932396","steam_id":85568392924470000,"keywords":["nocrits","nodmgspread","payload","uncletopia"],"game_id":440,"stv_port":27026,"stv_name":"Uncletopia | San Francisco | 2 | All Maps | STV","players":null},{"server_id":19,"name":"Uncletopia | San Francisco | 3 | Stopwatch Beta","name_short":"sfo-3","host":"sfo-1.us.uncletopia.com","port":27035,"enabled":true,"region":"us-west","cc":"us","latitude":37.77397,"longitude":-122.4313,"reserved":0,"last_update":"0001-01-01T00:00:00Z","name_a2s":"Uncletopia | San Francisco | 3 | Stopwatch Beta","protocol":17,"map":"workshop/pl_vigil_rc9.ugc1266210012","folder":"tf","game":"Team Fortress","app_id":440,"player_count":0,"max_players":24,"Bots":0,"server_type":"Dedicated","server_os":"Linux","password":true,"vac":true,"version":"7932396","steam_id":85568392924742824,"keywords":["nocrits","nodmgspread","payload","uncletopia"],"game_id":440,"stv_port":27036,"stv_name":"Uncletopia | San Francisco | 3 | Stopwatch Beta | STV","players":null},{"server_id":20,"name":"Uncletopia | San Francisco | 4 | Community","name_short":"sfo-4","host":"sfo-1.us.uncletopia.com","port":27045,"enabled":true,"region":"us-west","cc":"us","latitude":37.77397,"longitude":-122.4313,"reserved":0,"last_update":"0001-01-01T00:00:00Z","name_a2s":"Uncletopia | San Francisco | 4 | Community","protocol":17,"map":"workshop/koth_kemptown_rc1.ugc767410655","folder":"tf","game":"Team Fortress","app_id":440,"player_count":0,"max_players":24,"Bots":0,"server_type":"Dedicated","server_os":"Linux","password":true,"vac":true,"version":"7932396","steam_id":85568392924742826,"keywords":["cp","nocrits","nodmgspread","uncletopia"],"game_id":440,"stv_port":27046,"stv_name":"Uncletopia | San Francisco | 4 | Community | STV","players":null},{"server_id":141,"name":"Uncletopia | Sydney | 1 | All Maps","name_short":"syd-1","host":"syd-1.au.uncletopia.com","port":27015,"enabled":true,"region":"au","cc":"au","latitude":-33.865143,"longitude":151.2099,"reserved":0,"last_update":"0001-01-01T00:00:00Z","name_a2s":"Uncletopia | Sydney | 1 | All Maps","protocol":17,"map":"ctf_2fort","folder":"tf","game":"Team Fortress","app_id":440,"player_count":0,"max_players":24,"Bots":0,"server_type":"Dedicated","server_os":"Linux","password":true,"vac":true,"version":"7932396","steam_id":85568392924470001,"keywords":["ctf","nocrits","nodmgspread","uncletopia"],"game_id":440,"stv_port":27016,"stv_name":"Uncletopia | Sydney | 1 | All Maps | STV","players":null},{"server_id":123,"name":"Uncletopia | Sydney | 2 | All Maps","name_short":"syd-2","host":"syd-1.au.uncletopia.com","port":27025,"enabled":true,"region":"au","cc":"au","latitude":-33.865143,"longitude":151.2099,"reserved":0,"last_update":"0001-01-01T00:00:00Z","name_a2s":"Uncletopia | Sydney | 2 | All Maps","protocol":17,"map":"pl_borneo","folder":"tf","game":"Team Fortress","app_id":440,"player_count":24,"max_players":24,"Bots":0,"server_type":"Dedicated","server_os":"Linux","password":true,"vac":true,"version":"7932396","steam_id":85568392924470002,"keywords":["nocrits","nodmgspread","payload","uncletopia"],"game_id":440,"stv_port":27026,"stv_name":"Uncletopia | Sydney | 2 | All Maps | STV","players":[{"user_id":419,"name":"Light Sided Gamer","steam_id":76561198061572340,"connected_time":921000000000,"state":"active","ping":100},{"user_id":377,"name":"sav","steam_id":76561198058760041,"connected_time":2534000000000,"state":"active","ping":71},{"user_id":401,"name":"actions speak louder than Merv","steam_id":76561198301282416,"connected_time":1502000000000,"state":"active","ping":51},{"user_id":331,"name":"Jodelk√∂nig Franzl Lang","steam_id":76561198007667830,"connected_time":7776000000000,"state":"active","ping":49},{"user_id":402,"name":"Muffin","steam_id":76561198075391119,"connected_time":1484000000000,"state":"active","ping":51},{"user_id":425,"name":"asdf","steam_id":76561198062324724,"connected_time":375000000000,"state":"active","ping":40},{"user_id":423,"name":"TR(ash)ISH [She/Her]","steam_id":76561198857353689,"connected_time":608000000000,"state":"active","ping":59},{"user_id":418,"name":"horrid webbon ·òõ‚ÅêÃ§·ïê·ê∑","steam_id":76561198061998379,"connected_time":1041000000000,"state":"active","ping":48},{"user_id":409,"name":"Mooty","steam_id":76561198301293435,"connected_time":1346000000000,"state":"active","ping":50},{"user_id":345,"name":"Pickled Cow","steam_id":76561198292517991,"connected_time":6077000000000,"state":"active","ping":42},{"user_id":330,"name":"uven","steam_id":76561198080981482,"connected_time":7842000000000,"state":"active","ping":39},{"user_id":428,"name":"Scotland Forever","steam_id":76561199026861527,"connected_time":75000000000,"state":"active","ping":61},{"user_id":410,"name":"MoistNipple","steam_id":76561198180956833,"connected_time":1328000000000,"state":"active","ping":66},{"user_id":415,"name":"ramjamslam","steam_id":76561198084310292,"connected_time":1114000000000,"state":"active","ping":56},{"user_id":426,"name":"Das Ist Scheisse","steam_id":76561198886094239,"connected_time":328000000000,"state":"active","ping":57},{"user_id":424,"name":"Sover blw.tf","steam_id":76561198136347837,"connected_time":562000000000,"state":"active","ping":133},{"user_id":373,"name":"Pompadouraus","steam_id":76561198327530525,"connected_time":2965000000000,"state":"active","ping":74},{"user_id":368,"name":"maburaho1","steam_id":76561198211416633,"connected_time":3527000000000,"state":"active","ping":75},{"user_id":364,"name":"wazza","steam_id":76561198081910343,"connected_time":4109000000000,"state":"active","ping":47},{"user_id":420,"name":"Dr. Hoppity","steam_id":76561197999715646,"connected_time":916000000000,"state":"active","ping":66},{"user_id":383,"name":"Pile of Sneed","steam_id":76561198143537391,"connected_time":2311000000000,"state":"active","ping":57},{"user_id":422,"name":"Zort","steam_id":76561198056414289,"connected_time":735000000000,"state":"active","ping":66},{"user_id":429,"name":"It's barbin time","steam_id":76561198060225022,"connected_time":46000000000,"state":"active","ping":98},{"user_id":427,"name":"Killing","steam_id":76561198107392931,"connected_time":156000000000,"state":"active","ping":68}]},{"server_id":395,"name":"Uncletopia | Sydney | 3 | All Maps","name_short":"syd-3","host":"syd-1.au.uncletopia.com","port":27035,"enabled":true,"region":"au","cc":"au","latitude":-33.865143,"longitude":151.2099,"reserved":0,"last_update":"0001-01-01T00:00:00Z","name_a2s":"Uncletopia | Sydney | 3 | All Maps","protocol":17,"map":"ctf_2fort","folder":"tf","game":"Team Fortress","app_id":440,"player_count":0,"max_players":24,"Bots":0,"server_type":"Dedicated","server_os":"Linux","password":true,"vac":true,"version":"7932396","steam_id":85568392925194467,"keywords":["ctf","nocrits","nodmgspread","uncletopia"],"game_id":440,"stv_port":27036,"stv_name":"Uncletopia | Sydney | 3 | All Maps | STV","players":null},{"server_id":396,"name":"Uncletopia | Sydney | 4 | All Maps","name_short":"syd-4","host":"syd-1.au.uncletopia.com","port":27045,"enabled":true,"region":"au","cc":"au","latitude":-33.865143,"longitude":151.2099,"reserved":0,"last_update":"0001-01-01T00:00:00Z","name_a2s":"Uncletopia | Sydney | 4 | All Maps","protocol":17,"map":"cp_mountainlab","folder":"tf","game":"Team Fortress","app_id":440,"player_count":3,"max_players":24,"Bots":0,"server_type":"Dedicated","server_os":"Linux","password":true,"vac":true,"version":"7932396","steam_id":85568392925397958,"keywords":["cp","nocrits","nodmgspread","uncletopia"],"game_id":440,"stv_port":27046,"stv_name":"Uncletopia | Sydney | 4 | All Maps | STV","players":[{"user_id":19,"name":"Pot Plant Mentality","steam_id":76561198385737243,"connected_time":341000000000,"state":"active","ping":48},{"user_id":21,"name":"bl3ach3d","steam_id":76561198384883082,"connected_time":40000000000,"state":"active","ping":70},{"user_id":18,"name":"dezarnrogers","steam_id":76561198287967259,"connected_time":640000000000,"state":"active","ping":69}]},{"server_id":58,"name":"Uncletopia | Sydney | 5 | Stopwatch Beta","name_short":"syd-5","host":"syd-1.au.uncletopia.com","port":27055,"enabled":true,"region":"au","cc":"au","latitude":-33.865143,"longitude":151.2099,"reserved":0,"last_update":"0001-01-01T00:00:00Z","name_a2s":"Uncletopia | Sydney | 5 | Stopwatch Beta","protocol":17,"map":"pl_borneo","folder":"tf","game":"Team Fortress","app_id":440,"player_count":0,"max_players":24,"Bots":0,"server_type":"Dedicated","server_os":"Linux","password":true,"vac":true,"version":"7932396","steam_id":85568392925397959,"keywords":["nocrits","nodmgspread","payload","uncletopia"],"game_id":440,"stv_port":27056,"stv_name":"Uncletopia | Sydney | 5 | Stopwatch Beta | STV","players":null},{"server_id":59,"name":"Uncletopia | Sydney | 6 | Community","name_short":"syd-6","host":"syd-1.au.uncletopia.com","port":27065,"enabled":true,"region":"au","cc":"au","latitude":-33.865143,"longitude":151.2099,"reserved":0,"last_update":"0001-01-01T00:00:00Z","name_a2s":"Uncletopia | Sydney | 6 | Community","protocol":17,"map":"workshop/koth_product_final.ugc454272353","folder":"tf","game":"Team Fortress","app_id":440,"player_count":0,"max_players":24,"Bots":0,"server_type":"Dedicated","server_os":"Linux","password":true,"vac":true,"version":"7932396","steam_id":85568392925397960,"keywords":["cp","nocrits","nodmgspread","uncletopia"],"game_id":440,"stv_port":27066,"stv_name":"Uncletopia | Sydney | 6 | Community | STV","players":null},{"server_id":49,"name":"Uncletopia | Warsaw | 1 | All Maps","name_short":"waw-1","host":"waw-1.pl.uncletopia.com","port":27015,"enabled":true,"region":"eu","cc":"pl","latitude":52.2297,"longitude":21.017532,"reserved":0,"last_update":"0001-01-01T00:00:00Z","name_a2s":"","protocol":0,"map":"","folder":"","game":"","app_id":0,"player_count":0,"max_players":0,"Bots":0,"server_type":"","server_os":"","password":false,"vac":false,"version":"","steam_id":0,"keywords":null,"game_id":0,"stv_port":0,"stv_name":"","players":null},{"server_id":50,"name":"Uncletopia | Warsaw | 2 | All Maps","name_short":"waw-2","host":"waw-1.pl.uncletopia.com","port":27025,"enabled":true,"region":"eu","cc":"pl","latitude":52.2297,"longitude":21.017532,"reserved":0,"last_update":"0001-01-01T00:00:00Z","name_a2s":"Uncletopia | Warsaw | 2 | All Maps","protocol":17,"map":"cp_snakewater_final1","folder":"tf","game":"Team Fortress","app_id":440,"player_count":0,"max_players":24,"Bots":0,"server_type":"Dedicated","server_os":"Linux","password":true,"vac":true,"version":"7932396","steam_id":85568392925397851,"keywords":["cp","nocrits","nodmgspread","uncletopia"],"game_id":440,"stv_port":27026,"stv_name":"Uncletopia | Warsaw | 2 | All Maps | STV","players":null},{"server_id":51,"name":"Uncletopia | Warsaw | 3 | All Maps","name_short":"waw-3","host":"waw-1.pl.uncletopia.com","port":27035,"enabled":true,"region":"eu","cc":"pl","latitude":52.2297,"longitude":21.017532,"reserved":0,"last_update":"0001-01-01T00:00:00Z","name_a2s":"Uncletopia | Warsaw | 3 | All Maps","protocol":17,"map":"koth_lakeside_final","folder":"tf","game":"Team Fortress","app_id":440,"player_count":0,"max_players":24,"Bots":0,"server_type":"Dedicated","server_os":"Linux","password":true,"vac":true,"version":"7932396","steam_id":85568392925397852,"keywords":["cp","nocrits","nodmgspread","uncletopia"],"game_id":440,"stv_port":27036,"stv_name":"Uncletopia | Warsaw | 3 | All Maps | STV","players":null},{"server_id":52,"name":"Uncletopia | Warsaw | 4 | All Maps","name_short":"waw-4","host":"waw-1.pl.uncletopia.com","port":27045,"enabled":true,"region":"eu","cc":"pl","latitude":52.2297,"longitude":21.017532,"reserved":0,"last_update":"0001-01-01T00:00:00Z","name_a2s":"Uncletopia | Warsaw | 4 | All Maps","protocol":17,"map":"pl_swiftwater_final1","folder":"tf","game":"Team Fortress","app_id":440,"player_count":0,"max_players":24,"Bots":0,"server_type":"Dedicated","server_os":"Linux","password":true,"vac":true,"version":"7932396","steam_id":85568392925397853,"keywords":["nocrits","nodmgspread","payload","uncletopia"],"game_id":440,"stv_port":27046,"stv_name":"Uncletopia | Warsaw | 4 | All Maps | STV","players":null},{"server_id":53,"name":"Uncletopia | Warsaw | 5 | Stopwatch Beta","name_short":"waw-5","host":"waw-1.pl.uncletopia.com","port":27055,"enabled":true,"region":"eu","cc":"pl","latitude":52.2297,"longitude":21.017532,"reserved":0,"last_update":"0001-01-01T00:00:00Z","name_a2s":"Uncletopia | Warsaw | 5 | Stopwatch Beta","protocol":17,"map":"koth_highpass","folder":"tf","game":"Team Fortress","app_id":440,"player_count":0,"max_players":24,"Bots":0,"server_type":"Dedicated","server_os":"Linux","password":true,"vac":true,"version":"7932396","steam_id":85568392925397854,"keywords":["cp","nocrits","nodmgspread","uncletopia"],"game_id":440,"stv_port":27056,"stv_name":"Uncletopia | Warsaw | 5 | Stopwatch Beta | STV","players":null},{"server_id":54,"name":"Uncletopia | Warsaw | 6 | Community","name_short":"waw-6","host":"waw-1.pl.uncletopia.com","port":27065,"enabled":true,"region":"eu","cc":"pl","latitude":52.2297,"longitude":21.017532,"reserved":0,"last_update":"0001-01-01T00:00:00Z","name_a2s":"Uncletopia | Warsaw | 6 | Community","protocol":17,"map":"pl_upward","folder":"tf","game":"Team Fortress","app_id":440,"player_count":0,"max_players":24,"Bots":0,"server_type":"Dedicated","server_os":"Linux","password":true,"vac":true,"version":"7932396","steam_id":85568392925397856,"keywords":["nocrits","nodmgspread","payload","uncletopia"],"game_id":440,"stv_port":27066,"stv_name":"Uncletopia | Warsaw | 6 | Community | STV","players":null}]}